%time,field.header.seq,field.header.stamp,field.header.frame_id,field.image_seq,field.transforms0.fiducial_id,field.transforms0.transform.translation.x,field.transforms0.transform.translation.y,field.transforms0.transform.translation.z,field.transforms0.transform.rotation.x,field.transforms0.transform.rotation.y,field.transforms0.transform.rotation.z,field.transforms0.transform.rotation.w,field.transforms0.image_error,field.transforms0.object_error,field.transforms0.fiducial_area
1681938792580814599,4,1681938792580814599,camera_1,5,0,0.6541997971850568,0.4740609960340533,1.8087733963708725,-0.9803887130334501,-0.04430960740629406,0.15397783491955333,0.11474082273368245,0.07726819453819189,0.007202163371242974,20758.097017800894
1681938792590602636,5,1681938792590602636,camera_1,6,0,0.654487514896238,0.4745555973142127,1.809538850797051,-0.9804301031613083,-0.04454776822344911,0.15339203354570843,0.11507907371076938,0.06565518736897502,0.006124552525269505,20744.2941879282
1681938792600602626,6,1681938792600602626,camera_1,7,0,0.6544093559264113,0.4750837249438846,1.8093864001076547,-0.9804554413499089,-0.04430406033354084,0.15365328929678373,0.11460778530970811,0.06409926609194373,0.00597930128055334,20745.250338363694
1681938792610958337,7,1681938792610958337,camera_1,8,0,0.6546635362745041,0.4761195063876974,1.8101350683227855,-0.980443691381087,-0.04448302270658936,0.1534225261871674,0.11494762798884095,0.06766058319772128,0.006317171395580526,20722.95902310585
1681938792620955705,8,1681938792620955705,camera_1,9,0,0.6547140179263488,0.47729275276435607,1.8104334110171638,-0.9804644245852535,-0.04443770387811428,0.15326337416359948,0.11500061189723013,0.06904922222020105,0.006449784995929002,20711.769070775073
1681938792631066799,9,1681938792631066799,camera_1,10,0,0.6546761420086613,0.47854676675376606,1.8104430318620681,-0.980544115306677,-0.044338702909971085,0.1528316810878932,0.11493387062809754,0.06515180008136667,0.00608672308697497,20711.314897633332
1681938792640711069,10,1681938792640711069,camera_1,11,0,0.6547299691873942,0.4801206863464213,1.8107110258684425,-0.9805583814620804,-0.044376970368497914,0.15291978772036743,0.11467991789732164,0.06783492986869533,0.006340880050960731,20697.06190133019
1681938792650825262,11,1681938792650825262,camera_1,12,0,0.6547514016388675,0.481896725505188,1.810863239314,-0.9804890941735717,-0.04429653718285709,0.1527997439866558,0.11546077792007606,0.07538630452472717,0.007049366633408501,20676.001826521362
1681938792660598993,12,1681938792660598993,camera_1,13,0,0.6548480469833433,0.4839474558559363,1.8113095242184285,-0.9805494820581829,-0.04414827542355578,0.1529388238435363,0.11481881019201899,0.07705575914587824,0.0072116733890516945,20658.16773353424
1681938792670560598,13,1681938792670560598,camera_1,14,0,0.6547954018840035,0.48596128444330106,1.8113147334607258,-0.9806000103974373,-0.0443249808572432,0.15266076995261801,0.11468916687300948,0.07191995362518355,0.006733039196218979,20650.567310706363
1681938792680556058,14,1681938792680556058,camera_1,15,0,0.6548489545338051,0.4881017331909725,1.811642608876078,-0.9805715557405288,-0.04453085007147064,0.1525508732509206,0.11499851535951579,0.05996504475479014,0.00561737250657164,20628.113045012404
1681938792690642595,15,1681938792690642595,camera_1,16,0,0.6547851165481946,0.49025582648449784,1.8116893962942833,-0.9806121465585107,-0.04442173651567801,0.15241867616954535,0.11486981545020776,0.07095957864657977,0.00665006600284435,20616.284886573143
1681938792700594186,16,1681938792700594186,camera_1,17,0,0.6550359815655706,0.4927330734337087,1.8125584991566954,-0.9806927255260401,-0.044189881471905376,0.15191221560054258,0.11494220820543019,0.0738504058244871,0.006929998250429402,20588.382416275905
1681938792710888862,17,1681938792710888862,camera_1,18,0,0.654754496998859,0.49484016912936607,1.811965180620479,-0.980555114307949,-0.044465317074705676,0.15287429528528076,0.11473427222499825,0.07098302699159831,0.006659646164675168,20573.39390688234
1681938792720843791,18,1681938792720843791,camera_1,19,0,0.6545642974986678,0.4969324799414342,1.8115389308164866,-0.9805466930887388,-0.04446513297220729,0.15285909201473305,0.11482653269577589,0.0671516262809746,0.0062996293564596805,20566.45993711019
1681938792730937004,19,1681938792730937004,camera_1,20,0,0.6545890350785101,0.4990187524908573,1.8117768451337781,-0.9806035958133278,-0.04443377413652222,0.15238153512989241,0.11498737037350543,0.05713865830330178,0.005363290648764906,20552.44396594447
1681938792740598201,20,1681938792740598201,camera_1,21,0,0.654571449350343,0.501012113180232,1.8118481708332688,-0.9804935957439891,-0.044316450700308305,0.1530838337981099,0.11503782304973768,0.06343600701075047,0.005957361688264693,20524.938261062493
1681938792750596046,21,1681938792750596046,camera_1,22,0,0.6547240770399163,0.5030908307459985,1.812469554852386,-0.98064177240168,-0.04426101768183965,0.1525747233903062,0.11447108943760076,0.06111658847657964,0.005745483619575614,20511.277547184905
1681938792760682582,22,1681938792760682582,camera_1,23,0,0.6544736052582237,0.504648363428127,1.8119089460978701,-0.9806190003138503,-0.044435368809004734,0.1525421979451963,0.11464184257207952,0.06233393390721176,0.005858072065270884,20509.876249103923
1681938792770673036,23,1681938792770673036,camera_1,24,0,0.6545717752181783,0.5062780919646372,1.8123654570769332,-0.9806592942537004,-0.04437356482533502,0.1526645785346462,0.1141571802356962,0.08098553570744116,0.007617390095671687,20491.936268014375
1681938792780824661,24,1681938792780824661,camera_1,25,0,0.6544889396889902,0.50745824800369,1.8122180826935383,-0.9806091083628852,-0.04457732126079212,0.15277636785281312,0.11435917300619812,0.062163679584045894,0.005847229210180402,20482.19503340638
1681938792791205883,25,1681938792791205883,camera_1,26,0,0.6545379754063638,0.5084984260074779,1.8124210068649846,-0.9807094857741121,-0.044454936711039374,0.15260710812425857,0.11377053073904969,0.06151217344449833,0.005788561431312249,20479.156477002016
1681938792800870895,26,1681938792800870895,camera_1,27,0,0.6547584240565639,0.509456461727746,1.8130202584216872,-0.9807985253784889,-0.04444669121497388,0.15189573094605846,0.11395802374464542,0.06913914397591725,0.006511326117434326,20468.202038924337
1681938792810689210,27,1681938792810689210,camera_1,28,0,0.654628512806053,0.5098877150448653,1.8126822408304248,-0.9807411713462078,-0.04438810631498685,0.15198456585038422,0.11435533475753581,0.07125072456256021,0.006708269312486055,20466.02333242406
1681938792820708751,28,1681938792820708751,camera_1,29,0,0.6545758331376482,0.5100458577431504,1.8125842638876146,-0.9806585862785873,-0.04457796846873448,0.1524214280550668,0.1144082608684244,0.06388412232627161,0.006014288472551654,20459.697336817626
1681938792830668210,29,1681938792830668210,camera_1,30,0,0.6547333797551884,0.510097988759841,1.8130073293963902,-0.9807583986292737,-0.04456719444117378,0.15178632356237198,0.11440122672945605,0.06452327519946266,0.006076987208790338,20460.48801653337
1681938792840641975,30,1681938792840641975,camera_1,31,0,0.6545997168733616,0.5096646134983567,1.8126566053168414,-0.9807093557376527,-0.044458768780091036,0.15236333232898092,0.1140964171602475,0.06874000358220655,0.006471613979612116,20465.54911231972
1681938792850956439,31,1681938792850956439,camera_1,32,0,0.6545915098572583,0.508996439253733,1.812566708959949,-0.9806973958455167,-0.04455151853955905,0.1523072207336776,0.11423786802117741,0.07847520576615352,0.007386475135430189,20471.64456455806
1681938792860695600,32,1681938792860695600,camera_1,33,0,0.6543820730090432,0.507927138107422,1.8119224636161206,-0.9805983682737658,-0.04453730652891177,0.15273425093722404,0.1145229979376316,0.0715427231771173,0.006728002575668646,20483.272253617066
1681938792870618581,33,1681938792870618581,camera_1,34,0,0.6546294988977108,0.5069877384330838,1.8125027607958537,-0.9807152055857162,-0.044524815911847704,0.15211004484916346,0.1143580366960183,0.07525617649662308,0.007080098957925973,20489.844145369014
1681938792880630731,34,1681938792880630731,camera_1,35,0,0.6545277649315406,0.5055876739408619,1.812129879810093,-0.9806752702297602,-0.04429735603995188,0.15233437491653232,0.11449016039138919,0.07307379654957913,0.0068703122392810385,20503.166116580658
1681938792890575885,35,1681938792890575885,camera_1,36,0,0.654455494767842,0.5039803074621392,1.8117934776970215,-0.9805985752232236,-0.044471408032066784,0.1527783675018636,0.11448798435335866,0.06450795318232849,0.006061082408595433,20515.132527745674
1681938792900738954,36,1681938792900738954,camera_1,37,0,0.654665524977642,0.5023707071934282,1.812270947143724,-0.9806225565198888,-0.044396327294848416,0.15222755496989232,0.11504407535816304,0.06866356790123973,0.0064523485176287785,20519.80304329656
1681938792910554170,37,1681938792910554170,camera_1,38,0,0.6549496665428133,0.5006503503770372,1.8129605653197753,-0.9806879743970432,-0.044390861410997455,0.1519045767766468,0.11491539431478219,0.06198636362387333,0.005827106075533634,20524.810714187683
1681938792920712709,38,1681938792920712709,camera_1,39,0,0.6546685095637657,0.4983808958472559,1.8120356306936458,-0.9806187511972732,-0.04436808178601566,0.15283939773094846,0.11427360421449395,0.04953355382895097,0.0046504876318267125,20552.755346213882
1681938792930941104,39,1681938792930941104,camera_1,40,0,0.6546662275196559,0.4962855196567839,1.8118409958278956,-0.9805693168020732,-0.04423640555012168,0.15312875215779975,0.11436144731908554,0.07231114312889986,0.006785456015806754,20565.894551449514
1681938792940588235,40,1681938792940588235,camera_1,41,0,0.6546988001995515,0.49416132811719726,1.8117328644355184,-0.980597060694694,-0.04440552331340521,0.15247355936791365,0.11493201359877299,0.059776536261779256,0.00560591080208294,20587.032705470454
1681938792950637817,41,1681938792950637817,camera_1,42,0,0.6551014746508466,0.492228859693595,1.8126725888044322,-0.980771771951919,-0.04417388197671197,0.15156228931182159,0.11473566120417959,0.06526548160763923,0.0061245158336450285,20597.03798191675
1681938792960633754,42,1681938792960633754,camera_1,43,0,0.6547304951988794,0.4897107575570103,1.8115199303804626,-0.9805101326725147,-0.04426270920368418,0.1528585711827729,0.11521696713782563,0.06659879432118032,0.006239686608171333,20613.168778493768
1681938792970920085,43,1681938792970920085,camera_1,44,0,0.6549168994974937,0.48762632410344037,1.8118373786534425,-0.9806553455333581,-0.04442757703548981,0.15265287333076472,0.11418574315328264,0.07161381842161063,0.006710075661310276,20634.32046204969
1681938792980916261,44,1681938792980916261,camera_1,45,0,0.6548748201743277,0.48553987654830133,1.8115652620479008,-0.9806556131720925,-0.044403721577605144,0.1524591287354751,0.11445126442877675,0.07805296470178291,0.0073086569426477075,20653.978594357148
1681938792990919113,45,1681938792990919113,camera_1,46,0,0.6546979052731401,0.48347761756342056,1.8109586458730405,-0.9805924155057565,-0.04425031996035854,0.15293961519606158,0.11441109185595763,0.07779306861630175,0.007277561782162722,20673.29086634738
1681938793000901937,46,1681938793000901937,camera_1,47,0,0.6547443513005546,0.4816077300152559,1.8108767687885843,-0.9805108820176098,-0.04431197521997149,0.15307476443010398,0.1149042018022911,0.06493432774732355,0.006072107153382502,20679.463704504305
1681938793010945081,47,1681938793010945081,camera_1,48,0,0.6548138346820952,0.4799026395749689,1.8109114042931775,-0.9805254013889625,-0.04441224671993464,0.15286621521444302,0.11501917152506902,0.0697798493783921,0.006523653180031026,20691.426517656015
1681938793021059513,48,1681938793021059513,camera_1,49,0,0.6546248158996597,0.4782459732304298,1.8101990162712818,-0.980416935196732,-0.04443038062646063,0.15349412588903177,0.11510051161657427,0.06859429519681726,0.006406723984137724,20705.80955039098
1681938793030948400,49,1681938793030948400,camera_1,50,0,0.654818324608949,0.4771195564709568,1.810653139445007,-0.9805628551449467,-0.04431742151183127,0.15322656283045477,0.11425442531341094,0.0669159064127598,0.006252299720784785,20716.2650102342
1681938793040933132,50,1681938793040933132,camera_1,51,0,0.6546344794243164,0.4759806202858848,1.810117508881662,-0.9804649553958288,-0.04443182433222909,0.15331752107846416,0.11492615871732716,0.05773160439275671,0.005389764302588606,20726.523288555207
1681938793051015138,51,1681938793051015138,camera_1,52,0,0.6544034603498661,0.47498523247993424,1.8093872233531376,-0.9804224659572831,-0.04423219556951696,0.15430995041041154,0.11403394374341606,0.07092859508702531,0.006617057578025614,20741.441978113377
1681938793061027288,52,1681938793061027288,camera_1,53,0,0.6544196952474397,0.4744704892481017,1.8094101911556895,-0.9803573981745798,-0.04448337416962173,0.15380720071777926,0.11516920714416219,0.0626621667179279,0.00584455706910388,20740.427323649812
1681938793070942640,53,1681938793070942640,camera_1,54,0,0.6542939604310998,0.4741014519529001,1.8090209966058746,-0.9804625475494188,-0.0443206607550625,0.15353159851845227,0.11470361868531992,0.07632253467454575,0.007115701562989097,20759.932319546017
1681938793080923318,54,1681938793080923318,camera_1,55,0,0.6542722336822335,0.4740955288202875,1.8089161255461002,-0.9803973040580714,-0.04439324876376619,0.15402040289674535,0.1145778388318976,0.07324200010043569,0.006828093450020449,20755.58389761963
1681938793090674400,55,1681938793090674400,camera_1,56,0,0.6546112130078995,0.47464575398423864,1.80985440592694,-0.9804385024665755,-0.04449586237969781,0.15323186857108081,0.1152408589277298,0.07019523277995177,0.006550248379600056,20737.713303787583
1681938793100644826,56,1681938793100644826,camera_1,57,0,0.6544122522617344,0.4750921807591043,1.8094144353001285,-0.9804225108788992,-0.04435647311201481,0.15383039333541584,0.11463164284458746,0.06269175601482857,0.005848216525075863,20741.674377788848
1681938793110553741,57,1681938793110553741,camera_1,58,0,0.6548476388642215,0.47628310038604943,1.8106732356031312,-0.9805946636448225,-0.04439233614671497,0.15255731499699032,0.11484638332852935,0.07062477625731844,0.006597467313373268,20725.321402984213
1681938793120554447,58,1681938793120554447,camera_1,59,0,0.654695886409856,0.47730736581237065,1.810421647959425,-0.9805528897975518,-0.04429703880811646,0.1529587200266173,0.11470585264196945,0.0674349409819115,0.0062989302017097655,20719.97047179944
1681938793130701780,59,1681938793130701780,camera_1,60,0,0.6546674528183373,0.4785783032495979,1.8104356755082025,-0.9805273814356396,-0.04429709992017389,0.15307172996229887,0.11477310956830875,0.0729092328256229,0.006811727732514795,20709.2267688742
1681938793140582799,60,1681938793140582799,camera_1,61,0,0.6546516791707021,0.4800586722607634,1.810467533842937,-0.9805191552008691,-0.0443320291747166,0.15301834532420996,0.11490101595576489,0.07467577619536314,0.006978484683119485,20698.56106710744
1681938793150610685,61,1681938793150610685,camera_1,62,0,0.654990032348185,0.4820700886731286,1.8115559063461266,-0.9806238813868554,-0.04437504056701671,0.15234448149422297,0.11488610876303061,0.06488701097259764,0.0060721624840545906,20673.643455071324
1681938793160668134,62,1681938793160668134,camera_1,63,0,0.6547172102083512,0.4838602828227006,1.810954955007805,-0.9805409408180563,-0.044290328624087424,0.15292417101936975,0.11485655439743046,0.0735397070820909,0.006879814680346339,20666.060193853053
1681938793170620203,63,1681938793170620203,camera_1,64,0,0.654899514575928,0.48603668572586367,1.8115774318880624,-0.9805752598817153,-0.04433773597700408,0.15275559912498615,0.11476955960665877,0.07117256495985202,0.006665021331367889,20642.1307240515
1681938793180544137,64,1681938793180544137,camera_1,65,0,0.6547674485783491,0.48806677999578163,1.8114529282755163,-0.9805617057212499,-0.044520466280301374,0.15280625695654113,0.1147471881579197,0.06182692086440511,0.005790809542587521,20631.162519547506
1681938793190937995,65,1681938793190937995,camera_1,66,0,0.6548875435846565,0.4903396990858018,1.811980109168287,-0.9806386011901318,-0.04418674351113412,0.15214041483184257,0.11510325681116751,0.07751467771595344,0.007266540577155842,20611.51957608864
1681938793200558185,66,1681938793200558185,camera_1,67,0,0.654943862542601,0.4926963230615771,1.8123510983427311,-0.9806258577742951,-0.04436005351381016,0.15209237983627108,0.11520859652135117,0.06515460446826182,0.006112410750182021,20587.58523052046
1681938793210822343,67,1681938793210822343,camera_1,68,0,0.6547711894980663,0.49485097827837643,1.8119919828407622,-0.9805732831694561,-0.0443529948408977,0.15267341613341565,0.1148898437159262,0.06558497565856669,0.006153209530046936,20574.19996920415
1681938793220680713,68,1681938793220680713,camera_1,69,0,0.6545094639900063,0.49689131770339423,1.8114168641035082,-0.9805379506223395,-0.04439332524519138,0.15323718704755526,0.11442431808304496,0.06967735744547099,0.006536087455868987,20567.819921030663
1681938793230960369,69,1681938793230960369,camera_1,70,0,0.6546367218815083,0.49908543301039565,1.8119175956331413,-0.980642255633497,-0.044355277300734505,0.15280957166618359,0.11411665368744169,0.05848551346571185,0.005491161471314115,20551.801828885047
1681938793240987539,70,1681938793240987539,camera_1,71,0,0.6543370255062596,0.5008517161630045,1.8112611582874747,-0.9804855602758833,-0.04432377739787653,0.15295647148334027,0.1152726623230196,0.07547119878290687,0.007082870495451411,20537.862549733953
1681938793251072406,71,1681938793251072406,camera_1,72,0,0.654702349512424,0.5030432246585246,1.8123446310569202,-0.9805935104806937,-0.04437395282470087,0.15278844582407122,0.11455570844146484,0.08041846795822494,0.007559273427529862,20509.50519654085
1681938793260684728,72,1681938793260684728,camera_1,73,0,0.6546369301329932,0.5047625239606053,1.8123477476731753,-0.9805878215026697,-0.044490726039929214,0.15257552375506073,0.11484254075889,0.06784346509084571,0.0063788918539350575,20497.225559984156
1681938793270608901,73,1681938793270608901,camera_1,74,0,0.6545318595046753,0.5062261694819842,1.8121908959995459,-0.9806239314379016,-0.044378742328065705,0.1526762354678604,0.11444299648303147,0.08168682773248293,0.007681790569697192,20492.289156559502
1681938793280683755,74,1681938793280683755,camera_1,75,0,0.6543554024984684,0.5073550765184444,1.811890415182265,-0.9805409495014992,-0.04446053945474481,0.15307350159765787,0.11459149135395459,0.06477077062299941,0.006090267189574516,20482.709978414758
1681938793290993690,75,1681938793290993690,camera_1,76,0,0.6545313624187915,0.5085053786954735,1.8123636169968913,-0.9807073777513787,-0.04436345397924236,0.15249200138529231,0.1139785624078246,0.07253485325782094,0.006825443139172213,20479.546149559603
1681938793301002025,76,1681938793301002025,camera_1,77,0,0.6546623797370579,0.5094073147681459,1.8127784510985832,-0.9807781603139191,-0.044297634247181236,0.1523107828283135,0.11363690107343574,0.0641003615455702,0.006035476723581198,20470.768329103237
1681938793311014413,77,1681938793311014413,camera_1,78,0,0.6546390172211065,0.5098985884933712,1.8127168290208515,-0.9807168165299811,-0.044444140886738606,0.15226764463191592,0.11416570638500813,0.07041110916179605,0.0066296654422289755,20462.966003488284
1681938793321009159,78,1681938793321009159,camera_1,79,0,0.6546648912595934,0.5101493858427407,1.8128686101730234,-0.9807668612884181,-0.04461380778812889,0.15161831349578642,0.11453322210521563,0.048005845630541444,0.00452047235931241,20464.398026674055
1681938793330929994,79,1681938793330929994,camera_1,80,0,0.654574721241837,0.5099844102230097,1.812625062557643,-0.9807359239843655,-0.04444104919180062,0.15235937456165033,0.11388003133318805,0.05500547554402147,0.005178681963995056,20466.345659696963
1681938793340956926,80,1681938793340956926,camera_1,81,0,0.6545420784134257,0.509626765010965,1.8125017204224294,-0.9807352993380274,-0.04436240757923749,0.1521603566932295,0.11418176420564112,0.08480127656366676,0.00798239012704227,20471.11126228882
1681938793350929260,81,1681938793350929260,camera_1,82,0,0.6544701938232694,0.5089232084862846,1.8122654697132277,-0.9805996055034695,-0.04451733515738327,0.15314573405346116,0.11396931472177836,0.06835149678227026,0.006431844208688188,20468.510985947567
1681938793360624074,82,1681938793360624074,camera_1,83,0,0.6544996623320345,0.5080263315084519,1.8122189797038308,-0.9806489520095107,-0.044427547923790146,0.15275315848160584,0.11410652252181429,0.07794608776748646,0.007332963683183713,20480.539636217523
1681938793370643854,83,1681938793370643854,camera_1,84,0,0.6545417110246011,0.5069345455805088,1.8123054517776938,-0.9806737425399353,-0.04458411005590708,0.1522615665366449,0.11448879062618561,0.06850182099151425,0.00644314085725398,20490.76364790798
1681938793380901336,84,1681938793380901336,camera_1,85,0,0.6545985777166002,0.5056241032195828,1.812309463264807,-0.9806920124856165,-0.04436134051878666,0.15262164046896567,0.11393806639946685,0.06669721350772306,0.006272356090230866,20500.698343930708
1681938793391073465,85,1681938793391073465,camera_1,86,0,0.6544811354708333,0.5039951575610336,1.811889993862414,-0.980592219465436,-0.0444924345003419,0.15235144100718032,0.11510152396523196,0.058730045464471914,0.005518284695281306,20513.136243174195
1681938793400983095,86,1681938793400983095,camera_1,87,0,0.6545521473108296,0.5022723047574004,1.8119774926705432,-0.9805759303408792,-0.04425786695963448,0.15264092923656286,0.11494708682737961,0.06522577576106414,0.006127493252701637,20521.331687661004
1681938793410972833,87,1681938793410972833,camera_1,88,0,0.6545981646016742,0.5004084039245117,1.8120077607426361,-0.9806032487000107,-0.044328275404547146,0.15270999361978388,0.11459463550833882,0.0710633778362535,0.006674032909098875,20537.226735034317
1681938793421071529,88,1681938793421071529,camera_1,89,0,0.6547858530282074,0.49846324346055376,1.8123722184924995,-0.9806393780254542,-0.04446645339211108,0.15218750162958025,0.11492653799851527,0.06054395844694227,0.005685812538028043,20548.259651028195
1681938793430963039,89,1681938793430963039,camera_1,90,0,0.654498195933235,0.496151861161088,1.811362154810375,-0.9805592947216026,-0.044421668368945,0.15283417742879218,0.1147688944098413,0.07275441360252444,0.006823048127822983,20576.897171705903
1681938793440680503,90,1681938793440680503,camera_1,91,0,0.6546455683617498,0.49413585367016305,1.81161964013415,-0.9806327744154465,-0.0445739669030207,0.1523899614949116,0.11467267700883176,0.06641796065378003,0.006228072120994634,20593.682317313498
1681938793450970649,91,1681938793450970649,camera_1,92,0,0.6548506390451971,0.492031633435898,1.8119844383665187,-0.9806143678129751,-0.04436069780507207,0.15285372059266505,0.11429492652775959,0.061636012062081136,0.005780232545005515,20597.34894726368
1681938793460921287,92,1681938793460921287,camera_1,93,0,0.6548607676937325,0.4897816876530525,1.8118182656726383,-0.9805942620390621,-0.04451364152114323,0.15227635713910315,0.11517525789438747,0.06109464791370556,0.005725627212197717,20615.599993009935
1681938793471101284,93,1681938793471101284,camera_1,94,0,0.6549462479612381,0.48765373929866607,1.8118965605216388,-0.9805879811460592,-0.044496449181286146,0.15193643122752992,0.11568317988365973,0.06299454031977803,0.005901725732497181,20628.18398222711
1681938793480813980,94,1681938793480813980,camera_1,95,0,0.6549131715275522,0.48557526725853184,1.811711490682284,-0.9806314887878642,-0.04438769327111931,0.15241033010187166,0.11472884189254598,0.057715209448360845,0.005404808014093183,20648.89231224649
1681938793490832805,95,1681938793490832805,camera_1,96,0,0.6548326610527923,0.4835827810990718,1.8113287110200234,-0.9805636086556562,-0.04438860742860858,0.15268564299773207,0.11494240006679468,0.07333816241589375,0.006863095988903379,20663.1839402467
1681938793500594377,96,1681938793500594377,camera_1,97,0,0.6547963145373666,0.4816560799992744,1.8110438972158125,-0.980509257733699,-0.04455210569716011,0.15295107573746364,0.1149898856735343,0.06353397297789343,0.005942076439155215,20676.72026028135
1681938793510643482,97,1681938793510643482,camera_1,98,0,0.654683964557277,0.4798213813709495,1.8105636551040296,-0.9804920679804939,-0.044303117681058476,0.15322608620782546,0.11486646550018442,0.07846301651443355,0.007333047639583622,20695.256569576217
1681938793520630121,98,1681938793520630121,camera_1,99,0,0.6547217794020925,0.4783382212004372,1.81051546694239,-0.9804874124257839,-0.04436770764266014,0.15293191126976238,0.1152725947851606,0.0739720164128812,0.006911018534790103,20705.761589264384
1681938793530737876,99,1681938793530737876,camera_1,100,0,0.6547584043602174,0.4770795086485908,1.8104916035107343,-0.9805130382547412,-0.04444547874888093,0.15285319745658493,0.11512897662420676,0.06232844677288085,0.005821922426931418,20716.727871951356
1681938793540560483,100,1681938793540560483,camera_1,101,0,0.6547784213787372,0.476086014873079,1.8104639893556287,-0.9804680848104316,-0.04450519176920716,0.15321075066974083,0.11501342727249352,0.07184457828407176,0.006709978386130497,20718.932845154603
1681938793550615549,101,1681938793550615549,camera_1,102,0,0.6544923539403985,0.4750537401042682,1.8096456175035622,-0.9805112350404028,-0.044404626773458925,0.1534555696126738,0.11435617707628892,0.06913747207727283,0.00645106057567765,20745.756640536936
1681938793560550689,102,1681938793560550689,camera_1,103,0,0.6544861030630998,0.47450888264344765,1.8095753752739316,-0.9803957285921139,-0.044441957441564664,0.15365175701679554,0.11506635191380642,0.07248039083788171,0.00676164696136995,20740.02791959874
1681938793570633411,103,1681938793570633411,camera_1,104,0,0.6542844127305153,0.4740933901469665,1.8090165134368712,-0.9803763544125991,-0.04433885271060625,0.15415467378561626,0.11459758461250132,0.07257596153067425,0.0067667243818903405,20751.442870423554
1681938793580606937,104,1681938793580606937,camera_1,105,0,0.6542504501916434,0.47408923436087613,1.808868595819435,-0.9804105544397934,-0.04443612720939441,0.15395927219979444,0.11452998666461675,0.0702812882955186,0.006551688269113391,20758.13519361179
1681938793590615749,105,1681938793590615749,camera_1,106,0,0.6544932538988402,0.47455758938123177,1.809565310274484,-0.9804308502032614,-0.044480612922546715,0.1535050012531009,0.11494797794667942,0.056855625778553076,0.005303897540147397,20743.430094566254
1681938793600593090,106,1681938793600593090,camera_1,107,0,0.6545640224633904,0.4752010837767463,1.8098123438462839,-0.9804817314195426,-0.04425943476498463,0.1536490114589707,0.11440567321816382,0.06918571033747867,0.006456987663260757,20737.62113648752
1681938793610570192,107,1681938793610570192,camera_1,108,0,0.6546937834455844,0.47616078848951376,1.8102473845269789,-0.9804704232507816,-0.04431187902198454,0.15327482103470177,0.11498276281579978,0.06836751733499113,0.006383884470183181,20722.491090028307
1681938793620749473,108,1681938793620749473,camera_1,109,0,0.6546976293840251,0.4772749375053967,1.8103414068373775,-0.9804678560487199,-0.04448753106684778,0.15303658820705424,0.11525383075953484,0.06555322842905298,0.006122368780563813,20714.52934703441
1681938793630645751,109,1681938793630645751,camera_1,110,0,0.6546330716338896,0.4785637942388003,1.8103366552805717,-0.9804469590509932,-0.044487555056722076,0.15289230197321918,0.11562249750833731,0.05979708624363411,0.005585440359379626,20705.408564511752
1681938793640608072,110,1681938793640608072,camera_1,111,0,0.6546985224638797,0.4801255052990796,1.8106106714938295,-0.9804866667539521,-0.04439647329640573,0.15345468766927342,0.11457097498446732,0.08056086920259986,0.0075301854029944,20691.73649859214
1681938793650778532,111,1681938793650778532,camera_1,112,0,0.6549109426919429,0.48203291575208296,1.8113531892118218,-0.9805852575058582,-0.044376742490903356,0.1525126942885357,0.11499189349218245,0.06050802007666789,0.005661095560636816,20674.53048119467
1681938793660713911,112,1681938793660713911,camera_1,113,0,0.6548822611684263,0.48397233025395886,1.8114278246573363,-0.9805372618956761,-0.04436762398978207,0.15302241404573008,0.11472721026525862,0.07355802606616635,0.006885192930732761,20655.28887599655
1681938793670781850,113,1681938793670781850,camera_1,114,0,0.654754628776361,0.4859582789874257,1.8112205423551182,-0.9806307969232358,-0.044219603380318925,0.1530837041237671,0.11390015950091452,0.07737868482945487,0.007244149357009277,20654.315324992174
1681938793680626630,114,1681938793680626630,camera_1,115,0,0.6548040358666165,0.48809513104283475,1.8115793567712477,-0.9805686078514465,-0.04426542389272043,0.1530654472538361,0.11444101712610281,0.06533960557135288,0.006120990705678508,20627.680178672304
1681938793690592765,115,1681938793690592765,camera_1,116,0,0.6545981255517614,0.49012842386702576,1.8112135943193346,-0.9805640431011267,-0.044368200559731195,0.15281678754310468,0.11477216387813341,0.06384292502480093,0.005980120470854096,20622.17795239255
1681938793700628519,116,1681938793700628519,camera_1,117,0,0.6549139002470769,0.49263330412725426,1.8122332480887577,-0.9806403547370266,-0.04425724499195953,0.1524323372185772,0.11467420589235555,0.06549298885511234,0.006143811044887556,20590.7264853883
1681938793710560798,117,1681938793710560798,camera_1,118,0,0.6547472794782642,0.49482679772600896,1.8119264752752815,-0.980595334288287,-0.044350420819889665,0.1527687995287426,0.11457540938477158,0.0660438522027107,0.00619601127396492,20577.617118953254
1681938793720607995,118,1681938793720607995,camera_1,119,0,0.6545875782070261,0.4969690736162594,1.8116707030460275,-0.9806028740568905,-0.04421998026247162,0.15321732462951407,0.11396073082569719,0.05999216440250166,0.005629266002575642,20567.599112745847
1681938793730992078,119,1681938793730992078,camera_1,120,0,0.6549324769095293,0.49933215122505314,1.812720244064835,-0.9807034078106672,-0.04434051190122749,0.15192342062997682,0.1147781302207379,0.0748099890333833,0.007029474335829411,20539.923086059047
1681938793741097450,120,1681938793741097450,camera_1,121,0,0.654446263526476,0.5009199658933482,1.8115402956096947,-0.9805352291633865,-0.04440623643019802,0.15278483262057121,0.11504584067542216,0.06526835473778192,0.006127184838632233,20536.67204432276
1681938793751040935,121,1681938793751040935,camera_1,122,0,0.6546521205765932,0.5030078247028774,1.8122798142231098,-0.980620916957618,-0.044183695414153075,0.15241881747151978,0.11488656303212062,0.06936918171413708,0.006519700582518963,20513.694431781012
1681938793760943412,122,1681938793760943412,camera_1,123,0,0.654417977543542,0.5046074495484124,1.8118002346739974,-0.980538894270228,-0.04447280100420458,0.15315737032023993,0.11449221244585975,0.06239937839563936,0.005863775338399344,20504.701801365536
1681938793770581960,123,1681938793770581960,camera_1,124,0,0.6543470988371797,0.5061085983784679,1.811773606653173,-0.9805808926406542,-0.044309283170978396,0.1530766665787217,0.11430369443757683,0.06505251739872618,0.006114720975601912,20497.579880263307
1681938793780771017,124,1681938793780771017,camera_1,125,0,0.6543858233151689,0.5073483149140388,1.8118893451394937,-0.9806132225794029,-0.04465166589903444,0.15269535742797744,0.1144030779954003,0.07371807553863619,0.0069316032623869565,20490.22156200383
1681938793790883064,125,1681938793790883064,camera_1,126,0,0.6546483076551534,0.5085930154728872,1.812669170880727,-0.9807273890471359,-0.04439782319284921,0.15224792898447276,0.11411919114883139,0.06793853967974428,0.006394890121898124,20474.8236240857
1681938793800790548,126,1681938793800790548,camera_1,127,0,0.6545450470714065,0.5092993236749549,1.8124418187716582,-0.9807618652259215,-0.04439072996891572,0.1523574873676048,0.11367859453049466,0.07026419266185258,0.006613417638510379,20477.18823121488
1681938793810934066,127,1681938793810934066,camera_1,128,0,0.6547588360503773,0.5100047302317311,1.813070714942863,-0.980782628515162,-0.044358329244778595,0.15193065942802295,0.11408264090240906,0.07830191546236165,0.007375473168418572,20461.10178229335
1681938793820629596,128,1681938793820629596,camera_1,129,0,0.654421127996023,0.5099436748181948,1.8121723851588842,-0.9806550456538634,-0.044526113410486776,0.15245074880046913,0.1144197353971414,0.06546738636097871,0.006160579914905396,20468.353886358564
1681938793830990791,129,1681938793830990791,camera_1,130,0,0.6545542290974165,0.5099481205738076,1.8125579810754677,-0.9806663063909529,-0.04451749371920441,0.1522398396255196,0.11460724014337938,0.06842503044754267,0.00644133799397394,20461.74064962053
1681938793840637207,130,1681938793840637207,camera_1,131,0,0.6544553589227803,0.5095576127037408,1.8122741519904513,-0.980681365775368,-0.04441853975379296,0.15260938481667055,0.11402380371210664,0.07050888770027086,0.006635503651369712,20471.223858997
1681938793850578546,131,1681938793850578546,camera_1,132,0,0.6545510216379943,0.5089720303129343,1.8124393224469257,-0.9806768039281935,-0.04443519864814896,0.15233239217229724,0.11442622799580897,0.08012367889750749,0.0075405594651223465,20471.910128082432
1681938793860985994,132,1681938793860985994,camera_1,133,0,0.6543054190144943,0.5078828787203732,1.8116973202360422,-0.9805703354514781,-0.04462527750334178,0.15292397270012276,0.11447558872500958,0.07881618247483857,0.007410382929028892,20485.680341095955
1681938793870599269,133,1681938793870599269,camera_1,134,0,0.6543502451351343,0.5067762871308084,1.811801943598291,-0.9805603641878062,-0.04440817324902588,0.15294619980306634,0.11461564595796526,0.06539268944470678,0.006147473821262411,20490.445577591192
1681938793880664348,134,1681938793880664348,camera_1,135,0,0.6545080847031088,0.5055741740299239,1.812105305690478,-0.9806503538613424,-0.04430507854318543,0.15265189127116238,0.114277485001392,0.06565133717958815,0.006172429707551445,20501.351520429667
1681938793890676975,135,1681938793890676975,camera_1,136,0,0.654532523619155,0.5040252676309341,1.8119855106737555,-0.980625081802577,-0.044456586898247684,0.1520017023206954,0.11529762925862068,0.07649694694555365,0.007188378031699097,20513.873292319244
1681938793900739908,136,1681938793900739908,camera_1,137,0,0.6547211690469806,0.5024271915932437,1.8124494592220637,-0.9806824563977203,-0.04444953790402272,0.15189590548332405,0.11495126006814133,0.06259560144098941,0.005883134331762679,20521.990208813284
1681938793910638809,137,1681938793910638809,camera_1,138,0,0.6548256967605846,0.5005587819105647,1.8125890277797412,-0.9806592999060529,-0.04436339758025441,0.15206457158041337,0.11495909069304548,0.0702204711997183,0.006598635434025084,20529.974136864363
1681938793920599222,138,1681938793920599222,camera_1,139,0,0.6548042719388464,0.4984589088406469,1.8123807440291178,-0.9806681202588219,-0.044446529725525194,0.15247186263251536,0.11431043263306394,0.0599022640963085,0.005626016431833094,20550.126499318576
1681938793930569410,139,1681938793930569410,camera_1,140,0,0.6544735790277462,0.49611520388452507,1.8113036639686844,-0.980508890738881,-0.04439352519901845,0.15347191083963838,0.11435865811403699,0.06387703541258816,0.0059905079852519754,20572.933254680363
1681938793940568208,140,1681938793940568208,camera_1,141,0,0.6546338156240684,0.49408226895577717,1.8115286552419456,-0.9806414493524627,-0.044439275748149085,0.15208710920843865,0.11505220465293894,0.0660634823871078,0.006193915723506101,20596.337059346613
1681938793950594902,141,1681938793950594902,camera_1,142,0,0.6549590524528357,0.49212322607729647,1.8122783385112522,-0.9806553908635917,-0.04448623837840797,0.15184250515928313,0.11523815597304797,0.06646395615825895,0.006234097303982165,20596.16607242002
1681938793960669994,142,1681938793960669994,camera_1,143,0,0.6546391579239303,0.4896402620480319,1.8112764193690065,-0.9805132828703219,-0.044495281547563305,0.15280186926316452,0.11517578210956665,0.06108218694862444,0.005721199992722746,20620.07171290344
1681938793970576286,143,1681938793970576286,camera_1,144,0,0.6547634876812636,0.4874812386518017,1.8113471984109857,-0.9805691252936274,-0.0443306539399446,0.1529059521241126,0.11462440162184626,0.0631453701062128,0.005913286637512698,20636.76208217367
1681938793980583429,144,1681938793980583429,camera_1,145,0,0.6547777670636753,0.48542680304196595,1.8112675028134035,-0.9806278836147901,-0.04445832122550139,0.1524838190818315,0.11463462159926723,0.06754916874342598,0.006322838562211749,20658.5920201813
1681938793990715026,145,1681938793990715026,camera_1,146,0,0.6547530615477232,0.4835130162740551,1.8110976381019044,-0.9805132513307012,-0.04439454582567035,0.15319955817630454,0.11468558601853494,0.06252972243237309,0.005850418075746009,20663.173176902805
1681938794000988245,146,1681938794000988245,camera_1,147,0,0.6547250313811199,0.48160953134149637,1.8108331214227098,-0.9805248661005636,-0.044324333016426284,0.15311885627909405,0.11472121125974553,0.07016782779828645,0.006561357269805375,20681.617772042056
1681938794010899543,147,1681938794010899543,camera_1,148,0,0.6547323107043931,0.47987032218860204,1.8106502759846235,-0.9805222564980821,-0.044328741079876305,0.1529164397509957,0.11501143282327501,0.07676425350655336,0.007174760107363089,20696.214680510457
1681938794020711183,148,1681938794020711183,camera_1,149,0,0.6547718038233825,0.478383736702131,1.810650080127621,-0.9805011287017538,-0.0444289850666004,0.15294499522883834,0.11511485714272192,0.0719659238238819,0.006724672047971286,20704.071314174096
1681938794030597448,149,1681938794030597448,camera_1,150,0,0.654722114265655,0.4770596272736082,1.8103958589463252,-0.9804528374784536,-0.04423971257043075,0.15352474230603314,0.1148269777186562,0.07275279769964982,0.006795618621927772,20711.49702563533
1681938794040700912,150,1681938794040700912,camera_1,151,0,0.6547441396367724,0.4760529003931144,1.810365969672143,-0.980480170319692,-0.044467059956651185,0.15287559809758916,0.11537056684867086,0.066322219587164,0.006193134624001371,20722.765601294286
1681938794050698518,151,1681938794050698518,camera_1,152,0,0.6544678930867609,0.47505586605811523,1.8095941475478239,-0.9804860938707539,-0.04426715943125197,0.15343299954943404,0.11465492999091946,0.0688520315597998,0.0064238856549256405,20744.241906856532
1681938794060616731,152,1681938794060616731,camera_1,153,0,0.6544883995214974,0.4745202411116716,1.8096141857704924,-0.9804562917384402,-0.044388611961625364,0.15340750871225953,0.11489668136776245,0.06460319554025773,0.006026936147489817,20744.950634753455
1681938794071026086,153,1681938794071026086,camera_1,154,0,0.6543216454250889,0.4741237042703562,1.8090507417168797,-0.9804026516097266,-0.04430055330269889,0.15431516068608941,0.11417063053219217,0.07397343771299347,0.006897774764002315,20752.09896979289
1681938794080940485,154,1681938794080940485,camera_1,155,0,0.6541927345414565,0.4740581039148876,1.8087423719188456,-0.9803577148033912,-0.04429025105138025,0.1541656225201797,0.11476099302569694,0.06991791540349368,0.006516872609778448,20755.578939010855
1681938794090574741,155,1681938794090574741,camera_1,156,0,0.6545291684940282,0.4746008112023371,1.809661226639962,-0.9804050861202356,-0.044519282509872665,0.15320645240791297,0.11554948522153483,0.060789558570832014,0.005671071992391204,20739.514819372558
1681938794100605487,156,1681938794100605487,camera_1,157,0,0.654325867583665,0.4750274338055898,1.8091326239841095,-0.9804221832356923,-0.04439073308356792,0.15417537760087927,0.11415672725375543,0.07464008819079027,0.00696132982887764,20747.248184342632
1681938794110676527,157,1681938794110676527,camera_1,158,0,0.6547129897384875,0.4761524871097125,1.8102736090932532,-0.9805015835117765,-0.04444681024138575,0.15323413105094852,0.1147189037226475,0.06497598817804828,0.0060674644439730864,20725.19060638565
1681938794120577812,158,1681938794120577812,camera_1,159,0,0.6547282829300829,0.47731529512586507,1.8104878882997009,-0.9805460311415539,-0.04430576376596574,0.15313613960477232,0.11452424571508432,0.07095780067902524,0.006628737290142103,20717.458230496562
1681938794130728006,159,1681938794130728006,camera_1,160,0,0.6548152791827297,0.47871524884612376,1.8108863506618018,-0.9805850382514295,-0.04431036371825922,0.15272403735247062,0.11473858478889899,0.07315730741538573,0.006838103881574293,20704.83178432437
1681938794140569925,160,1681938794140569925,camera_1,161,0,0.6546910374529753,0.480109050358708,1.8105606329064619,-0.9805199269850464,-0.04433020145346149,0.1529603911685894,0.1149722782147372,0.08702188220922835,0.008133159289241222,20696.29373627348
1681938794150615453,161,1681938794150615453,camera_1,162,0,0.6550531587887004,0.48211197415786494,1.8116963593296929,-0.9806200800069835,-0.04443369315591428,0.1523009313100095,0.11495360769339577,0.06615905617945828,0.006192136976684133,20670.201079151244
1681938794160561084,162,1681938794160561084,camera_1,163,0,0.6545864444158715,0.4837696800707428,1.8106124546515419,-0.9804910425309354,-0.04432472671712076,0.1536135526262197,0.11434819879475028,0.07120801003475208,0.006659774165311379,20668.494356014413
1681938794170540332,163,1681938794170540332,camera_1,164,0,0.654649916602015,0.48586733244609576,1.8108793962594811,-0.9805142081068046,-0.04435349094639198,0.15330600377062004,0.11455097009382724,0.0792578526888974,0.00741703154012933,20651.488029103435
1681938794180613279,164,1681938794180613279,camera_1,165,0,0.6547447200294894,0.488071851934101,1.811381172747688,-0.980551152137435,-0.044310939439458755,0.15292893136761948,0.1147550462450316,0.05616968925460242,0.005260598225432101,20630.650519448045
1681938794190579652,165,1681938794190579652,camera_1,166,0,0.6549054328092314,0.4904020464063367,1.8121017151326697,-0.980642757138398,-0.04453632533586614,0.1517303175497831,0.11547384696900423,0.06675741431536152,0.006258370735132271,20611.32362536037
1681938794200554847,166,1681938794200554847,camera_1,167,0,0.6549187527532634,0.4926454593024323,1.812262075242838,-0.9806280078374098,-0.04442997229672259,0.15230128428542072,0.11488692968113026,0.061319398126215674,0.005752245952740504,20589.86935787351
1681938794210632801,167,1681938794210632801,camera_1,168,0,0.654797723785218,0.4948677114378912,1.8121306712972627,-0.9806209433561789,-0.04449046280350465,0.15254159799630854,0.11460464672734838,0.06084654733422212,0.0057094540111502085,20576.63399593201
1681938794221046447,168,1681938794221046447,camera_1,169,0,0.6547731335730977,0.49710476681391436,1.8121636169577107,-0.9806028547290048,-0.04426698019440019,0.15269437519630466,0.1146425032228676,0.07135231292340904,0.006698369663510791,20557.061513572284
1681938794230956077,169,1681938794230956077,camera_1,170,0,0.654757202010178,0.49921415170752714,1.8122629155282197,-0.9806020513557472,-0.04437625925256472,0.1525285402657373,0.11482773574382295,0.06884660079958849,0.0064660417127009664,20540.460623345287
1681938794240944862,170,1681938794240944862,camera_1,171,0,0.6543756346318057,0.5008757260328639,1.8113430369078563,-0.9804338250974339,-0.044316685888929674,0.15359138405538855,0.11487050404950108,0.06553753379557747,0.006151578662863573,20530.416324254882
1681938794250778198,171,1681938794250778198,camera_1,172,0,0.6546629276786555,0.5029984405785904,1.812261445277746,-0.9805745223151923,-0.044339461908076874,0.1525544789698218,0.11504238023563725,0.07595760186086409,0.007138824898994299,20510.070221904378
1681938794260961771,172,1681938794260961771,camera_1,173,0,0.6545623210417943,0.5046925223786423,1.8121709337609,-0.9805982269344081,-0.04458380445524746,0.15259075810801934,0.11469726349574089,0.059094056574394926,0.00555508793174514,20502.93539489068
1681938794270837783,173,1681938794270837783,camera_1,174,0,0.6544546034044312,0.506185907790956,1.8120271563153463,-0.9806291469822285,-0.044448811580355393,0.15259615490264214,0.11447791379532526,0.07337835736689158,0.0068990355405069755,20497.07972799521
1681938794280599594,174,1681938794280599594,camera_1,175,0,0.6542696199734138,0.5072874276200633,1.8115974049421675,-0.980545997366463,-0.04468253097669996,0.15290483777456323,0.11468709194699836,0.060829120295238674,0.005717678450807951,20490.542606765575
1681938794290927886,175,1681938794290927886,camera_1,176,0,0.6545358966053252,0.5085237830109145,1.8123762360565785,-0.9806865705414015,-0.04434390540429327,0.15241979881828033,0.11426142543060956,0.07314483531808946,0.006882785354340126,20477.18746724707
1681938794300538301,176,1681938794300538301,camera_1,177,0,0.6545187364977985,0.5092883901490803,1.8123957065412393,-0.980728528226799,-0.04435622370723499,0.1523782969388591,0.11395145441170719,0.06873582689149771,0.006469087647380249,20475.03940208053
1681938794310595035,177,1681938794310595035,camera_1,178,0,0.6546460545870653,0.5098954213538395,1.8127597789618775,-0.9807520996302155,-0.04444684106755854,0.15212091104278747,0.1140571164529061,0.06899711943697186,0.006496768170457184,20465.6896960811
1681938794320688962,178,1681938794320688962,camera_1,179,0,0.6546610628899665,0.5101309209544832,1.8128526097098279,-0.9806996488589074,-0.0446357751758051,0.1518173605044546,0.11483612389806329,0.05186223408963997,0.004883489579144111,20458.449379006044
1681938794330701112,179,1681938794330701112,camera_1,180,0,0.654583436254339,0.5099741413108356,1.812598753717808,-0.9807063433713279,-0.04441722701024009,0.1526002608212016,0.11382151999187712,0.0668301246187184,0.0062920444525647505,20463.588489606285
1681938794340690612,180,1681938794340690612,camera_1,181,0,0.6545257609957581,0.5095964082632383,1.8124683989619421,-0.9807145474803831,-0.04441519816076444,0.15267416713401988,0.11365238766792733,0.06711269484367222,0.00631739700963896,20470.00466291968
1681938794350588321,181,1681938794350588321,camera_1,182,0,0.6544527696498968,0.5088933790018502,1.8121838748712829,-0.9806399998809743,-0.04459053853926937,0.15278039023788784,0.11408342064024798,0.05970035029167775,0.005617021553312269,20474.7294282887
1681938794360605955,182,1681938794360605955,camera_1,183,0,0.6544897013235299,0.5080314536594623,1.8122425355262348,-0.9805949428038472,-0.04459549800353781,0.15298201027784647,0.1141985299234848,0.06645652955921831,0.006252096477333143,20475.76813118649
1681938794370676040,183,1681938794370676040,camera_1,184,0,0.6545104587562832,0.5068950858316528,1.8121843858247375,-0.9806169297288606,-0.04438050308688422,0.15282299081899745,0.11430634957006829,0.08049918962933589,0.0075711626434545685,20486.620246917184
1681938794380710840,184,1681938794380710840,camera_1,185,0,0.6545497390771488,0.5055793122246203,1.8121739717431429,-0.9806477051480263,-0.04437644391125562,0.1523775229041635,0.11463812684832167,0.0716191744140815,0.006733779349165062,20499.989711747796
1681938794390594720,185,1681938794390594720,camera_1,186,0,0.654542827534822,0.5040425879279753,1.812063860605554,-0.9806583291363471,-0.04440879874222207,0.15231240791113365,0.11462124796953331,0.05930405962863006,0.005573491950013277,20515.054559800134
1681938794400600671,186,1681938794400600671,camera_1,187,0,0.6545959264568328,0.5023318195351538,1.812113040413813,-0.9805906376340378,-0.044312158290673385,0.15243764681414046,0.11507040386589798,0.0670040039694868,0.006295349946226923,20519.994103143057
1681938794410580396,187,1681938794410580396,camera_1,188,0,0.6547646427424263,0.500504916942839,1.8124040811900404,-0.9806011098356077,-0.04440156931995898,0.15194173165172234,0.11560135904813355,0.0557810457830783,0.005240285463798398,20529.14810996561
1681938794420602560,188,1681938794420602560,camera_1,189,0,0.6545509439667602,0.4982776900190068,1.8116974871484697,-0.9805597631788003,-0.04443603376269569,0.15287751431971494,0.11470159263759555,0.0473864701052662,0.004447075465424251,20555.274393926615
1681938794430530309,189,1681938794430530309,camera_1,190,0,0.6547302573051439,0.49630837573290837,1.8120115485512165,-0.9805470949394293,-0.044290317281915625,0.1526337496744761,0.11518984704053711,0.07092284814279992,0.006655696823044344,20561.005333863723
1681938794440598964,190,1681938794440598964,camera_1,191,0,0.6546382210055534,0.49412783761458884,1.8115944617082145,-0.9805285969200698,-0.04437261764758461,0.1532395056607653,0.11450936786964161,0.06193329150846694,0.005807824257867572,20582.819485102416
1681938794450592517,191,1681938794450592517,camera_1,192,0,0.6548344265417243,0.49203194059479766,1.8119095657807651,-0.9806063941706267,-0.04428058061507287,0.1527177349424955,0.11457584093563294,0.05448281155258883,0.005108810263470594,20597.964685336512
1681938794460595369,192,1681938794460595369,camera_1,193,0,0.6548826966099976,0.48982827320418376,1.8118583608620518,-0.9806137809313453,-0.04438731734006627,0.1522770525801084,0.11505684666458971,0.07179721014108509,0.006729199569335578,20615.55434584304
1681938794471007585,193,1681938794471007585,camera_1,194,0,0.654880538781732,0.4875844987363084,1.8116508566386031,-0.9805988861789184,-0.04424313974438091,0.15261581038062852,0.11479017132180011,0.05825732760422398,0.005457182211861457,20632.45951879577
1681938794481026649,194,1681938794481026649,camera_1,195,0,0.6547331904776825,0.4854235336740579,1.8111800386334453,-0.9805677719456807,-0.04447662117679714,0.15273534219092977,0.11480675082937893,0.07290978441596963,0.006824014689128777,20654.824885955546
1681938794490980863,195,1681938794490980863,camera_1,196,0,0.6548274604585498,0.48355439332195416,1.81126163952547,-0.980602439653875,-0.044289015304979834,0.1526755064168489,0.1146626713823752,0.06560678024834488,0.006139271686694324,20667.686860581576
1681938794500942230,196,1681938794500942230,camera_1,197,0,0.6547096342451911,0.48160683527257475,1.8107736312068037,-0.98054754439101,-0.044328316381361116,0.15332063324654024,0.11425540239496035,0.06843304980429821,0.006399101134411957,20684.526024834486
1681938794510995388,197,1681938794510995388,camera_1,198,0,0.6548970863765436,0.4800145418618192,1.81117400757759,-0.9805797355151857,-0.04420019102881855,0.15277452541886172,0.11475918173734942,0.07007804758904967,0.006553586785587588,20689.52203611098
1681938794520989894,198,1681938794520989894,camera_1,199,0,0.6547370606769608,0.47833948401815013,1.8105428911388965,-0.9805188147681955,-0.04441104767514326,0.15298667606063573,0.11491557630664137,0.07209091518598143,0.006735703092091458,20707.98426786303
1681938794530644178,199,1681938794530644178,camera_1,200,0,0.6549395598452878,0.47720861947416054,1.8109547181498309,-0.9806153396361613,-0.04435642519978399,0.15245373383012994,0.11482126220785104,0.0736767333582975,0.006885597763306168,20715.301646361706
1681938794540675878,200,1681938794540675878,camera_1,201,0,0.6547034792009225,0.47603553586260905,1.8102648775806385,-0.980470466381879,-0.044550356668977505,0.15307163455222814,0.11516077877939623,0.07116780891374219,0.006645127348509973,20724.136842862223
1681938794550574541,201,1681938794550574541,camera_1,202,0,0.6543291510055257,0.47492724498675337,1.809137532201776,-0.9803956224010113,-0.04422846739071769,0.15415584415981506,0.11447376101350469,0.06753745647438336,0.0062986246574854325,20744.85544748126
1681938794560841798,202,1681938794560841798,camera_1,203,0,0.65445491423356,0.4745170734881047,1.8095399839758206,-0.980372842586822,-0.044492471670079234,0.15365622489631553,0.11523573245106986,0.05843390758673195,0.005450813641249828,20739.229841226483
1681938794570882320,203,1681938794570882320,camera_1,204,0,0.6542701909661763,0.47410176193680703,1.8089834199929473,-0.980391797511634,-0.04422194965565804,0.15414796832107688,0.11451963326453808,0.0730638342211023,0.006812054001329848,20753.072880509084
1681938794580748319,204,1681938794580748319,camera_1,205,0,0.6542459634561238,0.47409442610882024,1.8088764756840128,-0.9804322046986441,-0.04437685242004455,0.15383007921776903,0.1145412313837273,0.06672410559258424,0.006220029168901301,20759.992406632926
1681938794590696096,205,1681938794590696096,camera_1,206,0,0.6544995093193097,0.47458763161924117,1.8095977014884304,-0.9804318703869151,-0.0444564156013139,0.15359557305566326,0.11482758631618672,0.08126006062957458,0.007581190720915732,20742.321163122997
1681938794600693941,206,1681938794600693941,camera_1,207,0,0.6545281678433863,0.47518560689928396,1.809716131737832,-0.9804819580625971,-0.04427458682921984,0.15399649657992373,0.11392967092003348,0.06766648615302984,0.006314993831410218,20739.20284870825
1681938794610634803,207,1681938794610634803,camera_1,208,0,0.6547163360090495,0.47619234416045847,1.8103452840126038,-0.9805124305245434,-0.04437678324812114,0.15316288984436885,0.11474843733107463,0.057964268955402076,0.0054130097543016,20724.60665223864
1681938794620606422,208,1681938794620606422,camera_1,209,0,0.654725051119394,0.47733101201214817,1.810467745531268,-0.9805663824797298,-0.04422405450121375,0.15280474760676083,0.11482382881146344,0.06953177131072152,0.006495057593515815,20719.84776051552
1681938794630631446,209,1681938794630631446,camera_1,210,0,0.654561289203524,0.4785474022879987,1.8101769653308448,-0.9804976249580107,-0.044295498070424745,0.15314621288378316,0.11492847245895219,0.07112523583055008,0.006643069295237681,20712.329072766872
1681938794640563964,210,1681938794640563964,camera_1,211,0,0.6546553505587667,0.4801026935394003,1.8104915168479978,-0.9805042042254791,-0.044367026694996974,0.15318011544224064,0.11479949769710324,0.06728413626842666,0.006287988310489852,20696.4132227592
1681938794650572299,211,1681938794650572299,camera_1,212,0,0.6550290993514614,0.482105928071701,1.8116617081731863,-0.9806158818726192,-0.04431470347886645,0.15277350996946,0.11440696624933687,0.05790782731492072,0.0054200563453798084,20669.55955593934
1681938794660588741,212,1681938794660588741,camera_1,213,0,0.6548512441134926,0.4839671045963277,1.8114006225830543,-0.9805445161806571,-0.044346404054046,0.15288511878658964,0.11485638288369883,0.06708526147122029,0.006278900076356814,20656.99019324803
1681938794670658588,213,1681938794670658588,camera_1,214,0,0.6546145615969621,0.48585014112874103,1.8108403662855135,-0.9805172002825443,-0.04434704249265042,0.15308746516495259,0.11481980570269809,0.06192453695985023,0.005794278592558003,20653.414162257388
1681938794680531740,214,1681938794680531740,camera_1,215,0,0.6546387870753687,0.48801024724065056,1.8111265727732024,-0.9805470097594289,-0.04435200738260237,0.15330545587982805,0.11427116123700803,0.05270262599515263,0.004934796196683727,20635.810440013585
1681938794690596342,215,1681938794690596342,camera_1,216,0,0.6549343005368385,0.49042754550143713,1.8121328632751492,-0.9806411270983514,-0.04437578036397229,0.15207438736949794,0.11509626695317114,0.07782688464794774,0.0072969873058583365,20608.92308527859
1681938794701018571,216,1681938794701018571,camera_1,217,0,0.6547788239328024,0.4925480908809071,1.8118966733393398,-0.9806725946947275,-0.044292686456911444,0.15234949399799239,0.11449476677864458,0.06341426687140483,0.005946605438492936,20601.68196918961
1681938794710994243,217,1681938794710994243,camera_1,218,0,0.6547928206356555,0.4948459192719692,1.8120909985330285,-0.9805995118617932,-0.044490492680494535,0.15232592256096864,0.11507391847595148,0.052611421182518825,0.004936191783292831,20575.874087453696
1681938794721071958,218,1681938794721071958,camera_1,219,0,0.6549096957635792,0.4972001784261391,1.8125111783332601,-0.9806876475484925,-0.04431791685685238,0.15210905028241875,0.11467561647296101,0.07351016347820405,0.006903304623443238,20557.723167875254
1681938794731044292,219,1681938794731044292,camera_1,220,0,0.654550772946698,0.49905173612726045,1.8116381145987142,-0.9806492835747727,-0.04440758514532102,0.15196182778854922,0.11516315339990373,0.0708941848424729,0.0066534064788060935,20559.419722202118
1681938794740908622,220,1681938794740908622,camera_1,221,0,0.6546337684812604,0.501106514169059,1.8120889082071086,-0.9806025524100814,-0.04449368088026549,0.15253616790220326,0.11476787028724357,0.05162972032849211,0.00484968193252502,20531.11952941864
1681938794750628948,221,1681938794750628948,camera_1,222,0,0.6545813427368661,0.5029326424534956,1.8120666099791904,-0.9806543969363277,-0.04429496428205382,0.1524189700742613,0.11455726720815378,0.05678375990828499,0.00533561977673316,20522.18621778122
1681938794760621070,222,1681938794760621070,camera_1,223,0,0.6545003829095071,0.5046476419470826,1.8119735343354835,-0.9805665311893229,-0.04447015740343115,0.15293173042295466,0.11455814611669278,0.060799073326052167,0.00571438430899808,20503.42077265773
1681938794770582437,223,1681938794770582437,camera_1,224,0,0.6545267937538043,0.5062496124027337,1.8122303458326718,-0.9806278830563975,-0.04437540578488196,0.15239031972450362,0.11479097868743568,0.0760968530230457,0.007156008898825837,20492.225697214242
1681938794780622005,224,1681938794780622005,camera_1,225,0,0.6542654804410859,0.5072884590686553,1.8115598528953993,-0.9805358803900047,-0.044600275569667766,0.15284437984389743,0.11488602280975137,0.06965420629421715,0.006546941663847999,20489.887404184323
1681938794790764808,225,1681938794790764808,camera_1,226,0,0.6545307413884465,0.5085159344703479,1.8123698985804781,-0.980699216624537,-0.04464763933251763,0.15238498095548667,0.11408090284201346,0.05960906636028085,0.0056089535247076895,20479.969286017353
1681938794800715208,226,1681938794800715208,camera_1,227,0,0.6545865309830025,0.5093357316129725,1.8125724566816455,-0.9807494663960673,-0.04429627001358075,0.15206183812469504,0.11421699528902186,0.07631324531394057,0.00718343299383665,20472.984895894773
1681938794810643434,227,1681938794810643434,camera_1,228,0,0.6547206477583821,0.5099422888224437,1.8129387288613792,-0.9807745531643377,-0.04457342390978365,0.15177179584360181,0.11427951580515523,0.07319185519008899,0.006892872686597498,20464.444991770775
1681938794820588827,228,1681938794820588827,camera_1,229,0,0.6545882698330421,0.5100715489601234,1.8126543377483413,-0.9807084124274524,-0.04455958715721266,0.1519323501693469,0.11463862332749694,0.05567294314096216,0.005241335883651242,20463.28512923547
1681938794830609560,229,1681938794830609560,camera_1,230,0,0.6544471671631988,0.5098650570217145,1.8122246989948192,-0.9806852497111471,-0.044461855625510464,0.15226520541926444,0.11443291314980387,0.07249859362491407,0.006822503333305557,20470.49661581288
1681938794840930461,230,1681938794840930461,camera_1,231,0,0.6546166704597345,0.5096697348417519,1.8126760412148932,-0.9807481338616932,-0.044286276109400224,0.15247854404465527,0.11367549111919623,0.08158936988911591,0.00768199897523251,20467.716616295387
1681938794850594520,231,1681938794850594520,camera_1,232,0,0.654505395331844,0.5089527929038052,1.8123604011374468,-0.9806404362060549,-0.04465503781638937,0.1526325464060184,0.1142522133388669,0.07579520455328748,0.007132682085303505,20471.13428415032
1681938794860689163,232,1681938794860689163,camera_1,233,0,0.6544651638971308,0.5080057281261265,1.8121075519229723,-0.9806041387548667,-0.044579179637319395,0.15272839132509144,0.11446509635229123,0.07313901356246788,0.006879639531575458,20479.395675657255
1681938794870944499,233,1681938794870944499,camera_1,234,0,0.6544972344498293,0.506898860490391,1.8121419679488782,-0.9807007408565674,-0.04423245357852149,0.15249910887415324,0.1140770297929999,0.06968853001308162,0.0065540209492015115,20495.018879488285
1681938794881001234,234,1681938794881001234,camera_1,235,0,0.6546155783410413,0.5056559501902879,1.8123243612913544,-0.9806533974297138,-0.044295926470837,0.15239550116479694,0.11459666763209392,0.07585349028522614,0.0071332521714284535,20496.328950172516
1681938794890684366,235,1681938794890684366,camera_1,236,0,0.6544899549312315,0.5040004183642645,1.8119353797512059,-0.9805412976109672,-0.044356643030804006,0.1526171720093284,0.11523563123580095,0.05815553950378671,0.005464611755100955,20506.70974387758
1681938794900682926,236,1681938794900682926,camera_1,237,0,0.65465485925539,0.5023873497744258,1.8122932997597792,-0.9806130286896975,-0.04438961233797414,0.15263849711188063,0.11458245712119007,0.05721018552139867,0.0053764298761413585,20518.15905725606
