%time,field.header.seq,field.header.stamp,field.header.frame_id,field.image_seq,field.transforms0.fiducial_id,field.transforms0.transform.translation.x,field.transforms0.transform.translation.y,field.transforms0.transform.translation.z,field.transforms0.transform.rotation.x,field.transforms0.transform.rotation.y,field.transforms0.transform.rotation.z,field.transforms0.transform.rotation.w,field.transforms0.image_error,field.transforms0.object_error,field.transforms0.fiducial_area
1681939122898993968,0,1681939122898993968,camera_2,1,0,-1.2302404407462555,0.32182833200358113,1.7484937130962492,0.9572382210909182,-0.0033184974962012655,0.2804163775529022,-0.07106779057470738,0.08792345318943262,0.012282006554507141,13055.457482247137
1681939122908991336,1,1681939122908991336,camera_2,2,0,-1.2303543341935115,0.32121375527274826,1.7486394650995782,0.9572157182600245,-0.0035763298722889035,0.28045650749697565,-0.07119990156726941,0.08500887762056664,0.011876431008315664,13053.594554506708
1681939122919149637,2,1681939122919149637,camera_2,3,0,-1.23042123521816,0.32006846453036386,1.7487023375895936,0.9571436013842681,-0.003506779699227099,0.2807665498957796,-0.07095049883485732,0.08704848866909742,0.012157032846669505,13051.070957026444
1681939122929031372,3,1681939122929031372,camera_2,4,0,-1.2305075266745489,0.31847078543449575,1.7488223595345085,0.9570927910655507,-0.0035066593415411466,0.280925585722509,-0.071006393494402,0.08679245715029538,0.012117522314841906,13050.506748024376
1681939122939026832,4,1681939122939026832,camera_2,5,0,-1.2303492406042946,0.31658004168997456,1.7485755753182,0.95706173686674,-0.003567863296265162,0.28108380215864676,-0.07079546836596923,0.0868222527205944,0.01210952443115112,13056.97610305529
1681939122949031829,5,1681939122949031829,camera_2,6,0,-1.2303544149172667,0.3147242812771052,1.7485356747533825,0.957128062870483,-0.0036692376471973674,0.28077906174978606,-0.0711022253083185,0.11358773411484435,0.015832152562695587,13066.659328142647
1681939122959054708,6,1681939122959054708,camera_2,7,0,-1.2305511600758954,0.3130888712146737,1.7487959893982292,0.9572735755256896,-0.003736628838185581,0.28032214409926387,-0.07094247481431132,0.13137673190794885,0.018296923618847518,13076.684376577843
1681939122969030380,7,1681939122969030380,camera_2,8,0,-1.2300791535274072,0.3115483797421665,1.7480989849614164,0.9571901541265788,-0.003697110178625488,0.28065641769889355,-0.07074825385751823,0.12930611340561882,0.017986504339395883,13085.074230609232
1681939122979147672,8,1681939122979147672,camera_2,9,0,-1.2298695571819358,0.31046360297986414,1.7478141884090508,0.9572126248816241,-0.0037469468037815185,0.2806089505678274,-0.07062979554057473,0.12778206344228238,0.017759436587765742,13093.615192780273
1681939122989069223,9,1681939122989069223,camera_2,10,0,-1.2299315682827365,0.31003549114331946,1.7478904688653294,0.95711385002755,-0.003823809307884162,0.28093083872516067,-0.07068465477736538,0.1351545685902238,0.018788971623420542,13086.989013811573
1681939122999099731,10,1681939122999099731,camera_2,11,0,-1.2294336142430475,0.3100402837121692,1.7471840660114897,0.9570039369245776,-0.003742749090425127,0.2812512433703647,-0.07090271252024846,0.1409839266561903,0.019592597002524574,13090.142441967506
1681939123008989095,11,1681939123008989095,camera_2,12,0,-1.2292050121827476,0.3106716984105485,1.7468715608190686,0.9570452956812717,-0.0034420406679101286,0.2813430281804102,-0.06998967684355181,0.1324763706070371,0.018393696609495396,13095.670578000605
1681939123018960714,12,1681939123018960714,camera_2,13,0,-1.2302495219687335,0.3121366593193007,1.74834189381962,0.9572383198414844,-0.0035445200366783095,0.2805211035295199,-0.07064096459804291,0.13222986418986693,0.01839761470718894,13083.19713907852
1681939123029140233,13,1681939123029140233,camera_2,14,0,-1.2306505844322684,0.31385337929868545,1.7489494760187851,0.9572088439802922,-0.003615651509168142,0.2805778863047597,-0.07081105695320783,0.1249543105950579,0.017411318573172584,13068.195038327483
1681939123039426803,14,1681939123039426803,camera_2,15,0,-1.2302945315648084,0.3156029669896266,1.7484663372827742,0.9570125799444436,-0.0035193081740653945,0.2813046351154456,-0.07058497404279408,0.09558560937875882,0.013325251377340796,13057.764090073062
1681939123049287080,15,1681939123049287080,camera_2,16,0,-1.2306774726844167,0.3175386982133728,1.7490599479736506,0.9571564559803298,-0.003591937540964829,0.2806782713640524,-0.0711219005930245,0.09280935674905777,0.012955496014996844,13053.763488846602
1681939123059047937,16,1681939123059047937,camera_2,17,0,-1.2299974279195836,0.31903907181088775,1.748094610123248,0.9570500405996742,-0.003528694475781568,0.28103233378499304,-0.07115894512160123,0.07774106302531436,0.010850119963064961,13056.528100182772
1681939123069015026,17,1681939123069015026,camera_2,18,0,-1.2296759277598603,0.32034553673373317,1.7476750907661311,0.9570495789537374,-0.003523084166745395,0.28114590294627756,-0.07071543366868481,0.08814533316763118,0.0122990361965187,13059.189342773509
1681939123079009294,18,1681939123079009294,camera_2,19,0,-1.2299685521203336,0.3214415376632459,1.7481222010637922,0.9571438220976612,-0.0037031358532808316,0.28073630731749755,-0.0710571344684587,0.10026308964006601,0.014002463045968593,13056.15491555072
1681939123089160680,19,1681939123089160680,camera_2,20,0,-1.2298153647730854,0.32183577238342287,1.747900327222746,0.9571475047174874,-0.003443532407136332,0.2808062722453294,-0.07074343619962459,0.09086349193239585,0.012685366710253979,13058.157701441087
1681939123098980188,20,1681939123098980188,camera_2,21,0,-1.2303825045012011,0.3218639117589673,1.7486696938591824,0.9572440168324946,-0.00339906829341894,0.2804912971551591,-0.07068925514774904,0.07992456603096798,0.011164134051464833,13053.044455278665
1681939123108944892,21,1681939123108944892,camera_2,22,0,-1.2302275492699792,0.321174761224016,1.7484876303094241,0.9572045220970548,-0.003461294530373324,0.2804285383667794,-0.07146577633101639,0.08642976998817176,0.012074817652092942,13055.375244922467
1681939123119104862,22,1681939123119104862,camera_2,23,0,-1.2303574249627292,0.32004345929543476,1.7486182272481983,0.9571855968458691,-0.0034727245770236137,0.28055644266197904,-0.07121626117457318,0.0952603624900803,0.013303365279036545,13055.140533373224
1681939123128953695,23,1681939123128953695,camera_2,24,0,-1.230601478834754,0.3184954409477073,1.7489468095339273,0.9571963826652973,-0.003499465260903963,0.28058161628961104,-0.0709703836516833,0.09190802928060293,0.012829724971308151,13055.3570275032
1681939123139016389,24,1681939123139016389,camera_2,25,0,-1.2302874801811927,0.3165524410459151,1.7484764053167687,0.9570098313671732,-0.0033996237551770178,0.28126474367191107,-0.07078678684664393,0.09141145885223523,0.012749493519130073,13054.923441129968
1681939123148982286,25,1681939123148982286,camera_2,26,0,-1.230044902936168,0.31463902814278477,1.7480959977412756,0.9570167719710277,-0.0036234519840592522,0.28120058787819596,-0.07093657828532623,0.11065137555124238,0.015417741276367638,13065.974480681822
1681939123159070491,26,1681939123159070491,camera_2,27,0,-1.2304085956696682,0.31305614194786635,1.7485930809640016,0.9571927894787979,-0.0037113110635486357,0.28061282968703827,-0.07088462283895203,0.12931179604493082,0.01800824869791898,13074.422315645263
1681939123169300317,27,1681939123169300317,camera_2,28,0,-1.229743156417734,0.31147293230686307,1.7476208212852855,0.957098951163003,-0.0036782936967447643,0.28103070160710414,-0.07049689775003466,0.14357036404544488,0.019961192402576065,13086.308454367096
1681939123178930759,28,1681939123178930759,camera_2,29,0,-1.2299429357704013,0.31048457231060167,1.7479487583911664,0.9572507530983726,-0.003717276854186791,0.2804651699047831,-0.07068568465869864,0.13147198071237653,0.01827339580055391,13094.422382685827
1681939123188957452,29,1681939123188957452,camera_2,30,0,-1.2300738382025251,0.3100763673332218,1.7481063389820664,0.9571622915406245,-0.0038788047802664418,0.2806835750727213,-0.07100727575800433,0.13579236069926992,0.01888400694171717,13087.11576317833
1681939123198994636,30,1681939123198994636,camera_2,31,0,-1.2294631664681304,0.3100499664900156,1.747219030438165,0.9570424537126061,-0.00377866496385608,0.2811372568255304,-0.07083294648298309,0.1249594172113575,0.0173639052306764,13092.021205848549
1681939123209034681,31,1681939123209034681,camera_2,32,0,-1.2293966537585996,0.31072346333094303,1.7471505064833563,0.957068950667423,-0.003421895622013627,0.2812562548253279,-0.07001595118499836,0.13679566356586292,0.01899836985250274,13093.168619298838
1681939123218940496,32,1681939123218940496,camera_2,33,0,-1.230258030581693,0.3121355607183974,1.7483746962007125,0.9572098128897288,-0.0036537446158821565,0.28059359170616505,-0.07073372994071524,0.1322106228908524,0.018398305234369836,13081.107971459625
1681939123228984355,33,1681939123228984355,camera_2,34,0,-1.2305995640465326,0.3138364191954459,1.7488467346429242,0.9572949258336076,-0.0035810590459809384,0.2802958209290056,-0.07076619079102378,0.1293134869192727,0.018011949420241827,13075.16432203283
1681939123239064693,34,1681939123239064693,camera_2,35,0,-1.2299935346395885,0.3155324891350026,1.7480543413471425,0.9570090731252132,-0.0035459630016785523,0.28131045260304044,-0.07060799783794935,0.09452813357347623,0.013171953835757118,13063.800196767783
1681939123248933792,35,1681939123248933792,camera_2,36,0,-1.2304672642243442,0.3175031755768093,1.7487520805860526,0.9571464738173117,-0.0035844252921034864,0.2807402782559968,-0.07101179985859588,0.09047978604212403,0.0126253679307231,13057.571512289811
1681939123259348392,36,1681939123259348392,camera_2,37,0,-1.2299894984538,0.3190396761792744,1.7481071165712772,0.9570448553387487,-0.003528135164936399,0.28108345428581494,-0.07102667709139857,0.09905230981530622,0.013823573472802489,13056.29104107432
1681939123269420146,37,1681939123269420146,camera_2,38,0,-1.229528598932654,0.32028891866578635,1.747454851305799,0.956979197326843,-0.0035071056157846173,0.2813087666167703,-0.07102037678316371,0.09213877032743767,0.012858199838775697,13057.747215939922
1681939123279420375,38,1681939123279420375,camera_2,39,0,-1.2299937811576884,0.3214506520813077,1.7481583713504338,0.9570774253423525,-0.0036681983805742398,0.2809392347094724,-0.07115119550331198,0.09381281986134127,0.013105187835536387,13051.261415801477
1681939123289373397,39,1681939123289373397,camera_2,40,0,-1.229780038931786,0.32182085136320754,1.7478509460695122,0.9571345831851864,-0.003415596166085988,0.28085425030303374,-0.0707291556606646,0.0871985720586963,0.012173124995530724,13058.113002638333
1681939123299494504,40,1681939123299494504,camera_2,41,0,-1.2300812752018433,0.321791706129753,1.7482643697473215,0.9571629674636434,-0.003514701935951686,0.2806799322184755,-0.07103151579634069,0.08258226921316236,0.011535493454609254,13053.937931391414
1681939123309393405,41,1681939123309393405,camera_2,42,0,-1.230554614802954,0.3212694708852261,1.748924669518177,0.9572131871374792,-0.0035507553531420595,0.280527144570593,-0.07095651954261177,0.0888876598328352,0.012420287243950232,13049.257057311013
1681939123319422006,42,1681939123319422006,camera_2,43,0,-1.2299682596561707,0.31995267558906754,1.7480858814384648,0.9570853964565409,-0.00365672071589366,0.28088294718015017,-0.07126669815997523,0.09928513882914558,0.01386164546133695,13056.783681645986
1681939123329368114,43,1681939123329368114,camera_2,44,0,-1.2304453508635447,0.31845274249354144,1.748729117456609,0.957123533774052,-0.003422714038695717,0.2808866114322219,-0.07074982432914419,0.0900823861011304,0.012572130044159236,13053.841816680972
1681939123339432239,44,1681939123339432239,camera_2,45,0,-1.230163021386353,0.3165269618393328,1.7482848506640758,0.9570635600699359,-0.003362224978400566,0.28117591855877677,-0.07041406288578532,0.09191544284112751,0.012811860988113672,13061.186226950493
1681939123349350452,45,1681939123349350452,camera_2,46,0,-1.2302566928143608,0.31470845404352055,1.7484046037951937,0.9571335946091538,-0.003682011785708449,0.2807586483039847,-0.071107708880891,0.11025743861682713,0.015365585459817466,13068.966190981211
1681939123359360218,46,1681939123359360218,camera_2,47,0,-1.230626586933063,0.31311296339362243,1.748905120690859,0.9572735378902013,-0.0037101444505363464,0.28031306166038994,-0.07098025039341785,0.14023959985934198,0.019534206769001014,13075.04954234976
1681939123369378089,47,1681939123369378089,camera_2,48,0,-1.2301062203721154,0.3115746759119301,1.748161093230337,0.9571335529273404,-0.0037675900885322062,0.28086297256442766,-0.0706905776457124,0.1302292766631581,0.01811848317489602,13080.59118690341
1681939123379362583,48,1681939123379362583,camera_2,49,0,-1.2299815117692288,0.3104836660055805,1.7479888031195223,0.9572247171189915,-0.003751944283609539,0.2805420954696263,-0.07073115664309833,0.13106577011058107,0.018219895866583548,13091.987479068339
1681939123389304161,49,1681939123389304161,camera_2,50,0,-1.2300165128951301,0.31005401560954654,1.7480039220961952,0.9570938219996589,-0.0037671154140040126,0.2810179633864489,-0.07061252711577007,0.14712636440526694,0.020455859281148684,13083.963563136524
1681939123399445056,50,1681939123399445056,camera_2,51,0,-1.2295702590455015,0.31008500187520543,1.7473791858151113,0.9570561707887483,-0.00370575024983634,0.2810316941068897,-0.07106996748047384,0.14354844309855253,0.019952936224059397,13090.574513662366
1681939123409351587,51,1681939123409351587,camera_2,52,0,-1.2293831255067957,0.31073015798923204,1.7471224385718789,0.9570429859114321,-0.0035115699364304523,0.2813200312676825,-0.07011014193297731,0.12481915258103982,0.017337243962258,13091.773517118072
1681939123419383287,52,1681939123419383287,camera_2,53,0,-1.2301430553709993,0.3120953924038457,1.7482093137764285,0.9571903124783353,-0.003614120585063123,0.2806498746464851,-0.07077634979946212,0.13368207088205963,0.01860093938510595,13082.268650060054
1681939123429365396,53,1681939123429365396,camera_2,54,0,-1.2306116649916894,0.31383976558875815,1.748880956347652,0.9572234001850772,-0.00376220919995188,0.28044590258739005,-0.07112878209276012,0.13350441958755255,0.018605164881139218,13070.188809678883
1681939123439521789,54,1681939123439521789,camera_2,55,0,-1.2304682408988494,0.3156356963124548,1.748726249214296,0.9571083572883639,-0.0036915241196102976,0.28094444340476327,-0.0707119846874047,0.09369680826785043,0.013063946191597092,13060.315573971251
1681939123449433088,55,1681939123449433088,camera_2,56,0,-1.230124720190712,0.3174035486502183,1.7482748738185472,0.9570267498089848,-0.00362136969728153,0.28120012425918467,-0.07080378484364819,0.09076026652473956,0.012659933596240604,13056.96974269161
1681939123459425687,56,1681939123459425687,camera_2,57,0,-1.2299631421446497,0.31901432003429187,1.748078080361953,0.9570160904615506,-0.0035508876285163067,0.28117089536491763,-0.07106702044147754,0.10637899779248983,0.01484709002130601,13054.99591615424
1681939123469435214,57,1681939123469435214,camera_2,58,0,-1.2298204672893993,0.3203729431861575,1.747882545978505,0.9570433428984559,-0.003521834513032166,0.28107811940625643,-0.07106846900316406,0.09384951187530532,0.013101434964032804,13055.694686430037
1681939123479352474,58,1681939123479352474,camera_2,59,0,-1.230104878797808,0.3214806033940223,1.7483177108912742,0.9572375568125642,-0.003614416252806298,0.2803548040556518,-0.07130483620050898,0.09339027624810116,0.013044142282412867,13059.288883042287
1681939123489458322,59,1681939123489458322,camera_2,60,0,-1.229745439258357,0.3218260239604819,1.7478137476470812,0.9571111274586468,-0.00339701877237478,0.2808816674987339,-0.07093827472830815,0.08238297526258975,0.011502649467875306,13057.154686550843
1681939123499298334,60,1681939123499298334,camera_2,61,0,-1.230081816318985,0.32177642030116027,1.7482681565687115,0.9571288416448303,-0.0034324635879092106,0.280788391388799,-0.0710667147589795,0.08503453060984612,0.0118791517952337,13051.722896369176
1681939123509427309,61,1681939123509427309,camera_2,62,0,-1.2300835838975317,0.3211355677299254,1.7482665749046986,0.9571412842314736,-0.0034855870757023906,0.2807255429965336,-0.07114479750315328,0.0880244264844805,0.012294102350383978,13054.44408148387
1681939123519449710,62,1681939123519449710,camera_2,63,0,-1.2303882991372028,0.3200577219776259,1.7486789269511038,0.957167482072645,-0.003591554475620781,0.28059816641295665,-0.07128941720093031,0.09241616848157719,0.012908455686570645,13053.259710755665
1681939123529483079,63,1681939123529483079,camera_2,64,0,-1.2302466309638649,0.31841490102085657,1.7484562287114467,0.9570284737548181,-0.0034618004765596183,0.281134561582087,-0.07104839649163029,0.0995372473844327,0.013893813711655744,13051.812698445283
1681939123539457082,64,1681939123539457082,camera_2,65,0,-1.2300610823251943,0.31650687278824136,1.7481639589845475,0.95698827275871,-0.0033794880446445623,0.2813799019110881,-0.07062135415979856,0.09169381821993738,0.012783398006299492,13058.322040720377
1681939123549477815,65,1681939123549477815,camera_2,66,0,-1.230217484517186,0.31469821714955515,1.7483443027170176,0.9571782915011745,-0.003603741796740955,0.2806261047094094,-0.07103323644308045,0.10844938253285363,0.015109625119919754,13072.798186918952
1681939123559461116,66,1681939123559461116,camera_2,67,0,-1.2306132654577764,0.31310557532754635,1.748908792110629,0.9572731653981971,-0.0037053235044253196,0.28029720014800624,-0.07104813140000343,0.13513385510304943,0.018823575740991874,13075.206558184695
1681939123569367885,67,1681939123569367885,camera_2,68,0,-1.2296475350610427,0.3114509216862118,1.7474915416116523,0.9570653823930904,-0.0036768886553305083,0.281151737508675,-0.07047009869751432,0.1282639972632751,0.017831788415641023,13085.943614929913
1681939123579463958,68,1681939123579463958,camera_2,69,0,-1.230127335631254,0.3105165122861989,1.7481942085976037,0.9572264036293275,-0.0036330882899037508,0.28054343156511785,-0.070709234686918,0.13322361960308626,0.01852337034652424,13088.994730661165
1681939123589487791,69,1681939123589487791,camera_2,70,0,-1.2298998719220862,0.31003134150223693,1.7478357278526968,0.9570695878356555,-0.0036476967797662036,0.28103639621592486,-0.07087342485203436,0.13960096176015213,0.019409968427009195,13084.837538374348
1681939123599341869,70,1681939123599341869,camera_2,71,0,-1.229815769497696,0.3101396621129609,1.7477250043907984,0.9570818906099058,-0.0037834850391204214,0.2809773833981065,-0.07093412384939016,0.13977059937315062,0.019432683934316096,13087.081839158662
1681939123609093666,71,1681939123609093666,camera_2,72,0,-1.22963591191872,0.3107903412338877,1.7475081524473903,0.9570903331737659,-0.0034495258850967556,0.2811554598938026,-0.07012704391604176,0.13599203038029373,0.0188947539444798,13089.388822562527
1681939123618974685,72,1681939123618974685,camera_2,73,0,-1.2300186754590783,0.3120688999685872,1.748030111831412,0.9571270176018613,-0.003671685871153287,0.28084046719526623,-0.07087328752763225,0.1393002972472459,0.01938364675600041,13080.789429845288
1681939123628940582,73,1681939123628940582,camera_2,74,0,-1.2305186825594,0.31381615854041045,1.7487675095650175,0.9571929567929708,-0.0037180785622003237,0.2806108546264004,-0.07088982736314585,0.11847750638844445,0.01650711193980616,13070.014820503071
1681939123639114379,74,1681939123639114379,camera_2,75,0,-1.2302677933371595,0.31559173968804377,1.7484383789750164,0.9570802710659041,-0.0035605122961364075,0.28105715163578,-0.07065093773607559,0.0951311863027513,0.013259772118228727,13062.651753341786
1681939123649673223,75,1681939123649673223,camera_2,76,0,-1.2302340012647464,0.31743293218729807,1.7484052881854153,0.9570428920274436,-0.003580773621617645,0.28110586792694237,-0.07096176362702822,0.08482702064793557,0.011834949968830123,13055.76330727106
1681939123659108400,76,1681939123659108400,camera_2,77,0,-1.2301385870989239,0.3190821782057796,1.7483086521553721,0.9570712141343998,-0.0035564084102610656,0.2809583200449379,-0.07116505766211156,0.08489151747198775,0.011850397076338913,13054.862301920075
1681939123669097185,77,1681939123669097185,camera_2,78,0,-1.2297260023531507,0.32037398306720455,1.7477295548874816,0.9570355954547578,-0.0034039342469598735,0.2811345203848643,-0.07095536422408236,0.08593845024006441,0.011994104237197104,13057.219358147126
1681939123678937911,78,1681939123678937911,camera_2,79,0,-1.2302112186031524,0.32149891039137896,1.748450080992736,0.9572468922417998,-0.003646219314373031,0.280405273420802,-0.07097869409853129,0.08449301787186414,0.011800454784725578,13057.77885485115
1681939123689298868,79,1681939123689298868,camera_2,80,0,-1.2296844592055438,0.3218075031090856,1.7477102686585282,0.9570921127298512,-0.0034549897769616993,0.28098891636586865,-0.07076708045048889,0.08292841271031648,0.01157701449678903,13057.290026223287
1681939123699383974,80,1681939123699383974,camera_2,81,0,-1.2297615889546236,0.3216892875999607,1.747810862970869,0.9570705382053412,-0.0033904433465550853,0.28099466207182894,-0.07103864920162303,0.09165708802174777,0.012799313344203355,13054.73414523713
1681939123709391355,81,1681939123709391355,camera_2,82,0,-1.2303808843239823,0.3212196277605791,1.7486888264477114,0.9572207676553037,-0.003505653961384184,0.28045163861665134,-0.07115469595837784,0.07822141289943828,0.010927975628972965,13053.284971349873
1681939123719576835,82,1681939123719576835,camera_2,83,0,-1.2302502908994477,0.32001681863231224,1.7484796341227653,0.9571754487997495,-0.003519979934703013,0.28059758441785054,-0.07118824042722771,0.08679631893755868,0.01211946481385096,13056.676394293554
1681939123729374170,83,1681939123729374170,camera_2,84,0,-1.2305003359842839,0.3184855975885695,1.7488067981597075,0.9571592005148485,-0.003484877194614923,0.2806965866327436,-0.07101793261874953,0.081298963050358,0.01134841196838264,13054.962661647009
1681939123739421129,84,1681939123739421129,camera_2,85,0,-1.2300938897222156,0.3165261657269881,1.748203122465727,0.9570180554240693,-0.003534009858201812,0.2812702400344288,-0.0706470412517758,0.09388329344801605,0.013089080751897707,13059.576270218939
1681939123749337434,85,1681939123749337434,camera_2,86,0,-1.2300826204505004,0.31465304570692987,1.7481597174494172,0.9570562106983508,-0.0037421511150908743,0.2810215091603622,-0.07110778619798448,0.10935398197034374,0.015238658195869562,13067.65544250561
1681939123759316205,86,1681939123759316205,camera_2,87,0,-1.230558837227497,0.31308074129892854,1.7487813734086954,0.9572516885350578,-0.003710370433685006,0.2804463478132956,-0.07074803139458832,0.12374273908790201,0.01723226986194353,13075.222326261453
1681939123769303798,87,1681939123769303798,camera_2,88,0,-1.2297234925075673,0.31148244924869023,1.7476184674735022,0.9570236919580376,-0.003715998530457053,0.281203235291689,-0.07082785361293949,0.12371081771561876,0.017207213182868754,13081.55891389284
1681939123779492139,88,1681939123779492139,camera_2,89,0,-1.2303426590790143,0.31057623402174916,1.7485018720980339,0.957283117412733,-0.003684262864774381,0.2804153991028455,-0.07044617285342747,0.1289375934866257,0.017928073032395363,13088.081754402727
1681939123789395809,89,1681939123789395809,camera_2,90,0,-1.2297951378487835,0.3099838670525492,1.74767225464761,0.9570872480633782,-0.0037797197038807536,0.2809909784667523,-0.0708080739303575,0.13579450320685282,0.018876054189425295,13088.360029556556
1681939123799370288,90,1681939123799370288,camera_2,91,0,-1.229608791174622,0.31008288841440085,1.7474406563912326,0.9571088250128822,-0.0037953597270002004,0.2809172031815726,-0.07080831366192483,0.13168380688875914,0.018299347171181524,13093.197493026964
1681939123809332370,91,1681939123809332370,camera_2,92,0,-1.2294081785768467,0.310726590227387,1.7471674398720691,0.9569802166863117,-0.0035494470519236913,0.28150804525435275,-0.07021030375748745,0.13173223671037704,0.018302800800201097,13087.10664069816
1681939123819325447,92,1681939123819325447,camera_2,93,0,-1.2303672830650463,0.31216171321981284,1.7485256528881952,0.9572915566430312,-0.003625935314225926,0.28032216254731873,-0.0707051154998959,0.13755179510917515,0.01914045125689038,13084.08525741636
1681939123828938722,93,1681939123828938722,camera_2,94,0,-1.2308441064647526,0.31388177913969983,1.7492302779654363,0.9573082448756428,-0.0037004476490347404,0.2801959409259619,-0.07097510598039299,0.12430193275213242,0.017323210124465433,13070.725285308434
1681939123838981151,94,1681939123838981151,camera_2,95,0,-1.230682001846494,0.31567618839208167,1.749049411970411,0.9571655346542477,-0.003534275521854957,0.2807232584123946,-0.07082443330455734,0.09810345206642523,0.01368159319378161,13059.455329524357
1681939123848968029,95,1681939123848968029,camera_2,96,0,-1.2300553685992661,0.3173893668049407,1.7481871295331637,0.9570597027198848,-0.0036086588081672586,0.2810672138621135,-0.07088670046716013,0.09048678923863918,0.012619956765648963,13060.543982865285
1681939123859010457,96,1681939123859010457,camera_2,97,0,-1.229977109738443,0.31902983166887977,1.7480982944782173,0.9570099636314229,-0.0036429420474649197,0.2812132814204522,-0.0709771007872462,0.09442545851925388,0.013178703957599883,13054.274758251619
1681939123869005680,97,1681939123869005680,camera_2,98,0,-1.22963062794919,0.3203208278388241,1.7476340867407016,0.9571013358316475,-0.0034741511068505553,0.2808777326461371,-0.07108208302327676,0.10099242150317878,0.01409222617564063,13063.385945337363
1681939123878931522,98,1681939123878931522,camera_2,99,0,-1.2300643843603807,0.32146832052898733,1.7482325348308045,0.9571359120137998,-0.0034978000698002226,0.2807086050989594,-0.07128317018469416,0.08848459651926532,0.012360821650432199,13053.625962639
1681939123889063358,99,1681939123889063358,camera_2,100,0,-1.229679827277187,0.32178859754034234,1.7477172045519054,0.957068901755811,-0.0032994534619699358,0.2810147740929794,-0.0709854044170341,0.08686108712572604,0.012128055875099672,13055.826825729338
1681939123899145126,100,1681939123899145126,camera_2,101,0,-1.2296803189653058,0.321670207731875,1.7476830430247519,0.9571054845670248,-0.003524373877302564,0.2808021684976587,-0.07132189262425598,0.08693846088135615,0.012140259438579637,13058.784269767348
1681939123909055233,101,1681939123909055233,camera_2,102,0,-1.230246021252343,0.32117318673935197,1.748478255227773,0.9572167370183454,-0.0035177314397844706,0.2804857203398343,-0.07107393771920625,0.08498795033665374,0.011870073102280464,13056.05538786854
1681939123919043302,102,1681939123919043302,camera_2,103,0,-1.23030339185401,0.32004566470943024,1.7485445616612088,0.9571562952479429,-0.0034922147867237447,0.2806520292718378,-0.07123250219327946,0.08921639062464237,0.012459334381105573,13054.356557021154
1681939123928969621,103,1681939123928969621,camera_2,104,0,-1.2306231096633977,0.3185036748122403,1.7489700217665096,0.9571257736268949,-0.003501544822281428,0.2808349328419159,-0.07092061152198346,0.09073658927809447,0.012668639927185336,13050.29853838868
1681939123939010143,104,1681939123939010143,camera_2,105,0,-1.2301167189867828,0.31650559074322426,1.7482486249542046,0.9570043765715489,-0.0034505676965377926,0.28129968847835385,-0.07071917750832275,0.10002855706261471,0.013947211226240918,13058.236939990198
1681939123948960065,105,1681939123948960065,camera_2,106,0,-1.2304309913147873,0.3147278536996051,1.7486482903071323,0.9571583890386298,-0.0035444631324613113,0.28070535295716287,-0.0709912663309545,0.11910456500481814,0.016600121889723873,13066.9942021491
1681939123959341526,106,1681939123959341526,camera_2,107,0,-1.230905047366864,0.3131907025216018,1.7493198850838114,0.9572874206246005,-0.003675948163960608,0.280300568680667,-0.07084400409554635,0.13336251286091283,0.018582224967214567,13069.949466716727
1681939123969367742,107,1681939123969367742,camera_2,108,0,-1.230050934092682,0.311542041273527,1.7480793343752326,0.9571932358579206,-0.0036154424250552596,0.28062162857375506,-0.0708487076842464,0.13118188554653898,0.018247613024595308,13085.713824980201
1681939123979359626,108,1681939123979359626,camera_2,109,0,-1.2299013939342323,0.3104727473669781,1.7478746477278704,0.9571661919864483,-0.003667668572492254,0.28076034442488473,-0.07066157459202514,0.12788679293589666,0.01777731362623232,13089.804268350825
1681939123989336252,109,1681939123989336252,camera_2,110,0,-1.229836671935675,0.3100072065354551,1.7477407948880714,0.9570843065221387,-0.003713033731812253,0.28096518848035984,-0.07095355136805553,0.1367628884036094,0.01901389541458505,13087.17820211942
1681939123999304533,110,1681939123999304533,camera_2,111,0,-1.2295846216853663,0.31008233001859103,1.7473858554644706,0.9570562921009339,-0.003867366834379438,0.2810053629921452,-0.07116377725664202,0.128553282818757,0.01787055224818398,13090.38880975218
1681939124009338378,111,1681939124009338378,camera_2,112,0,-1.2296444860469335,0.310784819839196,1.7474856314261624,0.9571141444966956,-0.003518699685056973,0.2810434664484532,-0.07024744211373352,0.12118277268018574,0.016837622350736766,13090.900087560298
1681939124019346237,112,1681939124019346237,camera_2,113,0,-1.2298907970898476,0.3120423168147569,1.7478450840883066,0.9571437246166264,-0.0036422958583498984,0.2809072369493153,-0.0703828696302815,0.13570143707329407,0.01887178287943492,13084.530772512771
1681939124029330015,113,1681939124029330015,camera_2,114,0,-1.2307670571769251,0.3138526529724182,1.7491152881817769,0.9572622042681885,-0.003686775229513182,0.28035846791294616,-0.07095498176676289,0.1303785914205946,0.018169777651494693,13069.369463133622
1681939124039396047,114,1681939124039396047,camera_2,115,0,-1.2303684731339748,0.31560838843491656,1.748567894852605,0.9570505378774348,-0.003676418636060015,0.28108867496034085,-0.07092184926780427,0.09939187724376097,0.013859690317304734,13058.788243131476
1681939124048940658,115,1681939124048940658,camera_2,116,0,-1.2300722675313889,0.3173801443100177,1.7481827646826464,0.9570524005700072,-0.0034877601094911105,0.2811585743568063,-0.07062856474722792,0.08267913502641022,0.011528977447162383,13059.861876030685
1681939124059523582,116,1681939124059523582,camera_2,117,0,-1.2301069255720138,0.31906249117767255,1.7482849690532456,0.9570635350486457,-0.0034987375279266074,0.28103431356353825,-0.07097086244206947,0.10997454432072118,0.015349423867114043,13055.020758827217
1681939124069076776,117,1681939124069076776,camera_2,118,0,-1.2299460232892787,0.3203840848751459,1.7480316434097296,0.9571117743881792,-0.003543533574760099,0.28090077210048414,-0.07084667198018253,0.09242999891284853,0.01290130436872539,13057.760146413924
1681939124078993320,118,1681939124078993320,camera_2,119,0,-1.2300184103113647,0.3214542843344822,1.74816583066551,0.9571490201282031,-0.003576068805321621,0.2806366824038952,-0.07138639568472083,0.08467214001575485,0.011827942533972149,13055.465248995228
1681939124088989019,119,1681939124088989019,camera_2,120,0,-1.2296173782382556,0.3217922946385431,1.747640826685386,0.9570892714521256,-0.003395298690923257,0.28100056097478454,-0.07076215902511068,0.08577982528368011,0.011973791366084998,13058.41442196723
1681939124099118232,120,1681939124099118232,camera_2,121,0,-1.2299821516876104,0.32175494641340185,1.748130236002175,0.9571217780754859,-0.003388317407773267,0.28080863560352604,-0.07108397434900961,0.09542435558978468,0.013328886471030168,13053.31303499499
1681939124109083414,121,1681939124109083414,camera_2,122,0,-1.230075997664424,0.3211344526171486,1.7482718337169498,0.9571592638556355,-0.0034823421280099484,0.28065472060289715,-0.07118247475292513,0.0882628292310983,0.012327041474566916,13055.694992179986
1681939124119114398,122,1681939124119114398,camera_2,123,0,-1.2303617063070165,0.320049400630923,1.748613935628206,0.9571166140497005,-0.0035256058173107428,0.2808266368357516,-0.07107571496072727,0.08969899662770331,0.012527982886230353,13050.610980338422
1681939124129006624,123,1681939124129006624,camera_2,124,0,-1.230538200097614,0.31848678126400676,1.748868162737001,0.9572002530089736,-0.003435913061466497,0.2806125008774084,-0.07079897239591598,0.09644871763885021,0.013460493938688653,13056.84394932352
1681939124139032363,124,1681939124139032363,camera_2,125,0,-1.2302607331829796,0.3165660207189998,1.7484632079672986,0.9570507061298291,-0.003352440202999152,0.2812055286591759,-0.07047097056657119,0.09855207992950454,0.0137403935484151,13058.079172428696
1681939124148986816,125,1681939124148986816,camera_2,126,0,-1.2301675977295594,0.314661663354751,1.7482949327142017,0.9570764040468177,-0.0037013274168250037,0.28097979504476467,-0.07100289972084167,0.11060039891162887,0.015412402520207353,13067.147215186618
1681939124158975601,126,1681939124158975601,camera_2,127,0,-1.2304070378371954,0.3130327087578343,1.7485708417367574,0.9571881440984888,-0.0036679261316516325,0.28067031342774534,-0.07072183733158223,0.1350091605563648,0.01879932449960958,13074.310261668641
1681939124169024705,127,1681939124169024705,camera_2,128,0,-1.2301782030348156,0.3115738859605476,1.7482357416221324,0.9571719849346307,-0.0036567853121588214,0.28068877284389565,-0.07086770757452206,0.14221074880333617,0.019787258232839014,13081.777553805614
1681939124178972244,128,1681939124178972244,camera_2,129,0,-1.230138409169678,0.31051719647249804,1.748205751065824,0.9572184392446623,-0.0036853556227291772,0.28056707151045257,-0.07072054940394151,0.14110281376633793,0.019619912213046365,13088.358944057023
1681939124188997983,129,1681939124188997983,camera_2,130,0,-1.2300049137917515,0.3100512097583824,1.7479946591114552,0.9571147480660493,-0.003817451039316737,0.28090580319668434,-0.07077228152639414,0.13108571199700236,0.018226388666412758,13085.531433565311
1681939124199052333,130,1681939124199052333,camera_2,131,0,-1.2297026415533154,0.31009439417051393,1.7475448451518905,0.9570626516472844,-0.003821932490610324,0.28105630755911204,-0.07087895057874317,0.14627684885635972,0.020333683081482062,13088.411335511362
1681939124209377527,131,1681939124209377527,camera_2,132,0,-1.2293847555664517,0.31071774711074274,1.747121549076465,0.9570197256841579,-0.0035534963589659288,0.2814429825795206,-0.06993185877545113,0.13019345520297065,0.018082951782853064,13090.208882741867
1681939124219331264,132,1681939124219331264,camera_2,133,0,-1.2300377121247859,0.31205477696105327,1.7480482656141796,0.9571713404847542,-0.0035795420320100554,0.2807159484439841,-0.07077265095115802,0.14119761588517576,0.019643900910770465,13083.394322503591
1681939124229351282,133,1681939124229351282,camera_2,134,0,-1.23055752627656,0.3138061448899738,1.7488062586798052,0.9572209355150905,-0.003635232672195452,0.2805051810101636,-0.07093454110297519,0.11807668005349115,0.01645101146669328,13071.131534608077
1681939124239363908,134,1681939124239363908,camera_2,135,0,-1.230496292124383,0.315640110606175,1.7487650855682724,0.9571187097977465,-0.0035714932213912584,0.2809186786908411,-0.0706803774314965,0.09094702999573201,0.012680182992852177,13060.32994645904
1681939124249277591,135,1681939124249277591,camera_2,136,0,-1.2303243358435663,0.3174587671355076,1.748548145596791,0.9570445770891802,-0.003602604129772947,0.28114912328915426,-0.07076629975783719,0.09242320997873321,0.012894929013030023,13054.01438045315
1681939124259245157,136,1681939124259245157,camera_2,137,0,-1.2301878860456958,0.31907682773159907,1.7483869517778579,0.9571105839272882,-0.0035493479619778,0.28095698506807504,-0.07063925824120502,0.08942273026332259,0.012478183119899827,13056.404218853451
1681939124269274711,137,1681939124269274711,camera_2,138,0,-1.2296426097770161,0.3203211695040578,1.7476168076344738,0.9569988903144658,-0.003592449567053192,0.28127724933630177,-0.07087543473442033,0.0941308222245425,0.013136818501679326,13056.706747463439
1681939124279337167,138,1681939124279337167,camera_2,139,0,-1.2302002860226688,0.32149350973378304,1.7484559384443663,0.9571724145959345,-0.0035283458202810215,0.28063914717593996,-0.07106467888285022,0.09044799610273913,0.01263500679177832,13053.024052605972
1681939124289375782,139,1681939124289375782,camera_2,140,0,-1.2299426812160357,0.3218590954758569,1.7480922076085794,0.9571835280616646,-0.0034788627531436413,0.2806002652213296,-0.0710709664989085,0.08701187564292923,0.012151795793865928,13057.726246662209
1681939124299295663,140,1681939124299295663,camera_2,141,0,-1.2299703197637863,0.3217582719835678,1.7481183714073356,0.9571661219944896,-0.003377663161919588,0.2806361345162375,-0.0711685766429188,0.08184267260367051,0.011430775285939112,13056.395269077037
1681939124308964490,141,1681939124308964490,camera_2,142,0,-1.2302193311071767,0.3211770209619104,1.7484500063570454,0.9572397774608291,-0.0035930388397364173,0.2803655104553036,-0.0712339740978668,0.0851668730028905,0.011895412217108358,13058.042701387778
1681939124319014549,142,1681939124319014549,camera_2,143,0,-1.230301681305871,0.3200079727731605,1.7485436476147582,0.9571774612873124,-0.003507969974715127,0.2806044692675912,-0.07113461588625812,0.09185522288316861,0.012826123566415087,13055.890789161433
1681939124329009771,143,1681939124329009771,camera_2,144,0,-1.2303686092946426,0.31843366603177337,1.7486309133745948,0.957078289739854,-0.0035553281214031405,0.28102926360738606,-0.07078884055326512,0.09833126387093216,0.013724229017030423,13052.509608769793
1681939124339039087,144,1681939124339039087,camera_2,145,0,-1.2298625506749183,0.31645620862235646,1.747900685068898,0.9569485296748882,-0.00348656036596244,0.28149969376193135,-0.07067727967192244,0.09202926675789058,0.01282840553051646,13059.803113796752
1681939124349008321,145,1681939124349008321,camera_2,146,0,-1.230106301466912,0.31461970855605353,1.7482140197613634,0.9570584946439107,-0.003708992945466741,0.2810319602513471,-0.07103744448210035,0.12388023879611865,0.017262482013268892,13067.357766124884
1681939124358975887,146,1681939124358975887,camera_2,147,0,-1.2306295078891558,0.313096962383727,1.7489116249000967,0.9572775418229746,-0.00364520477845678,0.2803566792329685,-0.07075699833195678,0.12658125744201243,0.017628528234410426,13075.221127758039
1681939124368946790,147,1681939124368946790,camera_2,148,0,-1.2304812212174892,0.3116459554113528,1.7486757255448961,0.957260470969633,-0.003721649737423079,0.2804028666889419,-0.0708009349857173,0.131308984127827,0.018274422694994606,13081.10641773487
1681939124378939628,148,1681939124378939628,camera_2,149,0,-1.2302073562048104,0.31053064512498935,1.7483112653936637,0.9572747879444365,-0.00364467952719364,0.2803803330393311,-0.07070053409863133,0.13897426991024986,0.019322774959376676,13090.539319115225
1681939124388936042,149,1681939124388936042,camera_2,150,0,-1.2299891833405516,0.31003815822056147,1.7479646170224843,0.9571195810563823,-0.003755058169361989,0.28085896536963667,-0.07089604127239504,0.1513554030680098,0.021045352500536258,13086.294334419068
1681939124398971319,150,1681939124398971319,camera_2,151,0,-1.2295231377894533,0.3100687700038607,1.7472980629521255,0.9570403121173509,-0.003710301227857617,0.28112486417055915,-0.07091463454187114,0.13456350518390536,0.018701158414528626,13090.642277766252
1681939124409029960,151,1681939124409029960,camera_2,152,0,-1.2295214285221572,0.31075943215881935,1.7473260647357851,0.9570452863298728,-0.003391316662843434,0.2813178131702292,-0.0700935580362719,0.13236818427685648,0.01838929943312042,13088.893897421662
1681939124419067382,152,1681939124419067382,camera_2,153,0,-1.230260408148303,0.3121096536974176,1.748354380068018,0.9571880352123602,-0.0035980793149015975,0.2806668305403975,-0.0707407188679426,0.13302135636331514,0.018511871787482932,13079.754900217991
1681939124428955793,153,1681939124428955793,camera_2,154,0,-1.2308247313680891,0.31386734258901156,1.749182615768877,0.9572890449890803,-0.0037157073371951693,0.2802983511794855,-0.07082875255812979,0.1144403368816711,0.015947510101390554,13069.92025241908
1681939124439028739,154,1681939124439028739,camera_2,155,0,-1.2303448928702252,0.31561147728018,1.7485658143424427,0.9570812747311814,-0.0036345369306652643,0.2809702449167349,-0.07097848386424216,0.08957265183562413,0.012489502013597631,13061.047857464753
1681939124448984861,155,1681939124448984861,camera_2,156,0,-1.230048339868005,0.3173784229031223,1.7481737412448044,0.9570508487349022,-0.0035766282995781623,0.28113882080435326,-0.07072371669070945,0.0903028974425979,0.01259294358381801,13060.13913527131
1681939124459403753,156,1681939124459403753,camera_2,157,0,-1.2296543974681935,0.31894104677774593,1.747627130563805,0.9570026954750104,-0.0036834222010357284,0.2811952803895787,-0.07114413216197012,0.09268080408219248,0.012930224535982802,13060.680833542012
1681939124469443559,157,1681939124469443559,camera_2,158,0,-1.229483694196503,0.32027044329457366,1.7474003626304908,0.956993975741309,-0.0035507163517198756,0.2813023549468431,-0.07084425106946249,0.09045674657681957,0.012620603773999067,13059.69652691111
1681939124479331731,158,1681939124479331731,camera_2,159,0,-1.2305426850630985,0.32158844807374587,1.7489451885793583,0.9573074425074589,-0.0037282005385797542,0.2801786537723646,-0.0710526777178585,0.09914568165550008,0.013853315509790241,13054.613549388247
1681939124489318847,159,1681939124489318847,camera_2,160,0,-1.2299213020703228,0.32185298909191157,1.7480386489236575,0.9570558607255484,-0.003368623586452203,0.2811209086606041,-0.07073730656343247,0.08593049983028322,0.012001296761337078,13050.004273733128
1681939124499301433,160,1681939124499301433,camera_2,161,0,-1.2301620121476255,0.3217983058673557,1.7483794726454953,0.9571773342020478,-0.003322089826073518,0.2806550179098357,-0.07094558147678284,0.08121540659340099,0.011344366934259715,13053.17457952327
1681939124509353637,161,1681939124509353637,camera_2,162,0,-1.230045252880217,0.32112102806688786,1.7482213400218942,0.9570805706095479,-0.0034687711733683456,0.2809863543073082,-0.07093248678382248,0.08625958522316068,0.012047067140129394,13051.27217491832
1681939124519362211,162,1681939124519362211,camera_2,163,0,-1.2300347602367365,0.31995285990093586,1.7481723254199781,0.9571419718448844,-0.0035032317771805065,0.28071753214144857,-0.07116628589730442,0.08565788279520348,0.011957075965059901,13059.105423089815
1681939124529326915,163,1681939124529326915,camera_2,164,0,-1.2304929548355454,0.3184836818712616,1.7488143762568258,0.957084643170616,-0.003495770658743765,0.28096009588640675,-0.07098020790316989,0.09086812695022672,0.012686457564936289,13050.176263809439
1681939124549286365,164,1681939124549286365,camera_2,166,0,-1.2302748465117772,0.31467632544158675,1.7484239872246181,0.9571379102641335,-0.0036439508155013825,0.2807966982171946,-0.07090103404029717,0.11186046182410792,0.01558675015808599,13068.95726571931
1681939124559366941,165,1681939124559366941,camera_2,167,0,-1.2303561597073072,0.31303469793522537,1.748513535457901,0.9572219613913006,-0.0036158001424573005,0.28048722897346307,-0.07099265456587446,0.13234925718279555,0.018429125146757326,13077.4665939915
1681939124569390773,166,1681939124569390773,camera_2,168,0,-1.2298727382696653,0.3114875332229675,1.7478019154078184,0.9570865047076298,-0.003797871056800409,0.28102763285863364,-0.07067155192749944,0.1405555108212866,0.01954965902483533,13082.73169571627
1681939124579025983,167,1681939124579025983,camera_2,169,0,-1.2297328488909005,0.31042978089825835,1.7476443009499443,0.9570833401751787,-0.003715218237586639,0.28100540768151366,-0.0708070474339697,0.1344602024764754,0.018692247875223857,13087.957006655637
1681939124589297294,168,1681939124589297294,camera_2,170,0,-1.229957082276019,0.3100517805705279,1.7479297602437742,0.9571278829826708,-0.0038526822909195064,0.2808658808455808,-0.07075117972947323,0.12699506501667202,0.0176554651588281,13087.42888470017
1681939124599318981,169,1681939124599318981,camera_2,171,0,-1.2298798452371442,0.31014584893734953,1.7478060902207848,0.957106118684527,-0.0037910783825289072,0.28089096045745665,-0.07094909185201259,0.13719851203495637,0.019075839113147176,13087.397735071834
1681939124609001636,170,1681939124609001636,camera_2,172,0,-1.2295169984026157,0.3107341670732281,1.7473193172025312,0.9570467873826702,-0.003474802187311073,0.28135232966812446,-0.06993024453401984,0.13229284883709624,0.018376782814180263,13089.159466418907
1681939124618917465,171,1681939124618917465,camera_2,173,0,-1.2303895327017333,0.31215963426579,1.7485752182583643,0.957230384615932,-0.0036875439272274924,0.28047790651332616,-0.07091217628673906,0.13311071862699464,0.018529077268499155,13079.562541525345
1681939124628990411,172,1681939124628990411,camera_2,174,0,-1.2308964661441766,0.3138872251758642,1.749299808309583,0.9572767038711397,-0.003717178959969729,0.28037983453339155,-0.0706727896238276,0.11920169723453002,0.01661192071742701,13067.522878310643
1681939124639401197,173,1681939124639401197,camera_2,175,0,-1.2304734973869798,0.31564969839305695,1.748753360529909,0.9571536102744982,-0.003595309089134215,0.2807808043443737,-0.07075436384262183,0.08398658665828407,0.011708983608892123,13062.936770013308
1681939124649986028,174,1681939124649986028,camera_2,176,0,-1.2299627647374014,0.31736419632240526,1.7480656268454136,0.9570191139509646,-0.0034790203851274826,0.2812037750371564,-0.07089956878940054,0.07611909374827519,0.01061555634485251,13059.64634598419
1681939124659456014,175,1681939124659456014,camera_2,177,0,-1.2298926738122804,0.31901547541833036,1.7479692909095192,0.9569990769393448,-0.0035631274139124977,0.28116119347942403,-0.07133340130331739,0.09669061755994336,0.013496358450071036,13055.370846699456
1681939124669490098,176,1681939124669490098,camera_2,178,0,-1.2298864351724763,0.3203726465073816,1.7479391608133863,0.957083193030055,-0.0035723988680863446,0.2809296785935863,-0.07111620962218192,0.08136872260365635,0.01135926114045064,13057.114601163423
1681939124679567575,177,1681939124679567575,camera_2,179,0,-1.2300179644957998,0.3214391428153384,1.7481801758276225,0.9571415764096505,-0.0035632131662160487,0.28070868846977376,-0.0712035001777376,0.08847071346826851,0.012357286497464683,13054.97209565388
1681939124689388036,178,1681939124689388036,camera_2,180,0,-1.2297822131574296,0.32183016560807526,1.7478611993865474,0.9570897566919464,-0.003330997342700609,0.2809519969009934,-0.07095123345931355,0.08115973981330171,0.011333033470857012,13055.019988812508
1681939124699331521,179,1681939124699331521,camera_2,181,0,-1.2298814247959062,0.3217264678876003,1.7480177144271465,0.9571620359710391,-0.0033805035638887677,0.2807006909232441,-0.07096852264661602,0.09550249046878889,0.013335202342697729,13057.984004239315
1681939124709191322,180,1681939124709191322,camera_2,182,0,-1.2305280079637537,0.3212486353878352,1.7489052884866205,0.9572536052313545,-0.003402270400526693,0.2803549032425122,-0.07109914243911475,0.08350417343899608,0.01166704955134331,13052.312431260476
1681939124718970537,181,1681939124718970537,camera_2,183,0,-1.2302588963930188,0.32000940081077617,1.7484744476853775,0.9571340251829481,-0.003559593734485385,0.2807652251063467,-0.07108217428100788,0.08996358752483502,0.012562329047364896,13053.961213736095
1681939124728957414,182,1681939124728957414,camera_2,184,0,-1.2301861546898685,0.31839415028018103,1.7483708457981677,0.9570517029300771,-0.0035584522137652296,0.2810762130043525,-0.07096152351530935,0.10024082969175652,0.013989205696255733,13054.665799513925
1681939124739430189,183,1681939124739430189,camera_2,185,0,-1.2299649115664302,0.3164863189280984,1.748034744840048,0.9570037227429603,-0.003413069211058091,0.28132311134183513,-0.07063662392573042,0.08747820422286168,0.012193584853091341,13061.278991932977
1681939124749423027,184,1681939124749423027,camera_2,186,0,-1.2305216178129372,0.314738685071271,1.7487691207726475,0.957123387043222,-0.003629641509421194,0.28082831401122094,-0.07097257024399542,0.1013126214966178,0.01412368966768968,13062.81487628561
1681939124759413957,185,1681939124759413957,camera_2,187,0,-1.2304465866354595,0.31304528893434946,1.7486481907130351,0.9572982874210652,-0.0037248795451052647,0.2802847915581043,-0.07075697700085973,0.11771390598732978,0.016387913319208833,13080.534409406366
1681939124769363403,186,1681939124769363403,camera_2,188,0,-1.2298331234760416,0.3114694690510985,1.7477517297081033,0.9570925702494375,-0.0037445809395561034,0.28091938471462796,-0.0710217528540924,0.14598466298775747,0.020307738154342638,13083.97800735547
1681939124779074668,187,1681939124779074668,camera_2,189,0,-1.230132191566802,0.31052170136344676,1.7482266218486,0.9572751269367046,-0.0036387161278465534,0.28033461256614256,-0.07087733128898153,0.13779561046976596,0.019159191925518394,13091.961254216034
1681939124789014577,188,1681939124789014577,camera_2,190,0,-1.2296521883285723,0.30995573442562285,1.747509377979142,0.9570693130621554,-0.0036832344904141434,0.2810884306701311,-0.07066864879015092,0.1385227091377601,0.019250013312589576,13089.941831437867
1681939124799112796,189,1681939124799112796,camera_2,191,0,-1.2296967746409388,0.310107030685645,1.7475710791091021,0.9570923753137682,-0.0037770240010511543,0.2809501373569892,-0.07090091342876731,0.13647373230196536,0.01896974320569206,13090.220806633592
1681939124808980226,190,1681939124808980226,camera_2,192,0,-1.2295679516030513,0.3107527779577105,1.7474156955239897,0.9570398370998437,-0.00350605008829076,0.2813800719197475,-0.06991218022004803,0.13114692736417055,0.01821963331845099,13087.468039955944
1681939124818978786,191,1681939124818978786,camera_2,193,0,-1.2301903936701797,0.31209386428300906,1.7482711476591157,0.9571974799832321,-0.003578448805860996,0.28070387602596536,-0.07046639626015658,0.13286789786070585,0.01848470430923021,13081.700707159474
1681939124828955888,192,1681939124828955888,camera_2,194,0,-1.230308767764435,0.31373431733871127,1.7484597084594231,0.9571183854294818,-0.003705534107359587,0.28085449713786115,-0.07093248005871744,0.132436576357577,0.018449771128189175,13069.711880635472
1681939124838975191,193,1681939124838975191,camera_2,195,0,-1.2303008240244602,0.31556953655367015,1.7484997205599815,0.9570874165309335,-0.003647664939364712,0.2809982563998671,-0.07078383684760108,0.1003760895691812,0.013992776569337357,13062.485164691458
1681939124848994731,194,1681939124848994731,camera_2,196,0,-1.2303451251493491,0.3174801855247806,1.7485955957098491,0.9570799861380916,-0.003702678516189016,0.2809394395242895,-0.07111414504509121,0.0920604626298882,0.012847062114287443,13055.742875179974
1681939124858955621,195,1681939124858955621,camera_2,197,0,-1.2300660840512911,0.31904302336373086,1.748191219829872,0.957088347008704,-0.003625715108416503,0.2809432492065593,-0.07099042847708725,0.09270985546754673,0.012938225154097493,13057.692366575819
1681939124868935346,196,1681939124868935346,camera_2,198,0,-1.2296607918126068,0.3203285600162854,1.7476579865553459,0.9570572268593807,-0.0035759813687942428,0.28104731724905335,-0.07100057986095468,0.09389207145432012,0.013103083695739051,13059.975755892694
1681939124879004001,197,1681939124879004001,camera_2,199,0,-1.230144877054263,0.321476808778901,1.748357297522774,0.9571690715482419,-0.003647249277554457,0.2806550676833374,-0.07104082648622141,0.08802071807440372,0.012294995269183661,13054.080002111146
1681939124889400720,198,1681939124889400720,camera_2,200,0,-1.2298421991194162,0.32182376079354874,1.747962043234715,0.9570975062665944,-0.0033499984727500764,0.2809717563340066,-0.07076731696964783,0.09525481890887022,0.013300757407580396,13054.288875105089
1681939124899026632,199,1681939124899026632,camera_2,201,0,-1.2300443406208923,0.32176260499836373,1.7482244449392896,0.9571272465220027,-0.003404563419237958,0.28080511074314946,-0.07102346579590212,0.0852589558926411,0.011909411350373964,13052.393527913611
1681939124908973932,200,1681939124908973932,camera_2,202,0,-1.230575651680639,0.3212436000261576,1.7489587549808046,0.9572614861034682,-0.0036029740243651185,0.2803083450690755,-0.07116668803447036,0.08820795826613903,0.012325932268013345,13052.000842445768
1681939124919005632,201,1681939124919005632,camera_2,203,0,-1.230005202666222,0.31995282091635174,1.7481291422682559,0.9571046596663569,-0.0035191754890678416,0.2808650139745805,-0.0710853696190923,0.08094358892412856,0.011299047694983654,13057.257825536186
1681939124929323434,202,1681939124929323434,camera_2,204,0,-1.2308209015442662,0.3185705714911943,1.7492938743745754,0.9571896251624484,-0.003558715008692804,0.2806213358767053,-0.07090150125090107,0.0934890944045037,0.013055271065252803,13050.017748670656
1681939124939388513,203,1681939124939388513,camera_2,205,0,-1.2303536153654568,0.31657198751976934,1.748571034255,0.9571009158769785,-0.0035656391847159697,0.280961713159696,-0.0707505391005749,0.09741379821207374,0.013584861913200972,13059.621829366311
1681939124949418067,204,1681939124949418067,camera_2,206,0,-1.2302313275602406,0.31466633447061626,1.7483640145240216,0.9570788746362164,-0.003583353909430258,0.28096799193352934,-0.07102235428844583,0.11312656523659825,0.0157655230661057,13066.08105869126
1681939124959383010,205,1681939124959383010,camera_2,207,0,-1.2305254726903576,0.3130676165202065,1.7487544137904314,0.9572671003603881,-0.003660783766974524,0.2803282088916601,-0.07100980586806369,0.1345016973791644,0.01873209540609948,13076.857626395302
1681939124969037055,206,1681939124969037055,camera_2,208,0,-1.2301150699904573,0.3115495741201817,1.748171377825003,0.9571099822744515,-0.0037526662628884675,0.28092987526075963,-0.07074464299501824,0.14763324928935617,0.020541954619805066,13079.018292972343
1681939124979048967,207,1681939124979048967,camera_2,209,0,-1.2298563898692596,0.3104289555622801,1.7478201315855049,0.9572071128873271,-0.0037716593813812388,0.2806297931656488,-0.0706203710782085,0.1323673294391483,0.01839664346326095,13093.485123964483
1681939124988953590,208,1681939124988953590,camera_2,210,0,-1.2298420368828396,0.31000248206305325,1.7477867520375028,0.9570938319326424,-0.003754897794692511,0.2809679656171824,-0.07081172160020009,0.14297885971609503,0.019876433819151898,13087.512909565121
1681939124999002933,209,1681939124999002933,camera_2,211,0,-1.2297163078101674,0.3101042151656106,1.7475681382146702,0.9570842710410421,-0.0037253614335977245,0.28096817898853144,-0.0709415407493729,0.13063577614957467,0.018159170705015697,13089.425868561259
1681939125009018421,210,1681939125009018421,camera_2,212,0,-1.22951822223831,0.31074048129986803,1.7473084773089187,0.9570800133245855,-0.0034645735777196532,0.28120929833140523,-0.07005123379708939,0.13578323979163542,0.018861378096372502,13091.406080185203
1681939125018929004,211,1681939125018929004,camera_2,213,0,-1.2298102274023268,0.31199557160851404,1.7477216258369879,0.9571312328980129,-0.0036320049582063496,0.28086186060543744,-0.07073349141930606,0.12717852741479874,0.01768866124413186,13085.512226073533
1681939125028934717,212,1681939125028934717,camera_2,214,0,-1.2301845932395672,0.3137027410152052,1.7482759342680874,0.9571264038997038,-0.003555510561997469,0.2808596935342783,-0.07081128335580408,0.12192764412611723,0.016979839280230485,13072.866554769222
1681939125039100646,213,1681939125039100646,camera_2,215,0,-1.2302231461783546,0.315562222231779,1.7483950660875887,0.9571214423250094,-0.0036521333263853997,0.2809088249847803,-0.07067841685783774,0.09241411817492917,0.01287915601444522,13066.295039677994
1681939125049035787,214,1681939125049035787,camera_2,216,0,-1.2299710400946144,0.31735562184657196,1.7480646424392963,0.9570039276550663,-0.0036990218929509417,0.281306498390515,-0.07068559721102542,0.09755655826302245,0.01360453699842376,13058.779729842445
1681939125059261083,215,1681939125059261083,camera_2,217,0,-1.2299853132029248,0.31902493266067394,1.7481011255007524,0.9570505215366489,-0.003646323717391216,0.2811239527305613,-0.07078366161001756,0.09263498132349923,0.012925824407753174,13056.802201478502
1681939125069313287,216,1681939125069313287,camera_2,218,0,-1.2294280002294218,0.32027657972505963,1.7473220984361062,0.9569880258961075,-0.0034627446671886514,0.2813115107193273,-0.07089260629748914,0.08389370288932696,0.011704164603238566,13060.435786807917
1681939125079418420,217,1681939125079418420,camera_2,219,0,-1.2300166217496866,0.3214379870303141,1.7481745750364652,0.9571222371691294,-0.0035259696223619206,0.2807990353600612,-0.07110901768019513,0.09227663424098864,0.012888645735269585,13053.741969524657
1681939125089084386,218,1681939125089084386,camera_2,220,0,-1.2297010111638862,0.32178103494843835,1.7477311668554358,0.9570798076582715,-0.00341654895491057,0.281002129875964,-0.07088280448188329,0.08393071015598252,0.011718272435451826,13056.252041237192
1681939125099025011,219,1681939125099025011,camera_2,221,0,-1.230228056260927,0.32180991741591736,1.7484894115763852,0.9571974414450001,-0.0032493396956408123,0.2805687776035441,-0.07101873637809296,0.09259542805375533,0.012935167809969556,13053.056845894083
1681939125109096527,220,1681939125109096527,camera_2,222,0,-1.2302463996377386,0.3211594489229873,1.7485108511256986,0.9571913456657761,-0.0034205545257960882,0.28056761944651804,-0.07109738748639645,0.08907139010261744,0.0124413388479221,13054.241572560975
1681939125123327255,221,1681939125123327255,camera_2,223,0,-1.2303056350017318,0.32002417149817736,1.7485709463191068,0.9571140165441943,-0.0036288758356342017,0.28076432235697407,-0.0713511449539438,0.09776457317639142,0.013656429145141306,13051.496534240892
1681939125129045486,222,1681939125129045486,camera_2,224,0,-1.2303609380620966,0.3184443497482625,1.7486378514039265,0.957101757296078,-0.0035238870204702824,0.2808518566594029,-0.07117614074949909,0.09560379345202819,0.013346069366336429,13054.060736879243
1681939125138974666,223,1681939125138974666,camera_2,225,0,-1.2299067587229067,0.3164663462599427,1.747955378970315,0.9569828749299056,-0.0034625746717615743,0.2813564573083951,-0.07078369585154837,0.09632592683192343,0.013427845854633108,13061.208765528863
1681939125149025201,224,1681939125149025201,camera_2,226,0,-1.230457677262193,0.3147361171763825,1.7486813893397755,0.9571555817969729,-0.0036631746053682407,0.28070956751002446,-0.07100642291401582,0.11381840892136097,0.015864713780498637,13066.274570825279
1681939125158945322,225,1681939125158945322,camera_2,227,0,-1.230295686809927,0.31297719330812684,1.748440055605193,0.9571586835208374,-0.0037198710118950644,0.2807231744090021,-0.07090780260341929,0.14048373309196904,0.019562412447937088,13074.709986773789
1681939125168996810,226,1681939125168996810,camera_2,228,0,-1.2299448999590232,0.31151077209232,1.7479244416641886,0.957130112573777,-0.003855098748258765,0.28077454246285577,-0.07108264290897054,0.13036026165354997,0.018137059622555466,13083.925964526597
1681939125179049253,227,1681939125179049253,camera_2,229,0,-1.2299332477048943,0.3104669576763209,1.7479298367641982,0.9571590826816858,-0.0036865357793175423,0.28084084577696306,-0.0704366327785602,0.140470071521122,0.01952515498048982,13088.632899481574
1681939125188954114,228,1681939125188954114,camera_2,230,0,-1.2298928321821894,0.310008917455401,1.7478419075460616,0.9571017100207881,-0.0038035745505294056,0.2809562586411648,-0.07074906519722049,0.13616263662697747,0.018929143464657842,13087.071013374258
1681939125198921442,229,1681939125198921442,camera_2,231,0,-1.2298013267025478,0.3101367533881068,1.74770464096179,0.9571396021092584,-0.0037387278995461405,0.28079073282809097,-0.07089688530314465,0.13561429787660018,0.018850659039626808,13091.203585609102
1681939125209009170,230,1681939125209009170,camera_2,232,0,-1.2291390391399715,0.31065063229900197,1.746784884233372,0.9569925363597935,-0.0034674003103664476,0.2815270247811954,-0.06996997073448913,0.13549475866602734,0.018813198415277132,13093.66718499712
