%time,field.header.seq,field.header.stamp,field.header.frame_id,field.image_seq,field.transforms0.fiducial_id,field.transforms0.transform.translation.x,field.transforms0.transform.translation.y,field.transforms0.transform.translation.z,field.transforms0.transform.rotation.x,field.transforms0.transform.rotation.y,field.transforms0.transform.rotation.z,field.transforms0.transform.rotation.w,field.transforms0.image_error,field.transforms0.object_error,field.transforms0.fiducial_area
1683169117157098531,2,1683169117157098531,camera_1,3,0,-0.2137000878535344,-0.42222125988177295,3.1233404689229953,-0.7408473980561876,-0.6682906392577365,-0.06546712374983167,-0.01571018719770529,0.007837601064238697,0.0018606975793697004,8812.083582808733
1683169117166534185,3,1683169117166534185,camera_1,4,0,-0.21392776038005848,-0.42257967631490945,3.1258302474059545,-0.7407428711548373,-0.6684925159182729,-0.06344842870359717,-0.019800300239900627,0.007714786217547952,0.001835435187461736,8797.93404644076
1683169117175717830,4,1683169117175717830,camera_1,5,0,-0.21388405918323855,-0.42251652051270755,3.1249113395932113,-0.7407112901653247,-0.6681174581681221,-0.06879262174458832,-0.015278151265578539,0.005046111124102026,0.0011991553477440572,8794.993669488234
1683169117185246229,5,1683169117185246229,camera_1,6,0,-0.21395730279279984,-0.42271535387817216,3.1262752486529637,-0.7407634067574974,-0.6684997044719936,-0.06369100052549265,-0.017921405691106274,0.0038612443604506552,0.0009186919640085655,8797.080394264776
1683169117194580554,6,1683169117194580554,camera_1,7,0,-0.21413334988909435,-0.42303692518952607,3.1288395478273694,-0.7409773866394945,-0.6688387348422005,-0.05884836498182649,-0.012005382232800772,0.010245524405036122,0.00243989751171806,8800.988578018732
1683169117203970670,7,1683169117203970670,camera_1,8,0,-0.2139971364078869,-0.422793688899902,3.1270719789632437,-0.7410705047897896,-0.6683898844838532,-0.062386031726076596,-0.013321122165228159,0.001714320038445294,0.00040788928839410925,8801.187595458236
1683169117213066816,8,1683169117213066816,camera_1,9,0,-0.21376019374501942,-0.42237246212244284,3.1237983077106812,-0.7405450532729666,-0.6681583777138629,-0.06948579387935024,-0.01814196275695123,0.012521734344772995,0.0029743693066069904,8795.975931772966
1683169117222640752,9,1683169117222640752,camera_1,10,0,-0.21384753398086037,-0.4224866508072078,3.124856026406816,-0.740678633809919,-0.6684518815123148,-0.06614077038654384,-0.013879553767772316,0.012600323301739992,0.002994017448227759,8803.821767193269
1683169117231922626,10,1683169117231922626,camera_1,11,0,-0.21416518368318854,-0.4230470129025128,3.1291078488910977,-0.7407617624486464,-0.668911020103836,-0.05973687782704242,-0.016172937429472897,0.0010207321029156446,0.00024326319158071951,8792.800029775823
1683169117240867614,11,1683169117240867614,camera_1,12,0,-0.21381538781533743,-0.42259234924614997,3.124932791674809,-0.7409217743596713,-0.6681625383627747,-0.0654558671179625,-0.01758624656274201,0.006033617188222706,0.0014342706526027486,8800.540092584673
1683169117250419378,12,1683169117250419378,camera_1,13,0,-0.21397473410878592,-0.4227660551508955,3.12681695914719,-0.7406703298155232,-0.6685987681086751,-0.0652279689070785,-0.011334102822167036,0.006996661133598536,0.0016638967027547886,8797.782809087774
1683169117259670734,13,1683169117259670734,camera_1,14,0,-0.21385473175240582,-0.42264954465225807,3.1257489186825986,-0.7405282024508024,-0.6683544901560828,-0.06766460456529436,-0.018486702037101198,0.005216762132477015,0.00124078785296813,8789.297856218647
1683169117269297838,14,1683169117269297838,camera_1,15,0,-0.2139127573392854,-0.4226284566306604,3.125928508875565,-0.7407885741282138,-0.6682751188073087,-0.06619115694663238,-0.016105426608190906,0.008346916874870658,0.0019849448683463317,8795.108154204205
1683169117278407573,15,1683169117278407573,camera_1,16,0,-0.21378175196418608,-0.42236611567925,3.123924694166381,-0.7406113865633582,-0.6685515558733702,-0.06483652229699702,-0.018160853736183875,0.003796615346800536,0.000901990893827554,8807.238698138855
1683169117287878990,16,1683169117287878990,camera_1,17,0,-0.21406827480918297,-0.42282067513116073,3.127451293112014,-0.7409319918982589,-0.6684733697636122,-0.06281666359894306,-0.014737844919014937,0.008728145563509315,0.0020774173139950546,8796.539024303898
1683169117297227382,17,1683169117297227382,camera_1,18,0,-0.21397533350962927,-0.42280683201029323,3.1272081915222047,-0.7408660787906856,-0.6684866163471014,-0.06362540334794778,-0.013960842056547471,0.004781724303029478,0.001137801395267779,8796.755080169532
1683169117306382656,18,1683169117306382656,camera_1,19,0,-0.21393599053442983,-0.42275991127568824,3.1262692734777526,0.7406136289277794,0.6687602449015686,0.06384220447534616,0.013242371892813676,4.24293102696538e-06,1.0090144614356947e-06,8802.086894986685
1683169117315857648,19,1683169117315857648,camera_1,20,0,-0.21384588735339444,-0.4225052640235073,3.125066422187752,-0.7410417528826572,-0.6680878067220898,-0.06558670969620785,-0.0146351120628476,0.0016269843326881528,0.0003866536251478703,8803.153797210889
1683169117325054883,20,1683169117325054883,camera_1,21,0,-0.21379638149548177,-0.42242125447393664,3.1241983404556355,-0.7406652431577277,-0.6682734566343113,-0.06677314401472709,-0.019155468527859276,0.00720779481343925,0.0017128481912496954,8799.499983605932
1683169117334338665,21,1683169117334338665,camera_1,22,0,-0.21384777039421138,-0.4225966557720841,3.1255299921030337,-0.740547312062525,-0.6684431786374576,-0.06626626595531714,-0.019549361277562308,0.012738687335513532,0.0030296551773611037,8792.824462173508
1683169117343530178,22,1683169117343530178,camera_1,23,0,-0.21356414005658192,-0.4220258142743428,3.1214401551760473,0.7405325001221805,0.6683464505738855,0.06724658687951789,0.020063270449682848,0.0036982522578909993,0.0008773833770746338,8812.649300137065
1683169117353088617,23,1683169117353088617,camera_1,24,0,-0.21393566963965638,-0.4226567294811515,3.126280423123186,-0.7407230977442234,-0.6684801952179447,-0.06507873043257667,-0.015108934934819782,0.004221938841510564,0.0010041676429223233,8797.124057163717
1683169117362575292,24,1683169117362575292,camera_1,25,0,-0.21408219376880736,-0.42299391360488386,3.1284993853320153,-0.7407151815845632,-0.6686032568972485,-0.0641983098383352,-0.01375796679893335,0.008590890327468514,0.0020459397956202837,8788.318492738064
1683169117371812582,25,1683169117371812582,camera_1,26,0,-0.21405679388932802,-0.4228690016768562,3.127550627832509,-0.7405000829543401,-0.6687523182446871,-0.06553375559598881,-0.011631460117177724,0.0010081874206662178,0.00023990671842232778,8792.546997542493
1683169117380990266,26,1683169117380990266,camera_1,27,0,-0.21388313488273797,-0.4226180951063263,3.1259218295088425,-0.7407654377236613,-0.6685443680637927,-0.06377627026940132,-0.015734724490142876,0.00508991174865514,0.0012103648023176982,8801.62157213455
1683169117390167474,27,1683169117390167474,camera_1,28,0,-0.21390512960634958,-0.4226000274568934,3.1255580898462196,-0.7406697450319362,-0.668633185450963,-0.06317943665756287,-0.01861050487380686,0.0032081323442980647,0.0007630035268494694,8801.52752113994
1683169117399289131,28,1683169117399289131,camera_1,29,0,-0.21398646716992742,-0.4227720755294018,3.1266452326212613,-0.740827393755922,-0.6684755471107513,-0.06349401189924923,-0.016844168982997763,0.003780158411245793,0.0008995263369965472,8796.793070593381
1683169117408650398,29,1683169117408650398,camera_1,30,0,-0.2138306031995829,-0.4224328365951279,3.1261226306075547,-0.7379583066867526,-0.6686868546052522,0.07403293720192583,0.05286352503769439,0.014591918443329632,0.0034709489815759552,8798.79450256284
1683169117417934417,30,1683169117417934417,camera_1,31,0,-0.2139480437467461,-0.4228119694528555,3.1272341828365784,-0.7406510862075033,-0.6686385192087629,-0.06408232819699297,-0.015873069734975754,0.009541162115056068,0.0022708142630434632,8793.323190212714
1683169117427066326,31,1683169117427066326,camera_1,32,0,-0.21379781414866236,-0.4225248037313496,3.1249618659875313,-0.7403091501424908,-0.6687631730688491,-0.06629167920324196,-0.0174239441746808,0.0035012917360290885,0.000832277050062906,8798.627924633678
1683169117436490058,32,1683169117436490058,camera_1,33,0,-0.2137680641822561,-0.4224950518355251,3.1247788035607673,-0.7406346595943073,-0.6682840572719607,-0.06675046814028439,-0.020027351467538645,0.008918880892451853,0.002120501920268073,8795.16211869707
1683169117445792198,33,1683169117445792198,camera_1,34,0,-0.21384047447955695,-0.42252173644423996,3.1256300837078697,-0.74078505965705,-0.6683245170866757,-0.06517592031228185,-0.018219074104068998,0.004547377000562847,0.0010814944091727535,8796.867714890743
1683169117454969882,34,1683169117454969882,camera_1,35,0,-0.21383168388294077,-0.4226472667692673,3.1262098260521123,-0.7408825965274942,-0.6682157529770432,-0.06457576007542606,-0.02026466991299555,0.007564080005977303,0.001800024126672425,8792.352455373391
1683169117464455366,35,1683169117464455366,camera_1,36,0,-0.21374856685984756,-0.42232481732814886,3.125860857514355,-0.7381225024089544,-0.668347463306705,0.07450683346629225,0.05418091449820568,0.014371579047292471,0.0034185671303181547,8797.480685574938
1683169117473510742,36,1683169117473510742,camera_1,37,0,-0.21387431899478623,-0.4227488153676173,3.126663511525805,0.740361219203688,0.6687475306437849,0.06529530165434137,0.01945582018155617,0.0011550647905096412,0.00027494084214146897,8788.978833941277
1683169117482813835,37,1683169117482813835,camera_1,38,0,-0.21378143086678617,-0.4225668870779283,3.1272693581694773,-0.7379896206200005,-0.6690002315923012,0.07148790532499248,0.05195661054033658,0.014565162651706487,0.003466644430873396,8799.572028825993
1683169117492425918,38,1683169117492425918,camera_1,39,0,-0.21375003449276223,-0.42256748124538623,3.125274045589781,-0.7407972210033293,-0.668361730749802,-0.06508983912067598,-0.016594790330657572,0.007406928692944348,0.0017608190822285023,8800.91220016265
1683169117501622438,39,1683169117501622438,camera_1,40,0,-0.21387847594776824,-0.4228871971604683,3.127727581028901,0.7408738147810003,0.6684034472398914,0.06313030714566431,0.018904671628251102,0.01365967362653464,0.003252875039400515,8789.094212810272
1683169117511005878,40,1683169117511005878,camera_1,41,0,-0.21366248733201434,-0.42254944060750904,3.125194908028269,-0.7405705208407634,-0.6686388831235791,-0.0638035061441842,-0.020160859123618362,0.009370088460855186,0.002228478291328012,8800.04281109921
1683169117520465612,41,1683169117520465612,camera_1,42,0,-0.2135300424574949,-0.42216859652148164,3.1226627339053215,-0.7403284757864539,-0.6686341782019286,-0.0657935995186759,-0.022655814757223284,0.007667848432902247,0.0018212355635923152,8805.973753151948
1683169117529605150,42,1683169117529605150,camera_1,43,0,-0.21377353954956765,-0.42253295216440423,3.125191092285833,-0.7408422244668836,-0.6685142311199207,-0.062175816332194045,-0.01938270106373541,0.005542916595004499,0.0013180919320240837,8805.053323291246
1683169117539121389,43,1683169117539121389,camera_1,44,0,-0.2137686020482812,-0.4225695875746438,3.1256304883690675,-0.7405206008763092,-0.6686721201184398,-0.06502764751169031,-0.016680542952681093,0.009002390375826508,0.002140576736850902,8799.076541608196
1683169117548279285,44,1683169117548279285,camera_1,45,0,-0.21394758757533822,-0.42299680997595923,3.1282864657898037,-0.7408203464910115,-0.6688572604792301,-0.05991319848777078,-0.015019586416485297,0.0015288510476239026,0.000364123126166456,8798.221483212894
1683169117557641506,45,1683169117557641506,camera_1,46,0,-0.21376341842492688,-0.42278086442538426,3.1267752295869813,0.7403594761112866,0.6689988215718203,0.06184177372411716,0.022000406596061582,0.002494920918252319,0.000594124578255112,8793.323417955542
1683169117567260742,46,1683169117567260742,camera_1,47,0,-0.21372990169901357,-0.4227685383861151,3.127118254900742,-0.7407519127859434,-0.6688537015791929,-0.06020291956611055,-0.017231890885640776,0.009267453278880566,0.0022059667919556197,8801.665259093746
1683169117576228380,47,1683169117576228380,camera_1,48,0,-0.21363352319715703,-0.4225322692737411,3.125265235655892,-0.7407713089310015,-0.6686004585938341,-0.06145890933630556,-0.0213095541003874,0.008964777633082122,0.0021326473651781673,8803.789672612678
1683169117585658550,48,1683169117585658550,camera_1,49,0,-0.21379581933411873,-0.4228771048099662,3.1278699502545066,-0.7406704279500892,-0.6689209089063406,-0.06005120846264265,-0.018600729833076753,0.003691695746965706,0.0008793409103552701,8796.039140272187
1683169117595072507,49,1683169117595072507,camera_1,50,0,-0.2134563337270814,-0.4224723663011323,3.124504164416527,0.7405453072392947,0.6684992553684406,0.06422459040050607,0.024012402744962837,0.010206114791799337,0.002427322016738023,8797.418251427353
1683169117604477167,50,1683169117604477167,camera_1,51,0,-0.213423366395524,-0.4221802692176193,3.122647816254351,-0.7405864201035964,-0.6681528801301643,-0.0682407470964183,-0.021134889818223614,0.018053091887850314,0.004286367832596817,8801.862391743805
1683169117613819360,51,1683169117613819360,camera_1,52,0,-0.21348769625414235,-0.4223287579735005,3.123524130530081,-0.7404462746071762,-0.6684429572157852,-0.06780547857715119,-0.018048391725964407,0.011791466444265097,0.002800306533378497,8802.063746007387
1683169117623219013,52,1683169117623219013,camera_1,53,0,-0.2136220819887924,-0.42254381652421413,3.124689103911514,-0.7404902681778116,-0.6687578765706013,-0.06430868296340754,-0.017362561857196965,0.006348370690830052,0.001508729716962857,8805.098937890492
1683169117632905960,53,1683169117632905960,camera_1,54,0,-0.21363149662040024,-0.4223827574847703,3.123549487497937,0.7404546672516421,0.668728503571781,0.06446626669509872,0.019317730568133865,0.0014805718674324453,0.00035172459111882607,8808.629296295341
1683169117642241477,54,1683169117642241477,camera_1,55,0,-0.213876859053217,-0.42266136893261,3.1259963406387334,0.7407610955691535,0.6686034193069361,0.06228302851539747,0.019060203073702445,0.009438625362236053,0.0022453823514462967,8800.66163241118
1683169117651235342,55,1683169117651235342,camera_1,56,0,-0.21395055312376948,-0.42274936303823346,3.1262773977823115,-0.7407243219491269,-0.6686496080828455,-0.06267908704912246,-0.017507499260376407,0.0022664385614916682,0.0005392310949574133,8799.96918174974
1683169117660593509,56,1683169117660593509,camera_1,57,0,-0.21386790127920283,-0.4226922782402015,3.125820533621265,-0.740621448430034,-0.6688131791937735,-0.06250310210298501,-0.01619146965596322,0.005929569539148361,0.0014100330900265472,8804.579356908562
1683169117670004844,57,1683169117670004844,camera_1,58,0,-0.21377745110071195,-0.4224662569622007,3.125687768896587,-0.7377466297589963,-0.6688870885594996,0.07590017476697404,0.05058790871326328,0.01711807114770636,0.004069298442697358,8799.288925005589
1683169117679183244,58,1683169117679183244,camera_1,59,0,-0.2137873931780166,-0.42247308940981354,3.124035136795243,-0.7407466866925146,-0.6683000466192894,-0.06720243259313582,-0.012378485217597233,0.005488608148880303,0.001303220689629102,8807.133520735895
1683169117688596248,59,1683169117688596248,camera_1,60,0,-0.21375140297479212,-0.42259040451167096,3.1245658869526527,-0.740814937894626,-0.6681481194180126,-0.06649765452043416,-0.01869171617684178,0.004726024868432432,0.0011233174905925592,8798.46328285802
1683169117697686433,60,1683169117697686433,camera_1,61,0,-0.21384323272772116,-0.4225366986482487,3.1244241454817843,-0.7407202781216922,-0.6682793923712814,-0.06660846091113022,-0.017304226253850575,0.004021524742711335,0.0009556389136666074,8800.799021246843
1683169117707100152,61,1683169117707100152,camera_1,62,0,-0.213766369561831,-0.42228897582958624,3.122897341397751,-0.7406847665969506,-0.6683437946859535,-0.06591560391708927,-0.018915120836156596,0.002636017568875104,0.0006259129091268351,8809.207415026149
1683169117716616153,62,1683169117716616153,camera_1,63,0,-0.21397879329682928,-0.42299624085261806,3.1276307777017087,-0.7408412223277799,-0.6684048736931364,-0.06432906413666,-0.015842336647262513,0.009507602720987052,0.002263259945844997,8790.236858741846
1683169117725570201,63,1683169117725570201,camera_1,64,0,-0.21384443161680644,-0.4228267512372578,3.1263378314868473,-0.74048455526875,-0.6688797872978431,-0.06423942110741701,-0.01247999714013212,0.011357015988323838,0.0027003757853569245,8801.515086762603
1683169117734836816,64,1683169117734836816,camera_1,65,0,-0.21384106735268615,-0.4228026601865734,3.1262057397216565,0.7405312073903813,0.6688600634889154,0.0631702080943289,0.015788323529353797,0.002042011299636215,0.00048570816190264077,8801.13197575742
1683169117744371652,65,1683169117744371652,camera_1,66,0,-0.21386173171229567,-0.4228239640069949,3.126401249957682,0.7405821701720803,0.668869430052917,0.06259268242891265,0.01529349110736961,0.009534952754620463,0.0022678044817452856,8802.034498714838
1683169117753054618,66,1683169117753054618,camera_1,67,0,-0.21395642014480645,-0.4227818919162012,3.1263124195471703,-0.7409482602343554,-0.6685658741642685,-0.061724964244206114,-0.014330957668661545,0.0015921231242828071,0.0003786634306521027,8805.74729089858
1683169117762698173,67,1683169117762698173,camera_1,68,0,-0.21409237506470433,-0.4230933223069737,3.1287255948707924,-0.740529968193739,-0.6688811475233479,-0.06259255661019433,-0.017191525581785928,0.004088768037036061,0.0009743135432640316,8786.810957744721
1683169117771940946,68,1683169117771940946,camera_1,69,0,-0.21404278938978924,-0.422972330280475,3.1278739646796603,-0.7408932055729849,-0.6684864967868186,-0.06410370806883088,-0.009683809234992999,0.0040670111775398254,0.0009677623059810432,8796.116128265396
1683169117781510829,69,1683169117781510829,camera_1,70,0,-0.21375586464046165,-0.4226239563152836,3.1264293326515133,-0.7378808660029836,-0.6692399656123741,0.07327402675359669,0.04775576422954952,0.01295741496142,0.0030809985255732257,8804.658858469684
1683169117790897607,70,1683169117790897607,camera_1,71,0,-0.21369952215145324,-0.4224242813858476,3.1234778839657147,0.7404995005033375,0.6686415966330514,0.06541799303190554,0.017302924434582184,0.0023745030630379915,0.0005639011460457161,8809.116863446314
1683169117800215005,71,1683169117800215005,camera_1,72,0,-0.21371532734595022,-0.42239294786100595,3.1232251162499445,-0.7406509699997618,-0.6681000397986732,-0.06882717909717356,-0.018474221957881638,0.012581726652570069,0.0029877943136093544,8800.313297067769
1683169117809774875,72,1683169117809774875,camera_1,73,0,-0.21388125093936414,-0.42264501741287863,3.1254044706812083,-0.7407633198682754,-0.6682905049165507,-0.06575941425396277,-0.01825388761574551,0.008897254592739046,0.0021156364738881806,8796.331308527617
1683169117818825006,73,1683169117818825006,camera_1,74,0,-0.21388966704682377,-0.42273210262582717,3.125645196440024,-0.7403542607912075,-0.6687597040236144,-0.06632189263301963,-0.01540887277274999,0.007458470412530005,0.0017731777965247601,8796.912703027949
1683169117827623844,74,1683169117827623844,camera_1,75,0,-0.213699752050719,-0.42238925210473754,3.1230282913196703,0.7409283708680535,0.6682634090581847,0.06499233253634908,0.015005401301868632,0.006610652315430343,0.0015688839423782068,8815.403058926346
1683169117837349891,75,1683169117837349891,camera_1,76,0,-0.21393537284577538,-0.4227585955237567,3.1259418034120885,0.7404774770746824,0.6685699292466203,0.06576717192574583,0.019545709226627055,0.0057660699239932,0.0013717815780661547,8791.52921647998
1683169117846531391,76,1683169117846531391,camera_1,77,0,-0.21371964269427565,-0.42235560219029233,3.1226815213539902,-0.7402843023380256,-0.6684352255495173,-0.06979906177492995,-0.0173664023853124,0.004685517691541463,0.0011121253702683714,8802.095082490703
1683169117855643987,77,1683169117855643987,camera_1,78,0,-0.21406412891968044,-0.4229095785588284,3.1268329514867825,-0.7409794322911005,-0.6684065731122522,-0.06414880908910707,-0.00818927556888308,0.006708249566145241,0.0015950309012862122,8803.10174536845
1683169117865364551,78,1683169117865364551,camera_1,79,0,-0.2141160662342897,-0.42306534481874003,3.1285407403744316,-0.74060726998971,-0.6686795003398895,-0.06496425125338903,-0.012175529666964143,0.007701324648223817,0.0018336346279268514,8787.76282139076
1683169117874589920,79,1683169117874589920,camera_1,80,0,-0.21382498884738876,-0.42248177167625567,3.1241313917619884,-0.7407709256446809,-0.6682709470473606,-0.06569772121492962,-0.01887290330372905,0.006222455063834786,0.0014785651912823919,8802.827974143438
1683169117884071588,80,1683169117884071588,camera_1,81,0,-0.2140414800060999,-0.4229695066643922,3.127342329524563,-0.7408931658150816,-0.6686815430881258,-0.06058119787030715,-0.01649937109067511,0.002617375983390957,0.0006230751056451871,8800.044930759352
1683169117893609046,81,1683169117893609046,camera_1,82,0,-0.21398614129558452,-0.42267192138744875,3.125411244757418,-0.7406644253524839,-0.6684498046066275,-0.06522111682864205,-0.018365011795830388,0.0038278878200799227,0.0009103178490866577,8797.43936369009
1683169117902856349,82,1683169117902856349,camera_1,83,0,-0.21397385288347381,-0.4227207008369956,3.125871780611952,-0.7409049135625863,-0.6683290584602098,-0.06499457824947187,-0.013110433809731672,0.004788660327903926,0.0011383852699130804,8801.622617128305
1683169117912278890,83,1683169117912278890,camera_1,84,0,-0.21376204846399172,-0.4223720721458006,3.122891004529436,0.7405710143962024,0.6682445220280562,0.06804189716826022,0.0193424829176203,0.014225663617253304,0.0033773249741196644,8803.066862129379
1683169117921414136,84,1683169117921414136,camera_1,85,0,-0.2138929156028723,-0.42261281128316136,3.124759270266347,-0.7407137733466279,-0.6681873323296659,-0.06811723782143195,-0.015127352720933147,0.012172944552730769,0.0028923355531699046,8797.591945456803
1683169117930088043,85,1683169117930088043,camera_1,86,0,-0.21409846389890982,-0.4228706878446748,3.1265389401509016,-0.7408384628906582,-0.6686535412578815,-0.06259701226646419,-0.011934308543596027,0.0069889730657450855,0.0016620241241090572,8804.908188422673
1683169117939409732,86,1683169117939409732,camera_1,87,0,-0.21409819249508855,-0.4229461103886799,3.127090929478688,0.7404559187040737,0.6685883648012015,0.06632242232842686,0.017775466380702088,0.0012471192749217153,0.0002968681896973254,8785.843581792898
1683169117948577642,87,1683169117948577642,camera_1,88,0,-0.21391810344152346,-0.4225596973654952,3.1246402465367282,-0.7408987686559271,-0.6680685738507977,-0.06613365348051238,-0.019486793333234328,0.010692004987504333,0.0025415939476833545,8798.059981637634
1683169117958436250,88,1683169117958436250,camera_1,89,0,-0.21401729404772385,-0.42277710178419514,3.1262524470132864,0.7405296318496707,0.6685455278956778,0.06588715276765307,0.017933894821053366,0.004753244749736041,0.0011308173170420212,8791.59442224773
1683169117967975139,89,1683169117967975139,camera_1,90,0,-0.21408599852967214,-0.4228150097790571,3.1262763558527045,-0.7408701728352671,-0.6682870393585039,-0.06520743057241773,-0.015868554648440215,0.00612698047189042,0.0014574600436226123,8795.617081429813
1683169117977379083,90,1683169117977379083,camera_1,91,0,-0.21422211801308116,-0.42310794282459047,3.1282870662175752,0.7404997866846061,0.6687735707711786,0.06438657532058335,0.01601080499247389,8.612783858552575e-05,2.0514745716989936e-05,8786.125026592052
1683169117986891508,91,1683169117986891508,camera_1,92,0,-0.21394823817171477,-0.42267141052576174,3.125428281435329,-0.7407245795001797,-0.6683822025232051,-0.06623833040853755,-0.014311263368438017,0.01168359984876588,0.0027768847047523,8799.6718368982
1683169117996346950,92,1683169117996346950,camera_1,93,0,-0.21386760958008147,-0.42245845212888034,3.123426199565158,-0.740889425392227,-0.6679907439872806,-0.06864367430881274,-0.012620272052556768,0.007542619947344065,0.0017901101925171224,8806.420428441143
1683169118005483627,93,1683169118005483627,camera_1,94,0,-0.21394325901086855,-0.42255559341182214,3.124418634662362,-0.7406944879153166,-0.6684037148257754,-0.06655987910736993,-0.01333911811863306,0.011655986891128123,0.002768183217822708,8805.57117066742
1683169118014927148,94,1683169118014927148,camera_1,95,0,-0.21415148004259632,-0.42297555697727324,3.127513141372972,0.7411505226534588,0.6682553317167166,0.061900661278136586,0.017292268099227896,0.006815785018261522,0.0016226425838868465,8795.020071925599
1683169118024126291,95,1683169118024126291,camera_1,96,0,-0.2143319876714799,-0.42317168633989233,3.1288736327766746,-0.7407992344623429,-0.6685845797424027,-0.06357182294830133,-0.013029861001227777,0.0009551179828122258,0.00022750264453109907,8788.255512011237
1683169118033680915,96,1683169118033680915,camera_1,97,0,-0.21411366466318904,-0.42280581281564467,3.1263034978630957,-0.7407058671586038,-0.6686175286759649,-0.06401808276447206,-0.014391100834447883,0.0026721610920503736,0.00063559746586862,8800.127109511759
1683169118042963266,97,1683169118042963266,camera_1,98,0,-0.2142495900843359,-0.4231766668147028,3.1286894368811926,-0.7408503820954642,-0.668575970262716,-0.0623491765514095,-0.016107871356387568,0.002481553878169507,0.0005912194269135723,8788.712331365325
1683169118052194356,98,1683169118052194356,camera_1,99,0,-0.21408862649771435,-0.4227588209491809,3.1255370844263934,-0.7405706537405985,-0.6686247125015149,-0.06560286806769126,-0.01386954764158421,0.001153363031335175,0.0002741732645765785,8800.963400676148
1683169118061041831,99,1683169118061041831,camera_1,100,0,-0.21429287509411032,-0.4230811919492067,3.1281381703113125,-0.7405365121490897,-0.6686917616190372,-0.06594384742454579,-0.010412065296490084,0.002060932689346373,0.0004905178823257921,8789.189132729076
1683169118070711612,100,1683169118070711612,camera_1,101,0,-0.21413665892749312,-0.4228759289496361,3.1269020350547154,0.7409004154648413,0.6683217769346075,0.06447580463293068,0.015982723670591562,0.0054367962293326855,0.0012936678121815111,8793.833681495398
1683169118079972028,101,1683169118079972028,camera_1,102,0,-0.21405147455791612,-0.4226551314245082,3.1249650670843745,-0.740669216117091,-0.6685548894525807,-0.06542212611830764,-0.012783485428546976,0.00681620609248057,0.0016196601992717226,8805.88083760766
1683169118089719057,102,1683169118089719057,camera_1,103,0,-0.21420479479353247,-0.4229538654687938,3.1270510608628386,-0.7406574307827507,-0.6685453168734085,-0.06610708701225222,-0.010177551752915555,0.005539453937672079,0.0013174775294503588,8795.087495571468
1683169118098786830,103,1683169118098786830,camera_1,104,0,-0.2141484427068543,-0.42287270763791734,3.1266807895947837,-0.7407815910027807,-0.6683984668492363,-0.06620181913507141,-0.01017069752705034,0.007789276947733015,0.0018520045891696894,8796.999524311628
1683169118108301877,104,1683169118108301877,camera_1,105,0,-0.2141881537258727,-0.42292800591003965,3.126848916681646,-0.740614880681175,-0.668760537436748,-0.06421337036342088,-0.011206477925340701,0.009877950244117526,0.0023493825765488483,8799.955292593222
1683169118117710590,105,1683169118117710590,camera_1,106,0,-0.21432483355589432,-0.4231261001832071,3.128469406771672,-0.7407445695387374,-0.6685865069150079,-0.06443372541636141,-0.011741401067493693,0.0015596955199725926,0.00037138414091004074,8789.743287665537
1683169118126756191,106,1683169118126756191,camera_1,107,0,-0.2142698247634724,-0.42301155228811854,3.127291201804212,0.7408619768471513,0.6682691034680109,0.06646552600098271,0.011057597641669392,6.042211316525936e-05,1.4374990201343057e-05,8791.833951398263
1683169118136197805,107,1683169118136197805,camera_1,108,0,-0.21409844078344242,-0.4227329399648375,3.1253169205903943,-0.7408177923444205,-0.6681934130956771,-0.0674080372743545,-0.012756086872872587,0.0018173537100665271,0.00043188419070850633,8798.791075486686
1683169118145754337,108,1683169118145754337,camera_1,109,0,-0.21386215869362923,-0.42223987103554983,3.123639573929077,-0.7379361851610398,-0.6682215567934966,0.07923482464517106,0.0514973808061789,0.017368011875078082,0.004123801510737617,8801.176666432993
1683169118154880762,109,1683169118154880762,camera_1,110,0,-0.21408173072571207,-0.42272002861861935,3.1251585073350623,-0.7405456371600705,-0.6685896179605927,-0.0658570404923846,-0.01558628422935496,0.006089145608711988,0.0014472703835358045,8800.508557770168
1683169118163701057,110,1683169118163701057,camera_1,111,0,-0.21417096988639542,-0.4228439214593474,3.12633287006723,0.7406708376750806,0.6683755810521567,0.06693646968783724,0.014152805256054533,0.004465294419787824,0.0010618840461744596,8792.833156726087
1683169118173055410,111,1683169118173055410,camera_1,112,0,-0.21425190230923186,-0.4230026610186835,3.12763541238028,-0.7406170707962443,-0.6685426906048254,-0.06616880436470339,-0.012598198799715993,0.003268412430770695,0.0007778344775123736,8789.226741944443
1683169118182661056,112,1683169118182661056,camera_1,113,0,-0.2139279300634728,-0.42248324498523465,3.124179593223747,-0.7407504336814578,-0.668173007722601,-0.06760503143229064,-0.016223023044555304,0.013564059976488352,0.0032217619915429685,8801.005889914002
1683169118192122697,113,1683169118192122697,camera_1,114,0,-0.2140370634720524,-0.42269357866116614,3.1253429695257307,0.7408718337373329,0.6682845791453622,0.06559626592998581,0.01420482830696336,0.0025932061253115535,0.0006163208096027615,8801.763229264416
1683169118201428413,114,1683169118201428413,camera_1,115,0,-0.2141944262617031,-0.4228285676824406,3.1257558155122833,-0.7403478532513891,-0.6689000985696825,-0.0654722538831885,-0.013080454540431477,0.004360581515356898,0.0010365933118047731,8800.892340503167
1683169118211179733,115,1683169118211179733,camera_1,116,0,-0.2145395357339327,-0.42340623730738475,3.130670535592069,0.7410386333316397,0.6687814199065907,0.058665436783477014,0.012309460780387986,0.00021960359299555424,5.236631237265755e-05,8790.509045640005
1683169118220464229,116,1683169118220464229,camera_1,117,0,-0.21419156352117846,-0.4228572287407838,3.126689692623483,-0.7407269305128853,-0.6686362169053063,-0.06339868058799815,-0.015160183218569429,0.004854944068938494,0.0011550116614323556,8798.638096377483
1683169118229973554,117,1683169118229973554,camera_1,118,0,-0.2142555298111118,-0.42301605675233556,3.1271856638202165,-0.7405560736596423,-0.668691879111442,-0.06621545970655712,-0.0065867649170411645,0.0009962263284251094,0.00023690480082433138,8797.217541779162
1683169118239482402,118,1683169118239482402,camera_1,119,0,-0.214405830966843,-0.42321346512733543,3.129157763744129,0.740802130612632,0.6685737533961711,0.06301970472819358,0.015806845526923394,0.002261707850266248,0.0005389632139447576,8784.879500591192
1683169118248839378,119,1683169118248839378,camera_1,120,0,-0.21417983503817575,-0.4228612549650602,3.1263749219451973,-0.7407132723168649,-0.6682974399540792,-0.0675926652980107,-0.012394013166725285,0.004335822886787355,0.0010309531208404787,8792.807041711641
1683169118258038282,120,1683169118258038282,camera_1,121,0,-0.21431447517186378,-0.42309783479937124,3.128037342543335,0.7408271407657807,0.6685225616232116,0.06399509976737873,0.012544293973789486,0.0015501949237659576,0.0003690218803282314,8792.356458351014
1683169118267250061,121,1683169118267250061,camera_1,122,0,-0.21431370642904216,-0.42303475968296483,3.127776313894109,0.7406773226384242,0.6686968350113073,0.06332898694814199,0.015201512660196996,0.00019095622701570392,4.546418707562355e-05,8792.544125586748
1683169118276647567,122,1683169118276647567,camera_1,123,0,-0.21434788173043123,-0.4230394656143601,3.1278994901308628,-0.7409158677569841,-0.6683028781431181,-0.065296650331892,-0.012299895405026533,0.0012955949059687555,0.0003084129180938481,8790.197396468368
1683169118286016702,123,1683169118286016702,camera_1,124,0,-0.21405519615346438,-0.42250725852993126,3.123668334297787,-0.740627475232529,-0.6681744958978594,-0.06893791252544183,-0.016166328555543764,0.003193194919731468,0.0007583376363079052,8800.226076643914
1683169118295270204,124,1683169118295270204,camera_1,125,0,-0.21407090610697949,-0.4227376165271319,3.1249624175097224,-0.7404837708758563,-0.6685978503030025,-0.06609500301298742,-0.017092402300131426,0.0017897171783261001,0.00042543033974007957,8799.084861437092
1683169118304544687,125,1683169118304544687,camera_1,126,0,-0.21407923097609982,-0.42261999426214025,3.12464148618661,-0.7407732466797736,-0.6682646451435821,-0.06776619384107664,-0.00922518438425031,0.015613619645591825,0.0037074092965262177,8805.33318017493
1683169118313699245,126,1683169118313699245,camera_1,127,0,-0.21453833346283743,-0.42345927017957474,3.1306216122904065,0.7406799117668214,0.669113045153725,0.05991193221871167,0.009568776725542086,0.0007846998050808908,0.0001870746534930263,8790.540903119138
1683169118323262453,127,1683169118323262453,camera_1,128,0,-0.21421958869522612,-0.4228804445107306,3.1266161765698546,-0.7410751085391329,-0.6683221672160383,-0.06337898164799696,-0.011673431227918463,0.005426185030955821,0.0012903715007197556,8802.831812264634
1683169118332514047,128,1683169118332514047,camera_1,129,0,-0.2142548489352256,-0.42300494323856297,3.127394742987955,0.7406764104932376,0.668683234497503,0.06393564823517925,0.013168892343624427,0.0012766849249601364,0.000303815121132503,8795.418353752233
1683169118341883420,129,1683169118341883420,camera_1,130,0,-0.21433651367325018,-0.42318542403871606,3.128709247514911,0.74101035998207,0.668555821632536,0.061732414261333524,0.011219126078034176,0.001116255356464535,0.0002658361660856903,8795.379242522175
1683169118350981950,130,1683169118350981950,camera_1,131,0,-0.2141105559556436,-0.42276236454609195,3.1257325589380716,-0.7405787911466554,-0.6686497875673131,-0.06517458556741655,-0.014240403297000945,0.0011608930071815848,0.0002759984475342097,8800.579077030065
1683169118360128402,131,1683169118360128402,camera_1,132,0,-0.21415450424141189,-0.4228981177614184,3.1266359370037646,0.7408350689661529,0.6681866309856426,0.06706202609084459,0.01388205383087373,0.00416966644115746,0.000991765729367981,8791.083929455373
1683169118368916273,132,1683169118368916273,camera_1,133,0,-0.21404306011456736,-0.4226922772805281,3.124780007916763,-0.7406331811816688,-0.6682697847523263,-0.06872506312863348,-0.012443930961159014,0.0008456677314825356,0.000200901505327334,8798.627771520525
1683169118378222227,133,1683169118378222227,camera_1,134,0,-0.21400427820807083,-0.4226805716479369,3.1250949452509205,-0.7404798726762939,-0.6687310133467143,-0.0658094310222264,-0.012550248527702519,0.005274143302813172,0.0012531607529265485,8804.439081239745
1683169118387657165,134,1683169118387657165,camera_1,135,0,-0.21424410944928507,-0.42297980634012144,3.1274476363011123,-0.7406351897819551,-0.6685418731111085,-0.06626251547292146,-0.010979917893078674,0.003914187487680465,0.0009312776145584376,8791.713589073624
1683169118397249937,135,1683169118397249937,camera_1,136,0,-0.21401124826175502,-0.4226794118025461,3.1247836855854807,0.7406030272008787,0.6682635618636994,0.06800238032091345,0.017511260857692636,0.007519634731579572,0.0017871070033420138,8794.735904110832
1683169118406361818,136,1683169118406361818,camera_1,137,0,-0.21395184604350914,-0.42248308582140326,3.1238157494785446,-0.7407591508198856,-0.6680330376455696,-0.06869085490946655,-0.017009042960773033,0.004675670759752393,0.0011105208032041625,8799.125617540676
1683169118415871381,137,1683169118415871381,camera_1,138,0,-0.21445490802046044,-0.4235519361275624,3.1315560277683057,0.7408078640581469,0.6687997740917899,0.062128565595947316,0.007114215442834429,0.0002126120962202549,5.0702327715173625e-05,8782.403842354659
1683169118425360441,138,1683169118425360441,camera_1,139,0,-0.21427404665878977,-0.4231528878988669,3.128922937136528,-0.7408190424171776,-0.668636218808391,-0.06347885139199244,-0.009120784816380824,0.0066824512905441225,0.0015911223557075172,8792.237473664101
1683169118434437513,139,1683169118434437513,camera_1,140,0,-0.21431995414262447,-0.42317081919334637,3.129166904957552,0.7411537827767599,0.668694655749521,0.05835689503397502,0.01153258209260307,0.002597574144601822,0.0006187078669722037,8800.51501648407
1683169118443947315,140,1683169118443947315,camera_1,141,0,-0.2140808620896211,-0.422771940812194,3.1258720521095897,-0.7408461938016803,-0.6681316973584692,-0.06774853471953775,-0.012533481472019638,0.01099649426760152,0.0026138337461004183,8795.149596601725
1683169118453048229,141,1683169118453048229,camera_1,142,0,-0.2142378735307583,-0.4230642550992848,3.127938912235091,0.7409789364336341,0.668367231061386,0.06426378439545997,0.010277461758164538,0.0004453536821529269,0.00010598637901511577,8794.572063730571
1683169118462577342,142,1683169118462577342,camera_1,143,0,-0.2141068559140789,-0.42267399669821704,3.1252141866509833,-0.7405191942975776,-0.6685427917835384,-0.0668242730281455,-0.014709689507215679,0.005325576814357191,0.001265657761681564,8798.847113322003
1683169118471561193,143,1683169118471561193,camera_1,144,0,-0.2142564075430366,-0.42306600421241647,3.127442524589113,0.7406069958103149,0.6685680806138361,0.06666162764387337,0.008615494241250436,0.00212329177884385,0.000505045178940717,8792.812011374162
1683169118480846166,144,1683169118480846166,camera_1,145,0,-0.214273869108779,-0.4230565641033943,3.1277076454404114,0.7409466133117819,0.6685331093791401,0.06251266708092149,0.0124001750023727,0.0016987189301289618,0.00040428601458082484,8797.959956802892
1683169118490334749,145,1683169118490334749,camera_1,146,0,-0.21415735083177562,-0.42282027399056277,3.1259579151942645,0.740544618042881,0.6687716954373666,0.06462977788884258,0.01269172484702717,0.0002767500700429082,6.57960689053608e-05,8802.287298059557
1683169118499846220,146,1683169118499846220,camera_1,147,0,-0.21420225708083696,-0.42290469134554554,3.126613779408267,-0.7407444586092289,-0.6683061172752828,-0.06722659949286443,-0.012048442753432717,0.0019653592025861144,0.00046742741130954124,8792.725530714499
1683169118509049415,147,1683169118509049415,camera_1,148,0,-0.21423594089966103,-0.42278271864779926,3.126170534060903,-0.7409545787934932,-0.6682431967010749,-0.0652393597870823,-0.013459872297211704,0.0037313572829589248,0.0008872189418713809,8798.90267783869
1683169118518624782,148,1683169118518624782,camera_1,149,0,-0.21437624059820196,-0.4230710759797014,3.1277803847246117,0.7408697626409243,0.6684706245101897,0.06489806687580799,0.006874582687025681,0.004194184148218483,0.0009976450818114085,8797.002463888144
1683169118527876138,149,1683169118527876138,camera_1,150,0,-0.21447401358489082,-0.4231960551159948,3.128924758590467,0.7408615876384227,0.668371934520578,0.06544058499770466,0.010981572849744776,0.0005610539810732007,0.0001336129758519349,8785.427080553958
1683169118537171363,150,1683169118537171363,camera_1,151,0,-0.2142515036480919,-0.4229533176432973,3.126564400832543,0.740708013708101,0.668499965769955,0.0655109467645202,0.012951835707148474,0.006358456215821207,0.001512109496184726,8796.307551820995
1683169118546617507,151,1683169118546617507,camera_1,152,0,-0.2144729288976343,-0.42321929438500766,3.1289480769670965,0.741207746056545,0.6683291940394657,0.06232319918015506,0.00793627269473292,0.007252436887938528,0.001726467311489353,8795.835417332133
1683169118555889129,152,1683169118555889129,camera_1,153,0,-0.21432053298055934,-0.42280720059576615,3.126080097278624,-0.7405994891132767,-0.6683908971867702,-0.06845753720837534,-0.008920251251054749,0.005634787550661713,0.001339221698236284,8795.70504268887
1683169118565342426,153,1683169118565342426,camera_1,154,0,-0.2143694874440632,-0.42295890633944444,3.1273412070021926,0.7408098692989338,0.6686160005058783,0.0634402703361864,0.011345197948539047,0.001442932290956378,0.00034328418513049694,8798.961257444927
1683169118574340581,154,1683169118574340581,camera_1,155,0,-0.2145666705615936,-0.4233702256773441,3.130136808716571,0.7406592906084049,0.6689610876408947,0.06184075308508634,0.009518388289776082,0.0003420205321162939,8.150522261788987e-05,8788.862322143043
1683169118583608388,155,1683169118583608388,camera_1,156,0,-0.21443950174172527,-0.4231599690635227,3.1284106277863213,-0.740958362549574,-0.6686375665330277,-0.061590964138530956,-0.010538630135427954,0.0015429634368047118,0.0003673164146809921,8798.110210022653
1683169118593102455,156,1683169118593102455,camera_1,157,0,-0.21441648531520216,-0.4229817572192536,3.1275598104604185,0.740722001321159,0.6684849463750989,0.06515418372466199,0.014619356067598873,0.006275655759964138,0.0014936134006269086,8790.00856115855
1683169118602381467,157,1683169118602381467,camera_1,158,0,-0.2143275580198759,-0.42284552738110415,3.12619234180992,-0.7407555747046621,-0.668244040860705,-0.06854640512381212,-0.005698310514912387,0.0021357056102715433,0.0005074705237641423,8797.593767746814
1683169118611766576,158,1683169118611766576,camera_1,159,0,-0.2145371321346014,-0.42325824965259257,3.1294584941511476,-0.7409984561750027,-0.6682331926887881,-0.06519877206338838,-0.011610695786127001,0.006022734742145985,0.0014347360552970335,8782.45783260581
1683169118621422529,159,1683169118621422529,camera_1,160,0,-0.21427406970840496,-0.4228675575318762,3.1260073254047076,-0.7409007317342309,-0.6683802327085184,-0.06446827944130351,-0.013334586085293865,0.0061340053216554224,0.0014583365062619553,8801.68398851296
1683169118630486726,160,1683169118630486726,camera_1,161,0,-0.21430347049181256,-0.42283544000548656,3.1262063603794337,-0.7409544436932659,-0.6683056403868013,-0.06474510770588031,-0.01273398706392875,0.0033414142089895904,0.0007944633578213414,8800.624284295369
1683169118639846801,161,1683169118639846801,camera_1,162,0,-0.2143438636414033,-0.42295292096829584,3.126979231194191,-0.740917475470763,-0.6684129564700868,-0.06450379001394493,-0.010231091769008013,0.004218624846544117,0.0010032642562945305,8799.425468575908
1683169118649369955,162,1683169118649369955,camera_1,163,0,-0.2142750184913877,-0.4229418694919045,3.126860649803835,-0.7409854221648956,-0.6683147806527489,-0.06397268003833038,-0.014263741055311273,0.004947074281517416,0.001176899128196337,8797.150320613062
1683169118658428430,163,1683169118658428430,camera_1,164,0,-0.2143680490023114,-0.4230352419348149,3.1274468823676327,-0.7408953387345818,-0.6684409585746387,-0.06452723552074677,-0.009849762293455794,0.0035416635219007726,0.0008425360665269164,8797.071203146132
1683169118667932510,164,1683169118667932510,camera_1,165,0,-0.2143655188258341,-0.42305192868518193,3.127305829676963,-0.7409619029932043,-0.6682421130406092,-0.06502800159640258,-0.014117212192540338,0.0006783796707168221,0.00016144602492482505,8792.062925658427
1683169118676610231,165,1683169118676610231,camera_1,166,0,-0.2144374826543718,-0.4233244011893674,3.1295098674359636,0.7408050373739555,0.6686349039453131,0.06303817287376805,0.012706320795230099,0.002218372712377459,0.0005285777682029588,8786.17907371372
1683169118686075210,166,1683169118686075210,camera_1,167,0,-0.2144610504106537,-0.4233172694739145,3.129489303453156,0.7407528639726679,0.6687910769652217,0.06225350024378835,0.011322172732562516,0.0033969342475757003,0.0008092499952250273,8789.67933962401
1683169118695670604,167,1683169118695670604,camera_1,168,0,-0.21437227308547174,-0.4230911214984904,3.1280778358117183,0.740893950721353,0.6686625039729082,0.06218743698712055,0.009966556384156335,0.0003363530850037933,8.005236571929641e-05,8799.147402672563
1683169118704962730,168,1683169118704962730,camera_1,169,0,-0.21415330576195046,-0.4227890256390165,3.1256704487094598,-0.7410267547280466,-0.6683577340781285,-0.0637281959407361,-0.010770567176713961,0.005237618577666581,0.001244724449895808,8808.138478289591
1683169118714528560,169,1683169118714528560,camera_1,170,0,-0.21431587103351984,-0.4230508814604985,3.127325307147988,0.7406351785867635,0.6685115386908702,0.06571367033285004,0.01528294501408406,0.00021220679627731442,5.0509584584379324e-05,8788.904063430844
1683169118723904609,170,1683169118723904609,camera_1,171,0,-0.2142389177520343,-0.42295922017251275,3.126852052494678,0.7407485936051532,0.6684294677872729,0.06569461648348579,0.013333605315085421,0.004085463820956648,0.0009718261937784226,8793.901248070179
1683169118733002185,171,1683169118733002185,camera_1,172,0,-0.2142671171254194,-0.42289099076677306,3.126459105174878,-0.740937082433118,-0.6684075380382901,-0.06458360264773427,-0.008518288450777602,0.003748665505554527,0.0008911122874115116,8803.75898526632
1683169118742601394,172,1683169118742601394,camera_1,173,0,-0.21423782317183523,-0.4229221984204603,3.126634508102355,-0.7408078519857195,-0.6683233979377513,-0.06699146196029455,-0.007726980630538361,0.002310452051460743,0.0005492839579844173,8797.37034844304
1683169118751738071,173,1683169118751738071,camera_1,174,0,-0.21431011935107053,-0.42313852010643604,3.128062073412355,0.7407362063445324,0.6685906858512585,0.06471466382826063,0.010410556606131835,0.0005906884325668216,0.00014058675414051558,8792.529674659712
1683169118761337995,174,1683169118761337995,camera_1,175,0,-0.21407311791201472,-0.4227265760460328,3.1254207473019697,0.7406741376072979,0.6686943542206156,0.06423181239584139,0.011133588348091052,0.0005246942164376378,0.0001246782320748431,8807.972179874314
1683169118770805358,175,1683169118770805358,camera_1,176,0,-0.21414115747065615,-0.4228554346369691,3.126324651532205,-0.7410234780358569,-0.6683936526395642,-0.06307992407926978,-0.01245203954929332,0.009262441308237612,0.002202523526564466,8804.369985882659
1683169118780051708,176,1683169118780051708,camera_1,177,0,-0.21421554651129265,-0.42304658908333514,3.127418074246495,-0.7406409180798235,-0.6687334666567937,-0.06478576502952758,-0.0070274951869103725,0.00030274444725364447,7.200839037988076e-05,8799.114725070078
1683169118789822101,177,1683169118789822101,camera_1,178,0,-0.21406432561210706,-0.4228200156044062,3.125792650428061,-0.7409265678899255,-0.6683524909753076,-0.06495807616072544,-0.010640354479740039,0.004469089326448739,0.001062101415995186,8804.504064758543
1683169118799538612,178,1683169118799538612,camera_1,179,0,-0.21393790334701246,-0.42266706997168163,3.12463144767243,-0.7407012492618067,-0.6683238145852526,-0.066988587099582,-0.014746775871953676,0.00928150222171098,0.0022050101302416424,8801.520150676137
1683169118807967185,179,1683169118807967185,camera_1,180,0,-0.2139547432434803,-0.4227031110532038,3.125016383488796,-0.7406809276169671,-0.6685584496155883,-0.06522504088510876,-0.012925051396635098,0.006262920505832881,0.0014880191993059107,8805.880428622011
1683169118816854476,180,1683169118816854476,camera_1,181,0,-0.2144584850630567,-0.42340182055534625,3.1304903489610973,-0.7407417178690425,-0.6688258239930429,-0.06222808439823424,-0.010069264152524189,0.0014477617805823684,0.0003451270190890937,8785.452274227522
1683169118826319694,181,1683169118826319694,camera_1,182,0,-0.21416087784732526,-0.42307130731502024,3.127726419242017,-0.740967801729278,-0.6683931351331802,-0.06388448388000652,-0.011666465904678744,0.00952636223519221,0.002266880496990825,8795.295381678266
1683169118836066246,182,1683169118836066246,camera_1,183,0,-0.214040765274556,-0.42276239501591795,3.125486325657432,-0.7408818311261891,-0.6683164909857224,-0.06528943521925333,-0.01358196717662541,0.002692648791708052,0.0006400238066755062,8802.333665004233
1683169118864510059,183,1683169118864510059,camera_1,185,0,-0.2143198838703748,-0.42326851728939957,3.1294687740870217,-0.7408935025309981,-0.6685952339562355,-0.06331095499464626,-0.006996714659225072,0.00037296448135748506,8.882531709346885e-05,8791.360053019136
1683169118939177989,184,1683169118939177989,camera_1,186,0,-0.21387346449741895,-0.4227966679772702,3.1259384367788097,0.7406201146880018,0.6687008771432953,0.06401034417880291,0.014955215325420834,0.0004171039327047765,9.919139894043394e-05,8801.461696490875
1683169118948558807,185,1683169118948558807,camera_1,187,0,-0.21346809972985006,-0.422166949620248,3.121115580485671,0.7406874820833043,0.6682231051077708,0.06666410109444558,0.02039199133222204,0.004172940040007234,0.0009898482229869425,8815.137871993706
1683169118957821607,186,1683169118957821607,camera_1,188,0,-0.2136970058162051,-0.4228334115192045,3.1261997702529816,-0.7405819004391231,-0.6687673194330539,-0.06342182382101783,-0.016321564371106698,0.007578350487165153,0.0018026695790572364,8799.876970536541
1683169118967017173,187,1683169118967017173,camera_1,189,0,-0.21352023684443883,-0.4225258120930047,3.124125541686228,-0.7404037916902068,-0.6689559168813665,-0.06269993451218503,-0.019207413473530322,0.002718665054999292,0.0006461167167345704,8809.725335601488
1683169118975967645,188,1683169118975967645,camera_1,190,0,-0.2134698406930544,-0.422809433883376,3.126440386111839,-0.7405304117364044,-0.6690499110434723,-0.06093647444872883,-0.016543032007240763,0.008612349862232804,0.0020490384980297593,8804.322278691925
1683169118985301733,189,1683169118985301733,camera_1,191,0,-0.2131958422738151,-0.4228572863815503,3.1267502569099026,-0.7406935932821418,-0.6684367498560517,-0.06540894859382174,-0.01694053589819602,0.006786013895180076,0.0016148818192867039,8791.173342229333
1683169118995142459,190,1683169118995142459,camera_1,192,0,-0.21328739136206978,-0.42267722942358,3.1253879387546135,-0.7402561085769364,-0.6689900722314052,-0.06486612624200222,-0.016296092682205738,0.0026982498238794506,0.0006415282628047942,8800.97007294628
1683169119004144668,191,1683169119004144668,camera_1,193,0,-0.2133622321038139,-0.42255881320973365,3.1240021200283015,-0.7400793488311354,-0.66900187223375,-0.06502055671049954,-0.022167083400321138,0.010276020271703601,0.0024428983093988297,8800.640174734872
1683169119013729810,192,1683169119013729810,camera_1,194,0,-0.21329098453573306,-0.42248163302133185,3.125204363096309,-0.7373207953871705,-0.6690711331652226,0.07361760569822585,0.057291461718965674,0.009422078495845199,0.0022414544051921072,8798.608114788076
1683169119023382425,193,1683169119023382425,camera_1,195,0,-0.21338190470828103,-0.42273292712835064,3.125255428746802,-0.7403419119208271,-0.6690406219599363,-0.06298075590652961,-0.01766137045413176,0.00558520806953311,0.0013282078195811869,8804.525374050718
1683169119032371759,194,1683169119032371759,camera_1,196,0,-0.21340378833906853,-0.422558880118225,3.125848504318211,-0.7373897609032054,-0.668748129923397,0.07415631434090114,0.05944005621167038,0.013093024375848472,0.0031170423633571113,8790.578735323856
1683169119041885375,195,1683169119041885375,camera_1,197,0,-0.21353409529306122,-0.4228194840027342,3.1254907779450867,-0.7404655129230009,-0.6689537380985611,-0.0630804289099921,-0.015250571929292118,0.006749567692168057,0.001604626294608666,8805.78935426939
1683169119050858020,196,1683169119050858020,camera_1,198,0,-0.21354814727844748,-0.4228856195982508,3.1263807541903295,-0.7403077976509554,-0.6689636496273768,-0.06316721101544842,-0.021021504868643907,0.005934337910730392,0.0014126971821512772,8793.387931765523
1683169119060038805,197,1683169119060038805,camera_1,199,0,-0.21365934986469765,-0.4227473997673258,3.1254522261283877,-0.7404328311317718,-0.668866644116608,-0.06472954331305383,-0.013664596329915856,0.008864584669936448,0.0021072041668972227,8803.881260667691
1683169119069520473,198,1683169119069520473,camera_1,200,0,-0.2138147362637988,-0.4230418660767904,3.128059102538045,-0.7405088985975691,-0.6692752969607069,-0.05997862938042767,-0.010941297620395592,0.00797109748236835,0.0018971826299563855,8803.64538620552
1683169119078951835,199,1683169119078951835,camera_1,201,0,-0.21366996001477856,-0.422789325177343,3.1260293502749543,-0.7408399403382855,-0.6687342438913588,-0.060976074956812926,-0.015251627109240386,0.006630447751376778,0.0015769421465933427,8807.983896241527
1683169119087864160,200,1683169119087864160,camera_1,202,0,-0.21362144422148255,-0.4226649600278563,3.125010236786608,-0.740465545524598,-0.6687176256701447,-0.06518706728624553,-0.01667810743646698,0.0072727647493593395,0.0017286599767012039,8801.788482905366
1683169119097579717,201,1683169119097579717,camera_1,203,0,-0.2136348511536465,-0.4227220375576301,3.12507563797737,-0.740932867320402,-0.6687043259531142,-0.060781620713917774,-0.012593854030765515,0.006735088885761797,0.0016002343204333817,8816.653492357582
1683169119106668472,202,1683169119106668472,camera_1,204,0,-0.21383358349301806,-0.42328669636659655,3.129407787013531,-0.7407245185888003,-0.6689272811506509,-0.060533203268455474,-0.01411422671802921,0.007747523370198905,0.0018462145334343287,8791.264648845885
1683169119115832090,203,1683169119115832090,camera_1,205,0,-0.21371147659361603,-0.42291284296512777,3.1266719643226306,0.7407320404348372,0.6687825608707872,0.061406527301300196,0.016588217298710736,0.0006301760440692306,0.00014996889289218033,8801.649505092762
1683169119124841451,204,1683169119124841451,camera_1,206,0,-0.21353821688146135,-0.42257432263024447,3.1240652311987183,0.7402998408283913,0.6689238368783911,0.06406906873683209,0.019804054043182088,0.003204117645509541,0.000761453705410486,8805.824736806564
1683169119134274482,205,1683169119134274482,camera_1,207,0,-0.21350489215648744,-0.4226549929247488,3.124924409883597,-0.7405180883192395,-0.6686577266973828,-0.06365709151625712,-0.021853606100551686,0.006985890271607786,0.0016615379519808195,8799.295036476567
1683169119143817901,206,1683169119143817901,camera_1,208,0,-0.21360081665015945,-0.42292250959943084,3.1266662296941274,-0.7401917123831971,-0.6692464529278798,-0.0616938706899047,-0.020476339564944053,0.006758945353794843,0.001609139884804808,8796.085561869902
1683169119153238773,207,1683169119153238773,camera_1,209,0,-0.2137307099044467,-0.42317490305474936,3.1285264764251206,-0.7407610063481856,-0.668949474578903,-0.059509031623544525,-0.015440436841653743,0.005323232500813901,0.001268012948261824,8797.037579865195
1683169119162551403,208,1683169119162551403,camera_1,210,0,-0.2134481870543403,-0.4227362441087534,3.1251640396630447,-0.7401983001822378,-0.6689674193540103,-0.06413497715061608,-0.021812220337496076,0.009823618980590254,0.002336912670761127,8796.754639301449
1683169119172107934,209,1683169119172107934,camera_1,211,0,-0.21339231732771535,-0.42260424217437376,3.124599595971355,-0.7407192166389893,-0.6686927801348352,-0.0624452010706643,-0.01689984498483292,0.010770615946967155,0.0025596195632245533,8810.569875939287
1683169119181046724,210,1683169119181046724,camera_1,212,0,-0.2136545682657242,-0.4232118597347294,3.129062113873661,0.7405772216694064,0.6692175965886662,0.05854386025349316,0.0163034838955293,0.008748130698222667,0.0020846036056746745,8795.288423908642
1683169119190425634,211,1683169119190425634,camera_1,213,0,-0.21345653153743233,-0.42271366935383164,3.1257305394201853,-0.7405599703691219,-0.6688621723025577,-0.06267286411903047,-0.016322893515124892,0.011171352001838386,0.0026564855058069364,8804.452333080117
1683169119199761867,212,1683169119199761867,camera_1,214,0,-0.21379418687901147,-0.4233419608985573,3.130283068541739,-0.7405524364877331,-0.6694297156271558,-0.05711951824851947,-0.013539028121858556,0.011425360280554743,0.002724280363716837,8794.886090473972
1683169119209065437,213,1683169119209065437,camera_1,215,0,-0.2135673218832516,-0.4228808774190029,3.126458574518139,-0.7404830126358195,-0.6689891564683474,-0.062102560995881136,-0.01678357659447664,0.010769406973849982,0.002562331286299359,8801.037944565061
1683169119218592166,214,1683169119218592166,camera_1,216,0,-0.2136657267542134,-0.4230384278199326,3.127617682705153,-0.7405356412613994,-0.6690497571758366,-0.060612291621980126,-0.017479603795685816,0.009480599022936076,0.0022575257288554103,8797.188470430207
1683169119227756738,215,1683169119227756738,camera_1,217,0,-0.213589988779605,-0.42292824049357425,3.126617921271426,-0.7403751697127565,-0.6692690586609035,-0.05904277057505632,-0.02091617638997865,0.0064364810241386294,0.0015324665400908795,8801.908276921135
1683169119237201929,216,1683169119237201929,camera_1,218,0,-0.2135206457212072,-0.4228494641304842,3.1261644474970094,-0.7403226458207806,-0.669015397663918,-0.062403459114889405,-0.021132582994161108,0.008217446913477033,0.0019559636438807016,8796.322269639935
1683169119246795177,217,1683169119246795177,camera_1,219,0,-0.21348848255236727,-0.42269233862025674,3.125114055657109,-0.7406429553669093,-0.6685997668703467,-0.06335683461949486,-0.020205838593993254,0.008654431672766805,0.002058110284948844,8801.188782935962
1683169119255876064,218,1683169119255876064,camera_1,220,0,-0.21329445041138545,-0.4222458790337491,3.1216121827766927,-0.7402705717591395,-0.6684188395968951,-0.06770823785601246,-0.02512628077871504,0.006631937867496163,0.0015747861424834399,8802.86752435821
1683169119265293598,219,1683169119265293598,camera_1,221,0,-0.21382592735596526,-0.4233104225963954,3.129645766878817,-0.7404635111995754,-0.6692317094999322,-0.059656001431264344,-0.016848414614666234,0.003957755514420569,0.0009436117935453543,8788.780451683095
1683169119274229526,220,1683169119274229526,camera_1,222,0,-0.2136097077961936,-0.4229106578889249,3.126765515345829,-0.7408323858592285,-0.6688735113737986,-0.05937263516964983,-0.015826940248186167,0.004212646570522338,0.0010024563389676004,8806.836657759268
1683169119283666610,221,1683169119283666610,camera_1,223,0,-0.21355138098995022,-0.4227319797168096,3.1253705988268647,-0.7403853302962405,-0.6688929424825023,-0.06336288340433209,-0.019923332701023467,0.0030027797911316156,0.000714274056780823,8800.085739044702
1683169119292565584,222,1683169119292565584,camera_1,224,0,-0.21384283320434297,-0.4233913724222121,3.130441730558806,0.7406805741898838,0.6694123194106335,0.05472972002745782,0.016855010671495602,0.00559850555146113,0.0013354080754979726,8795.25649926346
1683169119301934242,223,1683169119301934242,camera_1,225,0,-0.2136078980720379,-0.4229199511789725,3.1266460569974304,-0.7404838365453156,-0.6689985001749874,-0.0622324232206875,-0.015868839870293628,0.0035237299161963165,0.000838440313614258,8800.706664029978
1683169119311458587,224,1683169119311458587,camera_1,226,0,-0.2133312141715088,-0.42250567034607805,3.1235541907932722,-0.7403159519866126,-0.6686499665767304,-0.06671777952775484,-0.01970409414256042,0.00936091848416254,0.002223808290452589,8802.195948255481
1683169119321124315,225,1683169119321124315,camera_1,227,0,-0.21351185402428344,-0.42276855886565184,3.125524932199379,-0.740553350044748,-0.6687686906555896,-0.06355436897255722,-0.017029865554645245,0.004298908810596913,0.0010222446574316255,8802.410296828715
1683169119330249786,226,1683169119330249786,camera_1,228,0,-0.21363379067700763,-0.42300450724674626,3.127510235665251,-0.7404647873451279,-0.6690829144303061,-0.06109134531648398,-0.01754422545467237,0.0042251129052601755,0.001006038375157669,8796.600930871438
1683169119339938163,227,1683169119339938163,camera_1,229,0,-0.2135683245681914,-0.4229754592119531,3.127045089185941,-0.7404073977755581,-0.6691361773656062,-0.06163712795702309,-0.015953868401746174,0.006529650068841874,0.0015539860250359807,8799.798897712259
1683169119349430799,228,1683169119349430799,camera_1,230,0,-0.21344846921445537,-0.42265617478017786,3.1250961063002616,-0.740677676002955,-0.6688382351417824,-0.06121046310136003,-0.0174721117843389,0.0072022645035758615,0.0017122928581184654,8810.036965105453
1683169119358666419,229,1683169119358666419,camera_1,231,0,-0.21357879101311533,-0.4230007303096244,3.1275031796400365,-0.7405824121722262,-0.6686109772149627,-0.06271091753362439,-0.023756951633375427,0.017743166827131063,0.0042278767559761786,8784.416789815996
