%time,field.header.seq,field.header.stamp,field.header.frame_id,field.image_seq,field.transforms0.fiducial_id,field.transforms0.transform.translation.x,field.transforms0.transform.translation.y,field.transforms0.transform.translation.z,field.transforms0.transform.rotation.x,field.transforms0.transform.rotation.y,field.transforms0.transform.rotation.z,field.transforms0.transform.rotation.w,field.transforms0.image_error,field.transforms0.object_error,field.transforms0.fiducial_area
1683655496815566301,21,1683655496815566301,camera_2,25,0,-0.15740037614224817,0.8841765809728519,4.6315925423689395,-0.7189981958723526,0.6854386803577899,-0.08884266750889964,0.07295471356654563,0.007774205136229284,0.0024063215565467365,11612.834775038351
1683655496824873924,22,1683655496824873924,camera_2,26,0,-0.15748657537445154,0.8846684442260861,4.634344619125091,-0.7190450925248942,0.6856952681165267,-0.08632522653420317,0.07310341621490167,0.010305568677722476,0.0031911812237193837,11608.036383909315
1683655496834273099,23,1683655496834273099,camera_2,27,0,-0.1573875278127178,0.883967302964923,4.630445132652541,-0.7188265831825333,0.6853120668000822,-0.08966045157531216,0.07481121461141571,0.011675586138153449,0.003613067531993568,11610.532505028945
1683655496843441247,24,1683655496843441247,camera_2,28,0,-0.15719904883927832,0.8832775610519467,4.626917830089996,-0.7185127837147907,0.6853329005463864,-0.08973024251542643,0.07750276540370755,0.007335585876717232,0.002266697219446218,11620.62200307252
1683655496852833747,25,1683655496852833747,camera_2,29,0,-0.15740161768299388,0.8840910010220717,4.631329103639685,-0.7189097261872716,0.6854420243561181,-0.08845488422463314,0.0742547661550139,0.007876325282268224,0.0024374314717549596,11612.200277623548
1683655496861932754,26,1683655496861932754,camera_2,30,0,-0.1574571714608065,0.884365396172412,4.6327979261129135,-0.7190629747279418,0.6853046355705061,-0.08811974288670842,0.07443726052562409,0.009270068621844985,0.0028701006985889068,11605.57419011724
1683655496871547698,27,1683655496871547698,camera_2,31,0,-0.15731408701578437,0.8836129426342187,4.62889009934106,-0.7188546618546715,0.685255925723488,-0.08933220587985628,0.07544566510602306,0.011481050256406888,0.003550081657392619,11617.885843322956
1683655496880797147,28,1683655496880797147,camera_2,32,0,-0.15717155260367505,0.8830749409203843,4.625733874611605,-0.7185690291798931,0.6849729171226853,-0.09096340716322125,0.07871665433161593,0.011721321468940005,0.00362162709760884,11618.366637572788
1683655496890001058,29,1683655496890001058,camera_2,33,0,-0.1573747411116996,0.8841103018373404,4.6312905777160305,-0.7189310000402824,0.6853577993080981,-0.08824874609286038,0.07506705616765641,0.005886688522878103,0.001821573447055945,11611.017582324272
1683655496899619340,30,1683655496899619340,camera_2,34,0,-0.15739358896288685,0.8838275418477944,4.629662356019459,-0.7185333224780263,0.6854043718910453,-0.09141888213705499,0.07465453415661728,0.01683586000581272,0.005211086573489265,11608.033433926492
1683655496908902645,31,1683655496908902645,camera_2,35,0,-0.15742194853691238,0.884256211960293,4.632023840862519,-0.7190911025779504,0.6854061957799563,-0.08656469294409952,0.075052561016727,0.005678030123817734,0.0017565423026122229,11613.55698006359
1683655496917980432,32,1683655496917980432,camera_2,36,0,-0.15730746260229864,0.8836708491076652,4.628928296342347,-0.7189713257509496,0.6851465666062481,-0.08926636174487983,0.07540511704403371,0.010630557910189964,0.0032872563076228093,11618.102689669407
1683655496927461147,33,1683655496927461147,camera_2,37,0,-0.1573906518685796,0.8838964505194233,4.630213204254637,-0.7187738218618112,0.6852897618701701,-0.08954489339739459,0.07565611243343263,0.010498103714780882,0.003248307181865914,11609.84380300063
1683655496936640501,34,1683655496936640501,camera_2,38,0,-0.15743293367779973,0.8843611883862768,4.632959857075334,-0.7188743746376753,0.6856403872796866,-0.0873082550223256,0.07412261075548703,0.0009984373609768227,0.00030907027565480616,11608.63524928674
1683655496946422576,35,1683655496946422576,camera_2,39,0,-0.15735767626142066,0.8839344651355547,4.630544465851944,-0.7188643842723531,0.6850786401333393,-0.09004852850150272,0.07610858277815444,0.008496524358633906,0.0026297889899455896,11605.082463148432
1683655496955456018,36,1683655496955456018,camera_2,40,0,-0.1572791193047885,0.8838002613746463,4.629664509919134,-0.7186865449065933,0.6853068935877275,-0.08940886780364385,0.07648637871825821,0.01045668225560803,0.003234720480443567,11610.969265268592
1683655496964513301,37,1683655496964513301,camera_2,41,0,-0.15737208128724947,0.8839909532211228,4.630860636631425,-0.7191185384873142,0.6852871221044617,-0.087273817496053,0.07505577033992247,0.010954013458103873,0.003387823831269588,11616.81049683463
1683655496974024772,38,1683655496974024772,camera_2,42,0,-0.1575066865646632,0.8844855925363645,4.633227999274871,-0.7190127019777689,0.6853793903703003,-0.08833710904396441,0.07397554201233322,0.01032936864066869,0.003198890379060833,11603.789572546546
1683655496983645200,39,1683655496983645200,camera_2,43,0,-0.15728218444374384,0.8835022403644497,4.628090606541169,-0.7186396478675915,0.6853683133613947,-0.08930248149838364,0.0765009696090975,0.01313947283779271,0.004061605711885934,11619.131582330561
1683655496992597341,40,1683655496992597341,camera_2,44,0,-0.15747148867681102,0.8844796224183387,4.633183891392551,-0.7191061544306482,0.6855828864846786,-0.08496506931288612,0.07512244282474811,0.015619944519130513,0.0048322495441994245,11613.364123549312
1683655497002507209,41,1683655497002507209,camera_2,45,0,-0.1574818141609195,0.8844315760649231,4.633220966015969,-0.7192749636317298,0.6852560111659196,-0.08738543054998968,0.07369879497752925,0.0033672109566396102,0.0010425004373154603,11608.154896120133
1683655497011609315,42,1683655497011609315,camera_2,46,0,-0.15725864713338567,0.8834322488439396,4.627788555006457,-0.7187367720302321,0.6850186289473387,-0.08921141708648549,0.07879247164603788,0.0035132481571054086,0.0010858356182366297,11614.524872159986
1683655497020835876,43,1683655497020835876,camera_2,47,0,-0.15733974205762113,0.8840121976685101,4.630801440685059,-0.7190884232717034,0.6851837520475867,-0.08854595074655987,0.07479759389843094,0.0019929986010538414,0.0006166325713281559,11613.093181863253
1683655497030346393,44,1683655497030346393,camera_2,48,0,-0.1574357843654121,0.8842540620514648,4.631781674381936,-0.7187132810715506,0.6855775446923184,-0.08695536765534749,0.07663820105497086,0.016258471077890135,0.005029747059621223,11608.955929440857
1683655497039488554,45,1683655497039488554,camera_2,49,0,-0.15741794304991646,0.8841909883816094,4.631796584062239,-0.7189643066944879,0.6854352251771793,-0.08839392655772181,0.0738606223459572,0.009896422256133519,0.0030630396686801937,11611.114972356008
1683655497048649311,46,1683655497048649311,camera_2,50,0,-0.15734587994759336,0.8837674448397741,4.629539562202959,-0.7188302927077753,0.6850239990428806,-0.09038449398275572,0.07652303096738365,0.006297178013483062,0.0019484434145748005,11607.648820785427
1683655497058050155,47,1683655497058050155,camera_2,51,0,-0.15733923951167106,0.883654786452935,4.629183536466536,-0.718797353646096,0.6854068546069082,-0.08919836104361203,0.07477606860732457,0.0055484775512013584,0.0017157993853619787,11618.704472693818
1683655497067301034,48,1683655497067301034,camera_2,52,0,-0.15744720589647182,0.8843379135453153,4.632692898686861,-0.7191228461003301,0.6852377428440641,-0.08815248081493593,0.07443593302099111,0.0067061864683637396,0.0020762399208569143,11605.993556134665
1683655497077200889,49,1683655497077200889,camera_2,53,0,-0.15737722429429835,0.8839963401906594,4.630763961108344,-0.7188649343677009,0.6852897922279292,-0.08918469829770012,0.07521433636130055,0.005877225426957011,0.0018187697623204824,11609.703903440763
1683655497086272478,50,1683655497086272478,camera_2,54,0,-0.15750797650871873,0.8847299760913893,4.634592589590107,-0.7191475858625909,0.68562023337994,-0.08638873991801649,0.07272297397261296,0.003751034411834553,0.0011616097487874262,11607.483792508716
1683655497095370292,51,1683655497095370292,camera_2,55,0,-0.15736280614315554,0.8837672471237363,4.6294076607745005,-0.7187054546439412,0.6852114667902629,-0.0908458262162915,0.0754635746785261,0.012842251773690805,0.003973920315418367,11609.407547862502
1683655497105077743,52,1683655497105077743,camera_2,56,0,-0.15736621734198053,0.883954506856969,4.630450386954561,-0.7188538276263371,0.6853524484870404,-0.0888929600400388,0.0750948567819604,0.014292312756879255,0.00442184006120003,11612.702209660463
1683655497113878011,53,1683655497113878011,camera_2,57,0,-0.15731808806343406,0.8837836036192531,4.629751626379162,-0.7188104097624206,0.6853080483688148,-0.08838215163426724,0.07650535230037767,0.00967143704474438,0.002990787010063316,11614.283153954402
1683655497123463869,54,1683655497123463869,camera_2,58,0,-0.15733176559660011,0.8838258400297322,4.629564878314005,-0.7184670229399556,0.6855119319576034,-0.08951879085262918,0.07658272765992848,0.0237477409245912,0.007345733674283774,11610.666026417985
1683655497132778167,55,1683655497132778167,camera_2,59,0,-0.15726325005461622,0.8834825782308515,4.62806122932863,-0.718711246377795,0.6852974414428522,-0.08873273502627962,0.07712368518628421,0.01648414482770022,0.005094298567248585,11619.699293785376
1683655497141970872,56,1683655497141970872,camera_2,60,0,-0.1573024230191244,0.883675240598712,4.628944435501625,-0.7183971306024138,0.6855142557862803,-0.08936227874647137,0.07739606574780605,0.01637739264697302,0.005064476268047725,11612.12682845083
1683655497151538133,57,1683655497151538133,camera_2,61,0,-0.1573467484487894,0.883544497751424,4.62843073874214,-0.7185691302398873,0.6851656810012206,-0.09143007192166659,0.07646526396230086,0.00954636963433586,0.0029533485697983476,11609.247852509052
1683655497160775899,58,1683655497160775899,camera_2,62,0,-0.15735358116746176,0.883801505829744,4.629949708292534,-0.7188243613204973,0.6853599982964796,-0.08836986237089312,0.0759208649303868,0.010655737496563233,0.0032953815324785873,11614.90273928066
1683655497170054197,59,1683655497170054197,camera_2,63,0,-0.15748955507976597,0.8845464552317697,4.6336562534686125,-0.7188665223362335,0.6855990731877486,-0.08899151414611225,0.07256269233078479,0.006807533427490853,0.0021090069382986867,11602.89557441044
1683655497179464817,60,1683655497179464817,camera_2,64,0,-0.15732824751213775,0.8836553641375164,4.628947088213476,-0.7189582722747745,0.6851089755758114,-0.08932079872050953,0.07580560156785136,0.013717113455641083,0.004241607393946067,11616.650979490487
1683655497188638448,61,1683655497188638448,camera_2,65,0,-0.15733678668651602,0.883908614052599,4.630383487836603,-0.7187557162038714,0.6854518777517591,-0.08810152053573594,0.07605304589652477,0.006602741312235594,0.002042170387613616,11613.40074779233
1683655497198028326,62,1683655497198028326,camera_2,66,0,-0.15732337663047666,0.883689002880114,4.6291306963145775,-0.7188741533098107,0.6851407980840788,-0.09009904384333413,0.07539363900443707,0.006803203767049126,0.0021044220635958464,11613.901360824933
1683655497207684755,63,1683655497207684755,camera_2,67,0,-0.15740400243738695,0.8838251301397231,4.6299773257606684,-0.7191100489463991,0.6850279676780351,-0.08994845949242562,0.07434174895809166,0.00216833503509406,0.0006709376263420111,11613.002816389897
1683655497216607093,64,1683655497216607093,camera_2,68,0,-0.1573109866844528,0.8837487016885359,4.629305413900423,-0.7190913375870964,0.6850867104029777,-0.0894698494583549,0.07455865794343701,0.008409761430812068,0.002601086308148581,11617.729620338418
1683655497225865364,65,1683655497225865364,camera_2,69,0,-0.15734137152507532,0.8837293449064881,4.629264938222735,-0.7188544083932077,0.685266479393706,-0.08986100479226325,0.0747207572949573,0.009518214414129034,0.0029442216409345345,11615.951746622568
1683655497235383987,66,1683655497235383987,camera_2,70,0,-0.15730237963623767,0.8834490867449913,4.62796423847513,-0.7185567158250686,0.6852811193433557,-0.09047380757565988,0.07668457313548575,0.007158229942433536,0.0022134124156943896,11614.72614269986
1683655497244466066,67,1683655497244466066,camera_2,71,0,-0.1573425132111504,0.8839120924019992,4.6301508155874505,-0.7186912197856045,0.6855567113909576,-0.08814977585968482,0.07566071031772273,0.008351228796527721,0.002582777146295947,11615.449589237607
1683655497253896474,68,1683655497253896474,camera_2,72,0,-0.1573509598661252,0.883792209669342,4.629802240570543,-0.7189116696938083,0.6852355561381178,-0.0889184880473677,0.07557609586049913,0.010146103129955009,0.003138172860488335,11614.530776178784
1683655497263378620,69,1683655497263378620,camera_2,73,0,-0.15729129875337414,0.883639592490438,4.628874397740038,-0.7186273249143005,0.6853485086514628,-0.08964504387513221,0.07639342697089901,0.010891291341977194,0.0033681221293857823,11614.20543977723
1683655497272654533,70,1683655497272654533,camera_2,74,0,-0.1573770310944128,0.883910953003931,4.630200059200842,-0.7189945679641134,0.685214766381297,-0.08992568040341131,0.07376250521169929,0.006609815216506831,0.002045425138857772,11613.558706863323
1683655497282019615,71,1683655497282019615,camera_2,75,0,-0.15740433254716954,0.8842546144636283,4.632168417070799,-0.718712428907153,0.6855883739732153,-0.08781297312387382,0.07556393159629096,0.004435805283719675,0.001372895011527795,11606.864738727749
1683655497291022777,72,1683655497291022777,camera_2,76,0,-0.1574120595371568,0.8841199038792471,4.6314776907758155,-0.7188245251018904,0.6852799034167982,-0.08968699425423003,0.0750932696501311,0.004638978425646201,0.0014362426659936458,11604.52648066426
1683655497300488233,73,1683655497300488233,camera_2,77,0,-0.15738727520691617,0.8839910661666156,4.630763344307567,-0.718967093040603,0.6851799906534719,-0.08932439309602212,0.07507231401042914,0.005146072682691738,0.0015925578273378682,11609.543271751667
1683655497310028076,74,1683655497310028076,camera_2,78,0,-0.15742036646700305,0.8840279992800684,4.630937602907429,-0.718859133862522,0.6854337596977756,-0.08809407673732644,0.07524320815060158,0.007129096979042515,0.002205450819204262,11612.76949052912
1683655497319246768,75,1683655497319246768,camera_2,79,0,-0.15735933927920762,0.8838366168793673,4.629984087899565,-0.7191009126615983,0.6851179273014072,-0.08759755293368687,0.07638044134142138,0.01379143625672441,0.004264176684374879,11616.358302972076
1683655497328609943,76,1683655497328609943,camera_2,80,0,-0.15742104168939286,0.884302912199542,4.6323045176253395,-0.7188594821808098,0.6855464948201861,-0.0879596611380004,0.07436495364741828,0.008181358978617936,0.002532497951593191,11608.88652111345
1683655497337781906,77,1683655497337781906,camera_2,81,0,-0.15732118557815117,0.8837904425627443,4.629712101432919,-0.7187678001697088,0.6855807065554159,-0.088985498170412,0.07371245046488388,0.013104289697366767,0.0040527928643351785,11619.707342339563
1683655497347223758,78,1683655497347223758,camera_2,82,0,-0.15723122142300017,0.8832513642508766,4.626751062899097,-0.7185166638103402,0.6849965435335303,-0.09140696684147803,0.07847487232749016,0.013218291001976468,0.004086490299489373,11612.192782668226
1683655497356690883,79,1683655497356690883,camera_2,83,0,-0.15740676610005533,0.8842637677904434,4.632055277782514,-0.7187335669661539,0.6854096003267451,-0.08871365600142855,0.07593172416652282,0.011693015490891412,0.003620000926039479,11603.080225526352
1683655497365885972,80,1683655497365885972,camera_2,84,0,-0.15725769483153948,0.8836741512727513,4.629123242304097,-0.7185578769107756,0.6852613812670759,-0.08854471872554912,0.07906484464812157,0.008114555428619497,0.0025089199634878477,11609.64185878649
1683655497375166177,81,1683655497375166177,camera_2,85,0,-0.15739486438653305,0.8841382381450564,4.631691201629321,-0.7188042026195793,0.6855556389138457,-0.08691369209968042,0.0760262742442475,0.00347389726084657,0.0010746305757121004,11611.291649099734
1683655497384600877,82,1683655497384600877,camera_2,86,0,-0.15736949778642315,0.8840597227893487,4.631254759940647,-0.7190901983738459,0.6853048485685844,-0.08682366956312212,0.07568488313161682,0.008904648595489562,0.0027541800759370723,11614.825946354718
1683655497393894910,83,1683655497393894910,camera_2,87,0,-0.157306590300099,0.8836110833478306,4.628873984820434,-0.7189327610966769,0.6852732505581792,-0.08816188438677633,0.0759192942058092,0.003868025160045363,0.0011956083583084362,11621.09834797133
1683655497403171539,84,1683655497403171539,camera_2,88,0,-0.15734120487093556,0.8838176044667314,4.629864604138312,-0.7188620505151,0.6852270093431909,-0.0896703635473294,0.07523645324643005,0.010776042370707728,0.0033339914035998546,11612.32039354567
1683655497412739515,85,1683655497412739515,camera_2,89,0,-0.15729341317795903,0.8836355706873525,4.629061346317425,-0.7188325551638759,0.6851432644016978,-0.0887207974163321,0.07737625596634076,0.00540527343400754,0.001671231016715145,11614.046164665018
1683655497422079801,86,1683655497422079801,camera_2,90,0,-0.1573639456173451,0.883826163044527,4.629831817464009,-0.7189538770280529,0.6852834138533694,-0.08961853784292946,0.07389508155959082,0.01631863447255455,0.005048463120217371,11616.228488740595
1683655497431264400,87,1683655497431264400,camera_2,91,0,-0.1574243387180644,0.8843182743137863,4.632436694562599,-0.7188059352303586,0.6854486861773721,-0.08822459177685968,0.07546222565714861,0.007222780637675896,0.002235993104010802,11604.246395421826
1683655497440346717,88,1683655497440346717,camera_2,92,0,-0.1572297092833671,0.8831269941961958,4.626398109849858,-0.7187626042019096,0.6850132671304616,-0.09021152605254092,0.0774533616017498,0.010928947856882587,0.0033768343903935287,11621.489601198085
1683655497449866294,89,1683655497449866294,camera_2,93,0,-0.15725155514498293,0.8835283700711358,4.628191110984735,-0.7187451797662756,0.6851687631439739,-0.08972641815838317,0.07680040663283068,0.008976168450317346,0.002775195923793496,11616.229860468007
1683655497459410429,90,1683655497459410429,camera_2,94,0,-0.15727562603670472,0.8835817990849629,4.628369785126913,-0.718737762106371,0.6850891847670517,-0.09059072751552052,0.0765647329111178,0.016883955380762927,0.0052219025855875555,11612.649804618348
1683655497468651771,91,1683655497468651771,camera_2,95,0,-0.1574306932409104,0.884169783607559,4.6316804724240646,-0.7190533541883015,0.6853729155232272,-0.08806637472536588,0.07396319449885638,0.011543105836608447,0.0035720730937813484,11612.61712015182
1683655497477738857,92,1683655497477738857,camera_2,96,0,-0.1573335435078739,0.8837251237229904,4.629353054174493,-0.7187877281283942,0.6852751438428984,-0.08835463828791724,0.07704308545306082,0.006903391549712978,0.002134440920796083,11614.851823521774
1683655497486943721,93,1683655497486943721,camera_2,97,0,-0.15718615923555648,0.8831814634737856,4.626533014409218,-0.7187276676102138,0.6850513451739767,-0.08956583805108803,0.07818666728486197,0.007387729099718854,0.0022823287867637446,11621.256321903456
1683655497496331930,94,1683655497496331930,camera_2,98,0,-0.1574459268149236,0.8841605874448875,4.63155413685892,-0.718950513267058,0.685553667810079,-0.08821412451484978,0.07310674566180854,0.013280426574056037,0.004109610249563253,11614.910923307147
1683655497505750894,95,1683655497505750894,camera_2,99,0,-0.15733266158915915,0.8838150530096571,4.629872661542319,-0.7188282283435635,0.6852819448689094,-0.09046228210606747,0.0741026969097705,0.009340184507891536,0.002890490421161623,11612.295680063784
1683655497514968872,96,1683655497514968872,camera_2,100,0,-0.157357253276498,0.8838180677238948,4.629755408780265,-0.7188104288030243,0.6854380534821627,-0.08921757135501004,0.07434021283336538,0.008430212299572304,0.002607575030351051,11616.925826671588
1683655497524617671,97,1683655497524617671,camera_2,101,0,-0.15731956723590895,0.8837460945997099,4.629478335997931,-0.7189498160007654,0.685216906641791,-0.08866311052190878,0.075682268447111,0.00651027999992948,0.0020132130752402,11616.86263316139
1683655497534594774,98,1683655497534594774,camera_2,102,0,-0.1572874196046285,0.8835376857676306,4.628321921796632,-0.718930344376941,0.6852737185818889,-0.08887300524651758,0.07510445721430596,0.009251629715436138,0.0028596178051634898,11623.41419370706
1683655497543746471,99,1683655497543746471,camera_2,103,0,-0.1573270772739992,0.8837552538965081,4.629357969009089,-0.7186231109429506,0.6854654091105552,-0.08919672373600497,0.07590745553855477,0.019328102600411512,0.005977525108174336,11614.800248304731
1683655497553249359,100,1683655497553249359,camera_2,104,0,-0.15736688007991115,0.8837786622573818,4.629628080060359,-0.7188716794286147,0.6852020687051771,-0.08877422705818633,0.07642493158551371,0.008675473378389142,0.002683031676532488,11613.59402465089
1683655497561675548,101,1683655497561675548,camera_2,105,0,-0.15733074425250004,0.8836680728657547,4.629054569483454,-0.7187367665051511,0.6854035065698123,-0.08911328005012359,0.0754871974193888,0.007202635300927794,0.002227183859475325,11617.763995220947
1683655497571182012,102,1683655497571182012,camera_2,106,0,-0.15732163380085623,0.8835928596628152,4.628627558859887,-0.7185413359443118,0.6851004601191489,-0.09064337948078018,0.07822714260534701,0.008528923208359629,0.002638186285761564,11606.41166797205
1683655497581082820,103,1683655497581082820,camera_2,107,0,-0.157376258828305,0.8839683751271158,4.6306070755537405,-0.7187503503638212,0.6852552553496289,-0.08801436686091528,0.07795280683638911,0.01234811257745605,0.0038195374326848515,11607.282853026674
1683655497589962244,104,1683655497589962244,camera_2,108,0,-0.15729339944924509,0.8836249816631505,4.6287965492792855,-0.7188142434245778,0.6853090978153847,-0.08930978250546674,0.07537431028036974,0.005995484854793176,0.0018538366800329071,11618.66336830426
1683655497599055767,105,1683655497599055767,camera_2,109,0,-0.15735154147799638,0.8839321641022734,4.630327336878129,-0.7186892697618494,0.6851052266620922,-0.08958890868687283,0.07804094675077919,0.011722684212145396,0.0036275511437025834,11602.527031219073
1683655497608634948,106,1683655497608634948,camera_2,110,0,-0.15725469863001493,0.883445215591466,4.627790437652816,-0.7187392055717646,0.6852499296734688,-0.08999864474211053,0.07580720415078153,0.0075230888614896685,0.002325751094125745,11619.923957715688
1683655497617635726,107,1683655497617635726,camera_2,111,0,-0.15736094047374105,0.8838319687540523,4.629959489260544,-0.7188785591661528,0.6852506053241859,-0.08930439875966423,0.07529906663570128,0.010334989681723528,0.003197168093023799,11613.017378624529
1683655497627039909,108,1683655497627039909,camera_2,112,0,-0.1573511381873131,0.883712880171731,4.629354550323894,-0.718598657069442,0.6854405874008189,-0.09018782896672528,0.07518860756712675,0.00730956406914629,0.0022613032570077828,11612.948728810152
1683655497636263132,109,1683655497636263132,camera_2,113,0,-0.15747325261687561,0.884486148384324,4.633410549512086,-0.7190848568316175,0.6857632102959305,-0.08541894747961236,0.07313953439520213,0.005504689790541306,0.0017032989963399092,11615.833950064492
1683655497645597219,110,1683655497645597219,camera_2,114,0,-0.15741889639123283,0.8840985418425944,4.631151705059559,-0.7188515174786335,0.6856619380232283,-0.08855024352769846,0.07265711896354049,0.024402678129263222,0.007550643738270968,11616.835554222547
1683655497655028820,111,1683655497655028820,camera_2,115,0,-0.15724518033188073,0.8834128316071115,4.627717699560998,-0.7182903745613511,0.6852464151625733,-0.09209339896703177,0.07755703827542196,0.007076330759446137,0.0021890322183558135,11607.26167462632
1683655497664470195,112,1683655497664470195,camera_2,116,0,-0.15736475178170767,0.883890682226911,4.6303941972783065,-0.719053890208663,0.6853123630545729,-0.08795809156528533,0.07464477308250207,0.004990591463865711,0.001543505764039698,11617.696554521655
1683655497673806428,113,1683655497673806428,camera_2,117,0,-0.15738695692607207,0.8840355003944966,4.631084294594685,-0.7186193945188166,0.6855702728524206,-0.08877806084045713,0.07548524833287125,0.004146334613324143,0.0012830972687069015,11608.866213756268
1683655497683252334,114,1683655497683252334,camera_2,118,0,-0.15745652070076446,0.884311121683948,4.632353068369234,-0.7190089317208392,0.6853556217897278,-0.0876831626920579,0.07500327170991401,0.018291148342541416,0.00566131623145203,11607.905244177673
1683655497692278385,115,1683655497692278385,camera_2,119,0,-0.15742373337055404,0.8842343323756404,4.632118309242265,-0.7189484801038523,0.6856233422521617,-0.08654041256029786,0.07446121479823896,0.006277335560298525,0.0019419705462474976,11614.748347397399
1683655497701725006,116,1683655497701725006,camera_2,120,0,-0.15754544090562647,0.8850029617221182,4.636112055163901,-0.7191289672993219,0.6857283899821466,-0.08552321113453679,0.0729101084949236,0.002129464875906706,0.0006597169035187405,11602.56955658508
1683655497710894823,117,1683655497710894823,camera_2,121,0,-0.15733770422248738,0.88379758593005,4.629835799791718,-0.7187630462965606,0.6853784228326544,-0.08753745296630265,0.07728709544344348,0.007691251143114641,0.0023779003888107796,11614.809671080151
1683655497720432281,118,1683655497720432281,camera_2,122,0,-0.15738448646198877,0.8838722596743298,4.630201154981898,-0.7189499187871982,0.6851743929385922,-0.08903101030586932,0.07563428284203717,0.0030527943308698013,0.0009444447858612759,11611.929534931112
1683655497729813098,119,1683655497729813098,camera_2,123,0,-0.15724971361281445,0.8834794185249795,4.628046152497558,-0.7186393502974455,0.6851941458186255,-0.08959019875366492,0.07771784239946664,0.005312785113346763,0.001642446740947544,11614.906242411646
1683655497738844871,120,1683655497738844871,camera_2,124,0,-0.15736494367888243,0.8839646151173755,4.630661093103931,-0.7186715527985121,0.68543743650439,-0.08939164829340944,0.07547087552064871,0.0037667300639441237,0.0011656476251713371,11608.715611616966
1683655497748186111,121,1683655497748186111,camera_2,125,0,-0.15734730497389723,0.8839295227820665,4.630385059361105,-0.7191671784024156,0.6854993903431263,-0.08566517605689776,0.07450257015063876,0.010111623647389933,0.003125039137340147,11626.565670897664
1683655497757661104,122,1683655497757661104,camera_2,126,0,-0.15733530201268422,0.8839126321775598,4.630342084701454,-0.7189419408854943,0.685396765111429,-0.08871574089223411,0.0740491548130636,0.008137674434692599,0.0025173287631899926,11616.720378054917
1683655497767001867,123,1683655497767001867,camera_2,127,0,-0.15741662277534924,0.8840064884294343,4.630934354453095,-0.7189716038097024,0.6853486077076942,-0.08971911715222507,0.0729904024228853,0.001641765091335401,0.0005081757223084895,11612.666442381504
1683655497776407718,124,1683655497776407718,camera_2,128,0,-0.1574106430444776,0.8839589676933035,4.630618222389073,-0.719025249714434,0.6853124845883237,-0.08785747907388883,0.07503700494593145,0.013950718828709796,0.004314885907797599,11615.832426917706
1683655497785487413,125,1683655497785487413,camera_2,129,0,-0.15743601965289641,0.8844534303429691,4.633192499957505,-0.7190823847519972,0.685316108273396,-0.08732933245782117,0.07507292036985738,0.0062984107789816335,0.0019500230266429111,11604.915803637472
1683655497794956684,126,1683655497794956684,camera_2,130,0,-0.15741453781476242,0.8842903541982233,4.63214412246193,-0.7190024212569817,0.6853119422509351,-0.08805317911530128,0.07503131134758237,0.013953483066870831,0.0043190763453694395,11607.569113442274
1683655497804414987,127,1683655497804414987,camera_2,131,0,-0.15730957579646257,0.8838199554183728,4.6296862854778,-0.7186240606678718,0.6855667229859085,-0.08824363378871454,0.07609723292830722,0.011396119647542946,0.003523858300729468,11616.251559157507
1683655497813850879,128,1683655497813850879,camera_2,132,0,-0.1574013102978837,0.8840867412271914,4.63130163512418,-0.7188370511339971,0.6854011120472902,-0.08768494832254908,0.07622308940858542,0.011677344053168781,0.0036127170373355653,11609.86621827807
1683655497823310375,129,1683655497823310375,camera_2,133,0,-0.1572255157511893,0.8832893294653297,4.627097992035044,-0.7186092845931045,0.6849563674470756,-0.09182734703901632,0.07748037897474096,0.0032210111967287958,0.000996103188769753,11611.67521542779
1683655497832596540,130,1683655497832596540,camera_2,134,0,-0.1573890526480782,0.8841543207635784,4.6314314578906535,-0.7187328241669568,0.6855976123893204,-0.08793110460813468,0.07514760271257324,0.009799610808840953,0.0030321074519072634,11611.225869371789
1683655497841667175,131,1683655497841667175,camera_2,135,0,-0.15750907351060642,0.8846813487172759,4.634373090763711,-0.7190963594222505,0.6858583366748197,-0.08529960140104345,0.07226856771888261,0.009363031800603494,0.002898223716539584,11613.687073432082
1683655497851173400,132,1683655497851173400,camera_2,136,0,-0.15717764061857176,0.8831569142236312,4.626226708900652,-0.7186045706588071,0.6849692479834767,-0.09151890409447064,0.07777461371532968,0.010291865866747685,0.00318122770219112,11616.443441853564
1683655497860227584,133,1683655497860227584,camera_2,137,0,-0.15732202309141197,0.8839525923268117,4.630498742101303,-0.7187796536088451,0.6854622878630596,-0.08770076607260295,0.07619604389840402,0.008129076202749275,0.0025141548663684386,11613.975918750333
1683655497869700670,134,1683655497869700670,camera_2,138,0,-0.15738543241676328,0.8842327837825341,4.631944358026856,-0.718761227107008,0.6857325471017595,-0.08782419841283622,0.07375691442911834,0.0057351859722984955,0.0017749091104812772,11612.815314707346
1683655497878939151,135,1683655497878939151,camera_2,139,0,-0.15733819729876414,0.8838084109084549,4.629756585438732,-0.7187227574170003,0.6854757566078891,-0.08664553408034413,0.07780190548873286,0.006720353485434316,0.002077075281507975,11617.034640141355
1683655497888195991,136,1683655497888195991,camera_2,140,0,-0.15733867080567804,0.8838587113283919,4.630082088088996,-0.7191055467876272,0.6852490303097429,-0.08749507114910811,0.07527012397649893,0.007729204764473252,0.0023898474561211674,11619.321368807721
1683655497897526502,137,1683655497897526502,camera_2,141,0,-0.1572632960986391,0.8835474334214243,4.628251770160428,-0.7186796944941135,0.6851557229292339,-0.09025269448208872,0.07691282856513146,0.003548621738445945,0.001097375504484821,11613.582788741478
1683655497907121419,138,1683655497907121419,camera_2,142,0,-0.15738147518707113,0.8839724869313946,4.630467716165861,-0.7186749934191444,0.6855559017746142,-0.08809455805913947,0.07588615299482077,0.012080913860700093,0.0037366995914421513,11613.419352340366
1683655497916316509,139,1683655497916316509,camera_2,143,0,-0.15728499836074739,0.8835175889511737,4.628224445311581,-0.718924111923384,0.685068867768804,-0.08961175069558357,0.07614789456324594,0.0046639725915156305,0.001441931162101905,11618.263699017463
1683655497925748825,140,1683655497925748825,camera_2,144,0,-0.15731486979310028,0.8835665411121134,4.628664442932663,-0.7186970358908044,0.6851626815146812,-0.09056366727153815,0.0763209842160966,0.007063723431201652,0.0021849340570472844,11611.907908360357
1683655497934822797,141,1683655497934822797,camera_2,145,0,-0.15736039215505815,0.8837678621170104,4.629639524339533,-0.7189470512708492,0.685200220778636,-0.08866054929570191,0.07586238799592251,0.010351161894504912,0.0032011606535573608,11615.53000454197
1683655497944291830,142,1683655497944291830,camera_2,146,0,-0.15731981231387654,0.8836503229141939,4.628955937180837,-0.7187230776191588,0.6854036688264954,-0.08954042462096545,0.07510965860341833,0.005789890463347547,0.001790581669193178,11617.698063136484
1683655497953906536,143,1683655497953906536,camera_2,147,0,-0.157320210893913,0.8835333369703422,4.628589603759682,-0.7187603553872518,0.685350300892736,-0.08937236061802196,0.07543936470696336,0.003819650592049584,0.0011809613603363097,11619.233003820058
1683655497963044881,144,1683655497963044881,camera_2,148,0,-0.15735036841825298,0.8837969337612834,4.629844949281557,-0.7189669719450829,0.6852211745438249,-0.08926770351577672,0.07476437867005267,0.006484459227067418,0.0020059084383507748,11615.199338164994
1683655497972498178,145,1683655497972498178,camera_2,149,0,-0.15729075379255397,0.8837637329273969,4.629388766055306,-0.7188377667514363,0.6852781209692903,-0.08974998728719723,0.07490728799359005,0.007083654942107387,0.0021912322633949894,11615.331195485713
1683655497981830358,146,1683655497981830358,camera_2,150,0,-0.15723741517504175,0.883169393085375,4.626496189947734,-0.7186322416153094,0.6850569423976245,-0.09121080907158194,0.07710561128919943,0.00498788250843063,0.001541748640849626,11618.097191131674
1683655497991206169,147,1683655497991206169,camera_2,151,0,-0.15722287990616696,0.8833865271156389,4.627537000808276,-0.7186017161579967,0.6850640532610595,-0.09020641471451357,0.07849598211796131,0.007324777092435397,0.0022644206613769272,11612.900189057724
1683655498000436305,148,1683655498000436305,camera_2,152,0,-0.1574028407651697,0.8840094025112162,4.630853735972264,-0.7187877422587732,0.6853807541627588,-0.0888698661089112,0.07549536608036045,0.008156295720255002,0.002523859955502851,11609.64270210336
1683655498009631156,149,1683655498009631156,camera_2,153,0,-0.1573726216075679,0.8839969988352411,4.630743199462246,-0.7189675414544114,0.6852361333444291,-0.08887389354829499,0.07509025862081685,0.010944580761133693,0.003386452480155707,11611.31433479808
1683655498019337654,150,1683655498019337654,camera_2,154,0,-0.1574048313919133,0.8840293942861073,4.630929406480912,-0.7187611945428607,0.6854001328235136,-0.0890220087200004,0.07539287173391243,0.010895178289501928,0.0033715109277065664,11608.938616118829
1683655498028545618,151,1683655498028545618,camera_2,155,0,-0.15740197925417412,0.8841923125203688,4.631775029436123,-0.7189666032866399,0.6854225532448799,-0.08730729698185984,0.07523551525351954,0.0028928007959621027,0.0008950629197390962,11611.615276261318
1683655498037848472,152,1683655498037848472,camera_2,156,0,-0.15735357097800035,0.8837434089458936,4.629577432859134,-0.7191936040235762,0.6851516483660346,-0.08955917136034,0.072848702789648,0.0035884073295164853,0.0011099990351949916,11620.4746518145
1683655498047116994,153,1683655498047116994,camera_2,157,0,-0.15729778043088838,0.8837645858740291,4.629526094540709,-0.7188016450007823,0.6853920596931175,-0.08833954607184416,0.0758817781395255,0.011575131415156648,0.0035789745534806055,11617.284044228636
1683655498056633234,154,1683655498056633234,camera_2,158,0,-0.1572319329252005,0.8831535321700318,4.62637450379318,-0.7186270253807067,0.6849294760020371,-0.09089759797880213,0.0786411977130081,0.006522635187138803,0.002015900275877418,11615.590331502
1683655498065643072,155,1683655498065643072,camera_2,159,0,-0.1574337684755892,0.8842534593288907,4.632321081023249,-0.7190509883919021,0.6854169403121935,-0.08753021798253433,0.07421425042153244,0.003526146014337428,0.0010913038733331541,11610.751335817735
1683655498075112104,156,1683655498075112104,camera_2,160,0,-0.15724045471855533,0.883325863204542,4.6273495703047365,-0.7184376059249347,0.6853246888178322,-0.08972183831997567,0.07827815160103095,0.008292721176985651,0.002563000087943463,11616.27510098563
1683655498084244966,157,1683655498084244966,camera_2,161,0,-0.1573664444936271,0.8836883419481353,4.629125126161153,-0.7188398884549526,0.6852600684528635,-0.0900265489548856,0.07471996944138938,0.00913417004630901,0.002825295324550657,11615.949884714557
1683655498093780517,158,1683655498093780517,camera_2,162,0,-0.15735210270854869,0.8837362829578399,4.629307604657168,-0.7186755672277613,0.6853800243573991,-0.0897507050007322,0.07552789043511167,0.009613349189748988,0.0029735346116425716,11613.937151293881
1683655498102953910,159,1683655498102953910,camera_2,163,0,-0.15735413732207904,0.883828117225886,4.62998446861449,-0.7187934815764531,0.6851737775317742,-0.08817950365112139,0.07808457313632362,0.004854306665947661,0.001501222091315952,11609.406832695535
1683655498112134218,160,1683655498112134218,camera_2,164,0,-0.15722090866913538,0.883143474016644,4.62630740366673,-0.7185417004657353,0.6849047973377215,-0.09082563157187007,0.07971165488907687,0.008517167618265375,0.00263211121863986,11613.083274991015
1683655498121562957,161,1683655498121562957,camera_2,165,0,-0.15740081048424398,0.8841576311861139,4.631400295553048,-0.718953941689176,0.6851033607897594,-0.09004843945231485,0.07503261501758021,0.005535933159990236,0.0017140881072229594,11603.710306836178
1683655498131045579,162,1683655498131045579,camera_2,166,0,-0.15736665070627864,0.8837508274378456,4.6294446974167265,-0.7188756216579563,0.6854719389119152,-0.08841076013452462,0.07436127381011146,0.007192222154117189,0.0022237231804049912,11621.424528207684
1683655498140522480,163,1683655498140522480,camera_2,167,0,-0.15737043843220722,0.8837784813970411,4.629798406938304,-0.7189082077824537,0.6853902570215138,-0.08856165907425684,0.07461914570014082,0.003988290118286386,0.0012334400672508686,11618.45621199711
1683655498149863004,164,1683655498149863004,camera_2,168,0,-0.15736672068514687,0.8837896735565914,4.629677684480365,-0.7185932355285314,0.6853846229557773,-0.09037030994377744,0.07553070600139478,0.014956121478462592,0.004627986736314956,11609.735022708282
1683655498159069776,165,1683655498159069776,camera_2,169,0,-0.15721161219531785,0.8831815971736229,4.6265140690041555,-0.7185726741371197,0.6851479208593652,-0.09038962732559824,0.07781615383361996,0.008916871433029883,0.0027554761499750673,11619.218703134744
1683655498168137073,166,1683655498168137073,camera_2,170,0,-0.15741966923418976,0.8842250169432218,4.631889975444177,-0.7188028056725899,0.6854174116997492,-0.08861228326183752,0.07532172031461509,0.007600518569233827,0.0023526860903152584,11605.899165165112
1683655498177463531,167,1683655498177463531,camera_2,171,0,-0.1573701279183847,0.8839134362446242,4.630321415153718,-0.7187826040916934,0.685234133328836,-0.08938995275395262,0.07625737290839042,0.003885109006660059,0.0012021502397027946,11608.278822979191
1683655498186733484,168,1683655498186733484,camera_2,172,0,-0.15726785292493914,0.8834078436929655,4.6276639276643525,-0.7185913781985926,0.6850856117394585,-0.09047688676499274,0.07809013207527632,0.004140483928495087,0.001280166370467676,11612.311325565093
1683655498196077108,169,1683655498196077108,camera_2,173,0,-0.15719836284380823,0.8832058923338328,4.626362371135479,-0.7185067653960246,0.6852403903511481,-0.0905929060494174,0.07737286917951226,0.020448102237423882,0.00631857326965345,11620.429746350215
1683655498205466270,170,1683655498205466270,camera_2,174,0,-0.1573345582629435,0.8836757395956318,4.629180239562979,-0.7188593474949829,0.6851180978250706,-0.09043848656394046,0.0753346580244989,0.004436867602635175,0.0013726452849728947,11612.504245140182
1683655498214599609,171,1683655498214599609,camera_2,175,0,-0.15731748742935672,0.8838321051831122,4.629919375863564,-0.7187731143364686,0.6852827226501746,-0.08903248619924164,0.07632834693218177,0.006037496539647692,0.0018676267785625886,11611.510100597283
1683655498224099874,172,1683655498224099874,camera_2,176,0,-0.15731406680027527,0.8837278603937657,4.6293184255455575,-0.7191238938963792,0.6850462336211616,-0.08712189363343023,0.07734506240540086,0.01194323027448263,0.0036911417756176337,11618.795878660541
1683655498233257293,173,1683655498233257293,camera_2,177,0,-0.15736471680641648,0.883998819743102,4.630851170485747,-0.7187431543912546,0.6854970891870248,-0.08803020273642301,0.07584656971814803,0.004097347817150876,0.0012675438315794033,11611.894944622387
1683655498242763280,174,1683655498242763280,camera_2,178,0,-0.15741106188255533,0.8842255735931869,4.631972765206827,-0.7188990971891662,0.6854555916388414,-0.08829566579143157,0.07442173979487064,0.007176279366831295,0.0022212019981749723,11609.108926702462
1683655498252024888,175,1683655498252024888,camera_2,179,0,-0.15729570311349356,0.8834620550129983,4.628004124630765,-0.7184580561268354,0.6854273671152777,-0.09075547050684732,0.07596571969611164,0.009771191282197833,0.003021649392719737,11615.422556766629
1683655498261379241,176,1683655498261379241,camera_2,180,0,-0.1573957245943372,0.8842689373791767,4.632408534526795,-0.7192955252732793,0.6853809862200542,-0.08725216990715616,0.07248385955753052,0.011200722568901256,0.0034664192772726468,11615.972889694622
1683655498270901441,177,1683655498270901441,camera_2,181,0,-0.15743955173714752,0.8845147624102245,4.633443215272018,-0.7190266813555214,0.6854241850777161,-0.08822102419152975,0.07356200717770002,0.0020442348322831094,0.000633153221406552,11604.364592566795
1683655498280545234,178,1683655498280545234,camera_2,182,0,-0.15725660140058453,0.883416182415414,4.627763313491383,-0.7187092990962786,0.6851511911991048,-0.08933789858063994,0.07774013421765527,0.009581259582773782,0.0029613014769393725,11617.177395756557
1683655498289754867,179,1683655498289754867,camera_2,183,0,-0.1573666867100461,0.8838623028613218,4.630264274765718,-0.7190470528718844,0.6851915562370504,-0.08962321934247085,0.07383458249626507,0.004449074302101508,0.001376657783412021,11614.207448953703
1683655498298829317,180,1683655498298829317,camera_2,184,0,-0.15734724121062865,0.8837365114964005,4.629179083951074,-0.7188280520164847,0.6854465922702074,-0.088589101502821,0.07484097724020587,0.015874305347097106,0.0049079722289145835,11620.850554725388
1683655498308359622,181,1683655498308359622,camera_2,185,0,-0.15732221648212907,0.8838702498330648,4.630050747480621,-0.7189247887849495,0.6852639864795272,-0.08777400476744386,0.07652542709313752,0.008151174013619311,0.002520472171819854,11614.998145170804
1683655498317312240,182,1683655498317312240,camera_2,186,0,-0.1573603647369762,0.8837817575711532,4.629584105709228,-0.7187834593645938,0.6851048131580962,-0.09015011508823674,0.07651594788705834,0.014109752781223506,0.004365535627960464,11608.339454605823
1683655498326776742,183,1683655498326776742,camera_2,187,0,-0.1573209401100128,0.883721798011778,4.6292173946560755,-0.7188890618840403,0.6852701587956276,-0.0898837769329517,0.07432518289225616,0.009232269920175895,0.002855698659154389,11617.178639605701
1683655498336062669,184,1683655498336062669,camera_2,188,0,-0.1572570747982314,0.8833689785464068,4.6274388347743765,-0.7185126640216242,0.6853759714983004,-0.09027162036001961,0.07648767149603887,0.005756121754529886,0.0017793271771064441,11618.70829158267
1683655498345604181,185,1683655498345604181,camera_2,189,0,-0.15733109203454546,0.8837359071764654,4.6293358026260405,-0.718954146169433,0.6854342044256716,-0.08787044891467245,0.0745900215622872,0.010536290894378908,0.0032570931202493894,11623.46875270846
1683655498354918718,186,1683655498354918718,camera_2,190,0,-0.15733745915786349,0.8837886143815448,4.629676306572202,-0.7187704823617646,0.685216846908132,-0.08945946266481157,0.07644521527497511,0.004052987351315096,0.0012537428976985405,11610.721181355126
1683655498364015340,187,1683655498364015340,camera_2,191,0,-0.15740815955823817,0.8841887649272561,4.63153653957444,-0.7189765331954596,0.685351300990932,-0.08843907402735456,0.07446387801786523,0.008000511763384566,0.0024759917364251273,11610.636041388723
1683655498373436689,188,1683655498373436689,camera_2,192,0,-0.15739430751199213,0.883954469547122,4.630409774288386,-0.7191130570989985,0.6853336007153781,-0.0878048512652482,0.07405791608271667,0.008536473585991189,0.0026399399276127765,11619.677417709812
1683655498382592439,189,1683655498382592439,camera_2,193,0,-0.1574594394664238,0.8844873578106648,4.6333809345727515,-0.7188488949322476,0.6856733385359328,-0.0870720095292195,0.07434247932520135,0.009902627440169454,0.0030656922786035097,11606.805550323796
1683655498391986608,190,1683655498391986608,camera_2,194,0,-0.15729675541016613,0.8836139823774948,4.628877019530099,-0.7187603530867179,0.6853516091007149,-0.09017290091102265,0.07446861536921764,0.0027076444821432233,0.0008374643992300032,11617.383718913476
1683655498402041912,191,1683655498402041912,camera_2,195,0,-0.15738982197758877,0.8840495412418363,4.631127723893843,-0.7190162859439165,0.6852881834000577,-0.08876054028246368,0.07427821166688284,0.0060559554694918916,0.0018740680945321588,11611.98818339684
1683655498410594701,192,1683655498410594701,camera_2,196,0,-0.1573471217061955,0.883871637606422,4.6302135657466685,-0.718523545530826,0.6854082381577725,-0.08937806662067521,0.07714287258340387,0.00967540436249692,0.0029935908381865948,11606.409734153884
1683655498420039415,193,1683655498420039415,camera_2,197,0,-0.15731926657810635,0.8835750379817201,4.628612908906863,-0.7186394979432624,0.6852725800507998,-0.09073932011713086,0.07566464703582955,0.007938777620438486,0.0024556009897712555,11613.250890911815
1683655498429434537,194,1683655498429434537,camera_2,198,0,-0.157342540266057,0.8839284970447361,4.630405289921411,-0.7191175133373354,0.6853676919199322,-0.08736797500753832,0.0742156710335101,0.008601478417403996,0.0026598267059735926,11621.01914919124
1683655498438583850,195,1683655498438583850,camera_2,199,0,-0.1574033369458205,0.8841935079687165,4.631798387665584,-0.7187829142931897,0.6856292405851088,-0.08761091732199171,0.07475288449869581,0.005325925230863504,0.0016480300493887268,11611.655844804773
1683655498448470115,196,1683655498448470115,camera_2,200,0,-0.15727475517445016,0.883578886206501,4.62857939451549,-0.718714581080099,0.6851851704533182,-0.08968906855664543,0.07698379124956493,0.005327128747012466,0.0016472275565514365,11613.878902386994
1683655498457463264,197,1683655498457463264,camera_2,201,0,-0.1573159908472697,0.8836040402342822,4.628845832661918,-0.7187949419876081,0.6852489191191092,-0.08884513479723406,0.0766439315405009,0.01158645746181719,0.003582162093852693,11616.672921416608
1683655498466682910,198,1683655498466682910,camera_2,202,0,-0.15730632758363067,0.8835678472339704,4.628651151930668,-0.7188703414393866,0.6852829893103499,-0.08846960486607135,0.0760643528568534,0.009050625027157366,0.0027975918146507604,11620.670211049552
1683655498476184844,199,1683655498476184844,camera_2,203,0,-0.15737233302909373,0.8839131865251375,4.630472693668386,-0.7187983874793555,0.6853424711371613,-0.08830733316891817,0.07639627164516162,0.0042152619862463325,0.0013039201289712398,11611.218110164631
1683655498485436201,200,1683655498485436201,camera_2,204,0,-0.15735576907177679,0.8838126868812505,4.630087989436994,-0.7188053540979124,0.6854030920849159,-0.08998190591656517,0.07378835198209685,0.003145817492622882,0.0009734416669104361,11613.843488327228
1683655498494580507,201,1683655498494580507,camera_2,205,0,-0.15734042139314747,0.8837996119273013,4.629962498904912,-0.7187157846200839,0.685298304031066,-0.08941486120517664,0.07628130849520737,0.002664996689418331,0.000824481013110898,11609.92499712668
1683655498503962278,202,1683655498503962278,camera_2,206,0,-0.157290724483199,0.8833941799438026,4.62760771819313,-0.718780545626185,0.685060996775238,-0.09018879432174451,0.07688913645913356,0.005248982284683734,0.0016226251040577873,11617.029837896405
1683655498513843774,203,1683655498513843774,camera_2,207,0,-0.15741145700103754,0.8842483967715088,4.632060726153122,-0.7187900754258061,0.6854070567124151,-0.08804677997970628,0.07619552882810085,0.0024887640174711123,0.000770315761954393,11604.799583647688
1683655498522857904,204,1683655498522857904,camera_2,208,0,-0.1572324324718936,0.8832520822050559,4.626635038889701,-0.7189276589778567,0.6847311160180989,-0.0909038318530947,0.07760678622164255,0.004833712038816884,0.0014939972172606402,11617.174943772292
1683655498532801866,205,1683655498532801866,camera_2,209,0,-0.15741951356534784,0.8843139041286328,4.632497910049788,-0.7190489507016549,0.6852468178193571,-0.08831356076112609,0.0748740285344973,0.004653248281101696,0.0014406661648415074,11605.245668290741
1683655498542471408,206,1683655498542471408,camera_2,210,0,-0.15728579349172495,0.8834228801843318,4.627872509832302,-0.7186871463006077,0.685128728578435,-0.09064603935380403,0.07662053620443128,0.005667847683071159,0.0017526368994684616,11614.738938242375
1683655498551860570,207,1683655498551860570,camera_2,211,0,-0.15740589899314947,0.8841142009351993,4.631360406194418,-0.7187723864315793,0.6854549233199836,-0.08820244698994247,0.07575046498097919,0.011031882342649624,0.0034136483431565687,11608.926897606058
1683655498560595989,208,1683655498560595989,camera_2,212,0,-0.15740308248669227,0.8839992331328423,4.63108093029044,-0.7190976384327771,0.6851680850379613,-0.08865214554476814,0.07472669359823973,0.0020997287501813844,0.0006497407225295261,11611.405310791426
1683655498569754123,209,1683655498569754123,camera_2,213,0,-0.15751154961977648,0.8845956148053895,4.634029034068679,-0.7189366721097954,0.685557074005212,-0.08773587126475765,0.0737833088883834,0.009555114505928941,0.002959587221121302,11602.56595136129
1683655498579075813,210,1683655498579075813,camera_2,214,0,-0.15734837539088653,0.8838399014563989,4.6298777669592726,-0.7187652666235189,0.6853998582241984,-0.0893227268286119,0.07499984209164456,0.006620136715355329,0.0020479102976179732,11614.169158720291
1683655498587997913,211,1683655498587997913,camera_2,215,0,-0.1572859730005665,0.8833741398422976,4.627435413386391,-0.7185414146808271,0.6853491029879578,-0.09021865550645067,0.07652082475173397,0.016225572035182267,0.005015494494888743,11618.807496797384
1683655498597725868,212,1683655498597725868,camera_2,216,0,-0.15741160694413467,0.8841147204385452,4.6313512332770355,-0.7189467079086982,0.6854324218955361,-0.08848268418380986,0.07395161121498921,0.010917584484559484,0.0033784766912384415,11612.744169515558
1683655498607250452,213,1683655498607250452,camera_2,217,0,-0.15729911140187575,0.8836134954245051,4.628921277012338,-0.7188125445894354,0.6853085016652563,-0.08883255927455705,0.07595761778067384,0.003367102865013294,0.0010410252427226934,11618.24795489619
1683655498616391658,214,1683655498616391658,camera_2,218,0,-0.15738964987579862,0.8838746600438206,4.630111659914751,-0.718769223147688,0.6853257348413843,-0.0892269486525545,0.0757495389685013,0.009434337975108065,0.002918708914641688,11611.294293909656
1683655498625341892,215,1683655498625341892,camera_2,219,0,-0.1573214368813678,0.8839236166618744,4.630218663050841,-0.7187724608236069,0.6853055293341347,-0.0883606762173947,0.0769082045300927,0.014212866692105308,0.004396225427614322,11610.947837426414
1683655498634495258,216,1683655498634495258,camera_2,220,0,-0.15736493392511214,0.8839840009422703,4.6308380571732055,-0.7192039998539782,0.6854495591034778,-0.08721800377420641,0.0727841214588012,0.006714034389005974,0.0020764311731899894,11623.148989278356
1683655498643975019,217,1683655498643975019,camera_2,221,0,-0.1573757740647662,0.8841874667441861,4.631818115003702,-0.7188691275813427,0.6854086827821847,-0.08800247509197744,0.07548297394058887,0.008435852199909277,0.002610715452567581,11608.177341211329
1683655498653316259,218,1683655498653316259,camera_2,222,0,-0.1573123089679416,0.8838086682653098,4.629766369662444,-0.7187324621763399,0.6853725044304905,-0.08736062105540619,0.07782223251377061,0.01205266332544852,0.0037260593997178325,11614.345693164534
1683655498662665128,219,1683655498662665128,camera_2,223,0,-0.15725000169657427,0.8832996710501663,4.627165434397379,-0.7183838884378221,0.6852026851156563,-0.09067428998066289,0.07874034721635441,0.007208923430880532,0.0022285453060275876,11612.186376317839
1683655498672071695,220,1683655498672071695,camera_2,224,0,-0.15726603351358784,0.8834885539639283,4.628130747694283,-0.7188086823619612,0.6850308270893462,-0.08952473979729542,0.0776670139929065,0.006716079180478118,0.0020762347387244624,11614.844367523212
1683655498681804656,221,1683655498681804656,camera_2,225,0,-0.1572737618468281,0.8834537408888521,4.627966634729288,-0.718632592995174,0.6849075044714863,-0.09058381397068752,0.07914214585287327,0.0023944965505506843,0.0007404523765165412,11607.352764408803
1683655498690886497,222,1683655498690886497,camera_2,226,0,-0.1573645190162619,0.8839443497723768,4.630724830106622,-0.7187561072213625,0.6852350260736001,-0.08901969102214469,0.0769292661100299,0.003906148500391282,0.0012086841317834056,11605.798001724503
1683655498699927806,223,1683655498699927806,camera_2,227,0,-0.15736940367636812,0.8838641504091181,4.629829707365921,-0.7188452471639563,0.6854633690081214,-0.08839072480030426,0.07475667292692735,0.008449592074612156,0.002612954160679856,11618.538704840346
1683655498709089279,224,1683655498709089279,camera_2,228,0,-0.15729982827209602,0.8837166873523778,4.629322746667432,-0.718881504764626,0.6852416480832818,-0.0889802650844324,0.0757349210401575,0.004477341208257712,0.0013846143352525381,11616.319918885543
1683655498718507766,225,1683655498718507766,camera_2,229,0,-0.15738595166362293,0.8840239247396487,4.630898847272591,-0.718799173913668,0.6853199020153165,-0.08908155023000033,0.07568921251648451,0.004793931206222624,0.0014835197252173683,11608.089021403233
1683655498727872371,226,1683655498727872371,camera_2,230,0,-0.15733613501454563,0.8837963475821684,4.629738487386836,-0.718843238624024,0.6852004653923038,-0.08867152345313663,0.0768250052990203,0.003959425928769633,0.0012245286756330132,11612.346837607298
1683655498737083196,227,1683655498737083196,camera_2,231,0,-0.15740366931393476,0.8842183599568034,4.631868666346564,-0.7190102743531024,0.6854358740250592,-0.08796663778348918,0.0739172416371715,0.008289910882012919,0.002565543977409467,11612.221797907552
1683655498746444940,228,1683655498746444940,camera_2,232,0,-0.15739051170665813,0.8840967476403618,4.631131637899514,-0.7185962727409881,0.6854324850075956,-0.09033900563235017,0.0751037240117282,0.00928359170211479,0.0028744571525558377,11603.753275704805
1683655498755829095,229,1683655498755829095,camera_2,233,0,-0.15738090100490898,0.8840824260125089,4.631345748666623,-0.7190734065283745,0.6853775945053919,-0.08892929933684879,0.0726812815870682,0.005506686997250654,0.001704358632248668,11614.484909879193
1683655498765260696,230,1683655498765260696,camera_2,234,0,-0.15737108394209987,0.8840061477735187,4.630777387390453,-0.7189992373362091,0.6852327960638094,-0.09086774716688614,0.07238207259631806,0.004634312310372479,0.0014349063109255764,11610.68082168221
1683655498774538755,231,1683655498774538755,camera_2,235,0,-0.15730863643040582,0.8835278879054136,4.628295755219428,-0.718779349248648,0.6851663838813515,-0.09037302011932895,0.07573632369711478,0.01426378708856646,0.004411108805651606,11616.108642640815
1683655498783717632,232,1683655498783717632,camera_2,236,0,-0.1573947948802702,0.8840207584262589,4.630969851436761,-0.719100917033089,0.6853323626941266,-0.08672681141749308,0.07544457533587998,0.006196667745825835,0.0019161967192523272,11617.168272670946
1683655498793166160,233,1683655498793166160,camera_2,237,0,-0.15735811282091755,0.8839861010392447,4.630710298533932,-0.718941501654508,0.6852527618831795,-0.08850410325885222,0.07562270318219264,0.013398424460319802,0.004145210507012084,11611.45185323229
1683655498802549839,234,1683655498802549839,camera_2,238,0,-0.1572695162056043,0.8834970136884004,4.6281238008706325,-0.718634885605075,0.6853481163001601,-0.08854659228340209,0.07759743339956388,0.015584867898724042,0.00481634069372719,11618.761380788052
1683655498811742305,235,1683655498811742305,camera_2,239,0,-0.1574048504906455,0.8842391104254894,4.6317701482987435,-0.7186991626390741,0.6856584628330401,-0.0890622110939193,0.07356567489249773,0.015064152146806009,0.004663444793035101,11609.514598005077
1683655498821168661,236,1683655498821168661,camera_2,240,0,-0.15733070442537278,0.8840424117489858,4.63089478362934,-0.7188741474373009,0.6854416766816057,-0.08794976256221362,0.07519645789166493,0.008123989682644606,0.0025131968202046777,11613.801499587422
1683655498830527544,237,1683655498830527544,camera_2,241,0,-0.15741626834570255,0.8840337143300977,4.630961117279531,-0.7188769922406467,0.6855061415227565,-0.08738539213645138,0.07523957205342457,0.002543748472817242,0.0007867822280886596,11615.313967870024
1683655498839808702,238,1683655498839808702,camera_2,242,0,-0.15735320691949317,0.883782657590279,4.629590068587863,-0.7188128880538919,0.6852432925205797,-0.08940026348675928,0.07587657683156648,0.010211333676124923,0.003158558367143033,11612.929165547921
1683655498849135875,239,1683655498849135875,camera_2,243,0,-0.15728815091108017,0.8834372395479757,4.627647320214956,-0.7185898448352727,0.6850726418025077,-0.09113203755611003,0.07745361246722836,0.010704349508159794,0.0033102858970653452,11611.64244548549
1683655498858600854,240,1683655498858600854,camera_2,244,0,-0.15739392483772843,0.8841776576419536,4.6317518217072875,-0.7190665549322951,0.6853890206846731,-0.08694288935804251,0.07500742558427391,0.008934694560593925,0.002764026295116031,11613.687499509982
1683655498867798328,241,1683655498867798328,camera_2,245,0,-0.1573668452401435,0.8840298099446796,4.630863066154939,-0.7189025600072438,0.6854115258190279,-0.0879101287942876,0.07524598823083536,0.01415437989635393,0.004378434935862686,11613.906640877824
1683655498877226591,242,1683655498877226591,camera_2,246,0,-0.1573537548077804,0.883991874296383,4.630788702079469,-0.7186669638884445,0.6853763871492565,-0.0897711667820939,0.07561838776500718,0.010901806512265466,0.0033743578233873745,11606.283723748584
1683655498886636734,243,1683655498886636734,camera_2,247,0,-0.15745831266499907,0.8844299166037846,4.63297813110346,-0.7190428257609949,0.6853320798044255,-0.08889853201323882,0.07344662087853769,0.00408822730241809,0.0012662090763156813,11604.39254864847
1683655498895952701,244,1683655498895952701,camera_2,248,0,-0.15736931709127072,0.8840591523678717,4.63089737678143,-0.7190252956905697,0.6853648163939493,-0.0879780827340296,0.07441471336248763,0.01212291828414891,0.0037502903153982404,11615.741583944357
1683655498905230760,245,1683655498905230760,camera_2,249,0,-0.15737493442828354,0.8840789314828164,4.631154351017746,-0.7188559922077731,0.6853509780848993,-0.08819215973309298,0.07590943463537674,0.007891442262916826,0.0024416656939127922,11609.592120679092
1683655498914509773,246,1683655498914509773,camera_2,250,0,-0.15737513034225875,0.884062480480259,4.6310932741972834,-0.7190273738361742,0.6852674698940148,-0.08793835374758373,0.07533243869326817,0.009060945507371798,0.0028031934494481474,11612.420327903852
1683655498923718929,247,1683655498923718929,camera_2,251,0,-0.15739182787294909,0.8840927936787059,4.631207671919717,-0.7188483175517988,0.6853756796986882,-0.08964715616257597,0.07403148939790687,0.010990021197358146,0.003402092419073281,11608.89452234499
1683655498933177947,248,1683655498933177947,camera_2,252,0,-0.157401485115951,0.8840980669001838,4.6313884857918435,-0.7188204023779278,0.6853977719423777,-0.08806968119396551,0.07596614111597227,0.01430272767902352,0.004425734495200632,11608.724098515842
1683655498942774534,249,1683655498942774534,camera_2,253,0,-0.15736991884431714,0.8838641921465368,4.630242920501055,-0.7191533737205252,0.6851687654203105,-0.08866983974677295,0.07416095656122382,0.007187506038462743,0.00222331285087034,11617.069241856952
1683655498951935291,250,1683655498951935291,camera_2,254,0,-0.1573208954921334,0.8836680159839649,4.628860761954226,-0.7188145800390789,0.685267393941556,-0.08869682797504629,0.0764661430370064,0.015471824750420637,0.0047831847067604134,11617.641340637409
1683655498961270332,251,1683655498961270332,camera_2,255,0,-0.15731554421012847,0.8838451907562892,4.629935212890071,-0.7187873428121704,0.6852762711121189,-0.0892568681744414,0.07598946997696454,0.007983166360645555,0.0024696610060268615,11611.512424829416
