%time,field.header.seq,field.header.stamp,field.header.frame_id,field.image_seq,field.transforms0.fiducial_id,field.transforms0.transform.translation.x,field.transforms0.transform.translation.y,field.transforms0.transform.translation.z,field.transforms0.transform.rotation.x,field.transforms0.transform.rotation.y,field.transforms0.transform.rotation.z,field.transforms0.transform.rotation.w,field.transforms0.image_error,field.transforms0.object_error,field.transforms0.fiducial_area
1684378470484040975,138,1684378470484040975,camera_1,150,0,1.1722694006954406,-0.7789080910794934,4.804208636524006,0.9895171001490383,0.03895984813924951,-0.10616666479082977,0.08981468717752471,0.023783765267580748,0.008630012465876339,9868.462697053097
1684378470490676641,139,1684378470490676641,camera_1,151,0,1.1726135529872581,-0.7803247189443738,4.804407279513339,0.9896899787364837,0.03859692245073185,-0.10521142874035422,0.08918844559876633,0.028686846664641052,0.010405121619558925,9873.163572113965
1684378470497082710,140,1684378470497082710,camera_1,152,0,1.1736968437722013,-0.782519934172228,4.807676118347715,0.9898571998393895,0.03897522154877592,-0.10299225475840051,0.08975662366158632,0.024045827973168343,0.008729982640362526,9866.934616025654
1684378470504172801,141,1684378470504172801,camera_1,153,0,1.1736258772996957,-0.7854960832516574,4.805120340875465,0.9896161812861346,0.03889762565953808,-0.10460125510715121,0.09058347467782293,0.020550760440528393,0.007463770812863327,9864.361242820043
1684378470510394334,142,1684378470510394334,camera_1,154,0,1.1748354162785213,-0.7879430420256683,4.808691285451052,0.9898269083397232,0.03883751033085973,-0.10490602885257462,0.08791509784052068,0.020316526875831187,0.0073839175635583305,9855.987688174471
1684378470517205715,143,1684378470517205715,camera_1,155,0,1.1750238046249055,-0.789530751830266,4.808279865262378,0.9897891756800566,0.03904272533524597,-0.1031228883603235,0.090325650848554,0.006476615613792092,0.0023548667000061843,9856.265850547587
1684378470523702859,144,1684378470523702859,camera_1,156,0,1.1751367385857965,-0.7926433443120167,4.806064560653766,0.9898272848861912,0.03843784472611806,-0.10313809360204569,0.09014994085287675,0.021781215793453157,0.007915243172868973,9862.594375501969
1684378470530443668,145,1684378470530443668,camera_1,157,0,1.1748884877358337,-0.7937760424592316,4.803911288025993,0.9897575929190566,0.03872854140471742,-0.10387531569743379,0.08994401663533151,0.014995721692685038,0.005446787912374838,9867.335320814043
1684378470537194728,146,1684378470537194728,camera_1,158,0,1.1754770270588202,-0.7954181519297654,4.805317606679931,0.9899663170066819,0.038637345988442005,-0.10237267631762291,0.08940739248385764,0.02337722689844668,0.008490635543111198,9869.097080731999
1684378470544199466,147,1684378470544199466,camera_1,159,0,1.1756695466769276,-0.797269177156885,4.804643358045196,0.9897799718482908,0.03879685197168759,-0.10337361696916685,0.09024581386300287,0.03226440376602113,0.011727053417305176,9862.303756761365
1684378470550994873,148,1684378470550994873,camera_1,160,0,1.1748016948363673,-0.797216092984739,4.8008126772285475,0.9896919328722447,0.03922016346140083,-0.10478721449658644,0.08939405161255282,0.02431037795031443,0.008824280084194875,9873.980638763867
1684378470557526588,149,1684378470557526588,camera_1,161,0,1.1750267252161306,-0.7977030952039385,4.801393751394042,0.9896714459032483,0.03878924094355532,-0.1050578713749215,0.08949115941235267,0.034151140542235225,0.012401817764270236,9869.50574875018
1684378470563888072,150,1684378470563888072,camera_1,162,0,1.1750096694443033,-0.7975075109943731,4.801347024103145,0.9896564429669344,0.03916547007040972,-0.10434567333859594,0.090322595753851,0.021327279624529183,0.007745327889590808,9870.25516680011
1684378470570397138,151,1684378470570397138,camera_1,163,0,1.1747460821557807,-0.7968746287006571,4.800713977324881,0.9897125473428048,0.038831372002083336,-0.10467791491362972,0.08946358091417654,0.026008332439232618,0.00943978351284573,9874.924934552053
1684378470576977252,152,1684378470576977252,camera_1,164,0,1.1748324607125002,-0.796248416782397,4.80144517876374,0.9895859700275782,0.03872172033381141,-0.1038720037675384,0.09181962280625947,0.03010960842948407,0.01093824036979761,9867.863693226016
1684378470583667993,153,1684378470583667993,camera_1,165,0,1.1741307529301566,-0.7937545521730459,4.800349334662924,0.9896383663826251,0.038823681341558114,-0.10231118409387256,0.09295723296187257,0.014161215687636286,0.0051399724428910646,9877.819289520266
1684378470590400218,154,1684378470590400218,camera_1,166,0,1.174579854822647,-0.7928707809509414,4.803199956829404,0.98973454851349,0.03905089099684178,-0.10336547432047283,0.09064287125667832,0.01471583393868059,0.005343487831154952,9870.89253256365
1684378470597169637,155,1684378470597169637,camera_1,167,0,1.1746146690220345,-0.7913521611435909,4.8043936302430845,0.98985564600938,0.038705920999912595,-0.10268804036941621,0.09023756483854531,0.01951049716444686,0.0070833286570354355,9872.012542904697
1684378470604094266,156,1684378470604094266,camera_1,168,0,1.1740237783124492,-0.7880641546973653,4.804598068757208,0.9894682481693108,0.03907875997915132,-0.10564287806978231,0.09091214823322756,0.03372337541077286,0.012256140767546397,9857.996319112717
1684378470610381603,157,1684378470610381603,camera_1,169,0,1.1742251650923874,-0.7864922898840908,4.806617264723783,0.9895829132504865,0.03869982506909017,-0.10454647182590364,0.09109344966054048,0.034929288958664984,0.012697701844872282,9855.748255082639
1684378470617090463,158,1684378470617090463,camera_1,170,0,1.1736297673871432,-0.7846465719443183,4.80553939606547,0.9896878892237029,0.03849343838422185,-0.10351311439017248,0.09122045973650195,0.021064127213321626,0.00764959471871633,9866.07692172646
1684378470623687267,159,1684378470623687267,camera_1,171,0,1.1723225690353356,-0.7807394946245804,4.80250722434948,0.989571417761766,0.03871401084625627,-0.10700586140066348,0.08831409932205722,0.020525894942693412,0.00744250152428332,9874.764942234844
1684378470630354166,160,1684378470630354166,camera_1,172,0,1.172818222783048,-0.7797810783561635,4.805712430339125,0.989650497053356,0.03878292715992687,-0.10353100769000163,0.0914828327591911,0.021535166481044143,0.007817223019193452,9868.24347059952
1684378470637080907,161,1684378470637080907,camera_1,173,0,1.1715621661517182,-0.7777047196579111,4.801467195344532,0.9894982473350845,0.03869195429782405,-0.10652996184997289,0.08970796186322771,0.020677195687312633,0.007494433074170622,9878.706710861532
1684378470643681526,162,1684378470643681526,camera_1,174,0,1.1718729177860405,-0.7761763826253374,4.804270483221472,0.9895455322982643,0.03908939416035312,-0.10573772888890529,0.08995105036706177,0.01988645625533536,0.0072128805157831415,9871.661154527916
1684378470650403261,163,1684378470650403261,camera_1,175,0,1.1710710588070605,-0.7751353990975496,4.801276659752367,0.989449645792498,0.03912578361096831,-0.1067860048400027,0.08975143825164619,0.030152006016578525,0.01092526293673508,9879.973692808879
1684378470657351016,164,1684378470657351016,camera_1,176,0,1.1715398071892593,-0.7752247657552802,4.803638425545306,0.9894474861419955,0.03925439947032923,-0.1054771515946624,0.0912542315785196,0.031029661593493074,0.011255287643542285,9871.588378602404
1684378470663901805,165,1684378470663901805,camera_1,177,0,1.1708493501090982,-0.7748440037927308,4.800798455595382,0.989454529180982,0.03931083226515466,-0.10802211915987359,0.08812272647888315,0.019194194872397926,0.006951775685165861,9881.90858199098
1684378470670350790,166,1684378470670350790,camera_1,178,0,1.1712621155696563,-0.7755937697625257,4.8021081780920305,0.9894190615076801,0.038860414211833345,-0.10635687542182189,0.09070834571886613,0.02934585406910628,0.010639839991649936,9875.195011569886
1684378470676987886,167,1684378470676987886,camera_1,179,0,1.1714762169450568,-0.7763639013048205,4.802333120169468,0.9896082563425481,0.039217684201314836,-0.10651259891677992,0.08827535611109685,0.02188546216348186,0.007928643580052009,9881.358893033352
1684378470683717966,168,1684378470683717966,camera_1,180,0,1.1727327434073014,-0.7792291211118108,4.805972674976483,0.9896882676160927,0.03888619320540012,-0.10460085943173861,0.08979786816618418,0.03277389251161367,0.011893439428079754,9868.577817952259
1684378470690307378,169,1684378470690307378,camera_1,181,0,1.172318071301657,-0.7801486131786544,4.8033095901236225,0.9895263312069346,0.03853909392218006,-0.10356117897082458,0.09288412295960152,0.04053844639565796,0.01471074839598204,9872.388795812149
1684378470696997165,170,1684378470696997165,camera_1,182,0,1.1737613020347095,-0.7826300278720686,4.808102744919001,0.9897523580677617,0.03901702278876328,-0.1042220352006138,0.08947462774803025,0.028679945564363152,0.010417882475778786,9860.511374456926
1684378470703739166,171,1684378470703739166,camera_1,183,0,1.1736930536013044,-0.7855386694480364,4.805162098972606,0.989574553123902,0.039082009230900085,-0.10585294319104807,0.08949835072166663,0.027438854158390313,0.009965851503167424,9861.917211101856
1684378470710383892,172,1684378470710383892,camera_1,184,0,1.1739943729953952,-0.7874744091310845,4.805332739002606,0.989594729761449,0.03923227298698184,-0.10484401548719799,0.09039265457524705,0.010810454725287855,0.003927650290282419,9861.506732364182
1684378470717068433,173,1684378470717068433,camera_1,185,0,1.1742288669328615,-0.7890888685856462,4.804971971851714,0.989649151009208,0.0390124493859335,-0.10453693432318234,0.0902475266252468,0.020161357999313623,0.007324123152237273,9863.369757129462
1684378470723867416,174,1684378470723867416,camera_1,186,0,1.1746075018050315,-0.7922694587220831,4.803796991987102,0.9898480701195739,0.038767578612219564,-0.10304723589773782,0.08988403697507452,0.016627178934868425,0.0060357490128623474,9873.22767675097
1684378470730330944,175,1684378470730330944,camera_1,187,0,1.174801407501521,-0.7937573566730277,4.803561929544681,0.9897956383690196,0.03884181835678485,-0.10297387941384765,0.09051125659754236,0.020354229665827006,0.007391165731355725,9870.925052282637
1684378470737110376,176,1684378470737110376,camera_1,188,0,1.1745384325181636,-0.7948287983848876,4.8014994576016745,0.9895831181339874,0.03894821522607369,-0.10532313050528687,0.09008510984332763,0.024063046847004443,0.008738510694302074,9868.567487945667
1684378470743723869,177,1684378470743723869,camera_1,189,0,1.1750804650629103,-0.7968834763295425,4.8021971927607074,0.9894916936294431,0.03845288355549718,-0.10552906721110103,0.0910559166565182,0.02151474979473278,0.007821611835477986,9859.284506437365
1684378470750452995,178,1684378470750452995,camera_1,190,0,1.175423451492295,-0.7976541414981781,4.803370666144102,0.98981865338687,0.03898014972603199,-0.10325160786812171,0.08988151538212398,0.027148428838700056,0.009861058039808631,9868.932719589908
1684378470757179737,179,1684378470757179737,camera_1,191,0,1.1748742884675787,-0.7975622465424989,4.80061959761846,0.9895976665089703,0.03911235113037356,-0.10539141495853552,0.08977378282156184,0.0334677483770065,0.012152886387445574,9870.019964079138
1684378470763666868,180,1684378470763666868,camera_1,192,0,1.1752286822404867,-0.7976680986307564,4.802178771389593,0.9896265550090163,0.03897815278074765,-0.10509463452161293,0.08986157700349919,0.043470761622302234,0.015793573803477186,9864.861137988744
1684378470770470619,181,1684378470770470619,camera_1,193,0,1.1747701878261378,-0.7969017538516795,4.800815706995061,0.989605656883178,0.039129172310888395,-0.10508135333277463,0.0900414400197561,0.019620000559370965,0.007124379834230011,9870.549537624356
1684378470777020931,182,1684378470777020931,camera_1,194,0,1.1757324617472868,-0.79686655014173,4.805287086069863,0.9898033584958551,0.039070922994021935,-0.10242636250923282,0.0909484180722684,0.024147916701622307,0.00877808449894064,9862.120258636422
1684378470783918619,183,1684378470783918619,camera_1,195,0,1.1744101782508027,-0.7939118550246675,4.801510685923092,0.9895430985643473,0.03872467061488626,-0.1058847909719782,0.08996258672503638,0.03927047026809305,0.014261644588831642,9867.030913168332
1684378470790350198,184,1684378470790350198,camera_1,196,0,1.175593733012404,-0.7935198959333936,4.807187983381628,0.9899003297918583,0.039018706897981224,-0.10039762083698245,0.09216938385523217,0.03687219077255577,0.013403754511942752,9862.534071957461
1684378470797066926,185,1684378470797066926,camera_1,197,0,1.1748284630304326,-0.7914841748813136,4.805140690181528,0.9898318442949976,0.038766853281476374,-0.10360020881322446,0.0894262145015234,0.04188543639611453,0.015210970833285403,9867.438573642985
1684378470803663253,186,1684378470803663253,camera_1,198,0,1.17356910716588,-0.7876973573922069,4.802693430502188,0.9894518062626603,0.039437534414740856,-0.10666495316065783,0.08973511982540545,0.02310671063605696,0.008390221849092577,9865.129681748222
1684378470810369014,187,1684378470810369014,camera_1,199,0,1.1744743763834797,-0.7865933845017629,4.807696651022157,0.9897753164809163,0.03894687541798303,-0.10631204818482366,0.08675086276819338,0.029666250920854505,0.010776568429071392,9858.098967637754
1684378470817086458,188,1684378470817086458,camera_1,200,0,1.173611567566692,-0.7845996668327024,4.80543336809566,0.9896924354042425,0.03866068285842154,-0.10393948352164409,0.09061356780192488,0.01882077264599502,0.006833966148203868,9866.674644520393
1684378470823741674,189,1684378470823741674,camera_1,201,0,1.1735620332698982,-0.781585438689191,4.8077355999384155,0.9896882706950014,0.0385225411282294,-0.10321633353254106,0.0915397682204885,0.04164189175935462,0.015129547171677523,9860.020502023282
1684378470830421924,190,1684378470830421924,camera_1,202,0,1.1721693518732557,-0.7793193780546902,4.803166747361425,0.9896261303323339,0.038661369937230135,-0.10550088622277584,0.08952644103412222,0.01934898184845224,0.007015727780487504,9876.37299234257
1684378470837101221,191,1684378470837101221,camera_1,203,0,1.1720548973267957,-0.7780093007702014,4.803431972116457,0.9896011183732071,0.03876739817068491,-0.1056591547811466,0.0895704100945565,0.027094913995824754,0.009824556750667944,9875.210454628334
1684378470843970298,192,1684378470843970298,camera_1,204,0,1.1717681119817636,-0.7761216654260679,4.803798706392078,0.9895586144859961,0.03888098003295523,-0.10556120986609097,0.09010465503979131,0.011296883458271623,0.00409671540376629,9873.894047944224
1684378470850421667,193,1684378470850421667,camera_1,205,0,1.170811691381826,-0.7749691078065912,4.8003379709405944,0.9894076784768134,0.039251718178815294,-0.1079273237661471,0.08878874464599008,0.022257916978560388,0.008062089217435316,9881.733096029726
1684378470857086181,194,1684378470857086181,camera_1,206,0,1.171358409116579,-0.7750734652100123,4.803074583167452,0.989654135708832,0.03921702504010873,-0.10469275342149212,0.08992298928769604,0.023728953092359006,0.00859751096429039,9882.411180034753
1684378470863808870,195,1684378470863808870,camera_1,207,0,1.1715223282006466,-0.7752773488502653,4.803427524432154,0.9896057613720494,0.03923814847563475,-0.10669257310620604,0.08807666891650283,0.03026466333540156,0.01096723515713555,9877.54480679566
1684378470870447635,196,1684378470870447635,camera_1,208,0,1.1719721126301463,-0.776051738086214,4.804966194263873,0.9895384673051069,0.039347024940621575,-0.10534719860966694,0.09037367480011792,0.028383999946527183,0.010297652175804485,9869.431431103736
1684378470877084255,197,1684378470877084255,camera_1,209,0,1.172057681238152,-0.776837659956575,4.804939266712081,0.9897602708875252,0.039379789943827036,-0.10437081001480708,0.08905376091713486,0.02197069494286552,0.007964090429392223,9878.288965251759
1684378470883645296,198,1684378470883645296,camera_1,210,0,1.1723662885733772,-0.7790304202790627,4.804305093952343,0.9895125832369545,0.038812852353053956,-0.10557332889584431,0.0906238507998815,0.0554444215958938,0.020120790298591797,9867.810366004589
1684378470890526056,199,1684378470890526056,camera_1,211,0,1.1736406421289094,-0.7809896665690321,4.808600374305254,0.9898464859318697,0.03870355286797073,-0.10166715961201007,0.09148638117310777,0.02255346317542717,0.008191480054685542,9864.434663241966
1684378470896981000,200,1684378470896981000,camera_1,212,0,1.1735297808711898,-0.7824142235913049,4.80701334861958,0.9897284955353859,0.038767532327373976,-0.10346201521626358,0.09072042201124027,0.02523149357875809,0.009163432065900196,9864.081365674032
1684378470903711795,201,1684378470903711795,camera_1,213,0,1.1731999587143733,-0.7852423044580319,4.803160428713703,0.9896281949137278,0.03917903932482155,-0.10642534483137363,0.08817417244808318,0.014577891328372061,0.005288623460443851,9872.018086784403
1684378470910424947,202,1684378470910424947,camera_1,214,0,1.174385042590231,-0.7876904839227453,4.806663370351488,0.989686042848852,0.03878669936909218,-0.10632786078280264,0.08781522967905413,0.0238470887998119,0.00866432745550712,9857.738211097778
1684378470917260885,203,1684378470917260885,camera_1,215,0,1.1749675822399142,-0.7895161185424184,4.8079311756967,0.989859327765782,0.03868882313145127,-0.1048307693436505,0.08770516517626428,0.01704201305983588,0.006192740648245085,9858.668337192154
1684378470923836469,204,1684378470923836469,camera_1,216,0,1.1753033520847123,-0.7928350577338795,4.806711511511454,0.9901437752858405,0.03911085687898968,-0.10092614986351103,0.08887945437851401,0.008051937504205853,0.0029228133048725484,9874.604112798002
1684378470930413961,205,1684378470930413961,camera_1,217,0,1.1755564645860905,-0.7942893919866372,4.806572851523606,0.9897806202245049,0.0385795742223772,-0.10309727533892846,0.0906470744067571,0.025046124239452183,0.009107319747195657,9857.435736898333
1684378470937180757,206,1684378470937180757,camera_1,218,0,1.174911091737092,-0.7951407810414726,4.803246169881375,0.9897618382512927,0.03898313185240913,-0.10447215533581268,0.08909201833997013,0.021453427616506815,0.007790489626696499,9869.0830445285
1684378470943753004,207,1684378470943753004,camera_1,219,0,1.1751126182210567,-0.7969294617120174,4.80246817623031,0.9895861734232931,0.03880447376223137,-0.10476693322184971,0.09075961595758715,0.013467848650179803,0.004894640226552869,9862.957768097516
1684378470950440645,208,1684378470950440645,camera_1,220,0,1.1759512008858053,-0.7979768883322935,4.805330056086451,0.9899477858866714,0.03876559230338489,-0.10132004601496777,0.09074612028604659,0.023644924513064325,0.008592322450279724,9866.611804320477
1684378470957320690,209,1684378470957320690,camera_1,221,0,1.174414341577917,-0.7973102364682136,4.7989678142457235,0.9895532551451836,0.038591115099767856,-0.10608900052263694,0.08966719040449309,0.02261932275723666,0.008209989190921066,9873.991482281126
1684378470963739633,210,1684378470963739633,camera_1,222,0,1.1748989598592359,-0.7974735467692199,4.801104181756942,0.9896157271222139,0.0390022575261726,-0.10467216461042902,0.09046145309468169,0.033624433737713844,0.012211932202662479,9869.313721265884
1684378470970366239,211,1684378470970366239,camera_1,223,0,1.1750723291829221,-0.797062008720278,4.802094678452288,0.9897834498768687,0.038785572048796596,-0.10475300990553668,0.08860704637004005,0.013937223062384874,0.005059827283250628,9871.959472217599
1684378470977210521,212,1684378470977210521,camera_1,224,0,1.174398259496001,-0.7959801942638417,4.799759816018065,0.9895574573630178,0.03910131530810859,-0.10465894962167821,0.09106936906832233,0.02358979539712891,0.008563617279763385,9873.917452029185
1684378470983638286,213,1684378470983638286,camera_1,225,0,1.175354129231331,-0.7944973657236549,4.805346157239048,0.9897352507988658,0.038530414679172655,-0.10335181942434482,0.09087321878548706,0.019212281506042924,0.006984310312335324,9860.04804758204
1684378470990427017,214,1684378470990427017,camera_1,226,0,1.1747392804245775,-0.7929406924180249,4.803740259746882,0.9897550072237085,0.03901899714447532,-0.10419191977911867,0.0894795361531234,0.024756388156674802,0.008989614334305254,9868.84634737426
1684378470997069835,215,1684378470997069835,camera_1,227,0,1.174064056759536,-0.7910434112830009,4.802448862151692,0.9898278287535944,0.03917410309844166,-0.10468194914091014,0.08802243234220247,0.011024640698451549,0.003998535793678858,9878.693962196005
1684378471003914356,216,1684378471003914356,camera_1,228,0,1.1736767566039958,-0.787737068634979,4.803057997210238,0.9896344915402382,0.038818848087809846,-0.1057041465398307,0.08912521299450407,0.05905076756607741,0.02143075927840083,9870.196566716766
1684378471010617494,217,1684378471010617494,camera_1,229,0,1.1741731125566202,-0.7864505544173375,4.806544101565412,0.989625704301241,0.03891340936413153,-0.10619057229809926,0.08860177375726942,0.024133120139595125,0.008768883288004825,9857.14924250939
1684378471017351388,218,1684378471017351388,camera_1,230,0,1.1738366496095174,-0.7847235562393977,4.806337258343831,0.9897134990270057,0.03864893960347834,-0.10385077718122963,0.09049013973965532,0.02144929562928155,0.007790597905258886,9863.80878603342
1684378471023747920,219,1684378471023747920,camera_1,231,0,1.17275127251209,-0.7810625138222954,4.804653732277142,0.989489526082994,0.039191368864769593,-0.10672058155618887,0.08936012450118005,0.012313769024331123,0.004470254118253461,9864.04145171319
1684378471030369758,220,1684378471030369758,camera_1,232,0,1.1720250691426017,-0.7792400848709984,4.802679506887405,0.9896408139258138,0.03909633797941355,-0.10613291310397739,0.0884213804739335,0.011601068952586502,0.0042046302750118015,9879.268137858136
1684378471036965131,221,1684378471036965131,camera_1,233,0,1.1728435294908495,-0.7785617624050506,4.806939640403046,0.9896467186290959,0.03874065901899456,-0.10560405772580689,0.08914211483514109,0.02607085363706574,0.009464901235258177,9862.75590652786
1684378471043662548,222,1684378471043662548,camera_1,234,0,1.1717118479588882,-0.7760547188508966,4.803551049630271,0.9895454060662402,0.039025614342080156,-0.10483399884806478,0.0910314420623286,0.023574334685690698,0.008548837035703746,9875.069254538048
1684378471050564050,223,1684378471050564050,camera_1,235,0,1.1713152576565822,-0.7752909028855575,4.802274169338633,0.989464430309711,0.03898880846490677,-0.10536776218440767,0.09131072586841053,0.033149479946587235,0.012017706688616295,9877.180160570424
1684378471057031631,224,1684378471057031631,camera_1,236,0,1.1718632542738077,-0.7753894708733631,4.804848447251042,0.9896479054958912,0.0388796828301444,-0.10455597581558368,0.0902964081892185,0.023145915125496686,0.008393574757344618,9874.25845772796
1684378471063791513,225,1684378471063791513,camera_1,237,0,1.1710510433613168,-0.7750179954566037,4.801638072528199,0.9894301850874901,0.03925229676160522,-0.10879310367996844,0.08747129030918452,0.030740826157853007,0.011137705157328722,9876.871794247882
1684378471070475578,226,1684378471070475578,camera_1,238,0,1.1725264476554378,-0.7764037759646469,4.807113675035295,0.9897170936602848,0.03940030925846074,-0.10444179711187651,0.0894404895056949,0.020281016535591334,0.00735907872604549,9868.057711573783
1684378471077324390,227,1684378471077324390,camera_1,239,0,1.1715126138359333,-0.7764406248150874,4.802473402038331,0.9894649662828277,0.03923023935678182,-0.10546138270032697,0.09109316976517788,0.025069875293411314,0.009090085738013886,9876.00128012942
1684378471083957672,228,1684378471083957672,camera_1,240,0,1.1730640189403854,-0.7794934857892875,4.807360834117286,0.9898152151311299,0.03882666199114698,-0.10332411966272781,0.08990248333312452,0.02055070555070415,0.007458822486944037,9868.520063304455
1684378471090673685,229,1684378471090673685,camera_1,241,0,1.1725149991474335,-0.7803312836097358,4.804056086948456,0.9896845211965202,0.03891505966741006,-0.10558011584067019,0.08867359118794665,0.022939512389712036,0.008318723279159146,9874.660296914517
1684378471097165584,230,1684378471097165584,camera_1,242,0,1.172955293692556,-0.782132796492097,4.804775755925798,0.9896311398276852,0.038686200410653244,-0.10510446103089373,0.08992573187107597,0.03757054131710902,0.01363589084751686,9868.347597457701
1684378471103834629,231,1684378471103834629,camera_1,243,0,1.173922875364279,-0.7857263610699858,4.806185512581644,0.9898017619523364,0.038671254223761616,-0.1046599728794894,0.08856238597551712,0.01980650727637112,0.007190767039238766,9866.637023960126
1684378471110370397,232,1684378471110370397,camera_1,244,0,1.1742903807639984,-0.7877787076970375,4.80641103775656,0.9898463649301614,0.039217432419193385,-0.10401438528827917,0.0885842789782314,0.021181765536312014,0.007690675888389565,9867.144270107037
1684378471117187500,233,1684378471117187500,camera_1,245,0,1.1736301579976072,-0.788778370641665,4.802612534753878,0.9895021914763793,0.03897478630654515,-0.1055610925359022,0.0906820535631426,0.03111616167007014,0.011299182342145735,9866.66201855626
1684378471123891353,234,1684378471123891353,camera_1,246,0,1.1752576915041018,-0.7928829903146569,4.806548706142283,0.9899236286101637,0.03877226276452299,-0.10215400252558825,0.09006931179601399,0.016971033881418407,0.006165983083747598,9865.396602145982
1684378471130609512,235,1684378471130609512,camera_1,247,0,1.1759147122353004,-0.7945576513017844,4.808185331663748,0.9900708156048105,0.03897804307140123,-0.10154372592936313,0.08904697619982234,0.022578646254260093,0.008204884147579247,9863.754224859636
1684378471137076854,236,1684378471137076854,camera_1,248,0,1.17500476047015,-0.7951775382089878,4.803466846344416,0.9897424814500468,0.038759517882028915,-0.10266346861152317,0.09147531032637865,0.02409948210697621,0.008755009074294594,9867.982725523416
1684378471143704414,237,1684378471143704414,camera_1,249,0,1.174532107649514,-0.7965215812659429,4.799926034774134,0.9895109192268746,0.03863102469147297,-0.1060505136429016,0.09016137320465668,0.0329135293723084,0.011951864559265231,9869.277570616923
1684378471150389432,238,1684378471150389432,camera_1,250,0,1.1752734809886831,-0.7976021763991759,4.802617944018806,0.989773099601402,0.03859710791267594,-0.10446788503290305,0.0891399773556322,0.01791711477562785,0.006507258246750281,9868.835591517152
1684378471157064676,239,1684378471157064676,camera_1,251,0,1.175236292651919,-0.7978200100095718,4.802317822748087,0.9897420438544121,0.039065938591445984,-0.10396111398908839,0.0898700497774887,0.031138913647737354,0.011309171101179646,9869.600375270125
1684378471163787841,240,1684378471163787841,camera_1,252,0,1.17500054326472,-0.7975138624423643,4.801317465574752,0.9895685269305574,0.03915014695332245,-0.10652930660753879,0.08872938259526394,0.02793201879831031,0.010145423783803103,9865.644264713743
1684378471170704364,241,1684378471170704364,camera_1,253,0,1.1747197006707837,-0.7968071092184575,4.800572861459352,0.9897442418924786,0.038918669058231534,-0.10561883101238442,0.08795644021330103,0.03067580092465505,0.011129918849717436,9876.301960456189
1684378471176932334,242,1684378471176932334,camera_1,254,0,1.1749965246684277,-0.7963635543030197,4.802347838560583,0.9896416838871792,0.03862910521157825,-0.10565461057052239,0.08918650687571758,0.035326640820130706,0.012832463904816344,9865.29460455302
1684378471183809518,243,1684378471183809518,camera_1,255,0,1.174878398988903,-0.7941898622717888,4.803487852085274,0.9897065155387598,0.038954323619610626,-0.10351040323820913,0.09082494257046704,0.02802828693529591,0.01018148537222579,9867.146194694797
1684378471190483570,244,1684378471190483570,camera_1,256,0,1.1739737430193729,-0.7923756694666563,4.800564392008123,0.9895188683594978,0.03907043714665042,-0.10755275465131256,0.08808129806390906,0.03226164949592203,0.01170772883011425,9870.73585642688
1684378471197081804,245,1684378471197081804,camera_1,257,0,1.1747903481346,-0.7914084577793974,4.805279825048863,0.9899296557351172,0.03890533289907729,-0.10383703426688155,0.08799728451959773,0.016921018599532545,0.0061422047408348605,9871.023634260757
1684378471203650474,246,1684378471203650474,camera_1,258,0,1.1739131424508429,-0.7879062363296236,4.804336740463136,0.9896179827451722,0.03898662269943791,-0.10582972254809474,0.08908625765661658,0.015062584599945694,0.005469768539269156,9864.817167955916
1684378471210542440,247,1684378471210542440,camera_1,259,0,1.1740968449761389,-0.7862384478904044,4.806268316643894,0.9896869450592343,0.038919227970502845,-0.10445220979681169,0.08997099722723469,0.025270210637245327,0.009180055226943932,9861.806867896463
1684378471217167615,248,1684378471217167615,camera_1,260,0,1.1734788432059116,-0.7844809224236502,4.804963454877832,0.9897182203575474,0.03866010379132163,-0.10458917504767112,0.089578709133261,0.01699422427918762,0.006168372050791403,9869.238029732718
1684378471223718166,249,1684378471223718166,camera_1,261,0,1.1738232489658027,-0.7816621410548583,4.809041769694741,0.9899819301016977,0.03899404673345772,-0.10139318394261242,0.09019237573900411,0.01908597198780626,0.0069292835799645534,9868.071274601623
1684378471230370044,250,1684378471230370044,camera_1,262,0,1.1724070109304194,-0.7795121686734641,4.804340243283675,0.9897392041701816,0.03928468110414558,-0.10574647557297158,0.0876966616412294,0.01610559260006994,0.005838451871025655,9876.830248549351
1684378471237339973,251,1684378471237339973,camera_1,263,0,1.1724652485771232,-0.7782645877055805,4.805455378471191,0.9896211949103476,0.0389450075139042,-0.10334535039924897,0.0919397385509351,0.018153964658267796,0.00658874260410376,9869.729267220944
1684378471243691444,252,1684378471243691444,camera_1,264,0,1.1717904033345523,-0.7761164687191706,4.803921700146058,0.9895903453615086,0.03911020017935129,-0.10480676033071437,0.09053664229582267,0.022391979640815407,0.008119488827439372,9875.45367022825
1684378471250492095,253,1684378471250492095,camera_1,265,0,1.1716653336588991,-0.7755275945708772,4.803903262969496,0.9896284272691402,0.039082025772477276,-0.10575401717615004,0.08901830740602769,0.01756542146904394,0.006367102583142513,9876.778966925576
1684378471257031202,254,1684378471257031202,camera_1,266,0,1.1711475781862979,-0.7748971070637923,4.802013324612875,0.989362107841981,0.039224692126860104,-0.10846410844748731,0.0886542738547731,0.028901200857944783,0.01047670177762964,9872.95999975584
1684378471263718843,255,1684378471263718843,camera_1,267,0,1.1713842074781884,-0.7751717784030563,4.80270185069279,0.9896207008579424,0.03899030003039189,-0.1063405420675558,0.08844384687333169,0.033902542549185455,0.012282193676484567,9880.836490489075
1684378471270428895,256,1684378471270428895,camera_1,268,0,1.1723122760663136,-0.7762987487246509,4.806421664139122,0.9896185742416017,0.03907014410509671,-0.10225568348299481,0.09312559557421395,0.019095858850050718,0.006932073110491851,9868.167159252218
1684378471277151823,257,1684378471277151823,camera_1,269,0,1.1726431494783962,-0.777275254339993,4.807288636181343,0.9896337768525554,0.03929309352758665,-0.10520722852614968,0.08951245488436609,0.034631917194928974,0.012572276969909377,9863.0346686783
1684378471283747911,258,1684378471283747911,camera_1,270,0,1.172746304927009,-0.7793892043068628,4.80622645706435,0.9896238276308952,0.03918909727854723,-0.10517819777735835,0.08970195734751683,0.027903811482246965,0.010128981187279267,9865.282673621083
1684378471290372848,259,1684378471290372848,camera_1,271,0,1.1736717279342959,-0.7811782962714593,4.808806500071888,0.9898233223908636,0.038991988021512325,-0.10322027561885913,0.0898609482612421,0.0334501446923241,0.012148979143358603,9862.127851243717
1684378471297072410,260,1684378471297072410,camera_1,272,0,1.1726081276887852,-0.7818792410428395,4.803218255919862,0.9897255398214844,0.03965250518857856,-0.10579537937289221,0.0876263223049285,0.014561388059519231,0.005277856999429428,9879.421949601732
1684378471303750753,261,1684378471303750753,camera_1,273,0,1.173820394600137,-0.7856537391409736,4.805647909838341,0.9895637713574797,0.03876141422640475,-0.1071203947741374,0.08824010543603962,0.026119872112758458,0.009488544745085023,9858.158876168307
1684378471310322999,262,1684378471310322999,camera_1,274,0,1.174453030187164,-0.7878481563367477,4.807008332997299,0.9896356075727311,0.03913104842681819,-0.10519964552345848,0.08957209305865509,0.01908095710678026,0.006935917545883709,9855.623082200062
1684378471317118167,263,1684378471317118167,camera_1,275,0,1.1739146321237266,-0.788905296433666,4.803257536212498,0.9894970194070456,0.038738809930591755,-0.10590645968609406,0.09043657991372886,0.04791995498817414,0.01740674128124632,9862.860585667077
1684378471323705434,264,1684378471323705434,camera_1,276,0,1.1747840460957142,-0.7925696695163389,4.804588544059839,0.9899447888847815,0.03858644724827323,-0.10188206945345693,0.09022441450351845,0.01711736636934802,0.006213889538859438,9874.103333640847
1684378471330346584,265,1684378471330346584,camera_1,277,0,1.174909755990479,-0.7939467671388659,4.804117571187021,0.9897110537883276,0.038785584838755896,-0.10369672049656163,0.09063497435411848,0.028175302722956985,0.010236894362338256,9864.853646803302
1684378471337034940,266,1684378471337034940,camera_1,278,0,1.1752619404419957,-0.795353223851911,4.804353077590914,0.9897284562554819,0.03844458466881777,-0.10305590701759239,0.09131854585222211,0.03624616365414113,0.013173674156919111,9862.9481449452
1684378471343720674,267,1684378471343720674,camera_1,279,0,1.1754483811411869,-0.7971312825899204,4.8036348601956655,0.9897515320650586,0.03867774992520848,-0.10529580604496724,0.08836701683848602,0.03136925079161301,0.011396408289346563,9863.963726099111
1684378471350544929,268,1684378471350544929,camera_1,280,0,1.174994447592642,-0.797368355663745,4.801333697787876,0.9896188706702174,0.03920701738257524,-0.10468310039238078,0.09032579417644088,0.04087498044827953,0.014845544179543686,9868.774105947465
1684378471357066154,269,1684378471357066154,camera_1,281,0,1.1751811526789906,-0.7978390749445167,4.802103565755407,0.9896871818251239,0.03864155275064275,-0.10487623987374654,0.0895940111949886,0.03364814876113087,0.012222486599393696,9867.10791132576
1684378471363979101,270,1684378471363979101,camera_1,282,0,1.175071314595274,-0.7975369308813223,4.801744356198538,0.9896184901380098,0.03902669602153845,-0.10668826914086729,0.0880328018543877,0.02836557972477749,0.010302202127799805,9865.653718884572
1684378471370571613,271,1684378471370571613,camera_1,283,0,1.1750661335137986,-0.7970683588868781,4.802101934967673,0.9897457769640174,0.03852020182455188,-0.1033182328524588,0.09080106713874324,0.02087255328660831,0.0075805029173974066,9870.855356673355
1684378471377212762,272,1684378471377212762,camera_1,284,0,1.1746257746271955,-0.7960413025315645,4.800703486082046,0.989515417990403,0.03876279185182896,-0.10630153993041638,0.08975893345819122,0.03570779669098557,0.012968554799508524,9866.907093226208
1684378471383858680,273,1684378471383858680,camera_1,285,0,1.1750830339959342,-0.7942857096419297,4.804320849903021,0.9896929251744008,0.038869161048343114,-0.10355136015630904,0.09096272857008186,0.03482773818541318,0.01265662442020652,9863.043792449871
1684378471390388488,274,1684378471390388488,camera_1,286,0,1.1747923607442872,-0.7929441271018725,4.804123025375443,0.9898104839554553,0.03918447420120725,-0.10336478938903992,0.08975245482994583,0.03887411882169545,0.014114820065799045,9870.28361195826
1684378471397195339,275,1684378471397195339,camera_1,287,0,1.1745724163790168,-0.7912551800546791,4.804253315638926,0.9898428791866924,0.03883265176323433,-0.10526059074666905,0.08731155545571695,0.02478619071189314,0.008995705635608245,9870.778405116642
1684378471403781414,276,1684378471403781414,camera_1,288,0,1.1749352359237708,-0.7885433174478754,4.8085126077002185,0.9898410949498487,0.03923394485003613,-0.10239049764327884,0.09050685229500842,0.010371000214945525,0.0037698404810865326,9858.877697296666
1684378471410382986,277,1684378471410382986,camera_1,289,0,1.1745079948672932,-0.7866308056658393,4.808372273549539,0.9899357027533834,0.0391781126431006,-0.10272009331045123,0.0891120773755264,0.007344364013988525,0.002667611203773135,9864.55276105541
1684378471417132377,278,1684378471417132377,camera_1,290,0,1.172930740512715,-0.7840402716729316,4.802837666631379,0.9896664862808672,0.03867757382833623,-0.10612456070670839,0.08832818819631703,0.019196770910639316,0.006961966236676938,9875.124991613673
1684378471423699855,279,1684378471423699855,camera_1,291,0,1.173578986433774,-0.7814648972599032,4.807989810075597,0.9899120926756741,0.0394636523487313,-0.10151372242047897,0.09061806154461802,0.013044805673416704,0.004735024988007201,9870.361155860825
1684378471430481910,280,1684378471430481910,camera_1,292,0,1.172339220361168,-0.7794430621686712,4.804093289434563,0.989588708522339,0.03880890410938686,-0.10509281753672224,0.09035240245345384,0.014000785129610449,0.005079474682426182,9871.80440920021
1684378471437150478,281,1684378471437150478,camera_1,293,0,1.1723109994806171,-0.7781697521017561,4.804756991089093,0.9897186949523382,0.03937569748057724,-0.10467401758392911,0.08916170339668199,0.023988730798009783,0.008697882208537197,9876.072965678406
1684378471443688869,282,1684378471443688869,camera_1,294,0,1.1718514668361448,-0.7761974859410884,4.804422616855303,0.9895447990604129,0.03917402055543301,-0.10443557666708474,0.09143137914426891,0.018808916793204844,0.006823298277301349,9872.187312598693
1684378471450434923,283,1684378471450434923,camera_1,295,0,1.171659584827901,-0.7755387508885102,4.8040362882831324,0.9896168272320147,0.03925252934272595,-0.10408436442435177,0.09101768664286114,0.03461968235205859,0.012551650055445937,9877.255144659313
1684378471457124948,284,1684378471457124948,camera_1,296,0,1.1714014114188185,-0.7750753683662981,4.80297667549252,0.9896505795056628,0.039055087644779655,-0.1046747545176148,0.09005346400800807,0.02929290954489261,0.010613628133998505,9882.249897573724
1684378471463814496,285,1684378471463814496,camera_1,297,0,1.1703443336859602,-0.7745770301250043,4.798805819836338,0.9893812505387103,0.039241353057687445,-0.10850131445588033,0.0883873410280352,0.03269266529241577,0.011834200806680397,9886.882695992128
1684378471470454692,286,1684378471470454692,camera_1,298,0,1.1720710307356943,-0.7761214153690802,4.805400962291642,0.989622710889105,0.03909713251814894,-0.1036997489154658,0.09145855015375347,0.026156941545195878,0.00948980327681447,9871.560788354716
1684378471477111816,287,1684378471477111816,camera_1,299,0,1.1721845372365252,-0.776967225476866,4.8050702344737966,0.9898606147883645,0.038740116171802674,-0.10324355612566274,0.08953175307299403,0.03352318424731493,0.012149785996073812,9881.014105755603
1684378471483746051,288,1684378471483746051,camera_1,300,0,1.1729589333016892,-0.7795393946993189,4.80700887605407,0.9898141978294583,0.039165523752689155,-0.1030102775039533,0.09012656796395813,0.021771039464510977,0.007900256011342196,9870.701395793469
1684378471490384817,289,1684378471490384817,camera_1,301,0,1.1730424011814284,-0.7807622766575006,4.806357079054395,0.9897442989054438,0.038738332590392374,-0.1043431818341956,0.08954364732912977,0.017552561301272362,0.006370676399089322,9868.117837515667
1684378471497088193,290,1684378471497088193,camera_1,302,0,1.173213472104201,-0.7823563960603833,4.8056797691786235,0.9897775919947451,0.03884237174697233,-0.10474449677232338,0.0886576501948176,0.043124203861225396,0.015646745502662388,9870.613875030544
1684378471503913402,291,1684378471503913402,camera_1,303,0,1.1738307935367502,-0.7856686229130847,4.805587978371117,0.9898103503771513,0.0386994874981576,-0.1030427981606688,0.09033272773951308,0.024478133709635586,0.008885751273618559,9870.32176563924
1684378471510485410,292,1684378471510485410,camera_1,304,0,1.17374212294813,-0.7873952517492075,4.804056683512167,0.9895955151433155,0.038906014623928946,-0.10533231992095105,0.08995632726156204,0.01858160150004551,0.006747607787962792,9865.710683605515
1684378471517035245,293,1684378471517035245,camera_1,305,0,1.1738106128767851,-0.7888866361170291,4.802901605080962,0.9896613852212124,0.03878692722590633,-0.10469542644647056,0.09002657696255681,0.034709488099906594,0.012597988740934039,9871.574252332559
1684378471523727178,294,1684378471523727178,camera_1,306,0,1.1755463156537576,-0.793077728720483,4.807511130594715,0.9900702143058068,0.03915266677064896,-0.10092166706426707,0.08968197447742539,0.029473756265360862,0.01070586276500444,9868.28597761923
1684378471530378341,295,1684378471530378341,camera_1,307,0,1.1748063173193828,-0.793868096101496,4.803580678942862,0.989861445742401,0.03890836606847518,-0.1032287136498289,0.08946669749603484,0.016165940498467535,0.005868357916787766,9873.34058248438
1684378471537066698,296,1684378471537066698,camera_1,308,0,1.1749170741006365,-0.795188270661479,4.80298395441316,0.9896928047702938,0.03900175451198112,-0.10500511796394643,0.08922410286617716,0.030336036172229797,0.011017895533340536,9866.910706199586
1684378471543807029,297,1684378471543807029,camera_1,309,0,1.1750425701463434,-0.7969117378055672,4.802092858117822,0.9898054513273641,0.0387251756196376,-0.10348410096572609,0.08986973986374272,0.026510348019655794,0.009624419247716634,9873.57912113902
1684378471550383329,298,1684378471550383329,camera_1,310,0,1.1747471669365537,-0.7973244935878615,4.800458213315161,0.9895345141214996,0.03864443998165439,-0.1065988290680883,0.08924540471163986,0.047131903760600835,0.017116916589805617,9867.082838543341
1684378471557138919,299,1684378471557138919,camera_1,311,0,1.1752924458691738,-0.797902893527603,4.802439656042061,0.9897425847523763,0.03875598389418448,-0.10505496505309501,0.08871890417364196,0.03505048993974924,0.012729750024671463,9867.899602997586
1684378471563858747,300,1684378471563858747,camera_1,312,0,1.1748740872768806,-0.7974267337446614,4.8010190324447874,0.9897187582002906,0.03917389385507921,-0.10490723824062943,0.08897559817966606,0.0250405190163292,0.009089093967380009,9873.879644498691
1684378471570499658,301,1684378471570499658,camera_1,313,0,1.1742651880929649,-0.7965246244143297,4.798837958748341,0.9895568120924357,0.03926805652553255,-0.10517342091005331,0.09040955100120926,0.015685142891015857,0.005691971132204878,9877.026365294936
1684378471577052116,302,1684378471577052116,camera_1,314,0,1.1746829585012937,-0.796051972703241,4.8009384101874835,0.9896053550570643,0.038800137588898234,-0.10373001581710936,0.09173807488740342,0.02857844374375418,0.010378703698678313,9871.024080372066
1684378471583949327,303,1684378471583949327,camera_1,315,0,1.1746758473628471,-0.7939954882888062,4.8025007659113115,0.9897450356745381,0.03852795354848911,-0.10512222506982233,0.08871121095635282,0.03809493040898815,0.013828692741721934,9870.997835390035
1684378471590366601,304,1684378471590366601,camera_1,316,0,1.1753974244174372,-0.7933194925510657,4.806609106380686,0.9899217151544695,0.038836645171328954,-0.10288543087739327,0.08922612269197096,0.052350147743709385,0.019019321986577502,9864.151288280726
1684378471597007989,305,1684378471597007989,camera_1,317,0,1.1742098466779085,-0.7910585842725343,4.802958312337918,0.9896494575411919,0.038860479310709156,-0.10634628084301521,0.08817189397435604,0.02506979723693803,0.009100800861207752,9868.093262346225
1684378471603723764,306,1684378471603723764,camera_1,318,0,1.174270873258343,-0.7880218846826769,4.805743496227608,0.9898587603070127,0.03921154647822229,-0.1031440128000149,0.089461734220619,0.008307797077577561,0.003015953892438164,9870.40988708369
1684378471610480070,307,1684378471610480070,camera_1,319,0,1.1744766326414364,-0.7865231755384647,4.807979367242213,0.9897734313435932,0.03886883146256539,-0.10589711938001778,0.08731304973529723,0.014316151267848909,0.005201494005512382,9857.263894885782
1684378471617110252,308,1684378471617110252,camera_1,320,0,1.1733619192555003,-0.7842314333318146,4.804514354388684,0.989550085993376,0.038955034688342376,-0.10520628047310338,0.0905801917195315,0.023556408123113215,0.00855415174886674,9864.73701665027
1684378471623858690,309,1684378471623858690,camera_1,321,0,1.1728957082814262,-0.7809483323366704,4.805311262459053,0.989737996630654,0.038839669905112145,-0.10222313963566702,0.09198156222976697,0.015402121120132506,0.005589244728058563,9873.313971198513
1684378471630395174,310,1684378471630395174,camera_1,322,0,1.172237356907243,-0.7793715682718853,4.803686210623166,0.9897673297063836,0.03884289008707596,-0.10412053786151876,0.08950294146566447,0.01407219679094851,0.005100690997285582,9881.005369179886
1684378471637143135,311,1684378471637143135,camera_1,323,0,1.1722833062186375,-0.778125925758456,4.804793575043813,0.9896384195239581,0.038985468880095506,-0.10447548732793063,0.0904477991214411,0.026173703314270824,0.009494718998072173,9872.456426584511
1684378471643788337,312,1684378471643788337,camera_1,324,0,1.1716658686332502,-0.77601527139042,4.8034792038063605,0.9894855485220404,0.039004897934707336,-0.1060656763058503,0.09026095231561859,0.02157097141025588,0.00782328541009202,9872.31355116388
1684378471650402545,313,1684378471650402545,camera_1,325,0,1.1708907442490073,-0.7750305256253781,4.800740511043664,0.9894556997344902,0.03903309999931408,-0.10611031531989952,0.09052312605122309,0.03208535659359768,0.01162386076071308,9882.851142895175
1684378471657064676,314,1684378471657064676,camera_1,326,0,1.1708704642991026,-0.7746751816082399,4.800938428635239,0.9893631139508804,0.03898576142533708,-0.10648695770176525,0.09111128908607534,0.025905542133841667,0.009389288392273914,9878.424258454468
1684378471663819551,315,1684378471663819551,camera_1,327,0,1.1711241671316932,-0.7750499720417378,4.801841244426871,0.9895073513340422,0.03896845774244914,-0.10517496826597726,0.09107627027560074,0.03305844537680968,0.011980088085433742,9880.916124837006
1684378471670510768,316,1684378471670510768,camera_1,328,0,1.171991674933838,-0.776120112339027,4.8051271184688265,0.989563630681785,0.03926248605100898,-0.1038177039106129,0.09189212357817529,0.030945701466407627,0.011228367286184296,9870.624900121942
1684378471677068471,317,1684378471677068471,camera_1,329,0,1.1721350293551798,-0.7769473285636508,4.805056190007393,0.9896979148055449,0.03911520136753175,-0.10444762301204691,0.08977044334672277,0.027152075490448624,0.009846188415316995,9874.770575779026
1684378471683892965,318,1684378471683892965,camera_1,330,0,1.17237814618752,-0.7791812916780514,4.804607108534034,0.9895988856113396,0.03934386556734302,-0.10576195722442916,0.08922171396623046,0.023436992370989174,0.008502134482655806,9870.74897121277
1684378471690602540,319,1684378471690602540,camera_1,331,0,1.1725157657203211,-0.7804701112921923,4.804019012752326,0.9895490607372714,0.03942632090573021,-0.10700002218829248,0.08825654007226552,0.02463492949027568,0.008936717023758816,9869.43663910613
1684378471697055816,320,1684378471697055816,camera_1,332,0,1.1729985160195475,-0.782289634966177,4.804950128975426,0.9897306846432994,0.03924755440793395,-0.10464561759924752,0.0891184384163818,0.019729458028450608,0.0071575601190098075,9872.647317121275
1684378471703797817,321,1684378471703797817,camera_1,333,0,1.1739324904572523,-0.7858091626295837,4.806109751092222,0.9899165795201151,0.038977465911057135,-0.10439843013728294,0.08744650094325569,0.007491019379813224,0.002718056004114896,9871.960154510685
1684378471710341930,322,1684378471710341930,camera_1,334,0,1.1733260144912845,-0.7871940658876941,4.802565609418364,0.9895917156741098,0.03937399267803446,-0.10638093111792463,0.08854954807476592,0.01069366722367704,0.003880078916796309,9871.896816332359
1684378471717080116,323,1684378471717080116,camera_1,335,0,1.174136309811299,-0.7892250732724102,4.804514157280733,0.989655295756574,0.038867324404243016,-0.10431736852014323,0.09049648225017463,0.015226554707624018,0.005530704366583212,9865.288000822999
1684378471723762273,324,1684378471723762273,camera_1,336,0,1.1747603806481086,-0.7926536213001638,4.804524601711094,0.9897725814777208,0.03897247744652387,-0.10246162161883152,0.0912852619640656,0.007852943206671625,0.0028526777331455613,9867.94303962099
1684378471730518102,325,1684378471730518102,camera_1,337,0,1.1745674010480769,-0.7937391718845395,4.8026635707219425,0.9897166291987042,0.038635991901917896,-0.10387280019811364,0.09043613987954582,0.034716316673438996,0.012605615214753306,9870.61629380903
1684378471737081289,326,1684378471737081289,camera_1,338,0,1.1750833747230571,-0.7952462758395322,4.803675847247206,0.9895973409962383,0.03848862241886896,-0.10332336050580873,0.09241218432251953,0.01983257249230519,0.007210504053096555,9860.58153661923
1684378471743997335,327,1684378471743997335,camera_1,339,0,1.1752361881439413,-0.7970354939572719,4.802778509815383,0.9897618696852011,0.038428817528982126,-0.10321181811406169,0.09078539476242352,0.02673925564158708,0.009713183395638219,9868.698740468826
1684378471750367403,328,1684378471750367403,camera_1,340,0,1.1741298985157465,-0.7968531353894261,4.797878809525142,0.9894907030293013,0.03911434589373218,-0.10726983641507497,0.0887209037339448,0.028900172444991767,0.010484952660980732,9876.348477440071
1684378471757014751,329,1684378471757014751,camera_1,341,0,1.1749160239122405,-0.797610178919269,4.801083507030122,0.9898306380846147,0.039300459209209174,-0.10420527154954795,0.08849883160943207,0.017639215453527868,0.006399903895932269,9878.484161901517
1684378471763631343,330,1684378471763631343,camera_1,342,0,1.1745256183970842,-0.7971944223895697,4.799427175526366,0.9895147198271049,0.03881898694252505,-0.10661043545546149,0.08937516741376804,0.037569361156784,0.013639402495330646,9870.716271627927
1684378471770479440,331,1684378471770479440,camera_1,343,0,1.175199587655297,-0.7971008696443804,4.802583088578408,0.9898070608535148,0.03878910641537828,-0.10308903356383181,0.09027756458222666,0.023102071951143444,0.008389143912527468,9871.81589911785
1684378471777063369,332,1684378471777063369,camera_1,344,0,1.17447156761583,-0.7959298437283748,4.800379678899824,0.9897041175905561,0.03864827666752638,-0.10435384328584682,0.09001303086999078,0.012622899899724871,0.004580917221764426,9876.829216621469
1684378471783698081,333,1684378471783698081,camera_1,345,0,1.1747002620973732,-0.7939578672478529,4.802683850331512,0.9897573027842487,0.03871067680227858,-0.10414955098984735,0.0896372473661025,0.020952320541255176,0.007606726033275802,9871.679976895808
1684378471790401697,334,1684378471790401697,camera_1,346,0,1.1747738151134581,-0.7928457294180701,4.804065872372113,0.9898723407570158,0.03894617750699443,-0.10358367299439215,0.08891775385608339,0.031907417287584394,0.011581973017545624,9872.481959607569
1684378471797078609,335,1684378471797078609,camera_1,347,0,1.174413073048873,-0.7911704403592451,4.80388438061325,0.9897691227416062,0.039166979663289955,-0.10263183983342349,0.0910479918711727,0.02983171067899093,0.010831038555544605,9871.708283773507
1684378471803720235,336,1684378471803720235,camera_1,348,0,1.1740437441652216,-0.7879210624103874,4.804853288488959,0.9896061301612565,0.038731008672860244,-0.10489813005429159,0.09042122773750738,0.033768333843909204,0.01226732514867524,9862.377480686178
1684378471810403823,337,1684378471810403823,camera_1,349,0,1.1739487258904435,-0.7861506587724405,4.805967733297172,0.9895498497554978,0.039188165225609015,-0.10676717068813416,0.08863494693614365,0.026251845236402005,0.00953832567278952,9856.925725140492
1684378471817131280,338,1684378471817131280,camera_1,350,0,1.1749678253951028,-0.7852819674822273,4.811254620812485,0.9900951358393297,0.03923058005646124,-0.10131239197935892,0.08892908864456811,0.02148951042909175,0.007807882103935325,9861.113871013744
1684378471823870658,339,1684378471823870658,camera_1,351,0,1.1733334128742139,-0.7812058419061539,4.807207716688336,0.9899069583439931,0.039143773709156636,-0.10201684646540193,0.09024711540656034,0.01570739276940003,0.005699741040945087,9872.707770686011
1684378471830400705,340,1684378471830400705,camera_1,352,0,1.1729286119637838,-0.7797342130149756,4.806358243126854,0.9897123858376029,0.03874620384787179,-0.10251495131011952,0.09197178787488573,0.03208316856762394,0.011646694395557593,9868.669561843159
1684378471837132692,341,1684378471837132692,camera_1,353,0,1.1729113495393269,-0.778502421287304,4.807362407396535,0.9897679625403178,0.03914537467348062,-0.10329900988650088,0.09031242731169159,0.01099418563535437,0.003990517486847719,9867.954820764942
1684378471843694686,342,1684378471843694686,camera_1,354,0,1.1714976192286506,-0.7759036840756112,4.802709481281486,0.9894938858033092,0.03902124564724452,-0.10590076662724669,0.0903560732533605,0.022165949863847345,0.008036343355829605,9875.860888816998
1684378471850536108,343,1684378471850536108,camera_1,355,0,1.1709547456214096,-0.775012892839557,4.800864556997036,0.9893720092547819,0.03898603093587504,-0.10801480840825303,0.08919595203568025,0.03649831813527271,0.01322562803720136,9877.663787080208
1684378471857074737,344,1684378471857074737,camera_1,356,0,1.1717008887327671,-0.7752642644272872,4.804321222077253,0.9895885240259261,0.03931610327768733,-0.10588268445408788,0.08920568520023422,0.02262336027342826,0.008202532796007607,9874.047782428674
1684378471863824367,345,1684378471863824367,camera_1,357,0,1.17081932765346,-0.7749055178980842,4.800709443888522,0.9895331910350549,0.039267783645498516,-0.1068406504056913,0.08869712750952362,0.02688588754972443,0.00973501399297051,9886.004580091918
1684378471870506048,346,1684378471870506048,camera_1,358,0,1.171858863244444,-0.7760356345136808,4.804642918828375,0.9895913601779872,0.03914714079291372,-0.10495509441898179,0.09033753032003689,0.018829006177838892,0.006829189982809611,9872.803461195901
1684378471877182960,347,1684378471877182960,camera_1,359,0,1.1727179254835516,-0.7773750453658701,4.807530699253362,0.9896020612167846,0.0392165344875907,-0.10467614297825516,0.09051369481725331,0.0243855087319389,0.008855670084535635,9861.03843965265
1684378471883692741,348,1684378471883692741,camera_1,360,0,1.1723769780132618,-0.7791777362246569,4.8045263102970415,0.9897928668674035,0.03899443234501335,-0.10403048927673235,0.08925901772560729,0.02570999221643433,0.009320293724857685,9879.069037283305
1684378471890433311,349,1684378471890433311,camera_1,361,0,1.1734654653543157,-0.7811472516449378,4.807923850137598,0.9898230571042128,0.03895701555237531,-0.10267510126851419,0.09050132675062253,0.023778342641890046,0.008633830866891632,9866.016719278765
1684378471897118806,350,1684378471897118806,camera_1,362,0,1.1726929889629583,-0.7820248960723324,4.803570243629296,0.9896836102083095,0.03901930728343427,-0.10588999226929596,0.08826751883550595,0.01675184431951493,0.006074692363361992,9875.265427410834
1684378471903726577,351,1684378471903726577,camera_1,363,0,1.1737140057940103,-0.7856850345757636,4.805250227984032,0.9897415119540783,0.038665325076312505,-0.10492898829379527,0.08891928681247077,0.01315960253123194,0.004777099717715877,9867.904851923697
1684378471910454988,352,1684378471910454988,camera_1,364,0,1.1749374982281864,-0.7882882033609016,4.808889798178804,0.9898547670638921,0.03869127422958582,-0.10308392247051804,0.08980105983489914,0.014814339927397668,0.005385467082717995,9856.895824287907
1684378471917269229,353,1684378471917269229,camera_1,365,0,1.174601180772233,-0.7895659900058406,4.806391676190456,0.989705178983028,0.03922449186359827,-0.10600699501681954,0.08779302329751983,0.01982362213311717,0.007202398727363523,9858.990353899426
1684378471923751831,354,1684378471923751831,camera_1,366,0,1.1748126697217367,-0.7927253244691665,4.80456486930679,0.9897679615879924,0.03923787536245313,-0.10292877517035749,0.09069420374489708,0.024253139679785818,0.008809592555681154,9867.543626474333
1684378471930349588,355,1684378471930349588,camera_1,367,0,1.1741699767087757,-0.7934501582979602,4.80097687879705,0.9895086326757715,0.038472587958482074,-0.1061862200779691,0.09009446432192773,0.023387192049995065,0.008492851936707003,9867.785182362659
1684378471937002897,356,1684378471937002897,camera_1,368,0,1.174629566644686,-0.7950497691885188,4.801904896424683,0.9895968577847193,0.038771643427466126,-0.10519124278740638,0.09016441187843673,0.026599866047035903,0.009661348978963976,9867.183444130118
1684378471943867683,357,1684378471943867683,camera_1,369,0,1.1757224144266314,-0.7974017590245345,4.804952320381181,0.9899275152363078,0.0385593283672524,-0.10376221524570518,0.0882615174424257,0.014899428118951619,0.005412581299758659,9866.261572297437
1684378471950385093,358,1684378471950385093,camera_1,370,0,1.1756131996592976,-0.7978065717960305,4.803947434971968,0.9897945141563271,0.03922353744584824,-0.10406740343103942,0.08909719074918082,0.026213900244329125,0.009523866367986817,9865.386230565487
1684378471957048177,359,1684378471957048177,camera_1,371,0,1.1751314029693347,-0.7977707707010143,4.801861450482754,0.989668037685172,0.03871316140373954,-0.10408908062584833,0.09068588430938199,0.019895064237061888,0.007227362544974226,9867.938945254427
1684378471963853597,360,1684378471963853597,camera_1,372,0,1.1753507046305571,-0.7976872190801463,4.802771536715754,0.9897148502807122,0.03893753106888761,-0.10425604815477646,0.08988359266982997,0.026604726910591125,0.0096653388820213,9866.420265499386
1684378471970529556,361,1684378471970529556,camera_1,373,0,1.1758481311267053,-0.7975419436876747,4.805389720279324,0.9895569906397975,0.038573769982345886,-0.10510309084977511,0.09078748173113285,0.02008521038806066,0.007309628880282293,9849.139024439619
1684378471977134227,362,1684378471977134227,camera_1,374,0,1.1755289652936327,-0.7966380401740782,4.804683874318927,0.9897660581472354,0.03925540727944266,-0.10484990456872686,0.08847971886787133,0.025995721633080393,0.009446088947864837,9862.211499645491
1684378471983820438,363,1684378471983820438,camera_1,375,0,1.1745237692480974,-0.793886062640947,4.802198574243447,0.9896807749373945,0.03880716293470768,-0.10335430169100013,0.09134471055426871,0.0226258541806601,0.008215908816556629,9871.448304127667
1684378471990418434,364,1684378471990418434,camera_1,376,0,1.1750292367604662,-0.7930159170281845,4.805292457866917,0.9898852280580689,0.03916353632489718,-0.10332975110342507,0.08897423914739414,0.03594608436105773,0.013053246827078906,9868.567854414574
1684378471997073650,365,1684378471997073650,camera_1,377,0,1.1743087448629637,-0.7910652792572962,4.803490663425774,0.9897295254405384,0.03922010250518948,-0.10305232063371007,0.09098059816651197,0.019106265564914793,0.0069368591952477495,9871.68353598076
1684378472003767490,366,1684378472003767490,camera_1,378,0,1.1735446762182067,-0.7875067297553541,4.802891220660306,0.9895144466695232,0.03894804937182304,-0.10557222442534034,0.09054675428927902,0.018032969848718494,0.0065479076547945315,9866.918988114805
1684378472010869741,367,1684378472010869741,camera_1,379,0,1.173982502356667,-0.786079573290285,4.805943418324163,0.9896153686088304,0.03871758651098479,-0.1065452206574551,0.08837695776065038,0.01433743315283209,0.005208494118528175,9858.90535510064
1684378472017184019,368,1684378472017184019,camera_1,380,0,1.1741860759617668,-0.7847215719902718,4.8081037096290835,0.9899284486598242,0.03944474230988423,-0.10131713965191029,0.09066761302039411,0.012640335015021265,0.004590113314422807,9868.011943319814
1684378472023660659,369,1684378472023660659,camera_1,381,0,1.1730705956107232,-0.7810589761455818,4.80623473376541,0.9898128773909048,0.03872234333073477,-0.10209287267667756,0.09136790041769714,0.015694923175033182,0.005695823005854638,9872.447204055377
1684378472030522584,370,1684378472030522584,camera_1,382,0,1.1728927473220316,-0.7796451086576673,4.806025782461672,0.9896604998467886,0.038324302965922596,-0.10578757662891347,0.08895128709671556,0.03960806952090934,0.014376146886842602,9865.170712262157
