%time,field.header.seq,field.header.stamp,field.header.frame_id,field.image_seq,field.transforms0.fiducial_id,field.transforms0.transform.translation.x,field.transforms0.transform.translation.y,field.transforms0.transform.translation.z,field.transforms0.transform.rotation.x,field.transforms0.transform.rotation.y,field.transforms0.transform.rotation.z,field.transforms0.transform.rotation.w,field.transforms0.image_error,field.transforms0.object_error,field.transforms0.fiducial_area
1684733615294619560,7,1684733615294619560,camera_2,8,0,0.7752710401617764,-0.15893920741723866,1.277055751847165,-0.9643867894709843,5.557388881043903e-05,0.2607957209358194,-0.04408751690622238,0.011067957573686726,0.008028093168539393,3623.0868426000225
1684733615305042505,8,1684733615305042505,camera_2,9,0,0.7749543126074252,-0.15969101994062138,1.2765856653262613,-0.9644769792282211,-0.00010343932142683091,0.26040050848874224,-0.0444490834316869,0.007545039770775475,0.00547071834172224,3625.982789847183
1684733615315497875,9,1684733615315497875,camera_2,10,0,0.7747143628566876,-0.15996978755679853,1.2761779508633342,-0.964490949778195,0.00043431166437482853,0.2604784486764116,-0.04368062435981742,0.010195287555688992,0.007385951271953975,3628.0778413285734
1684733615325403690,10,1684733615325403690,camera_2,11,0,0.7757244005998537,-0.1604409388928701,1.2778523802259933,-0.9650901371496964,4.180849947347162e-05,0.2581258460626832,-0.044408028810718404,0.010024853807408363,0.007274433288518298,3628.0923685397156
1684733615335724115,11,1684733615335724115,camera_2,12,0,0.7753646172002718,-0.16050007310728745,1.2772740400294256,-0.9649073637794794,-9.310354393704121e-05,0.25897759110795393,-0.04340942247700475,0.014977246843045577,0.010857096240227111,3628.293398014678
1684733615345581769,12,1684733615345581769,camera_2,13,0,0.7757975705126847,-0.16051024597906008,1.2779527780902358,-0.964862459837592,0.000594120354280934,0.25895756856346686,-0.044509081105470194,0.011692861473420635,0.008492563341766755,3623.567281081865
1684733615355862379,13,1684733615355862379,camera_2,14,0,0.7748542336615857,-0.16008896451970214,1.2763605985784598,-0.9645082290308689,0.00016721169756182887,0.26040855702580296,-0.04371763488255721,0.008355630590813234,0.006055009556900178,3627.0460543133095
1684733615365021705,14,1684733615365021705,camera_2,15,0,0.7758562738605447,-0.15999585619309598,1.277974645291088,-0.9648077809609006,1.7704039408847762e-05,0.25933079098212625,-0.043514208397425196,0.009574562500347383,0.006948786042197619,3623.3532257065535
1684733615375264883,15,1684733615375264883,camera_2,16,0,0.7745905565887019,-0.15935801207989056,1.2758502154384408,-0.9641538061042145,0.0005532319578331332,0.2617992844598459,-0.04322345156821901,0.0065602773684076965,0.004751722233064399,3625.008426427783
1684733615385642051,16,1684733615385642051,camera_2,17,0,0.7746269562553766,-0.15857625135951217,1.2758817257258097,-0.9642204368107614,0.000431757634706398,0.26148130620755083,-0.04366107334688815,0.005584921105764806,0.004044149615523311,3627.1336133844434
1684733615395273447,17,1684733615395273447,camera_2,18,0,0.7757869264387978,-0.15845036212194535,1.2777659236412287,-0.9644027882384045,0.00028083236896634235,0.26070269818962355,-0.04428641245147248,0.007056592032313347,0.005123563321409524,3619.9360453872932
1684733615405221939,18,1684733615405221939,camera_2,19,0,0.7756329146932287,-0.15813303122758554,1.277496911681254,-0.9643138552476261,-0.0002476230841768182,0.26104303856072986,-0.0442183138444906,0.01276560191763565,0.0092644134474665,3620.4129589031213
1684733615414922475,19,1684733615414922475,camera_2,20,0,0.7752218943833303,-0.1578463289812255,1.2768000199306586,-0.9640186392685378,-0.0004247286254457945,0.2621698815740445,-0.04398677010060032,0.007048705476336181,0.005112248041928053,3619.683817235871
1684733615424812555,20,1684733615424812555,camera_2,21,0,0.7744009553566659,-0.15765666274482926,1.2754741018957865,-0.9637692608329413,-0.0002627268894221399,0.2629782299350654,-0.04462279045877301,0.009268964000511914,0.006715334196829481,3623.0390224671
1684733615435147047,21,1684733615435147047,camera_2,22,0,0.7750353638617508,-0.1579556643011841,1.2765628780785765,-0.9641767403343118,-0.0002626519752267793,0.2615351433059392,-0.044300262168331585,0.010690372553654015,0.007749521258204169,3623.604455830878
1684733615445089817,22,1684733615445089817,camera_2,23,0,0.7752518440639455,-0.15826913102899232,1.2769637534630731,-0.9643772230848455,-0.0003662400650987358,0.2606679005383024,-0.045040904657105946,0.007626072037965059,0.0055319282889157075,3624.246426478727
1684733615455108165,23,1684733615455108165,camera_2,24,0,0.7744174965843637,-0.15843836477206552,1.2756123728914068,-0.964261179859534,-0.00024853004988248823,0.2612679112564506,-0.04403854898160803,0.013670859683770686,0.00989454203363497,3629.6289528517514
1684733615465032100,24,1684733615465032100,camera_2,25,0,0.774589436006316,-0.15927401377728886,1.2759678713704807,-0.9645108790567322,-3.715088299826925e-05,0.260345616534039,-0.04403320057108069,0.011400519477319904,0.008254197800786166,3630.6598301478666
1684733615475151062,25,1684733615475151062,camera_2,26,0,0.775112035572687,-0.1597618705187558,1.2768389055286857,-0.9645555958231212,0.00016308279419801952,0.2601574216435673,-0.04416550615669722,0.013675177600816824,0.009916601214239935,3625.8339548322847
1684733615485027074,26,1684733615485027074,camera_2,27,0,0.7744334425118096,-0.1599464524654945,1.2757273973323628,-0.9643873051369305,0.0003208972189972772,0.2607835666903579,-0.04414695980426554,0.011993988606263883,0.00868752315690041,3628.800155360427
1684733615495033025,27,1684733615495033025,camera_2,28,0,0.7759764677878634,-0.16051592800154615,1.278274525213109,-0.9650462733188604,0.0004619005676168647,0.25822521099223483,-0.04477965396540095,0.011162083377712406,0.008108299032371178,3624.897712800652
1684733615505120754,28,1684733615505120754,camera_2,29,0,0.7753930226663143,-0.16051110265444293,1.2772774374860385,-0.9646720095533222,-0.0001356411093786216,0.2597737929812585,-0.04388020129824772,0.01604611540096812,0.011642509283121228,3624.0761014476875
1684733615514994382,29,1684733615514994382,camera_2,30,0,0.7761227531575451,-0.16054815556721785,1.2784640245587022,-0.965056225231517,0.0005360782929869711,0.25820957972463077,-0.04465431334584379,0.01120733744755853,0.00814313000640082,3623.8861980153015
1684733615525036573,30,1684733615525036573,camera_2,31,0,0.7747565143221752,-0.1600254346588054,1.2762011225249041,-0.9643971771808613,-1.952669800061558e-05,0.26087588433054826,-0.04338037850283337,0.01466652617091313,0.01062589863676587,3626.21244021901
1684733615535525321,31,1684733615535525321,camera_2,32,0,0.7753133089590292,-0.15981986863064945,1.277059024475554,-0.964726160189376,5.925062307995363e-05,0.25951783750261814,-0.044203216552542786,0.003953075531171635,0.0028665595383244456,3627.1054353432255
1684733615545654535,32,1684733615545654535,camera_2,33,0,0.7741626515694204,-0.15880512666345717,1.2751121367766656,-0.9640631392911475,6.414815481372026e-05,0.2618483297057953,-0.044918944504483346,0.006340824591461569,0.004591848492874435,3628.0810919371434
1684733615555380821,33,1684733615555380821,camera_2,34,0,0.7747490214835072,-0.158512297455686,1.2760776651576535,-0.964132565618427,-0.0005282983485861827,0.2617814249439892,-0.0438018534902218,0.009844004933256656,0.0071312484718345165,3624.620406420203
1684733615565082073,34,1684733615565082073,camera_2,35,0,0.7751648267073812,-0.15827395957194396,1.2767350071592836,-0.9642333783008549,-0.00012652598143386603,0.2612275522360941,-0.04487919467231206,0.00683160568587482,0.004955643225298009,3622.8846030696295
1684733615574668645,35,1684733615574668645,camera_2,36,0,0.7751803332825015,-0.15799463623892912,1.2767414792665874,-0.964088595985137,9.295188009942029e-05,0.26173272987470914,-0.04504607156776259,0.01039536896860227,0.007543607706886327,3620.8396546518206
1684733615584643602,36,1684733615584643602,camera_2,37,0,0.7742924824021574,-0.1575905868902996,1.2752823170550696,-0.9638222048688916,-0.0003423532075904988,0.26278190080504843,-0.04463533135572353,0.012101053493097425,0.008763245513074874,3625.0615241741757
1684733615594748020,37,1684733615594748020,camera_2,38,0,0.7752067663998614,-0.15785073936676913,1.2768106636452952,-0.9641862556372226,-0.0003251834119857486,0.2613410099397711,-0.045228699071292566,0.009575916163157672,0.0069476653688679045,3622.3601997474907
1684733615604757070,38,1684733615604757070,camera_2,39,0,0.7752895091979818,-0.15805200350152573,1.2769863949236264,-0.9642754738070962,-0.0002934051272493357,0.2611052449608657,-0.04468529491295413,0.005171782628167421,0.003751531720017642,3622.736974334579
1684733615614792108,39,1684733615614792108,camera_2,40,0,0.775771093017003,-0.1584386727581439,1.2778142846298164,-0.9646386878390312,0.0002702871149333279,0.2597531834648205,-0.04472597174974733,0.005867902655154467,0.004259217578232569,3623.764572062065
1684733615624909162,40,1684733615624909162,camera_2,41,0,0.775271874448872,-0.1590744718581204,1.2770529176909267,-0.9646092316362477,0.00011092450027281797,0.26005398716181194,-0.04359979012710345,0.011964218763750978,0.008671543612409363,3626.68195650971
1684733615634904146,41,1684733615634904146,camera_2,42,0,0.7746725390978836,-0.1593647789452408,1.2760863566942835,-0.9644329506912439,0.000553613456945582,0.2606581736742754,-0.043887283236861946,0.00808728336414788,0.005857867511223193,3628.53389605193
1684733615644967317,42,1684733615644967317,camera_2,43,0,0.7752636001759932,-0.1598578165490296,1.2770930005247918,-0.9647785223122506,5.2963342577671845e-05,0.25927226737734993,-0.044500465715344655,0.011998912028502673,0.008701549189175654,3627.9918064615936
1684733615654884815,43,1684733615654884815,camera_2,44,0,0.7752465673670708,-0.16015666548339383,1.2770782318657632,-0.9648603122574828,0.0004777388252689976,0.2589841158290646,-0.044402447502872866,0.016077846303232946,0.011658851734887142,3629.005745581002
1684733615664895057,44,1684733615664895057,camera_2,45,0,0.7746692754569731,-0.16038239315016747,1.2761199224739421,-0.9644191482345199,-0.0001336388078201006,0.2608273725757823,-0.04318298709545797,0.009218549254001118,0.006677734425403362,3626.58272349689
1684733615675041198,45,1684733615675041198,camera_2,46,0,0.7754464701537342,-0.16051917868557955,1.277366691814519,-0.9647035121506204,0.0001969295451068227,0.2596487949024411,-0.04392719167807065,0.01255681192560587,0.009112005973159993,3624.125276681443
1684733615684897899,46,1684733615684897899,camera_2,47,0,0.7755134763166238,-0.16039885117254316,1.2774610252800107,-0.9647189624406617,1.2640712284886373e-05,0.2596469340009415,-0.043598084952623926,0.02040394369396381,0.014803842419463318,3624.0954026477402
1684733615694969892,47,1684733615694969892,camera_2,48,0,0.7743968256102227,-0.1599111622802715,1.275585229548464,-0.9642425262086983,4.791491100465563e-05,0.2613719682210064,-0.04382969978344099,0.01214159227674827,0.008793896674380233,3627.0394124797313
1684733615704895734,48,1684733615704895734,camera_2,49,0,0.7741289857185194,-0.15912847092397875,1.2751002136464036,-0.963971382506773,1.7250841497814947e-05,0.2623714738177186,-0.04382217631642338,0.017549077165313065,0.012704644457395992,3626.356078455807
1684733615714809894,49,1684733615714809894,camera_2,50,0,0.7755409323062571,-0.15902109389753688,1.2773974462386615,-0.9644022083400877,8.271076264105419e-05,0.26089478987595016,-0.04315416924557627,0.009349215659312904,0.00678147950982395,3621.2414833911457
1684733615724815607,50,1684733615724815607,camera_2,51,0,0.7748235743521259,-0.15846999084674918,1.2761854381397602,-0.9640385823382549,-0.0003333392107445843,0.26203616847832073,-0.04434576707442727,0.009151052043307573,0.006634175218365694,3622.410913167522
1684733615734817743,51,1684733615734817743,camera_2,52,0,0.7747793682231127,-0.15813554840550095,1.2760856668557363,-0.9640097272921259,-1.6828527325948023e-05,0.2619591047112209,-0.04541665841800251,0.011579740094020963,0.008398826447988346,3622.8113248019945
1684733615744572401,52,1684733615744572401,camera_2,53,0,0.775020404954,-0.15778241485562886,1.276486211996981,-0.9641872077808166,-0.0003687945103686826,0.26147380590744895,-0.04443355901472961,0.009016635944135487,0.006535296310297803,3624.3374228111943
1684733615754655838,53,1684733615754655838,camera_2,54,0,0.7751400651313709,-0.15777254113735875,1.2766973110290525,-0.9640683532204051,-8.786346270549253e-05,0.2619913059759671,-0.04396314583734226,0.008662655774969608,0.006280962549724503,3621.3050405813856
1684733615764631986,54,1684733615764631986,camera_2,55,0,0.7745858906447242,-0.15774984404950176,1.2758020189229602,-0.9640435294303957,-0.0002402091512375001,0.2619773478907748,-0.04458570236146758,0.006522410083562136,0.0047246497742686935,3625.7642185023287
1684733615774603605,55,1684733615774603605,camera_2,56,0,0.7754320495624675,-0.15811771098318483,1.2772312914696244,-0.9643100205844042,-7.402444658125737e-05,0.2610448182220707,-0.044292003796324544,0.010333115234971046,0.007496349774024051,3621.967354573309
1684733615784831285,56,1684733615784831285,camera_2,57,0,0.7746139915278735,-0.15863433564492807,1.2759644067468563,-0.9643220943694449,-4.6020531490794155e-05,0.2611142760222832,-0.04361457383027897,0.013784732669591904,0.009979370445621345,3628.5298573665777
1684733615795055866,57,1684733615795055866,camera_2,58,0,0.7749821608042037,-0.1591040008493476,1.2765790341429384,-0.9645229755108153,0.00041059719472702526,0.26031896088352646,-0.043923794533577594,0.006794034285121597,0.004923017894418211,3627.7423351808684
1684733615804974555,58,1684733615804974555,camera_2,59,0,0.775557394217305,-0.1596110633819875,1.2775531170884602,-0.9646415686667433,0.0007662795882959774,0.25979570983887873,-0.044409975963409294,0.011570406786631793,0.00839893798296382,3623.569908103441
1684733615814898252,59,1684733615814898252,camera_2,60,0,0.7752229376332576,-0.15991651597552586,1.2770264470197337,-0.9647648279408879,-0.0001763210244525038,0.2592702463098238,-0.04480775666699446,0.010690205002902076,0.007753377521770722,3627.9510098753954
1684733615824685096,60,1684733615824685096,camera_2,61,0,0.7756301162753284,-0.1604983090721945,1.277706975026028,-0.96476770438354,0.00023069076063988637,0.2594746248645926,-0.04354471737956829,0.011602083759498782,0.008419927286114192,3623.54856293532
1684733615834652662,61,1684733615834652662,camera_2,62,0,0.7753476854778276,-0.16051688640528033,1.2772220280445066,-0.964798208606829,9.182278327436566e-05,0.25932777826542336,-0.04374370420471719,0.016073972001322545,0.011657433201053795,3626.587643722306
1684733615844524383,62,1684733615844524383,camera_2,63,0,0.7752005817345203,-0.16045673655821158,1.276978219279805,-0.9647351161797657,5.289678108561089e-05,0.25956632663506635,-0.04372041729813116,0.008892731595551595,0.006447585421336246,3626.956104047422
1684733615854354619,63,1684733615854354619,camera_2,64,0,0.7755277650655282,-0.160370279450498,1.2774890345787786,-0.9647358022575014,0.0003436743260091687,0.25954404400839604,-0.04383609186846496,0.010270487604429945,0.007452837539943107,3624.2624182199365
1684733615864489793,64,1684733615864489793,camera_2,65,0,0.7755570972139099,-0.1597645737490062,1.277484616943405,-0.9645631993321641,-1.4768681192985757e-05,0.2601971580170309,-0.043763834793654935,0.010887972443015315,0.007901157685554513,3622.284656075063
1684733615874723911,65,1684733615874723911,camera_2,66,0,0.7741387191706975,-0.1590795114183372,1.2751345086099075,-0.9640755862985732,0.0001909465724963677,0.26200050692904564,-0.043748849257919664,0.01070984530088026,0.007751272018687099,3628.070066217332
1684733615884826183,66,1684733615884826183,camera_2,67,0,0.7748798212173151,-0.15882478220956495,1.276298330938389,-0.9641637606825646,0.00014599622082989565,0.2616490330338629,-0.04390905127650292,0.010545739511144347,0.00764411619782841,3623.440433428158
1684733615894718408,67,1684733615894718408,camera_2,68,0,0.7747989489598391,-0.15841593434139217,1.2761334761777379,-0.9640617986507846,-9.015787632167195e-05,0.262016210163393,-0.043958456130583294,0.011208448268007487,0.008122841138502791,3623.21990674478
1684733615904669761,68,1684733615904669761,camera_2,69,0,0.7751256636315592,-0.1579163872874257,1.2766472255287444,-0.9640556177635643,-0.00034261417275901774,0.26195523435910667,-0.044453387563901464,0.009954313049092889,0.007219710241714554,3620.9912134634797
1684733615914595365,69,1684733615914595365,camera_2,70,0,0.7749102835958716,-0.15773059415610383,1.2763117045852248,-0.9640312843412798,-0.0004149114896910166,0.2621441930368642,-0.043862657429865275,0.009569920424837619,0.006934501754576657,3622.8454734348925
1684733615924495220,70,1684733615924495220,camera_2,71,0,0.7745525974013748,-0.15766760480745884,1.275714742801592,-0.9639061024791999,-0.0003005346722583516,0.2624336765474534,-0.04487204804837688,0.006805905082728714,0.004931733844499122,3623.932944131432
1684733615934546947,71,1684733615934546947,camera_2,72,0,0.7754011310841955,-0.15793092679681292,1.2771393658927,-0.9643849545466324,-0.000436686679753006,0.26078221730429,-0.044205247275542085,0.006587074080016464,0.004776229121096002,3623.949036363746
1684733615944591522,72,1684733615944591522,camera_2,73,0,0.7759129236102689,-0.15857854703398427,1.2780767380424278,-0.9645210944356015,9.937400751825823e-05,0.2602318362051173,-0.04447965758489454,0.00942139740800485,0.006842444091382318,3620.2321358902846
1684733615954578399,73,1684733615954578399,camera_2,74,0,0.7755750278135681,-0.15888826817604162,1.2775350452681093,-0.9646795455747,5.167837024843331e-05,0.2596880896185774,-0.04422067151672573,0.010449817767948844,0.0075801560128798745,3625.4095917394143
1684733615964522838,74,1684733615964522838,camera_2,75,0,0.7754366869806321,-0.1592503124287833,1.2773289720002414,-0.9646992924252434,0.0004972310280874904,0.2595951401237342,-0.04433273259881796,0.014218937154510058,0.010313863280428836,3626.3031041502836
1684733615974560737,75,1684733615974560737,camera_2,76,0,0.7758700011269717,-0.15976221067256804,1.2780879961982166,-0.9649723326959818,0.00022375688305902952,0.2584677276356526,-0.04497533585194281,0.013500258981366642,0.009802782593050164,3625.910067485471
1684733615984541416,76,1684733615984541416,camera_2,77,0,0.7754974086655019,-0.16031608301520156,1.2774793809909275,-0.9649049321178316,-0.00014212545138401347,0.25883370834654446,-0.04431211119564061,0.009587071675923653,0.006955013254747113,3627.2396990722054
1684733615994533538,77,1684733615994533538,camera_2,78,0,0.7757430194782334,-0.16053905057012988,1.2778704063036936,-0.9648780899051077,6.367592416246993e-05,0.25905085770652336,-0.04362247915882525,0.010506421633181162,0.007624996969734744,3624.3442131771017
1684733616004491806,78,1684733616004491806,camera_2,79,0,0.7754422699891107,-0.16054180071913196,1.277376064231826,-0.9648244154730109,0.0001626078774677701,0.2592511854971731,-0.04361930403102981,0.0065913433354580775,0.004780764389725588,3626.155026723399
1684733616014542341,79,1684733616014542341,camera_2,80,0,0.7756957706540584,-0.16053063174713258,1.2777716754899306,-0.9649089090461515,0.0005034153191730657,0.25896771849695144,-0.04343114772678814,0.012044842427712865,0.008739193376828294,3625.4295641121557
1684733616024559497,80,1684733616024559497,camera_2,81,0,0.7747702807628053,-0.15990182489247137,1.276220290540613,-0.9644868983044285,0.00020384263758375793,0.2605054204441099,-0.043610862941701634,0.003814601994236,0.0027633849418681354,3627.78429930302
1684733616034651756,81,1684733616034651756,camera_2,82,0,0.7750575377602185,-0.15960962566826498,1.276654571393683,-0.9643226432034623,0.0002575089849635895,0.2610510323000312,-0.04397876793748257,0.006503567681647837,0.004716854163582751,3622.9842739114547
1684733616044547319,82,1684733616044547319,camera_2,83,0,0.7746020222110328,-0.1591076068616047,1.2758502582365874,-0.9643124354235714,-0.00021096181733754548,0.2610871606392938,-0.043988372689651355,0.015875493874773383,0.01149710830478309,3627.921614174091
1684733616054536819,83,1684733616054536819,camera_2,84,0,0.7753586476736646,-0.15885804024342548,1.2770584029743015,-0.9641782370864053,0.00013844778268454113,0.2615888947783939,-0.04394949476139408,0.011508600509841926,0.00835175368866858,3619.4052654337133
1684733616064612865,84,1684733616064612865,camera_2,85,0,0.7753488996820607,-0.15816784059391695,1.2770328013723686,-0.9642157140008615,-0.00019033940838040434,0.261264738821438,-0.04504172391554504,0.009498108818661422,0.006893577337728742,3621.1159069370487
1684733616074577331,85,1684733616074577331,camera_2,86,0,0.7749986326949226,-0.15786116671819023,1.2764406028650122,-0.9640570227259526,-0.00020963622996079766,0.26188653433504533,-0.04482695750775837,0.008018523862119764,0.005815135341665676,3622.193918647709
1684733616084837198,86,1684733616084837198,camera_2,87,0,0.7750801439307212,-0.1577637518593763,1.2765796412680033,-0.9641001189797099,-0.00031291099825498617,0.2618329578351984,-0.04420819902786756,0.01213423057924956,0.008796902914726887,3622.4228115697624
1684733616094495534,87,1684733616094495534,camera_2,88,0,0.7752534379992229,-0.1578034003964304,1.2768712057580387,-0.9642115106554934,-0.0006523463084686064,0.26142966787781696,-0.04416181514657016,0.008317956409882754,0.006030782094668556,3622.645415542648
1684733616104863882,88,1684733616104863882,camera_2,89,0,0.7749463582692161,-0.1581008028918635,1.2764365484279097,-0.9640943109864931,0.0002407262848084834,0.26191503311400033,-0.04384765675867967,0.011357846669852734,0.00823242319167822,3622.8019818733446
1684733616115063667,89,1684733616115063667,camera_2,90,0,0.775817912047044,-0.158617516532711,1.277925622601913,-0.9647683586421697,-0.0003379675722291975,0.2593639632778358,-0.04418409774599191,0.010626222647260875,0.007709186208923365,3625.2095387403383
1684733616125305652,90,1684733616125305652,camera_2,91,0,0.7745737606533025,-0.1587488395211042,1.2758993765871436,-0.9642942203216858,0.00013456239199707837,0.2612017963227596,-0.04370652291041203,0.013520464781322517,0.009789176640564256,3628.2253174359203
1684733616135304212,91,1684733616135304212,camera_2,92,0,0.7741630077189375,-0.15907605354989116,1.2752469936876578,-0.9642637249551315,5.6111261796481614e-05,0.26133511130887443,-0.04358239534902882,0.006057830425561406,0.0043823268406735965,3630.8036184428493
1684733616145285367,92,1684733616145285367,camera_2,93,0,0.7751124052384855,-0.16000798186290738,1.2768546218051284,-0.9647579804388258,-8.323447399275265e-05,0.25942551488743393,-0.04405036296116698,0.015305633904063143,0.011093736106843183,3628.8009580758517
1684733616155383348,93,1684733616155383348,camera_2,94,0,0.775689904529236,-0.16039047027173461,1.2778052813521104,-0.964923953972648,9.568943809159888e-05,0.2588171571124038,-0.04399355722803104,0.010651225136825813,0.007729493998850861,3625.737685409257
1684733616165138006,94,1684733616165138006,camera_2,95,0,0.7747182596718036,-0.160353224720473,1.2761976576908234,-0.9644508459877615,6.335229542592081e-06,0.2607348845119638,-0.043033540777966686,0.006872469632071443,0.004978050280873431,3626.7511570050856
1684733616175278902,95,1684733616175278902,camera_2,96,0,0.7754273690850922,-0.16053200893071656,1.27736601987524,-0.9646185046957261,-6.342085780473921e-05,0.26002912784625504,-0.043542956352229836,0.01068949355976656,0.00775632917935984,3622.820399639081
1684733616185187101,96,1684733616185187101,camera_2,97,0,0.7745609167332472,-0.16006405915890087,1.2758642575504164,-0.9644637565781079,0.0006646025866562703,0.260432938290929,-0.04454105077116309,0.009041561308549717,0.006551692717943418,3628.912519123697
1684733616195255756,97,1684733616195255756,camera_2,98,0,0.7755248857870617,-0.1599695610670882,1.2774287614920015,-0.9647763895468675,-9.302505187470223e-05,0.25936040585331044,-0.04403055069899613,0.009074588946532458,0.006582903654752609,3625.7618263582117
1684733616205244064,98,1684733616205244064,camera_2,99,0,0.7759036260207011,-0.15970002745654896,1.278025211319248,-0.9647530155811797,5.874110683843208e-05,0.2594036744266465,-0.04428712194822523,0.007992507496965118,0.005803732275348115,3622.4786824544426
1684733616214949846,99,1684733616214949846,camera_2,100,0,0.775622137890886,-0.15923628255404318,1.2775315024281435,-0.9646359795229522,-7.54446190696946e-05,0.25981398536489303,-0.04443100636622145,0.010642517765518278,0.007723328239834402,3623.895107770222
1684733616224845886,100,1684733616224845886,camera_2,101,0,0.7755132135228376,-0.15846064875865234,1.2773129274465527,-0.9643058075307417,-0.00017849513418143742,0.261054622502315,-0.044325633353002825,0.010008121724240482,0.007263110530272119,3620.7428600568082
1684733616234631538,101,1684733616234631538,camera_2,102,0,0.7753336893242255,-0.15812159182409263,1.2769971147926185,-0.9642530681449004,-0.00036686520269619936,0.2612463298052147,-0.0443423177830659,0.006704904779326171,0.004863277751652919,3622.088139789296
1684733616244456529,102,1684733616244456529,camera_2,103,0,0.7748309411534954,-0.1577963175966501,1.276150995727094,-0.964020066464764,-7.02785127968243e-05,0.2620829134040477,-0.04447305943882353,0.009568468783982098,0.006935303485121826,3623.275046373018
1684733616254366636,103,1684733616254366636,camera_2,104,0,0.7750519561022495,-0.1577521366318318,1.2765310781578159,-0.9640686485807548,-0.0002919828628711481,0.2619162899816587,-0.04440059247272049,0.00889658584492281,0.006450479309304819,3622.13621307991
1684733616264569520,104,1684733616264569520,camera_2,105,0,0.7751274583126289,-0.15793420392061353,1.2767058747382134,-0.9641707804155816,0.0003001017738079469,0.2614437828525568,-0.044964036067494384,0.012920123233925551,0.009372582955772653,3622.6800677630827
1684733616274563312,105,1684733616274563312,camera_2,106,0,0.7752086440764873,-0.15820830802195052,1.276881650659694,-0.964311779537652,7.980542608552645e-05,0.26098725569562753,-0.04459190330638164,0.009366442624013871,0.00679311614700228,3623.7612357309554
1684733616284511089,106,1684733616284511089,camera_2,107,0,0.7743705263400795,-0.15836971445097298,1.27552838859417,-0.9641927350845764,6.298278181258409e-05,0.2614678020089741,-0.04435035688570131,0.008662275213282555,0.006270995994443858,3628.9993113913797
1684733616294543981,107,1684733616294543981,camera_2,108,0,0.7748356346726427,-0.1588475919194218,1.27632488895525,-0.9641799433967622,0.0001462895723953209,0.26156698409067325,-0.04404234535633733,0.01376501594495494,0.009978019879822015,3623.753163597139
1684733616304535865,108,1684733616304535865,camera_2,109,0,0.7750144053642775,-0.15968335137347117,1.2766789244713181,-0.964594969410689,0.0001445615958648899,0.25995673103632827,-0.0444862009891073,0.015115652757231146,0.0109591047183763,3627.4644387687445
1684733616314682006,109,1684733616314682006,camera_2,110,0,0.7749153826220416,-0.16000344148313422,1.2765360195067255,-0.9646195161907086,-5.131169673818897e-05,0.26000084746893876,-0.04368919393335904,0.014617474109400064,0.010591203828016933,3628.288215175272
1684733616324705839,110,1684733616324705839,camera_2,111,0,0.7751730407898151,-0.1603222976751767,1.2769532979177418,-0.9645764673744778,0.00018120291497762412,0.2600247630220664,-0.04448964338129462,0.010590971825877205,0.007684736256284351,3624.5844676452707
1684733616334490299,111,1684733616334490299,camera_2,112,0,0.7751057536957137,-0.1604452334363152,1.276841799114655,-0.9645888730696106,-0.0002363467368337479,0.26019043750031196,-0.043234087522637125,0.0159835825470509,0.01158656870911049,3625.371095001232
1684733616344747304,112,1684733616344747304,camera_2,113,0,0.775500355495188,-0.1604425584569524,1.2774306904916837,-0.9648024068529021,0.0003769134517948503,0.2592182619536531,-0.04429521799048395,0.011961557684116997,0.008680675232369388,3625.463575487024
1684733616354372024,113,1684733616354372024,camera_2,114,0,0.774595947531183,-0.16003775170377302,1.2759208256875585,-0.9644644776981678,-0.00010081687498066976,0.2605133238168425,-0.0440575669807019,0.008379869934287854,0.006070138691718912,3628.688534255255
1684733616364432096,114,1684733616364432096,camera_2,115,0,0.7752330831907557,-0.1598503176041097,1.2769360831782117,-0.9644019091080873,0.00039090776107662974,0.2606806771281711,-0.044434102576704326,0.00922686659032479,0.006696418394081629,3622.2867557644504
1684733616374378442,115,1684733616374378442,camera_2,116,0,0.7752217010708916,-0.15946374136404123,1.2769119140409784,-0.964386434674204,0.0005044617961478194,0.26073783015429347,-0.04443347905695045,0.01742412493331358,0.012643380291044438,3622.828453460301
1684733616384443759,116,1684733616384443759,camera_2,117,0,0.7750823472220866,-0.15864507664949767,1.2766200585936192,-0.9641583398987444,-0.0003437357050379691,0.26166262201283064,-0.04394598606053948,0.012585943579324521,0.009126217954105762,3621.835701964679
1684733616394597530,117,1684733616394597530,camera_2,118,0,0.7755772636549191,-0.15840730305869344,1.277399895139042,-0.9643035948508474,-0.00021433390570342871,0.2610163490734907,-0.04459816739570586,0.00704103842144832,0.005111232053589795,3620.2268710340136
1684733616404562473,118,1684733616404562473,camera_2,119,0,0.7759629516886506,-0.15818534870728845,1.2780270921379884,-0.9642910549218081,0.00012332078887498991,0.2609169099182343,-0.0454435067802858,0.009074101049918681,0.006596490065065288,3616.8389133038017
1684733616414713859,119,1684733616414713859,camera_2,120,0,0.7748923592332497,-0.15777907697189267,1.2762579643050358,-0.9640305719066533,-7.937714782928783e-05,0.26196018969211865,-0.04496564405263803,0.007110361591912806,0.005155788528753897,3622.8440748776775
1684733616424507141,120,1684733616424507141,camera_2,121,0,0.7751799220944864,-0.15780371903889154,1.2767560613662337,-0.9642884200825226,-0.000735245449906444,0.26122904359687116,-0.0436656511499025,0.01035960833542049,0.007505969783338799,3624.648764613899
1684733616434639215,121,1684733616434639215,camera_2,122,0,0.7755483578004708,-0.1580578302617089,1.2773937995902795,-0.9643230789438253,-0.00016658708349798326,0.2609484263731575,-0.044574549222818276,0.008813579624984413,0.006396231102047404,3621.27366462152
1684733616444571733,122,1684733616444571733,camera_2,123,0,0.7761974673672145,-0.1584483471137447,1.2784919336084484,-0.9647678454431003,2.9930038326745735e-05,0.25933501701786815,-0.04436611828425927,0.00601010030368343,0.004364438910829018,3622.2058349236595
1684733616454735279,123,1684733616454735279,camera_2,124,0,0.7749442004363021,-0.15853203083412842,1.2764850085190431,-0.9643559931066467,-0.00018567984299933642,0.26086504521338644,-0.04434988464592772,0.01055808417731896,0.007651674883899762,3626.2596816630094
1684733616464582920,124,1684733616464582920,camera_2,125,0,0.7747840148852622,-0.15930090364461594,1.2762850129721963,-0.9645671569377499,3.7422973503005315e-05,0.2600097292111291,-0.04477877926097194,0.010358642146456987,0.0075059404404060216,3629.7207840227056
1684733616474810123,125,1684733616474810123,camera_2,126,0,0.7750122928208045,-0.15973814377068216,1.2766847665892933,-0.9647410226312088,0.00023243959834997414,0.25944614661034054,-0.04429900939488972,0.012713812029687688,0.009213728795050615,3629.852056295843
1684733616484697818,126,1684733616484697818,camera_2,127,0,0.7749936365946325,-0.1600473387394331,1.2766507319696059,-0.9645624401441605,0.00013700091873417532,0.26020575944738555,-0.0437292012767255,0.018102642090525478,0.013121681032976139,3626.6004791057803
1684733616494524955,127,1684733616494524955,camera_2,128,0,0.7757840982392542,-0.16046008156830735,1.2779418250593921,-0.9648360104990974,0.00021841826909379971,0.2590435464792171,-0.044585492765195564,0.01383190939668566,0.010046254347050814,3623.2557482269467
1684733616504711151,128,1684733616504711151,camera_2,129,0,0.7753024452180557,-0.16049097841966356,1.2771312691110432,-0.9645413096392731,-0.00012497140557668593,0.26031281212678403,-0.04355784916808292,0.012699744329438545,0.009213506465541595,3622.7880414588144
1684733616514553308,129,1684733616514553308,camera_2,130,0,0.7759477685052513,-0.16051248938957904,1.2781777169570105,-0.9647472283911624,0.00015786478178045989,0.2595120800254487,-0.04377488676337373,0.0077845659252488986,0.005654646877925279,3620.4310619209427
1684733616524662256,130,1684733616524662256,camera_2,131,0,0.7750955805748501,-0.16009161359909196,1.2767487973543277,-0.9646561383536142,9.00253115960717e-05,0.2598582401279188,-0.04372895687936139,0.008399972764891572,0.006088461350685009,3627.3816182969604
1684733616534709215,131,1684733616534709215,camera_2,132,0,0.7749882346696101,-0.1597645185532866,1.276537595531043,-0.9644385942636468,0.0004905070973839806,0.26053976974942855,-0.04446330707969759,0.005103315183077939,0.003701106344395918,3625.229182870593
1684733616544649362,132,1684733616544649362,camera_2,133,0,0.7747475985791054,-0.15891789959089386,1.2760878641710316,-0.9641938582620287,7.54707133001183e-05,0.2613542266467437,-0.04499073468878547,0.009679961964138784,0.007018670375691114,3624.7964281797176
1684733616554506778,133,1684733616554506778,camera_2,134,0,0.7752210384710154,-0.1585991733804854,1.276851001840036,-0.9644484202772422,-3.830491677593559e-05,0.2605195910216243,-0.044371002370817356,0.009365647041704506,0.006790441071687257,3625.50325072743
1684733616564884662,134,1684733616564884662,camera_2,135,0,0.7747091114984356,-0.15817006172857967,1.275972293637295,-0.9639633036939232,-0.00015475407926535595,0.26231245011808124,-0.04434978800085877,0.0060967159806750715,0.0044187833151858435,3622.7410214605043
1684733616574702262,135,1684733616574702262,camera_2,136,0,0.7762456265535673,-0.1581980495236385,1.2785060111502498,-0.9647523076360899,-8.213125129361526e-05,0.2592359338090927,-0.04527370967156258,0.010673441807739437,0.007754756112330087,3622.0164202421442
1684733616584616184,136,1684733616584616184,camera_2,137,0,0.7751928578935869,-0.15777485123201918,1.2767886969851814,-0.9641296898142733,-0.0003985834270536647,0.26168857291656156,-0.044417036762694664,0.013393713801633567,0.00971330761267676,3621.798425259302
1684733616594418764,137,1684733616594418764,camera_2,138,0,0.7746830544373814,-0.1577276753509063,1.2759393141210889,-0.9640529928188205,-1.216526576624586e-05,0.26195691502165136,-0.04450170290472899,0.011289829039014876,0.008179480331575615,3625.182434654564
1684733616604633092,138,1684733616604633092,camera_2,139,0,0.775738355032558,-0.158131753595044,1.2776913714872653,-0.964424746128225,8.641635077105644e-05,0.2606350684087195,-0.04420704359381306,0.008877436630427837,0.006442957416137236,3621.2601750352187
1684733616614543676,139,1684733616614543676,camera_2,140,0,0.7756118969085832,-0.15839086383481685,1.2775536912997025,-0.9645829486950368,3.0264770474450865e-05,0.26006669097609797,-0.044102725715929984,0.010239131923299285,0.007426983883260292,3624.4270057962276
1684733616624706268,140,1684733616624706268,camera_2,141,0,0.7748408615426776,-0.15899965467759236,1.2763412722895229,-0.9644125381503675,-7.793210829756976e-05,0.26071848946309817,-0.04398089854735358,0.004952343064360321,0.0035878601245326724,3627.3188328072424
1684733616634845018,141,1684733616634845018,camera_2,142,0,0.7746881502259401,-0.15935826127682284,1.2761188235002505,-0.9644378697320116,7.84745178677703e-06,0.2605457983271793,-0.04444639849582694,0.010850833161384799,0.00786185427690973,3628.3601856274763
1684733616645063877,142,1684733616645063877,camera_2,143,0,0.7752530634848017,-0.15986128358813945,1.2770736998113252,-0.9646376678104732,0.0005613488197321341,0.2597495615093995,-0.04476628222612065,0.006111287177191116,0.004434316481753473,3625.702285902633
1684733616654986381,143,1684733616654986381,camera_2,144,0,0.7747948067530377,-0.16005863086816804,1.2763393612760732,-0.9646535329423725,0.0001446426968674081,0.2598365053261155,-0.04391504252759581,0.015284165914636105,0.011072228999679617,3629.8233460177435
1684733616664734125,144,1684733616664734125,camera_2,145,0,0.7748271325071903,-0.1604060663747756,1.2763618186536199,-0.9644836106769409,2.8355058254288507e-05,0.260614255607364,-0.04302991640453633,0.008745997940422967,0.006336452598504628,3626.276464296854
1684733616674721717,145,1684733616674721717,camera_2,146,0,0.7753670775323649,-0.1604950602096616,1.2772387871674247,-0.9649341521453146,-0.00024289872159764542,0.2589187920576246,-0.04316343525757101,0.014798749383771792,0.010724863584195,3628.8673780488325
1684733616684679508,146,1684733616684679508,camera_2,147,0,0.7758035513884345,-0.1604480871301612,1.2779523180197385,-0.964777665628898,0.0002698963785155806,0.25931752210097336,-0.04425387882446408,0.01310892723267898,0.00952088815354622,3622.249604118987
1684733616694547891,147,1684733616694547891,camera_2,148,0,0.7747152598336374,-0.15997637340746518,1.276124450815099,-0.9644143747813865,0.00016696762106214376,0.2608166023727712,-0.04335418968871064,0.010113988144439645,0.007326307110780273,3626.9950754254833
1684733616704519987,148,1684733616704519987,camera_2,149,0,0.7744413328990701,-0.1591860610462806,1.2756005852284453,-0.9641904876582071,-2.282468799737796e-05,0.2615681175785061,-0.04380437027168859,0.010298940760549158,0.007457575972026651,3627.1652657719087
1684733616714413166,149,1684733616714413166,camera_2,150,0,0.7755236364211763,-0.15900151590532152,1.2773447969361897,-0.9646849629520626,2.825531061154315e-05,0.25949162612627497,-0.04524397668371556,0.011729924124665558,0.008512450081736261,3625.950577217505
1684733616724416732,150,1684733616724416732,camera_2,151,0,0.7744500532602805,-0.15839550703270622,1.2755761953505962,-0.9639560104354231,0.00022405579891530665,0.2624227334934254,-0.04385280709669566,0.01057255029445514,0.00765730919021268,3624.5925836245297
1684733616734328746,151,1684733616734328746,camera_2,152,0,0.7746106470722492,-0.15809893358444155,1.2758163693139373,-0.9640089753982295,-0.00032440374879503516,0.26212357649468493,-0.044472696786891065,0.011450892081484199,0.0082966330117992,3624.4830699095046
1684733616744438886,152,1684733616744438886,camera_2,153,0,0.7748913804484883,-0.15774224991869437,1.2762654128462978,-0.9640525115764362,-0.00016345448814595183,0.26193381505328656,-0.04464756138274834,0.008744291379116476,0.006338846599999335,3623.2937741163196
1684733616754406452,153,1684733616754406452,camera_2,154,0,0.7754892174086291,-0.1578270806564829,1.277241692865517,-0.9642316938379369,-0.00011001645507500315,0.26120653149884115,-0.045037499898944504,0.01120179530698806,0.0081310583436405,3620.755904741001
1684733616764588356,154,1684733616764588356,camera_2,155,0,0.7743301708340713,-0.15769004125280517,1.2753677989260688,-0.964038892640512,-0.00013556838043677375,0.26201225727664396,-0.044481143583178964,0.009075732668861749,0.006569552779952361,3628.1572334663942
1684733616774671792,155,1684733616774671792,camera_2,156,0,0.7755658441939056,-0.15814403475233996,1.2774392441928153,-0.9644178732209004,-0.00016732237838232978,0.26055715174301913,-0.04481192353450229,0.010518525436054915,0.007633655654729415,3622.4959177623978
1684733616784963369,156,1684733616784963369,camera_2,157,0,0.7751976937964397,-0.15872779226665384,1.2768973861267903,-0.9645242676270643,-0.00019986425342878345,0.26023010157494564,-0.04442061961577199,0.014241951997973956,0.010325124124796022,3626.485308792501
1684733616794833421,157,1684733616794833421,camera_2,158,0,0.7749657336025146,-0.15909827131036677,1.276563520101819,-0.9644538567599207,0.0004995217322024474,0.26055152800368264,-0.044061433407231294,0.005073906751931645,0.0036774507915036123,3626.6842560326913
1684733616804628372,158,1684733616804628372,camera_2,159,0,0.7758183445124438,-0.15968361780382745,1.278012830530958,-0.9649488197956692,0.0004442163353909187,0.2586028491267488,-0.044700607046445066,0.010915793071035296,0.007924264829520609,3626.135599897243
1684733616814644813,159,1684733616814644813,camera_2,160,0,0.7752786294834059,-0.15992262383456818,1.2771159343074336,-0.964697254509643,0.00019623766642739454,0.25958798722728704,-0.04442122825430819,0.013368577172514051,0.009697226193301782,3626.407238454093
1684733616824597597,160,1684733616824597597,camera_2,161,0,0.775145359263098,-0.16040855864843048,1.2768809363298277,-0.9646912358759578,0.00026588314912799697,0.2596694284330596,-0.0440742177187114,0.0044144489511381835,0.0032012253109567723,3626.7640798225766
1684733616834607124,161,1684733616834607124,camera_2,162,0,0.7749527480430364,-0.16042535692202958,1.2765700216276294,-0.9645788206405047,-3.853808824598403e-05,0.26014715392638305,-0.04371676555501134,0.014250681168050505,0.01032974119144434,3626.6127902722233
1684733616844528675,162,1684733616844528675,camera_2,163,0,0.7750164292860355,-0.16040344335905457,1.27664290020824,-0.9645282004243256,-0.00010639017385738348,0.2603770442615176,-0.043464170174738574,0.011396481495467015,0.008261455231825145,3625.357302313787
1684733616854607343,163,1684733616854607343,camera_2,164,0,0.7753763518981703,-0.1603312172099941,1.2772469313158699,-0.9647576258576012,0.00019949594573985386,0.25945972130739614,-0.04385586129653396,0.010650159165379591,0.007724866692236566,3626.0218859264273
1684733616864653110,164,1684733616864653110,camera_2,165,0,0.7748941184800044,-0.15961504651208386,1.2764024414502653,-0.9645423093842391,-0.00033880231830838077,0.26020243078750627,-0.04418951949253225,0.018159295213990845,0.013158786700902123,3628.0666466524117
1684733616874572992,165,1684733616874572992,camera_2,166,0,0.7744344282685507,-0.159137648337747,1.275600937371406,-0.9641691806364793,-0.0004599583906324303,0.261647183070534,-0.043798757291886224,0.011611556881689467,0.008407569619733657,3626.919398170547
1684733616884558677,166,1684733616884558677,camera_2,167,0,0.7747072065054639,-0.15878676458804364,1.2760078268401254,-0.964067091804927,0.00013310457033138983,0.2618734349030388,-0.044687010126521695,0.011037419957574457,0.008002618682918239,3623.3171852963287
1684733616894574880,167,1684733616894574880,camera_2,168,0,0.7752927622866449,-0.15850607351106002,1.2769415707822884,-0.9640400341189789,-0.0002447559867260305,0.26207432269874853,-0.0440885709949558,0.01346174132777378,0.009769257877042734,3618.249366655946
1684733616904528856,168,1684733616904528856,camera_2,169,0,0.7751791218844635,-0.15791695064114175,1.2767118052734678,-0.9641672194235362,-9.918047402111345e-05,0.2614116540570736,-0.045227317800915934,0.008239541144575924,0.005978067852108708,3622.3388402836863
1684733616914583921,169,1684733616914583921,camera_2,170,0,0.7752140776892265,-0.15779699515474857,1.2767850595285375,-0.9640590017550827,-0.00011642902767312848,0.2620039308543428,-0.044092718175996366,0.00859057903289795,0.006230320597151257,3620.533140852232
1684733616924413204,170,1684733616924413204,camera_2,171,0,0.7748611964941942,-0.15770508296971658,1.2762129984713217,-0.9639836020070448,-0.00015577427448261807,0.26221953101543255,-0.04445793911041622,0.007812301861122251,0.005662986586439827,3622.5079415435894
1684733616934518814,171,1684733616934518814,camera_2,172,0,0.7751068158318024,-0.15787215639375018,1.276661615754541,-0.9642117732106772,-0.00034132825402559587,0.26136278166622645,-0.04455374570826883,0.006084055465180427,0.004411089120684832,3623.6996224899776
1684733616944548130,172,1684733616944548130,camera_2,173,0,0.7751218914470244,-0.1584224984018291,1.2767502380380689,-0.9644241722127362,-6.457736673780061e-06,0.26066439999777685,-0.04404641397293602,0.003551354689989239,0.002573795006258466,3626.1030917764874
1684733616954673767,173,1684733616954673767,camera_2,174,0,0.7755743096972957,-0.15887025433231008,1.2775228987317246,-0.964474150287602,0.00019331926761264104,0.26042101315421956,-0.044389998450090444,0.016956034814938903,0.012307325183317447,3622.014668637307
1684733616964539051,174,1684733616964539051,camera_2,175,0,0.7749231749702514,-0.15915256176228063,1.2764906487671583,-0.9646143132701783,0.00023491214593623322,0.2600060663836694,-0.04377233023585677,0.013258014820166864,0.009602552047445043,3629.740058168303
1684733616974552392,175,1684733616974552392,camera_2,176,0,0.7757596125334163,-0.1597273922663407,1.2778819042816065,-0.9649058322002547,0.0005227127925057091,0.25874018437089485,-0.04483278654049829,0.009156935746432282,0.006647748010405263,3625.9172246874086
1684733616984551191,176,1684733616984551191,camera_2,177,0,0.7755480432836827,-0.16032040308741957,1.2775708146643334,-0.964769744178398,-8.149906118400227e-05,0.25931657349142473,-0.044432519493251305,0.014083388799917884,0.010222601072580575,3624.4787314540595
1684733616994637012,177,1684733616994637012,camera_2,178,0,0.7754248387445821,-0.16047231590655944,1.2773681903494654,-0.9648671529719606,0.00015767043059089416,0.2590940656635593,-0.043607538267434034,0.010813705652253702,0.007841956786632675,3627.0982998359814
1684733617004673242,178,1684733617004673242,camera_2,179,0,0.7746125568664746,-0.16036889216103034,1.2759985508561236,-0.9644341374862637,-0.00016200035261251762,0.26073024021731356,-0.04343397337608296,0.01055264234310016,0.0076436847278818715,3627.40917267074
1684733617014628171,179,1684733617014628171,camera_2,180,0,0.7748971858051239,-0.160373865546942,1.276472533109564,-0.964589055381333,0.00022139735387328568,0.2601546044262171,-0.04344521858154233,0.010511468921322376,0.007616832765440184,3627.4526828828984
1684733617024653673,180,1684733617024653673,camera_2,181,0,0.7751761678467368,-0.15996363384667558,1.2768662609174208,-0.964559239083363,6.305036301944816e-06,0.26034560116602845,-0.042960938219148745,0.01390157472633291,0.010074998898365715,3625.4059974177508
1684733617034671783,181,1684733617034671783,camera_2,182,0,0.7754852149965014,-0.15968314402240094,1.2773571596366227,-0.9646334166615866,0.00013584050377663553,0.259859543166396,-0.04421957521848432,0.006599358530365861,0.0047884710631512315,3624.2102237405497
1684733617044605970,182,1684733617044605970,camera_2,183,0,0.7743357751732685,-0.15905180289269644,1.2754223539142753,-0.9640547655032624,0.00037302066229515,0.2620788003191383,-0.043737539817832065,0.011275047319941223,0.008164567720418524,3626.0977213087017
1684733617054767370,183,1684733617054767370,camera_2,184,0,0.7750815050072879,-0.1587838797495279,1.2766226218040744,-0.9641359851430596,0.00024528759782162837,0.26172818321283603,-0.04404656738412854,0.011178917848155834,0.008108243983605967,3621.2388320969176
1684733617064729928,184,1684733617064729928,camera_2,185,0,0.7754973401941476,-0.15819264136019168,1.277274655229431,-0.9642467551358919,-0.0001756321841456175,0.2612371690045092,-0.044534322648365314,0.009532561642117798,0.006918513915839386,3620.3593917703247
1684733617074723243,185,1684733617074723243,camera_2,186,0,0.7750341842791398,-0.1578609190870743,1.2764989143054413,-0.9642250720736797,-0.0004466109905653557,0.26129342904197833,-0.0446716337580695,0.011008825851604342,0.007980113679250288,3624.7144924490713
1684733617084603786,186,1684733617084603786,camera_2,187,0,0.7745203188087044,-0.15765371903301814,1.2756627486580019,-0.9639456407892533,6.944721180493359e-05,0.26246699321164857,-0.04381636971403422,0.009065509308129549,0.006564053582906187,3625.093879108784
1684733617094591140,187,1684733617094591140,camera_2,188,0,0.775235732352131,-0.15778902518391932,1.2768502503623156,-0.9642748385885503,-0.00017133277449339775,0.2611216217647275,-0.04460386706401239,0.007990441052243114,0.005794177878307041,3623.812347345985
1684733617104581832,188,1684733617104581832,camera_2,189,0,0.7753340409372966,-0.15817339245872164,1.2770622429153355,-0.9644660956774127,-0.00018710630025073512,0.2605119907728665,-0.044029739308315725,0.010718308330979196,0.0077697209428506464,3625.436862014466
1684733617114541530,189,1684733617114541530,camera_2,190,0,0.774958143851738,-0.1584264077733905,1.276495610245887,-0.9643136218220052,-0.0002052724882554849,0.26121290525271745,-0.04320896621266801,0.0101166472886689,0.00732717323748776,3625.797070727219
1684733617124386548,190,1684733617124386548,camera_2,191,0,0.7751061276602524,-0.1588500987594837,1.276805862716396,-0.9644873113330386,-6.73779897493183e-05,0.26047287549508596,-0.043796151304586424,0.011505896807648242,0.008338334620090726,3626.4136273975
1684733617134543418,191,1684733617134543418,camera_2,192,0,0.7743794013083644,-0.1591112170100403,1.2756039672933244,-0.9644105776527286,-0.0002460451618495532,0.2608333208139916,-0.04333769636764028,0.009062793222256005,0.006556139248033742,3631.3038485359284
1684733617144624710,192,1684733617144624710,camera_2,193,0,0.7743951404238387,-0.15985260588063777,1.2756591197459732,-0.9644078598382573,0.0002224493218409563,0.2608372884044588,-0.043374409232874646,0.01480349717894569,0.01071521486137077,3629.781238149736
1684733617154554843,193,1684733617154554843,camera_2,194,0,0.7757169967387688,-0.16040514711427883,1.2778489702207316,-0.9648701786444954,0.00036967200020492265,0.25893590649534615,-0.04447019263040546,0.01272840885212645,0.00924189219254769,3624.4923642352223
1684733617164551496,194,1684733617164551496,camera_2,195,0,0.77519431228648,-0.16043648007046798,1.2769830808926466,-0.9646903982331774,0.0003205584085921015,0.2597549304616328,-0.043585650160262855,0.014237260751542635,0.010323281314486545,3626.2808229003567
1684733617174628496,195,1684733617174628496,camera_2,196,0,0.7751772285223936,-0.16048257387723855,1.2769446759202572,-0.964512108442944,-0.0002519713885610741,0.2604226542535717,-0.04354733434885261,0.008393457304919139,0.0060877854504919225,3623.3720737182894
1684733617184570074,196,1684733617184570074,camera_2,197,0,0.7746723142553267,-0.16007902239319055,1.276061532776415,-0.9644259372611278,0.0001941991684303313,0.26064565671029116,-0.04411819877033802,0.010587231503450312,0.007672191896110742,3627.251131472177
1684733617194457292,197,1684733617194457292,camera_2,198,0,0.7752952464108012,-0.15992659060451686,1.2770655138355513,-0.9645753942409031,5.566101662652188e-05,0.26015709110595886,-0.04373321019709713,0.011029683708329685,0.00799931937629053,3624.5324500355637
1684733617204488992,198,1684733617204488992,camera_2,199,0,0.7755727135150101,-0.15961893892290152,1.2774877056035465,-0.9646202537466722,0.0006804353403379545,0.2598374260401131,-0.04462975574997264,0.012013505096547306,0.008721724170375462,3623.3063805081174
1684733617214587688,199,1684733617214587688,camera_2,200,0,0.7753279251431814,-0.15916543503708266,1.2770493525596718,-0.9643595403728912,0.00030824630403148513,0.26076913124612755,-0.04483349267168304,0.012335081250057556,0.00895372219433894,3621.9514037914337
1684733617224533319,200,1684733617224533319,camera_2,201,0,0.776015423313695,-0.158551074974416,1.2781324921154715,-0.9643723503170457,-5.179983407350261e-05,0.26073378151617355,-0.04476452207977749,0.008454173628706485,0.0061439756812776865,3617.155719746719
1684733617234655141,201,1684733617234655141,camera_2,202,0,0.7755038095038903,-0.15813588701793982,1.2772908885404521,-0.96441235478908,-1.0394661335702188e-05,0.26057637176200515,-0.044819240304605344,0.008372486918233335,0.006075215037796337,3623.1239253592207
1684733617244955062,202,1684733617244955062,camera_2,203,0,0.7745657205427195,-0.15774206796460824,1.2757295461369447,-0.9640317243052721,-0.00044299918907438193,0.2621008528990785,-0.044111009898866335,0.010045428934972733,0.00727388889024915,3625.937817480181
1684733617255124807,203,1684733617255124807,camera_2,204,0,0.7751785055064082,-0.15777310670383982,1.276741165739184,-0.964138094204295,-0.0003385829376199767,0.26165753413576714,-0.04441796365992268,0.013899613288231194,0.010079591257938253,3622.125323570798
1684733617264805793,204,1684733617264805793,camera_2,205,0,0.77499934885871,-0.1578965913971332,1.2764896222992805,-0.9640407361653502,-0.00023462848826142217,0.26200355625525995,-0.044492027070463694,0.009386979916598648,0.006806893001938659,3621.7410165943447
1684733617274713039,205,1684733617274713039,camera_2,206,0,0.7758272189837145,-0.158319096926299,1.2778968611240544,-0.9645478941858303,0.000383056230748621,0.260184214727,-0.044174511842225574,0.004768564074765891,0.003461155373578193,3622.065749271775
1684733617284879922,206,1684733617284879922,camera_2,207,0,0.7745865050082619,-0.1584065436563964,1.2758772159914693,-0.9641073983369794,1.7497783999342486e-05,0.2618948725161224,-0.04368065836835147,0.008831104030832648,0.006395414387506746,3625.6671094584754
1684733617294963598,207,1684733617294963598,camera_2,208,0,0.7755198867151654,-0.1589848888875049,1.2774545071278962,-0.9646172836518275,0.00030646600525157167,0.2599761129529809,-0.04388419821093167,0.00663827192329336,0.004814870423538696,3624.7228059481704
1684733617304976940,208,1684733617304976940,camera_2,209,0,0.7748454520568983,-0.15964845825429066,1.2763879476856743,-0.964544550320633,0.0002681854450068579,0.26026128594042697,-0.04379271131102004,0.012656475853873417,0.009169483671498398,3628.347859938104
1684733617315160036,209,1684733617315160036,camera_2,210,0,0.7749431419586695,-0.15999856684016267,1.2765640292272198,-0.9647002436339993,-8.348561924421404e-05,0.259715514331649,-0.04360372206705419,0.013121769254212268,0.009505496146427352,3629.4679756207643
1684733617325235366,210,1684733617325235366,camera_2,211,0,0.7756367312561983,-0.16039884322753845,1.2777165345165662,-0.964868984598285,0.0001685014440391135,0.25901560719128974,-0.0440310049722394,0.00866828289872501,0.006290748797505555,3625.265431903653
1684733617335155725,211,1684733617335155725,camera_2,212,0,0.7751800729962429,-0.16045121804209447,1.2769589765579092,-0.9647442129920966,3.315820335305346e-05,0.2595401857917301,-0.04367487101283818,0.008296944739413448,0.00601504797418967,3627.26428301743
1684733617345415830,212,1684733617345415830,camera_2,213,0,0.7754646279108616,-0.16043314921353113,1.2773890265795773,-0.9647539201229656,0.0002494367566215182,0.25937788651519,-0.04441760209183223,0.01447809801902622,0.010508033431542968,3624.9074931936343
1684733617355633497,213,1684733617355633497,camera_2,214,0,0.7744772531504566,-0.16000807072196635,1.2757415131720435,-0.9642824466518883,-5.772728671069098e-05,0.26125129352315535,-0.04367060085556958,0.010280256683472544,0.0074461862413699245,3626.7717341317916
1684733617365293264,214,1684733617365293264,camera_2,215,0,0.7750943497872049,-0.1598249875264159,1.2767246630096059,-0.9646086908007535,5.89634982810716e-05,0.25989415438859803,-0.04455444612603672,0.011847958914586343,0.008591548941068327,3626.9783973799786
1684733617375297546,215,1684733617375297546,camera_2,216,0,0.7749868807051161,-0.1594262228224035,1.2765058790536217,-0.96420888102503,0.000324899704437518,0.2615268924323838,-0.043644160288655934,0.008423369203228503,0.006107957808590546,3622.1628788535045
1684733617385068893,216,1684733617385068893,camera_2,217,0,0.7741595707698744,-0.15845487409520354,1.2751230283795219,-0.9637191779286435,0.0002506421932488309,0.26324557666143444,-0.04412538542856512,0.008136488904710859,0.005893494687241021,3622.997255095863
1684733617395490884,217,1684733617395490884,camera_2,218,0,0.7754060851562921,-0.15837778376920664,1.277127929191603,-0.9643992279593271,-9.526440321221244e-05,0.2606361583053696,-0.04475391625283303,0.009176412015222013,0.006657681989252517,3623.381171496935
1684733617405501842,218,1684733617405501842,camera_2,219,0,0.7745586920812163,-0.15790368120484635,1.275717682071786,-0.9640119218805348,-8.327448097052932e-05,0.2620382424301436,-0.04491065621520031,0.006694745796266943,0.004850830335307648,3625.312972485204
1684733617414798498,219,1684733617414798498,camera_2,220,0,0.7749892247746585,-0.1577933303856454,1.2764123558734222,-0.9639817854476456,-0.0004376250188781716,0.2622830148278178,-0.04411967749591001,0.007578930293675512,0.005494401061598696,3621.248108915637
1684733617424920558,220,1684733617424920558,camera_2,221,0,0.7755775173993582,-0.15788138539814217,1.2774201385919748,-0.9642659552583202,-0.0005482536595069724,0.2611483338454782,-0.044636472501922826,0.010113940807059407,0.007340488471153607,3620.4059676092584
1684733617435217857,221,1684733617435217857,camera_2,222,0,0.7747175189678236,-0.15788164797635695,1.2760243710085155,-0.9641043011777446,-0.0005493163899439646,0.2618561564907565,-0.04397667574936532,0.010374981095083058,0.00751407640291296,3625.4633009224194
1684733617444823741,222,1684733617444823741,camera_2,223,0,0.774947077650904,-0.15820859520312333,1.2764540728545493,-0.9642131833875883,0.00035860619673499676,0.2613357719195024,-0.044681346201816574,0.00833970564417541,0.006046648606511904,3624.4214619871927
1684733617454627752,223,1684733617454627752,camera_2,224,0,0.7751660172604682,-0.1585884997114293,1.276843621822167,-0.9644508472866193,-0.00022471556219628543,0.2605371067327995,-0.04421457549655008,0.007232199131976813,0.005242599318448789,3625.8021072468255
1684733617464738368,224,1684733617464738368,camera_2,225,0,0.774592483141683,-0.15925998740411842,1.275969474393156,-0.9643596680481754,0.00022165244674988285,0.26094272098905574,-0.04380956373936882,0.013293298034113832,0.009627267956678011,3628.1750920240884
1684733617474612474,225,1684733617474612474,camera_2,226,0,0.7749129214731522,-0.15972871922592313,1.2765251473264276,-0.9645262545770236,0.0003247756224671969,0.2602608103233805,-0.044196259595484004,0.0076769600418629125,0.005564801117652201,3627.147229377706
1684733617484442472,226,1684733617484442472,camera_2,227,0,0.7745287482874996,-0.15996310171547304,1.2758823182194317,-0.9643346382845555,-0.00037262209909219,0.2610214633892488,-0.04389034298683329,0.011629958535195328,0.00842476264416595,3627.0399778391584
1684733617494652986,227,1684733617494652986,camera_2,228,0,0.7754534538774882,-0.1603934215222281,1.2774204402803657,-0.9646906800428406,0.0004288085553287903,0.2596979084028269,-0.0439170164389799,0.011599791716434993,0.008417944204639073,3623.944927770294
1684733617504651546,228,1684733617504651546,camera_2,229,0,0.7747180449395457,-0.16037980428463094,1.2761807007663735,-0.9645596886365022,9.308221422925378e-05,0.26035711253635585,-0.04288090886264711,0.008282192997285165,0.005997098661298433,3628.617427291406
1684733617514447927,229,1684733617514447927,camera_2,230,0,0.775036091828784,-0.16032884553437626,1.2766913584388386,-0.9644441840861702,0.000491043337269469,0.2605771358573689,-0.04412177384435959,0.00857432116754353,0.006220117715927984,3623.756926752452
1684733617524562597,230,1684733617524562597,camera_2,231,0,0.7751102571738482,-0.16009032532599854,1.2767757574497476,-0.9645463031467357,0.0002835904436454462,0.26019182301368965,-0.04416518877168459,0.013278555779834278,0.009630485347058423,3625.33133156225
1684733617534483432,231,1684733617534483432,camera_2,232,0,0.7747326596533857,-0.15970784797063867,1.2761296699683626,-0.9645168879641016,0.00030251391070294906,0.26026438042794653,-0.04437942764204744,0.0046610800782218575,0.003377244543673068,3628.925612468155
1684733617544510126,232,1684733617544510126,camera_2,233,0,0.7748367212180727,-0.15892990915440483,1.276262104069412,-0.9643146623239474,0.0003806950871508004,0.2610538958778726,-0.044135592726131226,0.005003030950319953,0.0036256451727964853,3626.0498856882914
1684733617554720878,233,1684733617554720878,camera_2,234,0,0.7750537665240083,-0.158565007672719,1.276590739775738,-0.9641708717032655,-0.00012781804359024193,0.2615997579478654,-0.04404634449226507,0.011445840704254806,0.008299222913553703,3622.3801427129656
1684733617564918994,234,1684733617564918994,camera_2,235,0,0.7758192151563511,-0.15837223327231706,1.2778145348999008,-0.9642921170907092,0.00017572224351971715,0.2610393056748932,-0.04471199985664877,0.011278112593572587,0.008193227756258538,3617.8783412176426
