%time,field.header.seq,field.header.stamp,field.header.frame_id,field.image_seq,field.transforms0.fiducial_id,field.transforms0.transform.translation.x,field.transforms0.transform.translation.y,field.transforms0.transform.translation.z,field.transforms0.transform.rotation.x,field.transforms0.transform.rotation.y,field.transforms0.transform.rotation.z,field.transforms0.transform.rotation.w,field.transforms0.image_error,field.transforms0.object_error,field.transforms0.fiducial_area
1685667512544718265,25,1685667512544718265,camera_2,26,0,-0.7141886835543296,0.6172501868507713,2.5296287094083656,-0.9841499719902886,-0.0034293258100629104,-0.13298831043720888,0.11726543243027437,0.013555421843193471,0.00736159213947421,21097.37962432207
1685667512554753303,26,1685667512554753303,camera_2,27,0,-0.7138844732868954,0.6179136336767862,2.528608335580719,-0.9841764114619258,-0.003571693209934579,-0.13264861572848916,0.11742392803366726,0.012666234513744712,0.006874663979329365,21108.492174841223
1685667512564630508,27,1685667512564630508,camera_2,28,0,-0.7136161504470276,0.6180572866483628,2.5276681870470115,-0.9841027655231017,-0.003576672154769095,-0.13419518764107904,0.11627814033624662,0.007009234977886081,0.0038027354112423668,21113.988494937068
1685667512574703454,28,1685667512574703454,camera_2,29,0,-0.7135831934076297,0.6183564538474751,2.5275823763150083,-0.9841824350460231,-0.0037628932988633666,-0.13278984852677148,0.1172076418546988,0.011380973795894533,0.006173288396946546,21119.78999617788
1685667512584753751,29,1685667512584753751,camera_2,30,0,-0.7135588161109424,0.6185637534521103,2.5275102930336617,-0.9842066425831297,-0.0037643871336092796,-0.1331806559657289,0.11655911359173148,0.00592342164600268,0.0032126094016988074,21120.997297436228
1685667512595061063,30,1685667512595061063,camera_2,31,0,-0.713408860858102,0.6186249402377593,2.5269630757684642,-0.9840994633806228,-0.0038422745884975776,-0.13349518486461232,0.11710046420881398,0.007329409942030906,0.003975535541422833,21118.801810321398
1685667512604736566,31,1685667512604736566,camera_2,32,0,-0.7133848974809931,0.6185708817550032,2.526888633796127,-0.9840875112015485,-0.0038646947821825567,-0.13340568431495262,0.11730199411707337,0.00863020244287327,0.004681045119952042,21119.371324328473
1685667512614666223,32,1685667512614666223,camera_2,33,0,-0.7134711995470217,0.618513435571453,2.5271891890081517,-0.984115674471298,-0.0037385931624890796,-0.1332879901476837,0.11720355738397524,0.011509544507134706,0.006243279785814414,21118.015071542934
1685667512624685287,33,1685667512624685287,camera_2,34,0,-0.7137705590145814,0.6185500422534395,2.528241526336521,-0.9842283865190861,-0.0037461336730028275,-0.13246220985321575,0.11719305701850816,0.014477415999863297,0.00785566831273066,21112.593717018608
1685667512634826421,34,1685667512634826421,camera_2,35,0,-0.713821199067224,0.6179190310263144,2.528390767113667,-0.9840256766683431,-0.003672775399839334,-0.13401582571964665,0.11713128034369395,0.01073468109825626,0.005828714218061236,21098.123186953133
1685667512644686937,35,1685667512644686937,camera_2,36,0,-0.7140701430938686,0.6176895563888488,2.5292553712888726,-0.9842007358324872,-0.0036216118272059347,-0.13171243838233002,0.11826930747216106,0.014662576606497169,0.007960853221368625,21103.530739927897
1685667512654566764,36,1685667512654566764,camera_2,37,0,-0.7142776173785399,0.6173906812006938,2.5299554386936474,-0.9842218714221268,-0.0035329067193912655,-0.13194417972498,0.11783700531302012,0.0168070828076452,0.009127751005383834,21097.91395165957
1685667512664649724,37,1685667512664649724,camera_2,38,0,-0.7141394344422158,0.616752626780466,2.5295367135443247,-0.9839863236648877,-0.004021288542396914,0.13563291998037647,-0.11557878307247615,0.014973393990658224,0.008134261203001902,21090.85284942575
1685667512674780845,38,1685667512674780845,camera_2,39,0,-0.7145523908497063,0.6160423389437651,2.530785037162812,-0.984012485159253,-0.003626848091709786,-0.13300090533162065,0.11839355643192706,0.010902399255428461,0.005926801650492485,21079.461888190242
1685667512684674501,39,1685667512684674501,camera_2,40,0,-0.7146170925566621,0.615595967341581,2.5309960372619575,-0.9839976854582574,-0.0035139572198857067,-0.13302739252661167,0.1184901681787136,0.015169342106673867,0.008246917049769008,21079.06677066721
1685667512694598197,40,1685667512694598197,camera_2,41,0,-0.7145627186890352,0.6150624047186942,2.5307377674575613,-0.9839912740654788,-0.0032858509437380832,-0.13201466413186316,0.11967666523062395,0.009830249502556399,0.005342862266320545,21087.0280454054
1685667512704647064,41,1685667512704647064,camera_2,42,0,-0.7149567699933935,0.6149544625223521,2.5320711502276785,-0.9840279162961031,-0.0035418165051141976,-0.13251354897228348,0.11881361380146635,0.011051471010432579,0.006010876989096106,21071.796268950908
1685667512714610576,42,1685667512714610576,camera_2,43,0,-0.7149097220409962,0.6142154947469706,2.5318062684307283,-0.9839707250563589,-0.003650316308033683,-0.1327615711921292,0.11900694365251141,0.009387690355652012,0.0051049308842102195,21077.017603032997
1685667512724526882,43,1685667512724526882,camera_2,44,0,-0.7148113993748708,0.6138937095994298,2.53141717287053,-0.9839178023250162,-0.0036488238832786566,-0.1323641958450484,0.11988396060554928,0.0036936678952770308,0.0020083227457638676,21080.86706273886
1685667512734625101,44,1685667512734625101,camera_2,45,0,-0.7150917062031995,0.6139896210984701,2.532405964788722,-0.9839842325066389,-0.0034055682900170827,-0.13213627077878104,0.11959698251887287,0.007265948021085933,0.003952471583278934,21071.478025936525
1685667512744765520,45,1685667512744765520,camera_2,46,0,-0.7149109900778209,0.613767018484186,2.531749256144927,-0.98392218991588,-0.003258240120322049,-0.13331296696344075,0.11880303406000182,0.004343472144682892,0.002361919579769914,21077.164552044007
1685667512754950284,46,1685667512754950284,camera_2,47,0,-0.7151520178326367,0.6141183831075729,2.5326314813189788,-0.9841383817268222,-0.003411513507491756,-0.13148631665658936,0.11904350347575833,0.0033284827368333936,0.0018098016402246866,21080.707123329164
1685667512764629364,47,1685667512764629364,camera_2,48,0,-0.7148407776635874,0.6140670233642662,2.531575028956052,-0.984005638272751,-0.003622032715189343,-0.1320129999621982,0.11955062763292702,0.009169744516839273,0.004984810137143825,21084.923306711953
1685667512774627685,48,1685667512774627685,camera_2,49,0,-0.714975510861223,0.6144768154150984,2.5320742179634297,-0.983982155861516,-0.0035169595338595144,-0.13212498346220797,0.11962331163645147,0.0061804418510291725,0.0033617599300419594,21071.952088813185
1685667512784605979,49,1685667512784605979,camera_2,50,0,-0.7149761664507885,0.6148437721056841,2.532136523349832,-0.9840953230238602,-0.003591436230160705,-0.13198866828699787,0.11883807568365518,0.00949650899565313,0.005163798997473569,21077.85945339023
1685667512794631481,50,1685667512794631481,camera_2,51,0,-0.7146494094437845,0.6154812799753354,2.5311013905378754,-0.9840342350837034,-0.00343853887494486,-0.13227006938572178,0.11903541228698644,0.013537060425733216,0.007358947556672771,21081.870388924843
1685667512804606914,51,1685667512804606914,camera_2,52,0,-0.714568733596687,0.6159222913091204,2.5308586274020386,-0.9840728958683795,-0.0036093020243517493,-0.13202592963206916,0.11898177365002838,0.012471388341509737,0.006778428492653813,21084.993698273902
1685667512814622879,52,1685667512814622879,camera_2,53,0,-0.7144131451015019,0.6163128396340517,2.5304455657741745,-0.9841124187033257,-0.0040327470413127784,0.13429609070963008,-0.11606482811472911,0.01002239459194243,0.00544552385741412,21090.375784696298
1685667512824608087,53,1685667512824608087,camera_2,54,0,-0.7142417285704846,0.6167079620088254,2.5297937795620036,-0.9840498169452513,-0.003487091557406256,-0.13333731563446632,0.1177070865406263,0.014832872024271637,0.00805814092530807,21091.070152483182
1685667512834618330,54,1685667512834618330,camera_2,55,0,-0.714330763995193,0.6177981880619869,2.5301892213369257,-0.9842473191756513,-0.0038170574096130193,-0.13246541491667546,0.1170280249309043,0.012424509099218994,0.006748590237112538,21093.121956975443
1685667512844456434,55,1685667512844456434,camera_2,56,0,-0.7140894079678496,0.618051622130093,2.529344957357025,-0.9841921481590715,-0.0035411421729305555,-0.13253136231268664,0.1174253542370077,0.009147738805040717,0.004967455956357945,21097.959294945464
1685667512854629516,56,1685667512854629516,camera_2,57,0,-0.7137115919838181,0.6181104814847906,2.5280465673244663,-0.984136750174801,-0.003907029986120713,-0.13332747032832393,0.1169759707286888,0.010513909975998104,0.005705237500697858,21111.355581986016
1685667512864605188,57,1685667512864605188,camera_2,58,0,-0.713500313430733,0.6182378617223169,2.527294241634985,-0.9841386070558559,-0.00380130971702724,-0.13334937621724927,0.11693885585666405,0.016455893928650767,0.008925225710775005,21121.148751670265
1685667512874631404,58,1685667512874631404,camera_2,59,0,-0.7133930015475977,0.6185368917307353,2.5269394063763446,-0.9841246419887894,-0.003938025368175297,-0.1338506458209983,0.1164782623494112,0.008128835179377347,0.0044082747434844,21122.23747565783
1685667512884623289,59,1685667512884623289,camera_2,60,0,-0.7136073833143304,0.6187945124248454,2.527698152135778,-0.9841533868192126,-0.003642277949933777,-0.13275990899097842,0.11748894240870561,0.0083403077442199,0.004525626816121214,21111.438335643146
1685667512894503116,60,1685667512894503116,camera_2,61,0,-0.7134089371010408,0.6185847772549664,2.5269811425839954,-0.9841800508301556,-0.0035447173564954765,-0.13296119725458594,0.1170400895054437,0.009540297382045537,0.005173118059751792,21126.049666190047
1685667512904433250,61,1685667512904433250,camera_2,62,0,-0.7136695016822995,0.6186930442573016,2.52790494602896,-0.9843346962433319,-0.003674742790148047,-0.13180383224656156,0.11704465746925057,0.005589567241258919,0.003031107586491023,21125.560001799837
1685667512914475679,62,1685667512914475679,camera_2,63,0,-0.7138501110087364,0.6183529144354487,2.5285189531045424,-0.9842410632691875,-0.003690982938328009,-0.13316097265018317,0.11629299799448571,0.012030113313812762,0.00652779716396497,21111.413725948893
1685667512924455881,63,1685667512924455881,camera_2,64,0,-0.7138740345215835,0.618021932680821,2.5286020561229248,-0.9841592883036125,-0.0036395651246121973,-0.13298654871493243,0.11718287704405204,0.010938991152215749,0.00593765766567169,21106.08182627568
1685667512934463739,64,1685667512934463739,camera_2,65,0,-0.7140243663542233,0.6177306061097013,2.5291147818123125,-0.9842364229698997,-0.0036099264782596062,-0.13208220117439984,0.1175581739529993,0.014268739672843367,0.007744908431201893,21108.285645726606
1685667512944424629,65,1685667512944424629,camera_2,66,0,-0.7140974862588895,0.6173140919482895,2.5293344434509546,-0.984078444801862,-0.003648106587847544,-0.13322535743532277,0.11758958257814685,0.010167728934902698,0.005522416382743753,21094.81298860325
1685667512954404354,66,1685667512954404354,camera_2,67,0,-0.7143462691481927,0.6164994498593024,2.5302534870979483,-0.9839984553207336,-0.003995848735631461,0.13476552174662587,-0.11648745540894966,0.012641253473702818,0.006870949459364894,21082.209756769236
1685667512964392185,67,1685667512964392185,camera_2,68,0,-0.7143850015619119,0.6159957099476367,2.530225073331059,-0.9839915486747155,-0.003431720838769191,-0.1326437760484291,0.11897261913748863,0.01583733025472611,0.00860705003864035,21086.19521952245
1685667512974554777,68,1685667512974554777,camera_2,69,0,-0.714643600963436,0.6156901520117989,2.53108918522668,-0.9840532182120167,-0.0034612948557217397,-0.131878063847662,0.11931244461616973,0.010066595452371985,0.005472394145319202,21081.95661263703
1685667512984415292,69,1685667512984415292,camera_2,70,0,-0.714615332658271,0.615178447790025,2.530945334996387,-0.9840336757052223,-0.003285386073779572,-0.13204320176577575,0.11929595208496513,0.011756033462006599,0.006389542261990792,21086.74997314287
1685667512994532346,70,1685667512994532346,camera_2,71,0,-0.714518869193624,0.6142525780187487,2.5306153843024863,-0.984032193004984,-0.004091631936237016,0.13432295806470163,-0.11671008788724563,0.021216045279288664,0.011529288861275105,21091.624546503073
1685667513004509449,71,1685667513004509449,camera_2,72,0,-0.7147438558001676,0.6141158492813508,2.5312362818320113,-0.9839555866367877,-0.0034506643940984466,-0.13269451973328794,0.11921267077893323,0.006440372031647712,0.0035009418145827875,21084.812849104175
1685667513014570236,72,1685667513014570236,camera_2,73,0,-0.7147391333717402,0.6138673137196544,2.5312070616661657,-0.9839577703538539,-0.0033988099097764877,-0.13245623054109934,0.11946087745497629,0.005178065097425132,0.0028144817240356146,21087.645481948166
1685667513024667978,73,1685667513024667978,camera_2,74,0,-0.7148920058696304,0.6138192468159891,2.5316950413415014,-0.9840053967492658,-0.0033689901511834413,-0.13237578988801213,0.11915821132094191,0.007590172535856254,0.004126089144888846,21085.079576651795
1685667513034617185,74,1685667513034617185,camera_2,75,0,-0.7149731921219376,0.6138569985090967,2.5320100963613315,-0.9840659494128606,-0.0034995818788721533,-0.13183776659616753,0.11925084247825088,0.009748164520715363,0.005299172786460819,21085.692670383723
1685667513044501066,75,1685667513044501066,camera_2,76,0,-0.7147515067790564,0.6137702886174421,2.5312379924711244,-0.9839709126683266,-0.00351367263944251,-0.1326357409576,0.11914972659587567,0.01118256343761459,0.006077655862044023,21089.18006361335
1685667513054469585,76,1685667513054469585,camera_2,77,0,-0.7149416913502179,0.6141302355356292,2.531935425653492,-0.9840258107843789,-0.0036820534203486255,-0.13250529889809232,0.11883598763288274,0.0045905495644547045,0.0024958674583801885,21080.805327987648
1685667513064504146,77,1685667513064504146,camera_2,78,0,-0.7148620691249705,0.6143354471163092,2.53169601692215,-0.9839781706091153,-0.0033520362814222033,-0.13225794328254004,0.11951384880497841,0.0075137581006856635,0.004085769018899833,21078.317912227463
1685667513074484825,78,1685667513074484825,camera_2,79,0,-0.7146344205815832,0.6149184733610235,2.530987363262484,-0.9839618011041376,-0.0034628401649237635,-0.13291940372708325,0.11891011234849032,0.013939582771854475,0.00757782867928444,21082.005660635066
1685667513084455966,79,1685667513084455966,camera_2,80,0,-0.7146149845414428,0.6153649228500648,2.5309727196997263,-0.984015367069547,-0.003411074098047002,-0.13189156293465346,0.11961077531366777,0.010606824027490802,0.005765922241874914,21083.21100224671
1685667513094641685,80,1685667513094641685,camera_2,81,0,-0.7142744771525908,0.6155723014537261,2.5299445100939346,0.9839763035373665,0.0038815228589157897,-0.13494087886272452,0.11647543547457348,0.0064613301801728085,0.0035108960016927435,21090.011951753637
1685667513104496955,81,1685667513104496955,camera_2,82,0,-0.7143567759361732,0.6161694317825677,2.530277253681967,0.9840711762679163,0.00400077621384045,-0.13447555251288723,0.11620774330792391,0.008545533404685557,0.004643184903601978,21090.101967603892
1685667513114486455,82,1685667513114486455,camera_2,83,0,-0.7143410284141894,0.617218646480956,2.530161073505544,-0.9842074032146373,-0.0034783476310613877,-0.13181051127356225,0.11810875358355089,0.003597958304453641,0.0019543205696979965,21095.210190659855
1685667513124587535,83,1685667513124587535,camera_2,84,0,-0.7141102059305438,0.617536743787161,2.529423416435254,-0.9840664074144784,-0.0034895124878049125,-0.13279759022810025,0.11817753225790877,0.018585515208542347,0.010096710781957495,21090.52178649045
1685667513134487867,84,1685667513134487867,camera_2,85,0,-0.7138635943275473,0.6177779532499343,2.5285632884872347,-0.984189254593102,-0.003513505116118335,-0.13265745009985244,0.1173080021067554,0.009601144178304821,0.005210336037122554,21111.555156518476
1685667513144472837,85,1685667513144472837,camera_2,86,0,-0.7135831804941415,0.6179345493204214,2.5275946281814607,-0.9840807637273209,-0.0035710506371902655,-0.1334401166908672,0.1173287403696437,0.013702476164326072,0.007434540787875556,21114.4578961765
1685667513154474496,86,1685667513154474496,camera_2,87,0,-0.713523188584167,0.6184669892010286,2.5273895003599365,-0.9842207610591512,-0.0038226315277856524,-0.1322952900735692,0.11744291044034147,0.014975232363212854,0.008120979524711237,21125.034146207385
1685667513164477586,87,1685667513164477586,camera_2,88,0,-0.7135152700005934,0.6186251075405085,2.5273687756882066,-0.9842161012386961,-0.0038609987312143695,-0.133244170968123,0.11640339193647233,0.015761162736453116,0.008547105561563212,21123.370422917178
1685667513174510002,88,1685667513174510002,camera_2,89,0,-0.7133669450942665,0.6185759132876025,2.526841284189712,-0.9841284662826909,-0.003848147814407664,-0.13344603415082718,0.11691240130924241,0.009879191929940134,0.005357316534214178,21123.642104459457
1685667513184467554,89,1685667513184467554,camera_2,90,0,-0.713271709918049,0.6184860884656446,2.526508403907809,-0.9841070649767789,-0.003762566447348877,-0.1339311843561926,0.11653997431554002,0.006023036141414195,0.0032654994035186957,21127.291763870053
1685667513194483757,90,1685667513194483757,camera_2,91,0,-0.7135283687531084,0.6184119070363303,2.5274184413301026,-0.9841412690363373,-0.0036935434803094564,-0.13308938483328758,0.11721576669033933,0.01392324233893305,0.007552793319916767,21118.011555098703
1685667513204502582,91,1685667513204502582,camera_2,92,0,-0.7136677182322024,0.6182629434243855,2.5279039322371673,-0.9841639809433713,-0.003785672687879338,-0.13329777407453786,0.1167845483048559,0.015150561346672475,0.008219904994157309,21114.37259140238
1685667513214545249,92,1685667513214545249,camera_2,93,0,-0.713755054607761,0.6179826716802856,2.528298481163055,-0.9841196016182284,-0.003954242919898878,0.13441693319063922,-0.11586656871303769,0.01856605598004535,0.010073787566803688,21114.59734994941
1685667513224524974,93,1685667513224524974,camera_2,94,0,-0.7139410383078273,0.617734469470739,2.5288180768240323,-0.9841489368461754,-0.0033461776910781327,-0.13310704994167963,0.11714173660666749,0.013686962716747075,0.007429977011066452,21104.570269185122
1685667513234578609,94,1685667513234578609,camera_2,95,0,-0.7141433375402809,0.616952927539403,2.5294814004105306,-0.9841213513508567,-0.0035756888827774952,-0.13313007583500872,0.11734037315665131,0.011089122912380844,0.006021598877242628,21099.734661653856
1685667513244527578,95,1685667513244527578,camera_2,96,0,-0.7143177931076632,0.6165757967873663,2.5301882557479582,-0.9840927851416444,-0.0039441280664989494,0.13477799433924345,-0.11567508948709457,0.01241120306076482,0.0067427479783978336,21091.215527564054
1685667513254525423,96,1685667513254525423,camera_2,97,0,-0.7146917733978344,0.6163526752671049,2.5314383367262914,0.9841388530706844,0.004092255696109072,-0.13337386272730736,0.11689903361975722,0.008166767715010792,0.004440435087892788,21077.154540372547
1685667513264550209,97,1685667513264550209,camera_2,98,0,-0.7143046652523272,0.615501840735927,2.5299008421870837,-0.9839571309418047,-0.0033921763996452273,-0.13312812580356875,0.11871714167749874,0.01482175273122266,0.008052862924815544,21092.14301723906
1685667513274561643,98,1685667513274561643,camera_2,99,0,-0.7147921331311148,0.6149548543244258,2.5314919021097735,-0.9841024247074696,-0.0034370918085189755,-0.1316383953255658,0.11917187990834545,0.005320418000337668,0.00289179248224794,21086.847219720712
1685667513284536838,99,1685667513284536838,camera_2,100,0,-0.7147870350913357,0.6145491959414092,2.5314409611190856,-0.9840497415186015,-0.0033053416330116984,-0.13179702712435007,0.11943502239731034,0.00682879141822923,0.0037118376179599987,21086.472378306215
1685667513294559240,100,1685667513294559240,camera_2,101,0,-0.714944456739394,0.6143400089966831,2.5320907487788578,-0.9841338297520226,-0.004037956499525726,0.13447763070178423,-0.11567223904532968,0.009182187961414456,0.004993016490124456,21077.610891950666
1685667513304518699,101,1685667513304518699,camera_2,102,0,-0.7149592999913491,0.6140953359712964,2.5320029152985137,-0.9840329630738094,-0.0034642171816324234,-0.1323677461820918,0.11893656525295705,0.005265189698548056,0.002862724797626061,21080.735489524195
1685667513314534425,102,1685667513314534425,camera_2,103,0,-0.7150276549428447,0.6138833914206525,2.532182713954974,-0.9840584096470386,-0.003247202000548674,-0.13213845670976376,0.11898710157185333,0.006533856925670989,0.0035523885306616024,21082.08923474652
1685667513324527978,103,1685667513324527978,camera_2,104,0,-0.7149388808323053,0.6138106426114024,2.531864734603088,-0.9840305659399247,-0.0033088832714907894,-0.13280640569432425,0.1184709044196161,0.007413619488943368,0.004030019559558684,21084.778602500213
1685667513334517478,104,1685667513334517478,camera_2,105,0,-0.71515283504859,0.614101719341886,2.532660250202149,-0.9841503944935602,-0.00335985688966953,-0.13165219119024288,0.11876200122370162,0.009250566188711673,0.005029583930819733,21081.48450401367
1685667513344468832,105,1685667513344468832,camera_2,106,0,-0.7148993520715793,0.6140692452441672,2.5317709999066005,-0.9839219021067731,-0.003701106048024308,-0.13260992940071367,0.11957674938276544,0.004085165346623398,0.0022217965730510626,21074.59267867193
1685667513354487180,106,1685667513354487180,camera_2,107,0,-0.7147490177638581,0.6145451627735478,2.531300269166916,-0.9840141442844853,-0.003366500169372077,-0.13152530281786912,0.12002468597480155,0.011518917119246908,0.006261650437911932,21085.509971355896
1685667513364296674,107,1685667513364296674,camera_2,108,0,-0.7147991953138135,0.6149936210857991,2.5315476546119946,-0.9840927007808972,-0.0032235631863227645,-0.13208219350951314,0.11876640546829322,0.010750197994639166,0.005843455120817028,21084.746911111626
1685667513374319076,108,1685667513374319076,camera_2,109,0,-0.7149600744010546,0.6155961479256857,2.5321655753470926,-0.9841381240105117,-0.003462355482454281,-0.13183601176165846,0.11865677800430899,0.007326694452785887,0.003984331937676254,21074.586487020715
1685667513384469032,109,1685667513384469032,camera_2,110,0,-0.7146195678449716,0.6157935970639234,2.5310167249362756,-0.984026279472102,-0.003576660435882596,-0.1329536768330581,0.11833346367359453,0.015161844668909907,0.008242500230285983,21079.551250149958
1685667513394473075,110,1685667513394473075,camera_2,111,0,-0.7142458761888213,0.6165261908752762,2.529805658307,-0.9840703814216686,-0.0034880580479461016,-0.1332665225405353,0.11761527039300289,0.01344960497226566,0.007305622981852269,21094.37439668925
1685667513404518365,111,1685667513404518365,camera_2,112,0,-0.7140607739925535,0.6168936686010448,2.529182428345552,-0.9840802256677503,-0.003561348705849444,-0.13275314988822393,0.11811023427230882,0.012348570686299354,0.006705387111752682,21101.026498387797
1685667513414526462,112,1685667513414526462,camera_2,113,0,-0.7140151988143554,0.617357145923292,2.529187027463983,-0.9840186673488229,-0.004030096505711648,0.13518510536584125,-0.11582749206655459,0.028019491175655276,0.015217544691676651,21095.678580462463
1685667513424520254,113,1685667513424520254,camera_2,114,0,-0.7138055296603399,0.6176357541827233,2.5283304509641154,-0.9840932626727613,-0.0034442491784052055,-0.13273318214428387,0.11802749623511088,0.013333638955373317,0.00723743091236338,21107.681611456905
1685667513434513330,114,1685667513434513330,camera_2,115,0,-0.7135915736715416,0.6182103679708669,2.5276096795094247,-0.9842233996442902,-0.0037534349213373254,-0.13207147090743346,0.117674712199666,0.008455287257675081,0.004585589499325412,21124.477073656395
1685667513444492816,115,1685667513444492816,camera_2,116,0,-0.7132299146937813,0.618171808902778,2.526350003173052,-0.9840856945497172,-0.0038109763081695517,-0.1340366907370979,0.1165975461938503,0.01716365577885881,0.009304372931021994,21130.6538266344
1685667513454486370,116,1685667513454486370,camera_2,117,0,-0.7132686339367925,0.618386913678776,2.5264817673031326,-0.9840780423276885,-0.003659617846086913,-0.1332621543414102,0.11755089121742647,0.015126465354114771,0.008202268003111312,21126.106623496868
1685667513464476346,117,1685667513464476346,camera_2,118,0,-0.7132781131838569,0.6185011014888474,2.5265306103506653,-0.9840954607245782,-0.0036639123431794793,-0.13367138431655487,0.11693870592116952,0.008476178452838212,0.004595982170148903,21125.82078296413
1685667513474513292,118,1685667513474513292,camera_2,119,0,-0.7134268462704049,0.6185516646745177,2.5270590302818237,-0.9841995675517514,-0.003845231310643827,-0.13363524246966527,0.11609499298930687,0.008824311196804047,0.004784337957789373,21126.990261625735
1685667513484509229,119,1685667513484509229,camera_2,120,0,-0.7135047862949433,0.6184337526415965,2.5273238724440383,-0.9841921600053383,-0.003604774320968767,-0.13347342244878446,0.11635137853042314,0.010609711869619787,0.005753506230199748,21123.55424489965
1685667513494513750,120,1685667513494513750,camera_2,121,0,-0.7136075782349137,0.6182550572908524,2.5276885964349383,-0.9842451521743805,-0.0038765915577528053,-0.1319379414445013,0.11763856538785461,0.004897823615465313,0.0026561918606119975,21124.93096648645
1685667513504513978,121,1685667513504513978,camera_2,122,0,-0.7135101796083076,0.6178332372619526,2.52734231944745,-0.9840678031648188,-0.0036240852424680226,-0.13387137673844132,0.11694391506477542,0.00986915739485994,0.00535366037621845,21117.857124197515
1685667513514529705,122,1685667513514529705,camera_2,123,0,-0.7141530701856721,0.6175235382860849,2.5295790750917937,-0.9841808359995274,-0.0036497690590854637,-0.13284106042205607,0.11716660745720242,0.013363944890443236,0.007257019881453899,21098.518048122045
1685667513524494171,123,1685667513524494171,camera_2,124,0,-0.7139563705936964,0.6168466032695655,2.5288012693965918,-0.9840273099238639,-0.003290906621715278,-0.13359282095679942,0.11761114507739441,0.013099043630063534,0.0071121917478382925,21102.075257448476
1685667513534512758,124,1685667513534512758,camera_2,125,0,-0.7142338504988959,0.6165646593525108,2.5298866763760492,-0.9840207311479353,-0.0039077786008055535,0.13564227591747302,-0.11527837143808872,0.012232841516379267,0.006645967831231512,21089.60443479823
1685667513544491529,125,1685667513544491529,camera_2,126,0,-0.7144814992259159,0.6162552459231586,2.530717723869614,-0.9840865347630506,-0.0037953151823410533,0.13366384624315153,-0.1170182203257479,0.018356006185058504,0.009977211303167992,21084.014588266145
1685667513554479598,126,1685667513554479598,camera_2,127,0,-0.7146371142744372,0.615362530297462,2.5310371151364532,-0.9840066265496982,-0.0034755291333895774,-0.1330977698636665,0.11833791979261858,0.013983505676151253,0.0076015053349616085,21081.269822931856
1685667513564477920,127,1685667513564477920,camera_2,128,0,-0.7149149809132852,0.6151386112555692,2.5320831244499757,-0.9842572319473714,-0.00398755364660697,0.13309030514333747,-0.1162272405766699,0.010364385685534216,0.005634083353862453,21084.248479825448
1685667513574498653,128,1685667513574498653,camera_2,129,0,-0.7149707809796396,0.6147856512624065,2.532111141304914,-0.9840146495550363,-0.003486573559050764,-0.1318115101077502,0.1197027112015898,0.010715248325141147,0.0058284609089091916,21071.696251206216
1685667513584385871,129,1685667513584385871,camera_2,130,0,-0.7149789371409774,0.6144492331436495,2.532084289720201,-0.9839840765086637,-0.0036364464511244657,-0.1325909756786862,0.11908713869757094,0.007031501067103818,0.0038245092355105653,21072.14783485339
1685667513594409465,130,1685667513594409465,camera_2,131,0,-0.7150769326154137,0.6140555687979885,2.5324023303352194,-0.9840238965664335,-0.0036159046422945674,-0.13274006133485175,0.11859162001023012,0.004563758266158402,0.0024820408138684674,21074.42434780649
1685667513604396104,131,1685667513604396104,camera_2,132,0,-0.7148414759947577,0.6137419828037489,2.531546425224191,-0.9840211841467651,-0.0034197384402803407,-0.13257437924470022,0.11880508620122587,0.013992845328175463,0.0076049923109470325,21089.335088427404
1685667513614394187,132,1685667513614394187,camera_2,133,0,-0.7150196282145648,0.6138737726036354,2.5321488455592096,-0.9839836689797696,-0.0033419464552924675,-0.1329167886242105,0.1187354112168236,0.006850534118711948,0.0037254993370290763,21075.97521398636
1685667513624543190,133,1685667513624543190,camera_2,134,0,-0.714824698592128,0.6137729537045902,2.531454412632735,-0.9839436805868923,-0.0033926005939287035,-0.13274024552389055,0.11926169088432066,0.007367044221609831,0.004005050384777285,21083.50219991989
1685667513634524106,134,1685667513634524106,camera_2,135,0,-0.7148977600252088,0.6142544853364139,2.531802694751136,-0.9839902338051079,-0.003516088572048289,-0.1315202622312407,0.12022178471453737,0.013932853617006913,0.007576583889192583,21078.7518145052
1685667513644359350,135,1685667513644359350,camera_2,136,0,-0.7148383394783093,0.6145361435086188,2.531638367532834,-0.9840000957107964,-0.00367186864996363,-0.13242339549442314,0.11914014162946299,0.014734650394530036,0.008011558897157227,21079.396983546092
1685667513654544830,136,1685667513654544830,camera_2,137,0,-0.7147786964790911,0.6148795656279461,2.53145179477972,-0.9841085921668279,-0.0035862806042735035,-0.13182139637666282,0.11891398938795408,0.007369738959823735,0.004005273248156611,21088.68521835166
1685667513664500474,137,1685667513664500474,camera_2,138,0,-0.7147764561450534,0.6153472218965894,2.53152219431302,-0.9841341267537429,-0.003245134467912294,-0.1316864676410526,0.11886195312695731,0.012061723769875243,0.0065559714971913105,21085.759552907322
1685667513674536466,138,1685667513674536466,camera_2,139,0,-0.7145902262166436,0.616219021708577,2.5309705728750473,-0.9840885899837786,-0.003562530487183735,-0.1325605479793905,0.11825674001793895,0.007563249397207983,0.004111058551967762,21081.99013025174
1685667513684301376,139,1685667513684301376,camera_2,140,0,-0.7140654131269205,0.6162989567211996,2.5292907595186325,-0.9839614866665839,-0.004097407144616806,0.13507069373428943,-0.11644274003009095,0.007434250204823911,0.004038240830757871,21094.857848240772
1685667513694382429,140,1685667513694382429,camera_2,141,0,-0.7140316497992412,0.6167989779963833,2.529200048038276,-0.9840681305085602,-0.004112133213594894,0.1359426788343266,-0.11451023076200689,0.015382000361569226,0.008350764086747755,21103.18512563943
1685667513704325199,141,1685667513704325199,camera_2,142,0,-0.714211009164193,0.6174576984438449,2.529878066604985,-0.9841582554140429,-0.0038986574120207246,0.13486071285158718,-0.11502137583915863,0.015513380523771048,0.00842479441158112,21096.90315498785
1685667513714340209,142,1685667513714340209,camera_2,143,0,-0.7140020228678561,0.6181672960835222,2.5290447804798735,-0.9842826173181058,-0.003615230615546405,-0.131875170307625,0.11740357238751524,0.009526498382911088,0.0051704093951880446,21109.346782871293
1685667513724378824,143,1685667513724378824,camera_2,144,0,-0.7137636525895728,0.6183047089532543,2.52822768576069,-0.9842370428290305,-0.0035629105737819983,-0.1322991416442578,0.11731021401225523,0.012593524588737637,0.006832609167146284,21115.815853734734
1685667513734594583,144,1685667513734594583,camera_2,145,0,-0.7134829298925259,0.6183399757294732,2.527243498736584,-0.9841936225630759,-0.0036756790033702193,-0.13302934626533008,0.11684432259315386,0.010979553102515638,0.0059537038020658845,21125.80420759949
1685667513744596958,145,1685667513744596958,camera_2,146,0,-0.7134819398750858,0.6185419923633207,2.527254766825813,-0.9841660103052303,-0.0036245140150198093,-0.13336351737569652,0.1166974690866201,0.013497445732355118,0.007320330119854301,21121.26308007002
1685667513754589557,146,1685667513754589557,camera_2,147,0,-0.7132109112334327,0.6184523112572483,2.526288605345972,-0.984106323545306,-0.0038420506352499382,-0.13326491965926232,0.11730491802677352,0.009411138773430139,0.005101856059781192,21130.81229942501
1685667513764531135,147,1685667513764531135,camera_2,148,0,-0.7134511854537525,0.6186016548051079,2.527121879525396,-0.9842455094353356,-0.0037925094973232255,-0.13254940908784535,0.11694891268649063,0.0033000955008901656,0.001789136818279792,21129.73857780733
1685667513774554967,148,1685667513774554967,camera_2,149,0,-0.7133433460239422,0.6183464229423898,2.5267404898799715,-0.9841390067245513,-0.003949651948359502,-0.1331974394628254,0.1171036199835315,0.010321090812794864,0.0055959350342310405,21128.22264197515
1685667513784518241,149,1685667513784518241,camera_2,150,0,-0.7136077495582527,0.6183392957765776,2.527698316127547,-0.984156395553416,-0.003941097035041155,-0.13356083533383611,0.11654252490141312,0.014502371952403337,0.00786737378543723,21115.99698699685
1685667513794516324,150,1685667513794516324,camera_2,151,0,-0.7138378563047084,0.6178153165360584,2.528474568678808,-0.9841587385845801,-0.0034151907710675768,-0.13270007781448895,0.11751852231726559,0.014002271753270179,0.007599395099164647,21109.76065901271
1685667513804508447,151,1685667513804508447,camera_2,152,0,-0.7138593455245138,0.6173734831649208,2.5286189931253564,-0.9840715015740494,-0.0040063234833624915,0.13488233731003701,-0.1157323820014247,0.013637685275170952,0.007401985533484242,21108.937961285235
1685667513814528703,152,1685667513814528703,camera_2,153,0,-0.7143887901024633,0.6173477779579575,2.530478958395063,-0.984213267677956,-0.003988058536167705,0.13390397020435638,-0.1156635892548005,0.013874090509489179,0.007536578538064025,21093.089110421475
1685667513824335336,153,1685667513824335336,camera_2,154,0,-0.714245940175044,0.6166918646079282,2.529818490657384,-0.9841052115066414,-0.003662054192422542,-0.13323911221192783,0.1173493119772659,0.013227082905359566,0.007184086559095714,21095.82892436883
1685667513834354162,154,1685667513834354162,camera_2,155,0,-0.7145280897089464,0.6158583054540016,2.5307231959344216,-0.9840487254909744,-0.0036599229538174776,-0.13318361792930744,0.11788483676377255,0.016212033689953387,0.0088107000037423,21085.206717817582
1685667513844346284,155,1685667513844346284,camera_2,156,0,-0.7148989082912207,0.6156714122844509,2.5320019273887753,-0.9841277603146087,-0.003439793648129236,-0.13296060224941836,0.11748275382915743,0.014893837986164726,0.008098406252839613,21075.22962687433
1685667513854527235,156,1685667513854527235,camera_2,157,0,-0.7146186313365065,0.6149467298701263,2.531052172297863,-0.9840990144217847,-0.0040793292123107346,0.1343540724839577,-0.11610974159916687,0.01564909530861769,0.00850517111891058,21087.251737719293
1685667513864501237,157,1685667513864501237,camera_2,158,0,-0.7150151788760329,0.6148653054443942,2.532283575378284,-0.9841565912946306,-0.003473587997387888,-0.13175145191345275,0.11859718764142398,0.013497402556822635,0.007338295913235472,21080.950747606694
1685667513874524116,158,1685667513874524116,camera_2,159,0,-0.7147735717574599,0.6140063397814669,2.531337825944716,-0.9840031264038559,-0.0034283356883056493,-0.1320193443940167,0.1195700064716052,0.006049784671631642,0.0032881784655247534,21088.602442977484
1685667513884518384,159,1685667513884518384,camera_2,160,0,-0.7150182583727632,0.6139994618077174,2.532171399080961,-0.9840622817067032,-0.003440571344755569,-0.132297741916259,0.11877245335041985,0.006143555816379376,0.003340168903503692,21081.61738010052
1685667513894530773,160,1685667513894530773,camera_2,161,0,-0.7149491048799519,0.6138158831211269,2.531922542868601,-0.9840480965461329,-0.003482199683857127,-0.13255122900839042,0.11860602707139223,0.0034857007121900097,0.0018947628316142086,21085.564713838976
1685667513904508829,161,1685667513904508829,camera_2,162,0,-0.7149940797927231,0.6138213554186843,2.532075057067766,-0.9840359084806559,-0.0033285380386439798,-0.13230253496938543,0.11898861666499902,0.008590602810727432,0.004670582383423187,21082.261566475954
1685667513914393424,162,1685667513914393424,camera_2,163,0,-0.7148676468001974,0.61393533714788,2.531648046169976,-0.9839460085063231,-0.0036738549827326247,-0.13247481001057373,0.11952899165768585,0.004599464955390431,0.002500937258310444,21079.680840851383
1685667513924365997,163,1685667513924365997,camera_2,164,0,-0.7147341277712452,0.6140570271840399,2.5312191119073804,-0.9840418759667793,-0.0036249165866287995,-0.13292535953300127,0.11823406918711844,0.011652901797788218,0.006331666411645515,21093.18490889122
1685667513934452056,164,1685667513934452056,camera_2,165,0,-0.7148577423544688,0.6144864198917873,2.53182346264597,-0.9841133407746923,-0.004215008100185231,0.13437821050888155,-0.1159554343548441,0.012782944279024377,0.00695046546698395,21079.16811967839
1685667513944335699,165,1685667513944335699,camera_2,166,0,-0.7147384853754366,0.6147665381251587,2.5314362309868157,-0.9840558071930844,-0.0038346095377372893,0.13426504635070213,-0.11658628318847765,0.01634775935963262,0.008889101154376536,21078.328870497644
1685667513954410076,166,1685667513954410076,camera_2,167,0,-0.7146957873547019,0.6156725522234942,2.531371220347326,-0.9841480904294093,-0.003814215133697716,0.13441677359694756,-0.11562923005385846,0.012043655646266416,0.006546521366775582,21082.79189746116
1685667513964583158,167,1685667513964583158,camera_2,168,0,-0.7146047176436837,0.6161254576105109,2.5310015359516296,-0.9841160288603628,-0.0036012269125718023,-0.13294247160865172,0.11759665023892744,0.010825540652149357,0.005883354457019613,21084.702758113974
1685667513974543094,168,1685667513974543094,camera_2,169,0,-0.7141795785231582,0.616297717102346,2.5296576155779267,-0.983930625720911,-0.0040982916507976445,0.13551171028002024,-0.11619080923629692,0.011973691929597408,0.006506508171325701,21086.551807787975
1685667513984516620,169,1685667513984516620,camera_2,170,0,-0.7143464374514273,0.6169808993765786,2.5301703360503263,-0.984209516233689,-0.0034997938579421524,-0.13193583966174527,0.11795047185471597,0.014577507972717285,0.007917414687590982,21097.42964397325
1685667513994540691,170,1685667513994540691,camera_2,171,0,-0.7141697602061712,0.6178192438483346,2.5296024486542876,-0.9842605640986469,-0.0036052823949819825,-0.13187590021903572,0.11758780055977193,0.007939656381495297,0.004310775696824503,21102.538367698893
1685667514004602670,171,1685667514004602670,camera_2,172,0,-0.713800214933771,0.6179564738101855,2.528351173691308,-0.9841349274730833,-0.0036115446702406394,-0.1332593541261519,0.11707837464931199,0.016176402859855443,0.00877951556086085,21108.117054038215
1685667514013452768,172,1685667514013452768,camera_2,173,0,-0.7137391319900832,0.6182707961022744,2.5281111854717215,-0.9842157494057795,-0.0036406739238360065,-0.13233427033397874,0.11744677522253869,0.0023431042209267616,0.0012712410114922184,21115.867399207775
1685667514024510622,173,1685667514024510622,camera_2,174,0,-0.7134324743864199,0.618309403448709,2.527058941002887,-0.984127124446245,-0.003639248079807628,-0.13317952783119444,0.11723383542833883,0.013982666947413236,0.007583287501375958,21122.83932670694
1685667514034620046,174,1685667514034620046,camera_2,175,0,-0.7135665979656136,0.6187590959928694,2.5275611804576315,-0.9842263474604397,-0.0037194832789001274,-0.13260077070291787,0.11705425245505562,0.010551476385444403,0.005723051708854424,21120.303227929857
1685667514043740749,175,1685667514043740749,camera_2,176,0,-0.7134509492990432,0.618696033670984,2.5271623729976973,-0.9842381052741593,-0.003835282639194956,-0.1334422152751126,0.11599059408366161,0.006342915119603276,0.003438853736627385,21127.59132364067
1685667514054609775,176,1685667514054609775,camera_2,177,0,-0.7135195158919228,0.6186866357313806,2.527384670433158,-0.984189823497406,-0.003611286855396353,-0.13351862389792707,0.11631907411855,0.009372246568091214,0.005083128647130879,21120.084983896224
1685667514064543962,177,1685667514064543962,camera_2,178,0,-0.7135233395639824,0.6185285871499573,2.52738385297234,-0.9842790166941252,-0.003830779312893734,-0.13222262599350454,0.11703554844953633,0.0076859050896018735,0.004167034398503597,21129.696330286562
1685667514073762416,178,1685667514073762416,camera_2,179,0,-0.7136859978415709,0.6181155289619455,2.5279566684096877,-0.9842114455105896,-0.003700990231992083,-0.13302763669886405,0.11669524871036308,0.015806724317371845,0.008574175083457902,21119.176609239068
1685667514084505796,179,1685667514084505796,camera_2,180,0,-0.7140096534014467,0.6180076362724987,2.5290938733571613,-0.9841750513098703,-0.003647916937951775,-0.1331985581448089,0.116808840373373,0.014529129606671631,0.007888367860977387,21100.5090795951
1685667514093448400,180,1685667514093448400,camera_2,181,0,-0.714133221572271,0.6176739232689626,2.529535902683471,-0.984256210009541,-0.003526644360316504,-0.1323273929499677,0.11711847383002831,0.013738301116973162,0.007458249213143752,21104.473919331795
1685667514104341506,181,1685667514104341506,camera_2,182,0,-0.7140603591304273,0.6171246406107511,2.5292423254455945,-0.984141405010014,-0.003532773275022723,-0.13279474316273254,0.11755326727167936,0.019786349846981466,0.010742479404816237,21103.51890349528
1685667514114422082,182,1685667514114422082,camera_2,183,0,-0.7143893200490862,0.6163537343196641,2.5302978044024584,-0.9841017313106547,-0.00367833923605562,-0.1316751804879696,0.11912975738789,0.013494227605406195,0.007331723542267655,21091.919420539634
1685667514124359607,183,1685667514124359607,camera_2,184,0,-0.7143779807142547,0.6158050991913373,2.5303202702430148,-0.9840525337162592,-0.004124988688460374,0.13457102070676197,-0.11625074511963698,0.009843431253102608,0.005348641340755403,21089.81292768056
1685667514133745193,184,1685667514133745193,camera_2,185,0,-0.7144320790761163,0.6153315827412335,2.5303415534526974,-0.983979239431641,-0.003317471939194208,-0.13350477627139312,0.11811149588497877,0.011143723328132182,0.006055308185720324,21089.122367662843
1685667514144556999,185,1685667514144556999,camera_2,186,0,-0.7145702229857915,0.6149550120554835,2.530772574884781,-0.9840195273902663,-0.003535029125911087,-0.13287129802840808,0.11848329605459985,0.011711365848896094,0.006364014085872327,21089.914379770868
1685667514153458356,186,1685667514153458356,camera_2,187,0,-0.7149811382802307,0.6144952405995461,2.532104335115936,-0.9840468251244857,-0.0035463934124248596,-0.1321294059822893,0.11908437819861835,0.010326878938940354,0.0056157154785344355,21077.06615316274
1685667514174606800,187,1685667514174606800,camera_2,189,0,-0.7149577946671055,0.61394342505727,2.531947859668727,-0.9840391797670608,-0.0033711470682288042,-0.13310338406066965,0.11806361506583032,0.009713147606817074,0.005280245118583979,21083.11983853788
1685667514234470605,188,1685667514234470605,camera_2,191,0,-0.7145880105412242,0.6150531513616709,2.5308567512735984,-0.9840324152896853,-0.003542972161531329,-0.13248914715667043,0.11880353064243983,0.012303120995056815,0.006685980322627826,21089.063621071877
1685667514294535875,189,1685667514294535875,camera_2,193,0,-0.7138017083675522,0.6179135277278428,2.5283567230268402,-0.9841199344142373,-0.003642597698655102,-0.13301452426341065,0.11748115808716549,0.013935240916907787,0.007563744262244436,21107.182802020798
1685667514344480037,190,1685667514344480037,camera_2,195,0,-0.7133641593499094,0.6185767873731021,2.526848710559586,-0.9841587528489765,-0.003563328323739527,-0.1334114706426602,0.11670574700059526,0.012260497082024813,0.006647860624119272,21126.1518276888
1685667514394627332,191,1685667514394627332,camera_2,197,0,-0.7143051226758339,0.6168633264763771,2.530023908372702,-0.9841282988965855,-0.0034553078675629476,-0.13168952676357915,0.11890088603218203,0.01235749019542709,0.006713245489645615,21093.514503742095
1685667514434571743,192,1685667514434571743,camera_2,199,0,-0.7148689143294119,0.6148447512184001,2.5317812178112034,-0.9840875026192415,-0.0035113398556256056,-0.1313362607102992,0.1196254333479265,0.014664747286587954,0.007972668355418345,21082.46438114764
1685667514474596977,193,1685667514474596977,camera_2,201,0,-0.714960121105424,0.6137921460621816,2.5319575502990204,-0.984058266462443,-0.0034043364944559154,-0.1323143756966287,0.11878823461932407,0.008928114199079573,0.004853119860930978,21086.187361140852
1685667514514580011,194,1685667514514580011,camera_2,203,0,-0.7147847892081738,0.6147151153324887,2.531490109463937,-0.983987662300707,-0.0033593463995103177,-0.13219332503544784,0.11950698744353964,0.012358119784039445,0.006719595161464944,21078.868421105435
1685667514564539194,195,1685667514564539194,camera_2,205,0,-0.7142632374491932,0.6173004294170757,2.5299409299607403,-0.984134609370064,-0.003356449335330978,-0.13254520102221173,0.11789645700305168,0.017334221920464188,0.009416928769449226,21091.189793970432
1685667514574587345,196,1685667514574587345,camera_2,206,0,-0.7143231901705331,0.6178325490460568,2.530294550540186,-0.9842488591894514,-0.0040696407219543845,0.13403616019061107,-0.11520385831218775,0.013415686145890504,0.00728586406930688,21096.43028215482
1685667514584537267,197,1685667514584537267,camera_2,207,0,-0.7139652823497482,0.6179631162570312,2.528907629244415,-0.9842015469922079,-0.0036841435542699936,-0.13273160473590973,0.11711559711945697,0.010853686253540218,0.005891493916178018,21105.96511408734
1685667514594680786,198,1685667514594680786,camera_2,208,0,-0.7137309755454059,0.6184654423069984,2.5281142523064477,-0.9842900467422298,-0.003857766623963377,-0.13218631961944008,0.11698289800787752,0.010325227456633002,0.005600470310880477,21120.73216837528
1685667514604552745,199,1685667514604552745,camera_2,209,0,-0.7134635947928492,0.6184805647787445,2.5271908184154355,-0.9841953213358787,-0.0036656934563434776,-0.132844493265039,0.11704047488456984,0.010272538347635418,0.005570410046901585,21125.42417087174
1685667514614578247,200,1685667514614578247,camera_2,210,0,-0.7135113471266772,0.6186635954609286,2.5273268673894944,-0.9841805577201982,-0.0037512336535890124,-0.13261178719453187,0.11742517595774826,0.004503118805587292,0.0024424595065206155,21120.410676489126
1685667514624675273,201,1685667514624675273,camera_2,211,0,-0.7133179925468545,0.6185590993033866,2.5266709683116964,-0.9841440919669409,-0.0038411482693280702,-0.13349211016172516,0.11672835281587789,0.01182572531979531,0.006411602389074359,21127.632096491056
1685667514634670257,202,1685667514634670257,camera_2,212,0,-0.7135963215167543,0.6186380213621462,2.527644297031267,-0.9842499555104888,-0.0038361040045047506,-0.13310168168517583,0.11628091724890134,0.008163291728124022,0.00442710540477643,21122.23172180634
1685667514644547224,203,1685667514644547224,camera_2,213,0,-0.7134708937936493,0.6183199377272595,2.5271860066369727,-0.984148925668278,-0.003576647319414974,-0.133023295205267,0.11723012681328546,0.007666478224564344,0.004157822816471336,21122.79444373049
1685667514654598474,204,1685667514654598474,camera_2,214,0,-0.7138062884533498,0.6183183009540953,2.528376864038472,-0.9842157461657707,-0.003657598875917362,-0.13290494980339065,0.11680009112828717,0.013123232405632734,0.007121124040294838,21111.612531063845
1685667514664799928,205,1685667514664799928,camera_2,215,0,-0.7137448027138288,0.6179007501274898,2.5281388067686104,-0.984105287551723,-0.003579486467047979,-0.13271102242026486,0.11794810222102269,0.010171326459385455,0.005520415307392165,21109.15601340866
1685667514674666166,206,1685667514674666166,camera_2,216,0,-0.7142227472915997,0.6174023468512512,2.5297934005356253,-0.9841814815749338,-0.003739073577534866,-0.13226183780888418,0.11781187084995487,0.008627983334008604,0.004685945054463782,21096.66295585548
1685667514684541463,207,1685667514684541463,camera_2,217,0,-0.7142076097301032,0.6168729339120586,2.529794292476151,-0.984127937238255,-0.0041041048144030805,0.13450599892280987,-0.11568705945189829,0.014355906110722572,0.007796268532673673,21098.730104473427
1685667514694552659,208,1685667514694552659,camera_2,218,0,-0.7143315055679287,0.616452281240129,2.5300942314020096,-0.9839909723690001,-0.0035965450933815087,-0.13239211574222937,0.11925250038886935,0.012468708504457027,0.006776842807423484,21084.08180533326
1685667514704501867,209,1685667514704501867,camera_2,219,0,-0.7147729636847336,0.6162952172065426,2.531607116527223,-0.9841448470390706,-0.003627852138642853,-0.13160429975276006,0.11885313215010446,0.012710786308161914,0.006911059262966277,21077.25106368261
1685667514714504480,210,1685667514714504480,camera_2,220,0,-0.7144456161832861,0.6149956905653245,2.530463347178203,-0.9839167192634207,-0.004092462959384886,0.13562576624319597,-0.11617569811186443,0.014601031201891601,0.007937777446011391,21080.007305330837
1685667514724546909,211,1685667514724546909,camera_2,221,0,-0.7147884980464815,0.6148328318598277,2.5316136272921566,-0.984016006240856,-0.003977116011634598,0.1351738536403924,-0.11586505643217708,0.01854622751125135,0.010086919725330757,21071.939413377208
1685667514734588146,212,1685667514734588146,camera_2,222,0,-0.7147757550812301,0.6144335596091852,2.5314080718553726,-0.9839682080721186,-0.0034638248273537115,-0.13226860389622572,0.1195808673837614,0.014758497592993082,0.008024213839205577,21080.810815737466
1685667514744501829,213,1685667514744501829,camera_2,223,0,-0.7148330440546364,0.6141649375054052,2.531579424642608,-0.9839547861842717,-0.003556699466370931,-0.13271908410576036,0.11918881385473411,0.007221267936984077,0.0039264366935198225,21079.41422753991
1685667514754532098,214,1685667514754532098,camera_2,224,0,-0.7149568462720371,0.6138806292645704,2.5319501456965083,-0.9840256571370496,-0.0032342199623018797,-0.13198818926188902,0.11942430159980509,0.007555326097644866,0.004107705366568964,21082.691914562834
1685667514764482975,215,1685667514764482975,camera_2,225,0,-0.7149028291805749,0.6137650406776715,2.531747021433271,-0.9839730956221501,-0.0034071189888343107,-0.1323123595027477,0.11949384149308608,0.005416700209025294,0.0029450461723698764,21082.02802933099
1685667514774551153,216,1685667514774551153,camera_2,226,0,-0.7148172178798443,0.6137223660063371,2.531462581304647,-0.9839330600751477,-0.0032861904581517865,-0.13313598936144422,0.11891064956587484,0.008933483069995418,0.004856673011887987,21082.831433998184
1685667514784568548,217,1685667514784568548,camera_2,227,0,-0.715020737777497,0.613995868891546,2.53218061000481,-0.9840445713466028,-0.0036121254665304517,-0.1323323055105033,0.1188755444621377,0.005870388777111657,0.0031919045490538867,21080.03473215876
1685667514794565439,218,1685667514794565439,camera_2,228,0,-0.7148998670599979,0.6143895629459006,2.5318265439477097,-0.984001913638224,-0.003481410116222296,-0.13310682119655953,0.11836675162757199,0.013050321271293797,0.00709600317778535,21077.86819794774
1685667514804512977,219,1685667514804512977,camera_2,229,0,-0.7148390144307365,0.6146991626140461,2.5317803726486616,-0.9841091142556211,-0.004252105596249608,0.13418692343818286,-0.11621118885550781,0.016858498245710507,0.009166812442303501,21078.295591287308
1685667514814496517,220,1685667514814496517,camera_2,230,0,-0.7144926821971449,0.6148302697805182,2.5304862660615113,-0.9839752561431832,-0.0032853600930508537,-0.13313740006312988,0.11855941300228444,0.009455732084461488,0.005137966902857587,21091.111663157593
1685667514824557542,221,1685667514824557542,camera_2,231,0,-0.7147322474585455,0.6154976208876479,2.5313913483949086,-0.9840412340189721,-0.0035185811320100975,-0.13323005642152258,0.1178992001802981,0.01435115491040051,0.007802358265731887,21077.973376244197
1685667514834540843,222,1685667514834540843,camera_2,232,0,-0.7142974780145015,0.6161531016015045,2.53004938011529,-0.9840176835777843,-0.003884384581712423,0.13417514540211123,-0.11700914630470274,0.013846340181771666,0.007524131596723445,21088.783718209714
1685667514844525814,223,1685667514844525814,camera_2,233,0,-0.7145736218658894,0.6169257565706621,2.5309573895802426,-0.9842201528201994,-0.003567671778258304,-0.1316921975967996,0.11813182294704407,0.011400705552659929,0.006195125556532752,21087.5356513944
1685667514854564189,224,1685667514854564189,camera_2,234,0,-0.7140079747533514,0.6169729337855956,2.528989839204979,-0.9840262887326463,-0.003531206942066196,-0.1334869500606018,0.11773286637173777,0.010033713653683662,0.005448853467981096,21098.210329583842
1685667514864567041,225,1685667514864567041,camera_2,235,0,-0.7140490251438228,0.6175221202378083,2.5291950345438288,-0.9841806904865794,-0.003939233473332091,-0.1327294625580907,0.11728486979164411,0.010300889203790575,0.005592179342247126,21104.146067377187
1685667514874552488,226,1685667514874552488,camera_2,236,0,-0.7135638434856072,0.617951018653778,2.527498780072033,-0.9841228674622536,-0.00346937570715263,-0.13383436792744355,0.11652685154734134,0.011251479445490986,0.0061029896461511765,21119.25207383092
1685667514884550094,227,1685667514884550094,camera_2,237,0,-0.7136517269356257,0.6183609464844754,2.5278509075374944,-0.9842001332601706,-0.0036751438825584214,-0.13307339453330008,0.11673929362254015,0.013902059174142778,0.007541476313653776,21117.440383587033
1685667514894578218,228,1685667514894578218,camera_2,238,0,-0.7136625483653446,0.6186187459542644,2.527889102063685,-0.9842469589102082,-0.003781465815018901,-0.13205878563243612,0.11749085721699057,0.013111989537719637,0.00711273216265916,21118.752160004344
1685667514904555559,229,1685667514904555559,camera_2,239,0,-0.7133897000644149,0.6185398732245053,2.52692017254156,-0.9841706558377022,-0.003883176551111918,-0.13339435298020044,0.11661469770510828,0.009843614767305551,0.005337245713447991,21126.582064808812
1685667514914576053,230,1685667514914576053,camera_2,240,0,-0.7137141239950446,0.6188710867556493,2.5280715417771544,-0.9842588443451333,-0.0035450311249625396,-0.13239639735779246,0.11701775100122003,0.011115569213870913,0.006030661587413281,21114.70735222986
1685667514924570322,231,1685667514924570322,camera_2,241,0,-0.7133638819126168,0.6184504366276861,2.526854466478412,-0.9841446339116126,-0.003748184861003548,-0.13355980683462793,0.11664934055331386,0.01631347823422402,0.008845505224909029,21126.067223484162
1685667514934577226,232,1685667514934577226,camera_2,242,0,-0.7136358087042343,0.6184848070127356,2.527798769233902,-0.9842112637462355,-0.003578798836695789,-0.13296594107563614,0.1167708826197486,0.012942053377628326,0.007020467605968666,21117.996346659264
1685667514944701671,233,1685667514944701671,camera_2,243,0,-0.7136407943718718,0.6182022679939461,2.527796385999794,-0.9842205234591052,-0.003848188487067688,-0.13278538614959676,0.11688966537874704,0.008518591814208776,0.004620311639352808,21121.567642138816
1685667514954568862,234,1685667514954568862,camera_2,244,0,-0.7140718033421464,0.6178135751564557,2.5293012322410906,-0.984132245431244,-0.003641084153977718,-0.13302171864502224,0.11736987849259346,0.010731231712270528,0.005828016724509441,21095.545635069728
1685667514964573383,235,1685667514964573383,camera_2,245,0,-0.7142579024273964,0.6175024052284733,2.529921556452214,-0.9842051190965011,-0.003716861090357338,-0.13180089406821427,0.11813125247239444,0.013086465478409082,0.007107775165555206,21096.05138933519
1685667514974578380,236,1685667514974578380,camera_2,246,0,-0.7142444247021169,0.6169852171559094,2.5298384728644163,-0.9840858619662172,-0.003566145571332051,-0.1334781420618613,0.11724284402762045,0.01093152753310278,0.005938378970973741,21091.108353814576
1685667514984588384,237,1685667514984588384,camera_2,247,0,-0.7141008484701445,0.6163373581842023,2.52941662381269,-0.9839592990124245,-0.004235955633540292,0.1351424295883056,-0.11637301358914205,0.011896687559783459,0.006462883185525995,21092.589996178176
1685667514994619846,238,1685667514994619846,camera_2,248,0,-0.7145552958135925,0.6156772217106754,2.5309247152680645,-0.9840388521747747,-0.003975837746344618,0.13410952024188183,-0.1169032365046369,0.013029104855377227,0.007083487778774843,21079.856036376106
1685667515004571676,239,1685667515004571676,camera_2,249,0,-0.7147751788261544,0.6153746938862975,2.531653005972293,-0.984159485514307,-0.004007013433485887,0.13460324152179962,-0.11530836174095373,0.014127207366982475,0.007679734963884913,21081.204840835766
1685667515014696359,240,1685667515014696359,camera_2,250,0,-0.714969816453943,0.6150866370538537,2.5321696267463434,-0.9841102824931166,-0.0034965432606708048,-0.132026455501496,0.1186749389056343,0.01645578272291459,0.00894829334319022,21076.58319341088
1685667515024591684,241,1685667515024591684,camera_2,251,0,-0.7149959056039485,0.6146926932560256,2.532197668870529,-0.9841064287492218,-0.0033533763943570673,-0.13144868032247736,0.11935047634043922,0.010522454540478066,0.0057215894592215905,21079.344411694095
1685667515034558534,242,1685667515034558534,camera_2,252,0,-0.7147828740626111,0.613913822184948,2.5313758165898417,-0.9839118545032769,-0.003411451905428398,-0.13271971809905575,0.11954622951614384,0.009262684747227468,0.005036260120027051,21080.75217763451
1685667515044414758,243,1685667515044414758,camera_2,253,0,-0.7151020987009316,0.6140053866003597,2.53244394859458,-0.9840256269071066,-0.0033653382050030526,-0.13191713692092574,0.11949941035598352,0.005863981117727235,0.0031894064521302986,21074.44789530197
1685667515054582595,244,1685667515054582595,camera_2,254,0,-0.7148336109805261,0.6136997053991072,2.5314782175537687,-0.9839265791973771,-0.0034449299245425846,-0.13287011611692565,0.11925666207737544,0.003439444422838278,0.001869926392834624,21082.232379249304
1685667515064604997,245,1685667515064604997,camera_2,255,0,-0.7147940692150333,0.6136847411617954,2.5313670033348186,-0.9839649124885995,-0.003360562625103921,-0.1319960604127737,0.11991162431412869,0.011791464319685474,0.006409479123138863,21087.625848462918
1685667515074708938,246,1685667515074708938,camera_2,256,0,-0.7148734622231014,0.6140634436910305,2.531682434648125,-0.9839423002121906,-0.0035507445265174267,-0.13256198957952137,0.11946656848327775,0.00803138806077186,0.004367377247373515,21077.6683536598
1685667515084602355,247,1685667515084602355,camera_2,257,0,-0.7150308912655481,0.6144723570530921,2.5322680268431914,-0.9840022808077584,-0.0035036146129991588,-0.1320757124481876,0.11951251913953045,0.00633866002317518,0.0034479985721691062,21070.96054117009
1685667515094582080,248,1685667515094582080,camera_2,258,0,-0.7149308324293029,0.6147328040237554,2.531932986687011,-0.9840157065246364,-0.003468706700156224,-0.13161853981640295,0.1199067027452888,0.005673630410456099,0.0030856995530171814,21074.796783382644
1685667515104600429,249,1685667515104600429,camera_2,259,0,-0.7147115787368852,0.6149716110052532,2.5312337351199337,-0.9839817115924894,-0.003564268200946398,-0.13266567938001328,0.11902564748131632,0.015790756384376436,0.008585202544356442,21079.750351052142
1685667515114620447,250,1685667515114620447,camera_2,260,0,-0.714491021776824,0.6157499755636346,2.5306748723617005,-0.9840548326788201,-0.0041149167988233275,0.13469189819387073,-0.11609154276746571,0.014226909333956428,0.0077323576746174665,21084.879639171053
1685667515124418258,251,1685667515124418258,camera_2,261,0,-0.7145273686041846,0.616312096298624,2.5307620919520697,-0.9840379562506326,-0.0036263655985337533,-0.1325032838330993,0.11873933595935676,0.013806940987706184,0.007505729836024185,21079.78579226973
1685667515134489536,252,1685667515134489536,camera_2,262,0,-0.7140975271182001,0.6164630500621393,2.5293871286832545,-0.9839785222657573,-0.003992808365116299,0.13496595051963495,-0.11642386955168472,0.011497631028760225,0.006245696225653079,21093.938087073624
1685667515143606185,253,1685667515143606185,camera_2,263,0,-0.7141474822467389,0.6170317060238668,2.5296281808959233,-0.9840544366062397,-0.003766698851428335,0.13530979084847253,-0.11538604021232997,0.012792216672096401,0.006948241751376034,21093.88008435723
