%time,field.header.seq,field.header.stamp,field.header.frame_id,field.image_seq,field.transforms0.fiducial_id,field.transforms0.transform.translation.x,field.transforms0.transform.translation.y,field.transforms0.transform.translation.z,field.transforms0.transform.rotation.x,field.transforms0.transform.rotation.y,field.transforms0.transform.rotation.z,field.transforms0.transform.rotation.w,field.transforms0.image_error,field.transforms0.object_error,field.transforms0.fiducial_area
1681937872826358556,5,1681937872826358556,camera_1,5,0,0.6599310627559037,0.4897713118258721,1.8188120972090658,-0.9797836781914421,-0.0452170198946051,0.1579347728045428,0.11417518382151644,0.07299238862469792,0.006888518587643811,20492.178791306207
1681937872836356163,6,1681937872836356163,camera_1,6,0,0.6597885948073522,0.4896431003937741,1.8184042237146427,-0.9797065712330059,-0.04549045354462049,0.1581708964345303,0.11440113828222648,0.0700077487854287,0.006603788054962225,20495.362937653306
1681937872846336841,7,1681937872846336841,camera_1,7,0,0.6596623981465204,0.48954489980037436,1.818031596274624,-0.9796730346974675,-0.045413280604288654,0.15857932050235346,0.1141533098093211,0.06928311934461817,0.006533146048836096,20499.853496666532
1681937872856103658,8,1681937872856103658,camera_1,8,0,0.659726813105521,0.48961549979832525,1.818252640384773,-0.9796946446429114,-0.045490266013617255,0.1585741423383849,0.11394419835013846,0.06760084966663271,0.006376116250570231,20497.28558608482
1681937872866068840,9,1681937872866068840,camera_1,9,0,0.6596891313547824,0.48959205475678097,1.8181292467577999,-0.9797137956569856,-0.04546678512219242,0.15825062357001066,0.11423830438927918,0.07503053557593375,0.007075672575692149,20501.82756944129
1681937872876054048,10,1681937872876054048,camera_1,10,0,0.6597380167299204,0.48961819407648105,1.8182498561485665,-0.9797018908895286,-0.04540198789064428,0.15835173403477867,0.11422606012306845,0.079378507216461,0.007486827666924358,20497.626591925396
1681937872885941982,11,1681937872885941982,camera_1,11,0,0.659562446300676,0.48947784336340333,1.8177961024296918,-0.9796256329056287,-0.04545477566895257,0.15912638271644605,0.11378170787394017,0.07353981351479888,0.006933246746088302,20500.692637956927
1681937872895880222,12,1681937872895880222,camera_1,12,0,0.6596551480434748,0.4895583493866304,1.8180564274631152,-0.9797089322488399,-0.04544928384357933,0.15847459685534063,0.11397619409982512,0.06427539198193699,0.006061058573586338,20502.987942154054
1681937872905873298,13,1681937872905873298,camera_1,13,0,0.659732960592643,0.48960482503309116,1.8182494109841125,-0.9796971496052783,-0.04547347929235635,0.15851036293316526,0.11401808005372105,0.06594770844094455,0.006220094344099696,20497.5721240535
1681937872915879964,14,1681937872915879964,camera_1,14,0,0.6597012702232086,0.48959598465921506,1.8181704810072028,-0.9796787376914022,-0.045483544373909494,0.15851423893546207,0.11416678221478668,0.06642642663791776,0.006264632270869825,20497.671403947643
1681937872926086187,15,1681937872926086187,camera_1,15,0,0.6597027662896707,0.4895861995618457,1.8181561297271076,-0.9796473291753311,-0.04551717798759903,0.15864331246460403,0.1142435834432012,0.06918749853502959,0.006524976854695234,20495.103258080773
1681937872936303138,16,1681937872936303138,camera_1,16,0,0.65971087042758,0.4895827052823483,1.8181714592911633,-0.9797188684868697,-0.045381310568782654,0.15847055615156516,0.11392347525809146,0.0625922855688259,0.0059031430440996254,20500.902844365795
1681937872946222782,17,1681937872946222782,camera_1,17,0,0.6596608204453649,0.48955720987415924,1.8180343614018084,-0.9796215957591357,-0.045552695732799735,0.15873708184140908,0.11431981404058249,0.06816414900822565,0.006427600567055245,20495.538178037725
1681937872956218957,18,1681937872956218957,camera_1,18,0,0.6596941478711903,0.4895727065359857,1.818093360642783,-0.9796862650133199,-0.045292829550382045,0.15845835406236022,0.11425555462829438,0.07717115787090732,0.007277465592269942,20499.05200096383
1681937872966200590,19,1681937872966200590,camera_1,19,0,0.6598114541557679,0.4896635299637986,1.818452317729978,-0.9797061292052736,-0.045416940755927955,0.15830613531742935,0.11424696674683257,0.0778324767597951,0.007342569684320955,20493.64301466545
1681937872976277828,20,1681937872976277828,camera_1,20,0,0.6597269893623541,0.48959397623514495,1.818197319428165,-0.9796920908816854,-0.04543707034024894,0.1582969237686371,0.11437204041265059,0.06357194611337036,0.005995410836980721,20498.19074889482
1681937872986253738,21,1681937872986253738,camera_1,21,0,0.6598891072646096,0.48973199835439934,1.8186804489042228,-0.9797707001871031,-0.04542275403490815,0.1578550569114698,0.11431504484640012,0.07299353898270056,0.006887479506345915,20494.812493544076
1681937872995966196,22,1681937872995966196,camera_1,22,0,0.659663978445259,0.4895352559003002,1.8180190021776326,-0.9796880607651782,-0.04539520799059593,0.15849495858227194,0.11414870472177496,0.07461145287379622,0.007035501348774895,20501.472639000516
1681937873005957365,23,1681937873005957365,camera_1,23,0,0.6597184230052107,0.4895921472233986,1.8182260245875694,-0.979698862959151,-0.04536070967212027,0.15861015926106034,0.11390944347932483,0.05561983527150005,0.005245859560839428,20497.880459265092
1681937873015916347,24,1681937873015916347,camera_1,24,0,0.6596599070512914,0.48955864401290883,1.8180522104485832,-0.9796796435407527,-0.045583958831810684,0.1582944846674814,0.11442357647329669,0.0703876496409066,0.006637105739225963,20501.03416841641
1681937873025931358,25,1681937873025931358,camera_1,25,0,0.6596084329205104,0.48950890501821015,1.8179139931624504,-0.9796364597295979,-0.04537545784755372,0.15898902984123628,0.11391208444992731,0.07108344818698242,0.006702386782898953,20498.80154359852
1681937873036050796,26,1681937873036050796,camera_1,26,0,0.6596451751836915,0.48953997916936753,1.818010235030194,-0.9796897573643927,-0.04535181087415783,0.15854976147345837,0.11407526332400648,0.0666060462826863,0.006280553233615217,20501.754518275964
1681937873045973539,27,1681937873045973539,camera_1,27,0,0.6596229830804947,0.48952245251567605,1.817947670519843,-0.9797348478473683,-0.045521366363567635,0.15841857654378275,0.11380240649357927,0.07090451440308242,0.006685497915488854,20508.05718790681
1681937873055850267,28,1681937873055850267,camera_1,28,0,0.6595209852031766,0.48944896593997755,1.817680756445768,-0.979611583659068,-0.04543050703834823,0.15890849275104377,0.11421604582020425,0.07087376242270693,0.0066806631881739745,20502.13151022233
1681937873066172838,29,1681937873066172838,camera_1,29,0,0.6595519717223282,0.4894788449740494,1.8177186093540991,-0.9796598777052261,-0.04532739167547572,0.15841550000265575,0.11452720610138012,0.0798023457173258,0.007522299515129839,20505.310433952363
1681937873076127767,30,1681937873076127767,camera_1,30,0,0.6596329754944992,0.48953489185731175,1.817944186442524,-0.9796464284104729,-0.04549722061321286,0.15855772521574324,0.1143779961071437,0.07321517105447128,0.006903158099004439,20499.632843029216
1681937873086099624,31,1681937873086099624,camera_1,31,0,0.6596405989634948,0.48953835269269275,1.8179978103132564,-0.9796498859197829,-0.04547664265993472,0.15829970121280984,0.11471347168346126,0.06771571876015514,0.006384614356191122,20499.178628269357
1681937873096025943,32,1681937873096025943,camera_1,32,0,0.65978612689812,0.4896321991064972,1.8183866884137776,-0.9797529786953925,-0.045428554229371726,0.15814905032213583,0.1140579899890465,0.07129978842567652,0.006725758230262451,20499.67581687471
1681937873105995893,33,1681937873105995893,camera_1,33,0,0.6596524535894484,0.48955427147979497,1.8180086460784353,-0.979720342741267,-0.04546461276835888,0.15816101764635834,0.11430709296376078,0.07209373422665522,0.0067977279939800935,20505.155671569977
1681937873115903139,34,1681937873115903139,camera_1,34,0,0.6595476970404097,0.4894617397801273,1.817710037812755,-0.9796142667226869,-0.04539567096478927,0.1588651629107587,0.11426714971665078,0.07525175338378176,0.00709361463001882,20501.35510468202
1681937873126113176,35,1681937873126113176,camera_1,35,0,0.6596931787084233,0.48957094014476626,1.8181404922954603,-0.9796097739859002,-0.04542414182599829,0.158822977964962,0.11435296113790178,0.0651506622089073,0.006144148414256925,20491.667105313387
1681937873135858774,36,1681937873135858774,camera_1,36,0,0.6597973057117276,0.4896655862404487,1.8184177243233042,-0.9797058108476708,-0.04539837301556661,0.15824473590115865,0.11434209845205627,0.06990417937049644,0.006594243443765296,20494.343041177493
1681937873145883560,37,1681937873145883560,camera_1,37,0,0.6597345938008761,0.4896173174651634,1.8182716516938053,-0.9796503533267958,-0.04549931047879357,0.15898426969411764,0.11374972510941074,0.06494559749262407,0.006126074405286653,20492.526055526454
1681937873156016349,38,1681937873156016349,camera_1,38,0,0.6595510706770756,0.489474022557803,1.817756130209642,-0.9796394446941566,-0.04552760327525738,0.15886662048852576,0.1139964588655718,0.06582781003089622,0.006205582399425009,20503.36871605878
1681937873166079998,39,1681937873166079998,camera_1,39,0,0.6597987339427466,0.48967733815457676,1.8184410037457708,-0.9796820106860057,-0.045449492708673836,0.1587250092216663,0.11385900490664384,0.06813282385701314,0.006427766595018835,20491.50345434551
1681937873176184415,40,1681937873176184415,camera_1,40,0,0.6597060037330704,0.48959303596078857,1.8182128178951442,-0.9796669334574265,-0.04543093466736212,0.1585773364078907,0.11420139247465758,0.0600151313119568,0.005660178957433687,20495.647406752232
1681937873185908079,41,1681937873185908079,camera_1,41,0,0.659678251358526,0.48957738479055624,1.8181112916934492,-0.9796593321299869,-0.045438546875181944,0.15861637924700095,0.11420935015606971,0.06975116970716044,0.006577819824514976,20496.977907069726
1681937873195936441,42,1681937873195936441,camera_1,42,0,0.6598328676567315,0.48966865224586187,1.8184950933732156,-0.9796837646541653,-0.045459439627285644,0.15851225499910754,0.1141359962365646,0.07804047240642831,0.007362722703191236,20490.613027932588
1681937873205909013,43,1681937873205909013,camera_1,43,0,0.6597537512906659,0.4896349130798221,1.8183154497573848,-0.9796764820795066,-0.0454644655308656,0.15831436756537884,0.11447066810623996,0.07009096239926293,0.006611043859119175,20494.316103093446
1681937873215889930,44,1681937873215889930,camera_1,44,0,0.6595404981558023,0.48945176546135083,1.8177098897934112,-0.979632988408449,-0.045357602036954964,0.15911043403547745,0.11377946097794167,0.06359834742033854,0.0059953587274025255,20502.88455971703
1681937873225871562,45,1681937873225871562,camera_1,45,0,0.659642259391133,0.4895440015625683,1.818031805607661,-0.9796932677212427,-0.0453428594214784,0.1584560683540071,0.1141788101310745,0.0757191635784693,0.0071399769625777616,20501.723418367896
1681937873235916852,46,1681937873235916852,camera_1,46,0,0.6597821794638987,0.4896275987010045,1.8183390810474938,-0.9796396699525669,-0.04545860569045683,0.15851379813273814,0.11451204314585882,0.06710719806142151,0.006329866341489828,20490.09012670396
1681937873245880842,47,1681937873245880842,camera_1,47,0,0.659764601229363,0.48963056269761823,1.8183138929337659,-0.9796671902527739,-0.045578374332044466,0.15857795634079774,0.1141395632471907,0.06873721751617268,0.0064836586245090285,20493.598804940935
1681937873255937337,48,1681937873255937337,camera_1,48,0,0.6596194628095047,0.48952814509986947,1.8179334642240101,-0.9796587572762236,-0.04549325399586514,0.15853075830648547,0.11431133716147118,0.07319814647780731,0.006901456528907126,20501.17267576651
1681937873265873193,49,1681937873265873193,camera_1,49,0,0.65974619547087,0.4896273132069108,1.818284387769765,-0.979691022434167,-0.04537849811267563,0.1586067275876919,0.11397455169843064,0.06476021802518517,0.006108413246573108,20495.675642209942
1681937873275897502,50,1681937873275897502,camera_1,50,0,0.6596318649291931,0.48951184455919433,1.8179056864179892,-0.9796618884211692,-0.045353511922983675,0.15871331682042952,0.11408648647047683,0.07434413692681119,0.0070096260693366256,20501.100382086825
1681937873286013841,51,1681937873286013841,camera_1,51,0,0.6596547808174265,0.48955289727705553,1.8180552254706632,-0.9796788494436198,-0.045435682043022674,0.15839222480801105,0.11435407238257411,0.06335993477841839,0.005974479500065304,20500.36931166344
1681937873295938491,52,1681937873295938491,camera_1,52,0,0.6595695078463296,0.4894859489517736,1.8177851574846753,-0.9796502642688748,-0.04547649206498188,0.15852214171119386,0.11440270527694503,0.06845060101477429,0.006452706422833126,20503.658287599916
1681937873305895090,53,1681937873305895090,camera_1,53,0,0.6597316948064866,0.48960464336546655,1.8182482637485469,-0.9796646186579971,-0.04545032271255492,0.15843800745464187,0.11440673454307053,0.06407232751371339,0.006042952283433105,20494.66191963363
1681937873315953969,54,1681937873315953969,camera_1,54,0,0.6596103696824432,0.48951309086565176,1.817917729193782,-0.9796430382762935,-0.04541805398982713,0.15871370616884461,0.11422205304896114,0.06596589292166755,0.006219534681242187,20499.7558238036
1681937873325905561,55,1681937873325905561,camera_1,55,0,0.659843455126988,0.48969833621980896,1.8185048237741686,-0.9797195402139087,-0.04533779582747286,0.15817877336972103,0.11433976756931027,0.07888944388832897,0.0074426817268593015,20493.144440090167
1681937873336232900,56,1681937873336232900,camera_1,56,0,0.6597351142234154,0.489599128087706,1.8182278640067442,-0.9796943912536253,-0.04538608948814027,0.15875041528266406,0.11374228885838698,0.07126766757573932,0.006722085223889268,20497.070462395426
1681937873346142292,57,1681937873346142292,camera_1,57,0,0.6596363512412434,0.48953283437726125,1.8179412848614125,-0.9796858360687414,-0.04545458614331762,0.15844877857208411,0.11420826491040688,0.07817392359720543,0.007370786444085906,20503.133127722533
1681937873356158733,58,1681937873356158733,camera_1,58,0,0.6597227053625495,0.48959158340337794,1.8182055508594066,-0.9796782912375405,-0.04548274636819284,0.15845158139468904,0.11425787418914216,0.06817535997834057,0.006429762536580256,20496.877021369175
1681937873366250276,59,1681937873366250276,camera_1,59,0,0.659734461418533,0.48961449366994214,1.818253658939543,-0.9796742480035865,-0.04537608023316569,0.1583848711614634,0.11442732072563538,0.07029758486896753,0.006630172047846985,20495.04301766423
1681937873376214027,60,1681937873376214027,camera_1,60,0,0.6598484275617758,0.48969265190859984,1.8185547439020424,-0.9796796538407054,-0.04532888003369376,0.15828528809888634,0.11453748756149351,0.07662803505081683,0.007229577934268225,20488.606466135127
1681937873386339426,61,1681937873386339426,camera_1,61,0,0.659582872277346,0.4895043998827355,1.8178495629313947,-0.979603267122704,-0.045412209735474204,0.1589399856446081,0.11425082587341565,0.07568722439464182,0.007135772446849858,20497.36406702699
1681937873396298646,62,1681937873396298646,camera_1,62,0,0.6597990932138634,0.48966960406146043,1.818415972444313,-0.9797454685582132,-0.045291285973687874,0.15818128443282733,0.11413236836970524,0.06893913936801255,0.0065033066342182096,20497.53273415938
1681937873406333684,63,1681937873406333684,camera_1,63,0,0.6595519543574829,0.48948925428509055,1.8177644829349924,-0.9796115146524864,-0.04543701200931691,0.15892733795741726,0.11418782575080233,0.06013490806799382,0.005668880987528077,20500.182247180383
1681937873416225910,64,1681937873416225910,camera_1,64,0,0.6597830810613233,0.48964734429569423,1.8183603060605713,-0.9796700994361585,-0.04540183968203145,0.15904784723410614,0.11352951825155853,0.07157868245849386,0.00675270864992832,20491.56397582438
1681937873426281213,65,1681937873426281213,camera_1,65,0,0.6597072007345347,0.48958683635060307,1.8181743353560473,-0.9796521886249575,-0.045464427933612925,0.15831011682493568,0.11468427104828052,0.07208815158810467,0.0067982555010976725,20495.31181236286
1681937873436281681,66,1681937873436281681,camera_1,66,0,0.6595990826555612,0.4895119000720269,1.8178845272869553,-0.9796715068212007,-0.04539064883481056,0.15854455698136616,0.11422368919193317,0.06827704596798867,0.006437156131426414,20503.055752523596
1681937873446304559,67,1681937873446304559,camera_1,67,0,0.6597014332393522,0.48959883175887553,1.8181789447734729,-0.9796721999785969,-0.045566285400159716,0.15843730854994575,0.11429660311390107,0.07165691687259823,0.006757887521762341,20497.303777986668
1681937873456378698,68,1681937873456378698,camera_1,68,0,0.6596681391905503,0.4895559050988796,1.8180722716344044,-0.9795949544755718,-0.04547299645505914,0.1588891005619507,0.11436863854228191,0.07172937522409484,0.006764140598189674,20491.92686508433
1681937873466262578,69,1681937873466262578,camera_1,69,0,0.659719047617082,0.48959460134409627,1.8181934493309397,-0.9796716462838618,-0.04551379512850464,0.15863041957004675,0.11405415339872252,0.07378713099751621,0.0069591999083410926,20496.422643740898
1681937873476309776,70,1681937873476309776,camera_1,70,0,0.6597823970883625,0.4896425772149076,1.8183653281410364,-0.9796863197401869,-0.04541054181993679,0.15830936788952274,0.11441477895782452,0.07196613622363657,0.00678836963679576,20493.750451071886
1681937873486249685,71,1681937873486249685,camera_1,71,0,0.6596450451048875,0.48952068768515133,1.8179654553683455,-0.9796516497422431,-0.04551708357544526,0.15864079979134255,0.11421005604433784,0.0630782610969618,0.005947555809336146,20499.77532621823
1681937873495986700,72,1681937873495986700,camera_1,72,0,0.6597454549030392,0.48961466530051106,1.8182758432188917,-0.9797126283980899,-0.04534420288574513,0.15836675196849656,0.11413606306909095,0.06754684227053076,0.00637101779245923,20497.936620521017
1681937873505903959,73,1681937873505903959,camera_1,73,0,0.6596435460068995,0.4895510572063034,1.8179711154163773,-0.9796473357902094,-0.045427602873117,0.15858777646570973,0.11435623084034073,0.07189259317237884,0.006778699199944113,20498.74555476685
1681937873515924930,74,1681937873515924930,camera_1,74,0,0.6597299431781192,0.48960081913433084,1.8182213105369929,-0.979659415651283,-0.04536755033885806,0.15865090157814216,0.11418890546143545,0.07607632706640288,0.007175303385523944,20494.066951649264
1681937873525886535,75,1681937873525886535,camera_1,75,0,0.6597998252818855,0.4896643653011737,1.818429325519049,-0.979687964375996,-0.04535166632160652,0.1587932067329778,0.11375164312715991,0.0705419861478731,0.006655111465247285,20491.822300794534
1681937873535892486,76,1681937873535892486,camera_1,76,0,0.6595298048249735,0.4894604093629725,1.8177236833971604,-0.9796536481127152,-0.04542740969205163,0.15850722011242138,0.11441390370209156,0.06677544448757544,0.00629428705050796,20505.468194191228
1681937873545899868,77,1681937873545899868,camera_1,77,0,0.6598451075177636,0.4896896646362031,1.818546088020006,-0.9796914491387517,-0.04546233764383072,0.15825097677104505,0.11443106523746488,0.06586453050840646,0.006213941062088097,20490.52550540817
1681937873556015729,78,1681937873556015729,camera_1,78,0,0.6598292367079789,0.4896811696480344,1.818493844675244,-0.9797039795212891,-0.0453540664141396,0.15844817278496778,0.11409337277404151,0.0665455759735778,0.0062781529735410615,20492.112099963593
1681937873565986394,79,1681937873565986394,camera_1,79,0,0.6596807911915987,0.4895562736840141,1.8180688753826453,-0.9797006425835024,-0.045247669275922234,0.15896331713547485,0.11344586000315623,0.0761705594486557,0.007183683966633354,20500.337017718462
1681937873575970888,80,1681937873575970888,camera_1,80,0,0.6597279356047393,0.4896047387704568,1.8182227929110224,-0.9796545070028837,-0.04535095005891934,0.15864977206149847,0.11423917043871201,0.07193492975784466,0.006784650068098169,20493.526756398845
1681937873585930585,81,1681937873585930585,camera_1,81,0,0.6598572332184519,0.4897003959532789,1.8185875333961465,-0.979728296857851,-0.045488770491782925,0.15825178794937828,0.11410349559056251,0.07785608846461399,0.00734593128213317,20492.96070493466
1681937873595889091,82,1681937873595889091,camera_1,82,0,0.6596422962774653,0.4895360949146082,1.8179698674490843,-0.9796480305748375,-0.04538096664780562,0.1586161707804483,0.1143294118934443,0.07433408551150933,0.007008933662844642,20498.73157568102
1681937873606106281,83,1681937873606106281,camera_1,83,0,0.6597862846824715,0.48965795788509153,1.8183671888686297,-0.9797032042205933,-0.04534899108687358,0.1583781335002338,0.11419924463974135,0.0844866843544878,0.007969776901419976,20494.71001790953
1681937873615891456,84,1681937873615891456,camera_1,84,0,0.6598293981398894,0.4896779072605691,1.8185138212387817,-0.9797348337620415,-0.0454614692255957,0.15834151594169882,0.11393364146905813,0.06269153975881636,0.005914631839614924,20495.16598826739
1681937873625920057,85,1681937873625920057,camera_1,85,0,0.6597093691517972,0.48959539311979583,1.8181932868919017,-0.9796976605067981,-0.04534108773455415,0.15850440325090692,0.11407468566964409,0.0765807962161489,0.007222637897158036,20498.284739984912
1681937873635911464,86,1681937873635911464,camera_1,86,0,0.6598731764828736,0.4897102710575219,1.8186195591136993,-0.9797129077662531,-0.0454960018230211,0.15825626970423368,0.11422646485650316,0.06610082258703187,0.006236857992626313,20490.88116833427
1681937873645926237,87,1681937873645926237,camera_1,87,0,0.6595981488893181,0.4895110071732817,1.8178659981994172,-0.979621093798293,-0.045479048949653676,0.158852208695792,0.1141934520212941,0.0732068553334102,0.006902027374777065,20498.852926409803
1681937873655918359,88,1681937873655918359,camera_1,88,0,0.6596874639537479,0.489582454296449,1.8180930150757204,-0.979710607331576,-0.045351954032952425,0.15853242876351026,0.11392012630668122,0.07488265342544764,0.007061854710081064,20501.458032890223
1681937873665965080,89,1681937873665965080,camera_1,89,0,0.659613758659312,0.4895264435290881,1.8179408324705226,-0.9796303210314862,-0.04543642698990556,0.15876932041910138,0.11424652341229077,0.06556996313156561,0.006182357588051812,20498.142708440428
1681937873675877332,90,1681937873675877332,camera_1,90,0,0.6596188308616598,0.4895222411778635,1.8179122851655638,-0.9796265314320296,-0.0454894710213895,0.1588875340238451,0.11409346375873804,0.07431363681098445,0.0070068314729692495,20498.261174276704
1681937873685898303,91,1681937873685898303,camera_1,91,0,0.6597118340473618,0.4896249742606254,1.8182135764933083,-0.9796864782327309,-0.04535829772138283,0.15832555468505252,0.1144117473401999,0.078998513170518,0.007450551469988877,20496.919533930253
1681937873696002483,92,1681937873696002483,camera_1,92,0,0.6596796397943829,0.4895727902502443,1.8180941505920987,-0.9796867585806615,-0.045458122655260454,0.1583668701781357,0.1143125040245284,0.07608142693061382,0.007174521739634169,20500.05779147125
1681937873705913305,93,1681937873705913305,camera_1,93,0,0.6596209067512954,0.4895250114052176,1.8179128459689111,-0.9796914075724363,-0.04540060839001101,0.15848515401412677,0.11413144458769481,0.0766657130443491,0.0072284031375080314,20504.101305103046
1681937873715979099,94,1681937873715979099,camera_1,94,0,0.6597626407087996,0.4896406481744013,1.8183377110420675,-0.9797364702070894,-0.045326025026129334,0.15823710232260005,0.11411844658086955,0.06388269533636048,0.006025749321756195,20498.753425252507
1681937873725903987,95,1681937873725903987,camera_1,95,0,0.6596747400121846,0.4895764245713415,1.818084825468934,-0.9796258589839814,-0.045489023338753154,0.15891391614267547,0.1140626688350836,0.0666678476263769,0.006287077260071668,20494.371650986133
1681937873735886573,96,1681937873735886573,camera_1,96,0,0.6598165610870611,0.48967912846329237,1.81847199749769,-0.979696987916409,-0.04542133439010035,0.15820862289818874,0.11445848981354277,0.06385509780375287,0.006023837071656239,20492.528126701727
1681937873745898485,97,1681937873745898485,camera_1,97,0,0.6597266853634955,0.48960797170456716,1.818202898299589,-0.9796671126756128,-0.04542447627519352,0.15852524254727612,0.11427472499323742,0.08113815321121365,0.0076525037573319825,20495.36256085708
1681937873756218433,98,1681937873756218433,camera_1,98,0,0.6596667271094645,0.4895402196150751,1.818065077658512,-0.9796473195252301,-0.045475586785623336,0.15884030822145453,0.11398621336656672,0.0650653624907136,0.006135783026199998,20496.998130944427
1681937873766180515,99,1681937873766180515,camera_1,99,0,0.6597408328885374,0.489616464216347,1.8182684482115867,-0.9796880905200646,-0.045386632988864965,0.15870557395644247,0.11385885839160712,0.05894572415854782,0.005559923295327356,20495.764645019415
1681937873776293277,100,1681937873776293277,camera_1,100,0,0.6597220736821514,0.4896065806151384,1.8182353908042468,-0.9796588650156617,-0.045551289975765206,0.1583662165950161,0.11451519383535957,0.0797221761313267,0.007518866377470066,20494.85293884122
1681937873786360979,101,1681937873786360979,camera_1,101,0,0.6595317942317375,0.48946127039664505,1.817710501390745,-0.9796162615717596,-0.04544694640283648,0.1589102727174914,0.11416689691710126,0.07333005889086053,0.006912475769445744,20501.912026873553
1681937873795949459,102,1681937873795949459,camera_1,102,0,0.6596190849835697,0.48952514806936265,1.8179392373955041,-0.979657618110101,-0.045455396541057354,0.15874336735545677,0.11404078886428815,0.060971643892116845,0.005748852507777044,20500.70769364525
1681937873806011676,103,1681937873806011676,camera_1,103,0,0.6597384569753915,0.4896290066875202,1.8183021821932093,-0.9796919512832738,-0.0453622261553627,0.15858720731232193,0.11400020485016643,0.06168882001657039,0.00581872834290281,20495.55133678113
1681937873815905094,104,1681937873815905094,camera_1,104,0,0.6597419894905246,0.48962359273853184,1.8182850364233147,-0.9797070464302113,-0.045431908761363014,0.15842056243706334,0.11407440658804949,0.07086197601165622,0.006683832965294968,20497.54901217553
1681937873826135396,105,1681937873826135396,camera_1,105,0,0.6597002886166174,0.48957150362194346,1.8181291637665986,-0.9796261877611456,-0.04549994917728238,0.15889238036423375,0.11408548698067286,0.06341061950661242,0.005980153287267036,20493.478032782685
1681937873836053133,106,1681937873836053133,camera_1,106,0,0.6595332656488329,0.4894627773427063,1.8176711217108414,-0.9796128967109384,-0.04543929831261385,0.15903456344054673,0.1140256567520501,0.0784370974288322,0.007393857779756121,20502.00617248484
1681937873845932960,107,1681937873845932960,camera_1,107,0,0.6595636323349325,0.4894777728951542,1.8177531569961969,-0.9796816892159255,-0.045382894348966224,0.15858545202207633,0.11408258027628589,0.0737404382089153,0.0069514302857124274,20506.68845013599
1681937873855847120,108,1681937873855847120,camera_1,108,0,0.6595682436133973,0.4894761355974058,1.8177584370388007,-0.9795987055536665,-0.04544946901844515,0.1590885460259318,0.11406820927356442,0.07230673299636692,0.0068165713904049605,20498.839894532925
1681937873865884780,109,1681937873865884780,camera_1,109,0,0.6596467798526622,0.4895515216008968,1.8180164200894728,-0.9796733980230122,-0.045486798898882984,0.15868598735256606,0.11397254822946863,0.06741609226446599,0.006357071242218779,20500.539022408186
1681937873875904321,110,1681937873875904321,camera_1,110,0,0.6597763343143135,0.48963569564869835,1.818360219576382,-0.9797553787637681,-0.045439559474162186,0.15821614521785532,0.11393987717503555,0.06724646117072552,0.0063432928049905225,20500.419332022084
1681937873886207342,111,1681937873886207342,camera_1,111,0,0.6598566565191345,0.48971404318041734,1.8185848905652968,-0.9797571505303986,-0.04551723253007251,0.15792472203256652,0.11429737397811844,0.07227687671547756,0.0068191782520006135,20495.98615702521
1681937873896267890,112,1681937873896267890,camera_1,112,0,0.6596647816457578,0.4895499775124949,1.8180389292510344,-0.9796942619028433,-0.04542278475147909,0.15858036293035735,0.11396575061368304,0.07085797941545025,0.006681828074543235,20501.619284038556
1681937873906241893,113,1681937873906241893,camera_1,113,0,0.6595729051184307,0.4894755500674597,1.8177892532474542,-0.9796482427368596,-0.045460892492542086,0.1589888894460964,0.11377680250851459,0.06771079421741888,0.0063835646759460175,20502.914258771103
1681937873915956258,114,1681937873915956258,camera_1,114,0,0.6596349797601686,0.489536581175756,1.817960681829828,-0.9796511128359922,-0.045489392804741964,0.1585970515761781,0.11428642742163721,0.07586825481848791,0.007153519598555249,20499.689299320446
1681937873926290512,115,1681937873926290512,camera_1,115,0,0.659694443930006,0.48957527651101734,1.818106049226525,-0.9796507326151674,-0.045402743580408314,0.15878774859473374,0.11405912439674921,0.07658338302280754,0.007222401865322432,20495.728705024812
1681937873936033010,116,1681937873936033010,camera_1,116,0,0.6597531600573385,0.48962475141046163,1.8183102608369772,-0.9797117792497283,-0.04543251765420949,0.15848662600767505,0.11394167506068584,0.07792231615167111,0.00735017450900422,20497.309559068643
1681937873945954322,117,1681937873945954322,camera_1,117,0,0.6598007322961019,0.48967954437331734,1.818436928975032,-0.9797148699726429,-0.045419861858043725,0.15825381113779252,0.11424334100352512,0.08351944631431252,0.007878980648195488,20494.71310004755
1681937873956282615,118,1681937873956282615,camera_1,118,0,0.6599104999904021,0.4897590147409686,1.8187466179013374,-0.9797914590636436,-0.04544089444620955,0.1577526998596416,0.1142712017301768,0.074456493020989,0.007026010690209768,20495.364492310906
1681937873966236114,119,1681937873966236114,camera_1,119,0,0.6597555518510855,0.4896420275305433,1.8183425088832594,-0.9797572534676898,-0.04536113701259204,0.15812225705346183,0.1140852459816464,0.07675726606976242,0.007240232732158795,20500.812020814512
1681937873976279735,120,1681937873976279735,camera_1,120,0,0.6596664591362277,0.4895683153021206,1.818086216067085,-0.9796679132365507,-0.04543496916618144,0.15868257560549506,0.11404509437418485,0.07015567243797705,0.006615906586088761,20498.28374145018
1681937873986275672,121,1681937873986275672,camera_1,121,0,0.659745056479428,0.48961836828945515,1.8182855866803904,-0.9796562820885559,-0.045515455696334584,0.1583642875612624,0.11455419975887637,0.07040200906340033,0.006640134020243129,20493.34352066414
1681937873996315479,122,1681937873996315479,camera_1,122,0,0.6596162027189775,0.4895405141831103,1.817933387567088,-0.9796342134006321,-0.04541474326379755,0.1585657454657556,0.11450420688384011,0.0661009693867527,0.00623216124325548,20498.627492647254
1681937874006227254,123,1681937874006227254,camera_1,123,0,0.6596950080006664,0.48958612506854443,1.8181429066987325,-0.9797010372459218,-0.0452968910715118,0.15853585374478465,0.11401952620464967,0.06410439207684249,0.006045565150873078,20499.518955605097
1681937874015923500,124,1681937874015923500,camera_1,124,0,0.6597335396660177,0.48961879905102956,1.8182635265442302,-0.9797359398678602,-0.04542695160421059,0.15829732064494337,0.11399929155841819,0.07087711937492712,0.006685077066472375,20500.757045665054
1681937874026107788,125,1681937874026107788,camera_1,125,0,0.6597855098923252,0.48963615655271153,1.818322079157686,-0.9797525556404286,-0.04548263002730443,0.1579303057007033,0.1143428118559735,0.08139487658627331,0.007677363147361306,20501.047420567134
1681937874035880565,126,1681937874035880565,camera_1,126,0,0.6596540356736983,0.48954721147826763,1.8180151334308128,-0.979696080783889,-0.045349620082495073,0.1582678796023963,0.11441275952105304,0.07412418979220092,0.0069892420524741965,20502.336633783067
1681937874045890808,127,1681937874045890808,camera_1,127,0,0.6596362335428497,0.48953146443648554,1.817972760700695,-0.9795920578980516,-0.04558495163755894,0.15914050405087682,0.11399873796535957,0.06943495583254844,0.006547368243979065,20494.069704046822
1681937874055920600,128,1681937874055920600,camera_1,128,0,0.6596080105030844,0.48951589570005666,1.817891643423748,-0.9796452913974331,-0.045444045825777706,0.15854148007876373,0.11443138046994923,0.07624994032084942,0.007188846626491286,20500.62438103475
1681937874065883159,129,1681937874065883159,camera_1,129,0,0.6597655231180605,0.4896291778711232,1.8183391202781567,-0.9797449217791756,-0.045409532803533666,0.15821337437220118,0.11404556435146372,0.05884556926321239,0.005550592822744453,20499.9375582626
1681937874075966119,130,1681937874075966119,camera_1,130,0,0.6597750352799998,0.48964791382819134,1.8183721367919594,-0.979728311153467,-0.04541556333698609,0.15835836004122092,0.113984616226115,0.08091779524693266,0.007633178591112676,20497.42374031571
1681937874085927248,131,1681937874085927248,camera_1,131,0,0.6597073309059285,0.48959191594838547,1.8181819467147255,-0.9797029256104808,-0.045477349884053615,0.15857836112008372,0.11387225993303403,0.07240542356157675,0.00682884789264702,20499.518036873313
1681937874095944881,132,1681937874095944881,camera_1,132,0,0.6598014931300975,0.4896520820259985,1.8184020692465928,-0.9796972354327027,-0.045406663657988934,0.15857654410213828,0.11395192601089352,0.08031142089748755,0.007576425262817987,20493.49994152993
1681937874106002330,133,1681937874106002330,camera_1,133,0,0.6596850219817226,0.4895674549596973,1.8180801836655571,-0.9796946354956875,-0.04526627866458127,0.15856300698495912,0.11404892815243972,0.06740370026091114,0.0063563488866104885,20500.00997902336
1681937874116251230,134,1681937874116251230,camera_1,134,0,0.6595390244902739,0.48945587781078204,1.8177162985543278,-0.9796433347140967,-0.04539783590786536,0.15843088734660174,0.11461948865570437,0.06141733255935833,0.005789038905470771,20504.542428535642
1681937874126074075,135,1681937874126074075,camera_1,135,0,0.6597220178146733,0.48959769463259395,1.8182186878090896,-0.9796861563037503,-0.0454425459590133,0.15827547003867737,0.11445036368479822,0.07373720605392009,0.006954246841575142,20497.33094256115
1681937874136248111,136,1681937874136248111,camera_1,136,0,0.65983316119925,0.48968846895125123,1.8185036645146218,-0.9796972589585813,-0.04553055317730581,0.15815459963633877,0.11448743219358444,0.07573432754725218,0.007144792419695515,20492.181408180037
1681937874146152496,137,1681937874146152496,camera_1,137,0,0.6596442069005641,0.48954348654871316,1.8179663886628368,-0.9796780502004068,-0.04544373848326915,0.15860882589749786,0.1140571126042164,0.07938689232105389,0.0074855697432533,20501.632581630725
1681937874156311273,138,1681937874156311273,camera_1,138,0,0.6595922896437615,0.4894904251161909,1.8178519655275254,-0.9796541263331537,-0.045409981469805294,0.15880351626109254,0.11400512955323727,0.07129180239280686,0.0067214261636682196,20502.067464824762
1681937874166214466,139,1681937874166214466,camera_1,139,0,0.6596805618845738,0.48955972333246234,1.8180874034721617,-0.9796305791958028,-0.04539437398377837,0.15844506922102403,0.1147102399729947,0.07439641875680536,0.007015376123005645,20494.82778789661
1681937874176306247,140,1681937874176306247,camera_1,140,0,0.6595469691571593,0.48946579630449666,1.8177201793905555,-0.9796219348824364,-0.045433615421993576,0.15876397011282123,0.11432695693008361,0.07762330851983279,0.007317159464164052,20502.100896464894
1681937874186291456,141,1681937874186291456,camera_1,141,0,0.6596737007125103,0.48956879400282904,1.818077679164777,-0.9797182019684707,-0.04544524763885272,0.15818287760493863,0.11430289336377909,0.06934680102858692,0.00653918533425128,20503.42555529509
1681937874196341037,142,1681937874196341037,camera_1,142,0,0.6596460391325988,0.4895363648236019,1.8179680742710724,-0.9796509114062357,-0.04540513281187756,0.158705732125048,0.11417073305326532,0.07255038956645876,0.006840873213956272,20498.984909979743
1681937874206243515,143,1681937874206243515,camera_1,143,0,0.6596945294218214,0.4895691825605152,1.818120109974696,-0.979711442654671,-0.04543384053619134,0.15819942594307856,0.11434245448177091,0.07339098624652252,0.006920896543516972,20501.751319066738
1681937874216325283,144,1681937874216325283,camera_1,144,0,0.6596189446598093,0.489510785628535,1.8178788966045247,-0.979639516595733,-0.04545583338874375,0.1590529355418048,0.11376444273386944,0.06836130964802578,0.006445621337693446,20499.78671248304
1681937874225965499,145,1681937874225965499,camera_1,145,0,0.659809902733843,0.4896807919510164,1.818471046071639,-0.9797047851794725,-0.045436290357094594,0.15828424377941688,0.11428112524038013,0.0709078319487162,0.006689350348234396,20493.243200244156
1681937874235938549,146,1681937874235938549,camera_1,146,0,0.6595668569771153,0.4894882367472596,1.8178102938298784,-0.9796118312179523,-0.045396631254305604,0.15893190659014,0.1141948119495534,0.06410034804139286,0.006043025047021162,20499.104155475157
1681937874245956182,147,1681937874245956182,camera_1,147,0,0.659659040887679,0.48956009355944674,1.8180454008396014,-0.9796859093601352,-0.04540656393332065,0.15864064870519773,0.11396011377393665,0.06816744577372447,0.006428154172849326,20500.67111562239
1681937874255898475,148,1681937874255898475,camera_1,148,0,0.6597016641770556,0.48958055623331065,1.8181563668532161,-0.9796731027737815,-0.045453876143663294,0.158895579651235,0.11369587333059353,0.06920343945967034,0.006526926826169573,20496.946139359374
1681937874266038417,149,1681937874266038417,camera_1,149,0,0.6597138281423359,0.4895997425139811,1.8182609671528436,-0.9796674827077156,-0.0454943200290363,0.15846495240782163,0.11432737654914576,0.05829252063995227,0.005497837731456729,20495.179208611495
1681937874275875806,150,1681937874275875806,camera_1,150,0,0.6597171922597694,0.4896157952998629,1.818188833641969,-0.9796861270875118,-0.04539669355043017,0.1585359726967557,0.11410774718683006,0.08042218902846798,0.007584967522569306,20497.27263192529
1681937874285884857,151,1681937874285884857,camera_1,151,0,0.6597074088652972,0.48960167851138187,1.8182067218146571,-0.9797096455266712,-0.04550095593058847,0.15857109225081836,0.1138151227815942,0.06029801751719788,0.005687016699642468,20499.819363843184
1681937874295913457,152,1681937874295913457,camera_1,152,0,0.6596737844864181,0.48957138771536507,1.8181028263980814,-0.9796279197356081,-0.04553762470777485,0.15870072124043885,0.11432210935870299,0.06544699554797262,0.00617177821619173,20494.72214489489
1681937874305890083,153,1681937874305890083,camera_1,153,0,0.6595527118723203,0.48947292772322887,1.8177167818489908,-0.9796560587990856,-0.045494625840343195,0.1585649063064937,0.11428655199061205,0.0803644647821784,0.007575475801280692,20505.563895268366
1681937874315976858,154,1681937874315976858,camera_1,154,0,0.6596669645210274,0.48957336272708135,1.8180961502707933,-0.9796861543529519,-0.04544952353879733,0.15858674503906225,0.11401589396718236,0.0667006183648482,0.006290076066359352,20499.924440669114
1681937874325850486,155,1681937874325850486,camera_1,155,0,0.6595213719411651,0.4894679248023653,1.8176823994895996,-0.9796487095805154,-0.04536499248576276,0.15857500653734802,0.11438702101059266,0.07430571352597326,0.007003959287668801,20505.366697154706
1681937874336359739,156,1681937874336359739,camera_1,156,0,0.6596836181848216,0.48956605039663803,1.8181260567413202,-0.9796762854309709,-0.04542817941020847,0.15859764156439668,0.11409401548661575,0.059792129264678806,0.00563868505475345,20498.33436277695
1681937874346490621,157,1681937874346490621,camera_1,157,0,0.6597251181551452,0.48960148981101176,1.8182364960470008,-0.9797668725310462,-0.04553359772745728,0.15794573088581673,0.11417842643718727,0.07258100871695206,0.006845288952845394,20504.96095175343
1681937874356544971,158,1681937874356544971,camera_1,158,0,0.6598357491738902,0.48968320600211274,1.818506238610031,-0.9797103747667022,-0.04550254920712892,0.15805922017203922,0.11451804446788079,0.08218251174548641,0.007753130614706157,20493.25373485079
1681937874366425275,159,1681937874366425275,camera_1,159,0,0.6596825048901206,0.4895700036305463,1.8181375950249397,-0.9796755229892894,-0.04550006242152935,0.1587963338790387,0.11379515948350499,0.056736152968369424,0.005350733037246966,20498.188725740303
1681937874376286029,160,1681937874376286029,camera_1,160,0,0.6594920126881936,0.4894054992537675,1.817553012348957,-0.97964237322492,-0.04546750655912685,0.1587642424372258,0.11413781911739991,0.07026419718749821,0.006622271051188863,20507.93058043148
1681937874386020421,161,1681937874386020421,camera_1,161,0,0.659711710112255,0.48960017861044547,1.8182137340354523,-0.979709037547434,-0.04548519371355537,0.15838621896120794,0.11408376108760311,0.0692687114351429,0.006532981787751104,20499.665070878575
1681937874396235942,162,1681937874396235942,camera_1,162,0,0.6597332472665277,0.48962297018457734,1.8182508016215206,-0.9797203522413422,-0.04538505269558523,0.15822574660721767,0.11424903284714424,0.07706453482387587,0.007268473777681938,20499.372162787244
1681937874406325340,163,1681937874406325340,camera_1,163,0,0.6597914504128618,0.48965577717666803,1.8184389718848322,-0.979676822922903,-0.04542537155250762,0.15861358961722802,0.11406834545894513,0.06265367602463812,0.00591061120554588,20491.332491158035
1681937874415977478,164,1681937874415977478,camera_1,164,0,0.659869302708769,0.48970230216292754,1.8186124585463128,-0.9797535318727733,-0.04532987801722108,0.1585120400974429,0.11358764055088529,0.07310344750294462,0.006898138297002612,20493.796484150927
1681937874425951004,165,1681937874425951004,camera_1,165,0,0.6597106347780863,0.48959659277166323,1.8181964062261315,-0.9796481049179276,-0.04524754380274175,0.1587476900505963,0.11419904208937974,0.07103545608697459,0.006699674908007878,20493.168730562084
1681937874436271905,166,1681937874436271905,camera_1,166,0,0.6596757827858171,0.48958261445827267,1.8181020803181054,-0.9796684174558691,-0.045424946594384785,0.15862897359179726,0.11411930074979984,0.07086479297140613,0.006682845196503537,20497.890989698008
1681937874445938348,167,1681937874445938348,camera_1,167,0,0.659650298883161,0.48955151016829923,1.8180555402134602,-0.9796987735070996,-0.04548745639891204,0.15840859209553385,0.11413992487010334,0.07090114027960226,0.006685745845317932,20502.387119230927
1681937874455954313,168,1681937874455954313,camera_1,168,0,0.6597548679151339,0.48963408740541364,1.8183171251168115,-0.9796987356027552,-0.04546613312240188,0.15851955898372203,0.1139945946826644,0.0766568731633015,0.00723083944097129,20496.039470186923
1681937874465963363,169,1681937874465963363,camera_1,169,0,0.6596403465453488,0.48954128321796164,1.817992584742058,-0.9796729459776865,-0.04546975207282372,0.15857455702289783,0.11413820758549087,0.06792001484427601,0.006404304230495141,20501.025038221625
1681937874475989341,170,1681937874475989341,camera_1,170,0,0.6597906051346528,0.4896497979107712,1.8183832242763263,-0.9796625711361256,-0.0454501919439642,0.15858512223389293,0.11422033870232447,0.07229831744916737,0.006820099618677616,20491.047662543016
1681937874486011743,171,1681937874486011743,camera_1,171,0,0.6596270414213853,0.4895342320396709,1.8179627065469592,-0.9796217843750816,-0.04537944586736478,0.15881307628622224,0.11428154825280683,0.06387276807799935,0.006022487055067593,20496.552037887624
1681937874496098518,172,1681937874496098518,camera_1,172,0,0.6597547576294345,0.4896411706452086,1.8183193824892057,-0.9797370868756481,-0.04538702648716268,0.15825964950733196,0.11405762475559925,0.05887542333221063,0.005553308013857886,20499.48329149396
1681937874505935907,173,1681937874505935907,camera_1,173,0,0.6598039538813105,0.48966679313386,1.8183959232128808,-0.9797723500712989,-0.045228261656684136,0.15862146644183514,0.11331273876806926,0.08123706449987367,0.007664245902988227,20499.46735804947
1681937874515897035,174,1681937874515897035,camera_1,174,0,0.659635495790416,0.4895469344695695,1.8179950508699807,-0.9796634378835853,-0.04545212630903298,0.15847857667100987,0.1143599292778425,0.07423057855339721,0.0069992158873259415,20500.15335277689
1681937874525915861,175,1681937874525915861,camera_1,175,0,0.6596382724527512,0.48955536320467813,1.8180099603434154,-0.9796355660665419,-0.04547418198241265,0.15855119642828794,0.11448918980268384,0.08150941733038053,0.0076856757717109515,20497.29765101056
1681937874535887956,176,1681937874535887956,camera_1,176,0,0.659850348425758,0.4897094284054308,1.818557941021732,-0.9797414720184833,-0.04541316607402178,0.15804540318678564,0.11430635540386841,0.08117151370970531,0.007658329734326725,20494.53913303174
1681937874546033382,177,1681937874546033382,camera_1,177,0,0.659772298379928,0.48964161067597817,1.8183516809658962,-0.979689433486002,-0.0453574590894119,0.15869395993437438,0.11387511537283308,0.061240287206601345,0.005776894136968962,20493.870317268418
1681937874556030750,178,1681937874556030750,camera_1,178,0,0.6595753977260057,0.48948749815983317,1.817807573538166,-0.979587058566319,-0.04548359214865143,0.1590531692240723,0.1142038830093822,0.06645363254938275,0.006264946078829002,20497.021402364477
1681937874565962314,179,1681937874565962314,camera_1,179,0,0.6598417386284273,0.4896824166106513,1.8184974553354754,-0.9797039213820212,-0.04542316054923881,0.15832130524544502,0.1142424055234621,0.07402936922153458,0.00698416758106305,20492.2198196525
1681937874575888156,180,1681937874575888156,camera_1,180,0,0.659521155851389,0.4894691261512314,1.817698818520267,-0.9796256969561693,-0.04538699221394456,0.1588734245076151,0.11416106948576718,0.07262442930368707,0.006845862456071035,20502.80941810667
1681937874585877656,181,1681937874585877656,camera_1,181,0,0.6596470467474895,0.4895396342054739,1.818023165186837,-0.9796970013789359,-0.0454553369282333,0.1584654206330084,0.11408903671021903,0.06778922205558047,0.006392140276607145,20502.674246955656
1681937874596229314,182,1681937874596229314,camera_1,182,0,0.659691903281397,0.4895603485305207,1.8180943056976022,-0.9797117861250896,-0.04554652291286041,0.15820767346530026,0.11428325526879284,0.07319594506407157,0.006902338908157454,20502.751528692555
1681937874606058597,183,1681937874606058597,camera_1,183,0,0.6596639930946727,0.4895610210611787,1.81805920326496,-0.979713349938909,-0.04551168439299825,0.15854617826682602,0.11381365424313998,0.07279557723086327,0.006864751061827409,20503.33094763919
1681937874615881204,184,1681937874615881204,camera_1,184,0,0.6595971519027091,0.48950720323108116,1.8178570770507665,-0.9796023765295915,-0.045584683647213846,0.15890944492007453,0.11423225827039321,0.078553011699114,0.007406038884435463,20497.682823037732
1681937874625899553,185,1681937874625899553,camera_1,185,0,0.6597027844080776,0.4895928436690234,1.818169809572278,-0.9797256445178804,-0.04545212298383383,0.15858519122661352,0.11367718818613028,0.06899068539496511,0.006506802867538879,20501.71338163643
1681937874635872602,186,1681937874635872602,camera_1,186,0,0.6597027285716912,0.4895920526878419,1.8181695108316385,-0.9796906964533245,-0.045366753562161376,0.1587216117286095,0.1138219966627835,0.0730677242972888,0.006891370662944035,20498.042385720633
1681937874645848512,187,1681937874645848512,camera_1,187,0,0.65980602701494,0.48966150279204457,1.8184406011951935,-0.9796796202606298,-0.04545647798618804,0.15867442607049356,0.11394725431654364,0.06897595658665523,0.006507248613039585,20491.365127820638
1681937874655954360,188,1681937874655954360,camera_1,188,0,0.6597321623334718,0.48961361043759716,1.8182570374556353,-0.9796779915593813,-0.04550956308226762,0.15848945398848366,0.11419722193061663,0.05606610415270552,0.005287931750744672,20495.937402878422
1681937874665902376,189,1681937874665902376,camera_1,189,0,0.6598382787395418,0.48968830703965965,1.8185303420017942,-0.97973128472462,-0.045332254066246025,0.1583541347231036,0.11399808984897933,0.07500845252070576,0.007076936890464234,20493.768137058945
1681937874676334381,190,1681937874676334381,camera_1,190,0,0.6595550837493457,0.4894669796243125,1.8177447532223852,-0.9796397046581402,-0.04540034822311445,0.1587290350874245,0.11423638150233453,0.0682473813649267,0.006433463110468579,20503.153754029187
1681937874686299562,191,1681937874686299562,camera_1,191,0,0.6595608774441022,0.489486860775453,1.817806426944372,-0.9796337618230334,-0.045423798696948466,0.15897857766249893,0.11393060630401401,0.0664365379489027,0.006263410366148072,20501.286161555552
1681937874695918083,192,1681937874695918083,camera_1,192,0,0.6597255030869066,0.48960343712748483,1.8182596516560214,-0.9796915807770822,-0.045500650815842335,0.1583027249730941,0.11434310034247633,0.057625654910225414,0.005434886917322887,20497.391912399085
1681937874706199884,193,1681937874706199884,camera_1,193,0,0.6596684387235986,0.4895789885698364,1.8180632304638544,-0.9796112368984664,-0.045329100303762165,0.1587439564784034,0.11448778751242877,0.0849532232969068,0.008011124851677159,20492.87125880504
1681937874716256856,194,1681937874716256856,camera_1,194,0,0.6597454961596217,0.4896257896299632,1.8182750385544248,-0.9796697363218383,-0.045308427887284744,0.15846867042900883,0.11437672223815747,0.07886017969576642,0.007438132370400868,20493.660433984143
1681937874726230382,195,1681937874726230382,camera_1,195,0,0.659763639691901,0.4896372628469081,1.8183222701441064,-0.9796939632015074,-0.04546006503828858,0.1584419516919608,0.11414582295152376,0.06775042333174497,0.006390577083005965,20495.498829869444
1681937874736249685,196,1681937874736249685,camera_1,196,0,0.6597881716002008,0.4896558975188375,1.818382089914309,-0.9797383466691665,-0.04540516924856279,0.15806911402254867,0.11430353390689175,0.07934185478370637,0.007484256954716317,20498.188203650177
1681937874746318578,197,1681937874746318578,camera_1,197,0,0.6597526950098481,0.48962075917388037,1.818323465956221,-0.9797024156677968,-0.04545509674739732,0.15863604568842957,0.11380516650269856,0.06331324885832146,0.005972221355905423,20496.338359684563
1681937874755918264,198,1681937874755918264,camera_1,198,0,0.6597098544594656,0.48959699600932494,1.8181998424724795,-0.979681493300291,-0.04540752454600132,0.1585311993883772,0.1141498454663813,0.0798654974787496,0.007532460306857774,20496.9317330583
1681937874766197204,199,1681937874766197204,camera_1,199,0,0.6597903326915004,0.48964184242346304,1.818395015876668,-0.9797006549279774,-0.04541025223962309,0.1587005180797527,0.11374832432367597,0.07397496799239889,0.006978700114620083,20494.071835978895
1681937874776275634,200,1681937874776275634,camera_1,200,0,0.6597306406842947,0.48959273321398966,1.8182283667572363,-0.9796913677440101,-0.04555901735097608,0.15838035066221703,0.11421411659684391,0.06493583734845743,0.006124327245143346,20497.947582883884
1681937874786231994,201,1681937874786231994,camera_1,201,0,0.6596996503962016,0.48960671469530004,1.818177158582544,-0.9796869436129881,-0.04545823519449516,0.15836576852781048,0.11431239970291833,0.07184194610454142,0.00677530490815871,20498.26848041313
1681937874796092748,202,1681937874796092748,camera_1,202,0,0.6597774248170231,0.4896413603149565,1.818395963785628,-0.9796996058855113,-0.045421774071207774,0.15850011331265884,0.1140318321692349,0.06623336899792776,0.006248020764628498,20494.404862518182
1681937874805908203,203,1681937874805908203,camera_1,203,0,0.6595587629142886,0.48947934805163484,1.8177591055886289,-0.9796319880809484,-0.04551978201914756,0.15894846628557022,0.11394956094238762,0.06508420559111983,0.006135592404218611,20502.38328801305
1681937874816299200,204,1681937874816299200,camera_1,204,0,0.6596089108103366,0.4895360381810561,1.8179039116718954,-0.979632618539693,-0.04547230440567146,0.1587424360830582,0.11424990683374213,0.07769733958411963,0.0073256586636549345,20499.024452055106
1681937874826215028,205,1681937874826215028,camera_1,205,0,0.659829502545994,0.48968341556822037,1.8184816528798178,-0.9797149680047018,-0.045374683495200796,0.15824261352747285,0.1142759591044921,0.07402117748279124,0.006983208442588705,20493.503468651434
1681937874836374044,206,1681937874836374044,camera_1,206,0,0.6596582224039921,0.4895639625881146,1.8180324554274312,-0.9796654252505036,-0.04534777978035142,0.1587400209047413,0.11402122258994206,0.06696583010489122,0.006314790779939369,20498.674007668506
1681937874846293210,207,1681937874846293210,camera_1,207,0,0.659696057196203,0.48959378393226904,1.8181654763944433,-0.9796781698059409,-0.04537136296159052,0.15865366699668756,0.11402252837572865,0.07718612876487896,0.0072796212975030266,20497.12086301716
1681937874855961799,208,1681937874855961799,camera_1,208,0,0.6597399601188529,0.48962372812027705,1.8182655633314786,-0.9797166490274433,-0.0455328498871136,0.15838797480867692,0.11399691502668394,0.08332879497902468,0.007859720241177325,20499.12246884464
1681937874865912914,209,1681937874865912914,camera_1,209,0,0.659818385782031,0.48968613628757646,1.8184993267823117,-0.9797039377579657,-0.04539771863365413,0.15828482332918514,0.11430291417126967,0.07425919332308695,0.007005752288888344,20492.3701105495
1681937874876292467,210,1681937874876292467,camera_1,210,0,0.6596759823860743,0.48956349368676444,1.818090974141567,-0.9796670587517353,-0.045405663061121176,0.1587684186098809,0.1139445874573319,0.07135698909405619,0.006729366850732715,20497.826151661106
1681937874886050224,211,1681937874886050224,camera_1,211,0,0.6596911459299917,0.48958025621818535,1.8181492794770622,-0.979667351224812,-0.045400338152564744,0.15848897453779218,0.11433256399535835,0.0691188020282425,0.006518315369574488,20496.87907116757
1681937874895980119,212,1681937874895980119,camera_1,212,0,0.6595230485962548,0.4894622995135307,1.8176707683542106,-0.9796560809463504,-0.045426397922447605,0.1587324020493286,0.1140808045916553,0.07635229249717668,0.007197073873989403,20506.322853120037
1681937874905854701,213,1681937874905854701,camera_1,213,0,0.6597332121774931,0.4896088335986825,1.8182488178204699,-0.9796611852976868,-0.0454253989047209,0.15853839608380588,0.11430692071197153,0.06859083182644099,0.006469274836774658,20494.07091041666
1681937874915898084,214,1681937874915898084,camera_1,214,0,0.6597009701830332,0.4895778586698476,1.8181580298133229,-0.9796644785336581,-0.04547497024660137,0.15865705108419287,0.11409415726370233,0.06835987576050684,0.006447011383786862,20496.5270927666
1681937874925841331,215,1681937874925841331,camera_1,215,0,0.6597077165005315,0.48958606113014885,1.8181408498348013,-0.9796524471696896,-0.04537331656739503,0.15883002309998948,0.1139972309320289,0.06628096580971032,0.00625101466703718,20495.017700013814
1681937874935921669,216,1681937874935921669,camera_1,216,0,0.659688352034098,0.4895796925724255,1.8181298818946146,-0.9797010026510121,-0.04544560195301447,0.15848359830473707,0.11403329222693102,0.06940955988829955,0.006545771155180753,20500.46685372851
1681937874945928335,217,1681937874945928335,camera_1,217,0,0.6596686133114045,0.4895687087946904,1.8180670286563676,-0.9796787558198644,-0.04532112000035464,0.15856826083059183,0.11415620059513801,0.06685139733599499,0.006304073739158856,20499.2221920425
1681937874955910444,218,1681937874955910444,camera_1,218,0,0.6597215040004057,0.4895943677962854,1.8181962319998317,-0.9796548703570215,-0.04539265739362475,0.15886091843939626,0.113925634661845,0.061660166771616794,0.005815568916673547,20494.170242750562
1681937874965957880,219,1681937874965957880,camera_1,219,0,0.65955968719323,0.48949508190252244,1.8177965908126303,-0.9795874230839801,-0.04541953063915526,0.1592424097092074,0.11396228201563587,0.06307564780581743,0.0059465888929621695,20496.963692793157
1681937874975897312,220,1681937874975897312,camera_1,220,0,0.6596401539568533,0.48956147184101967,1.8180160110877492,-0.9796727518351184,-0.0453649541101087,0.15869072268578188,0.1140200630760162,0.07266212458489463,0.006851816608636631,20499.909060757378
1681937874985851049,221,1681937874985851049,camera_1,221,0,0.659852729155405,0.48970507437421584,1.8185748154619708,-0.97971770707148,-0.045338712754505475,0.1583006133905513,0.11418638875339436,0.07607604749500751,0.007177881702582708,20491.581696459092
1681937874995896577,222,1681937874995896577,camera_1,222,0,0.6596100109103885,0.48951172223141953,1.8178931206505082,-0.9796643084770695,-0.04545581672452392,0.15856333555523752,0.11423344536364465,0.06374505709391087,0.006009906093567214,20502.414550015463
1681937875005878210,223,1681937875005878210,camera_1,223,0,0.6596506485921261,0.48953558928484964,1.8180093707502425,-0.9797119691912128,-0.04537450751544885,0.15840552099986868,0.11407586251248167,0.06939975888235494,0.006543935843206678,20503.953831251012
1681937875015949249,224,1681937875015949249,camera_1,224,0,0.659635133590742,0.4895366715974135,1.8179811398475263,-0.9796602939012561,-0.04546106587803818,0.15843794901378463,0.11443957512522819,0.07183222187450156,0.0067728894915573545,20500.251856049057
1681937875025911092,225,1681937875025911092,camera_1,225,0,0.6598088983433722,0.48969309062408606,1.81849231921112,-0.9797061823435601,-0.0454390137261253,0.15808430891510333,0.1145445048190353,0.06360111740650609,0.00599988010751805,20493.21421520552
1681937875035846471,226,1681937875035846471,camera_1,226,0,0.6595630147728788,0.4894845333883914,1.8177825989608138,-0.9796619159638335,-0.04556347465058842,0.15848397188721267,0.11432117407851226,0.06706499884603545,0.006322052485007759,20505.243780566834
1681937875046030521,227,1681937875046030521,camera_1,227,0,0.6596527136288316,0.4895642408553657,1.818040163122428,-0.979693374534451,-0.04545825263788426,0.1586206486298238,0.11390315618394456,0.07233294530306011,0.00682096476644953,20501.683284111205
1681937875056000471,228,1681937875056000471,camera_1,228,0,0.6596974842456631,0.48958955185208186,1.8181393257806715,-0.9796453920285797,-0.04545201244295983,0.15853356413163694,0.11443832175357878,0.07185625925194472,0.006776413881531895,20495.079878405213
1681937875065912008,229,1681937875065912008,camera_1,229,0,0.6596298486780714,0.48952130952627987,1.8179340699468478,-0.9796424896367248,-0.04539267950137974,0.1586695167789675,0.11429821342074277,0.0776409296086058,0.007320529090194829,20499.013684126083
1681937875075896501,230,1681937875075896501,camera_1,230,0,0.6596479649126561,0.4895469821084555,1.8180390036643126,-0.9796897815675655,-0.04549330559401298,0.1586257084810786,0.11391301790006943,0.058071444858796895,0.00547595759542179,20501.78897590842
1681937875086104631,231,1681937875086104631,camera_1,231,0,0.6598762199862218,0.4897299330850194,1.8186693562503,-0.9797349152739786,-0.045369233064789405,0.15844513792605724,0.11382559796370802,0.07156908221077174,0.00675355482650117,20491.153106771526
1681937875096001386,232,1681937875096001386,camera_1,232,0,0.6597642625268784,0.4896271935032139,1.8183712394488232,-0.9797072851183509,-0.045494811517768526,0.15819547304891785,0.11435930184214232,0.07358563842717558,0.006941067945171623,20496.327613281323
1681937875105925083,233,1681937875105925083,camera_1,233,0,0.659710882450083,0.489605724518076,1.8181945625099463,-0.9796876339308865,-0.04539615832777852,0.15862769682875644,0.11396746259693871,0.06766071083256975,0.006381396959868622,20497.446472646203
1681937875115985393,234,1681937875115985393,camera_1,234,0,0.6596849014833327,0.4895660706845448,1.8181064469104224,-0.9796709909593965,-0.04551861368608298,0.1583459623790836,0.11445244199654771,0.05506612278986722,0.005192601424979847,20498.79608544428
1681937875126337051,235,1681937875126337051,camera_1,235,0,0.6597720850460487,0.4896407135539406,1.8183496931538476,-0.9797100547893755,-0.04549013263577401,0.15842796543622087,0.11401506981587226,0.07268572301836684,0.006856406544856787,20496.492841169005
1681937875136232614,236,1681937875136232614,camera_1,236,0,0.6597069225876341,0.4895988573809448,1.8181919865648342,-0.979698027204063,-0.0454906743817809,0.15840925250931556,0.11414413150135132,0.07036799605702981,0.006636502137233588,20499.07851775817
1681937875146271944,237,1681937875146271944,camera_1,237,0,0.6595883552422714,0.48951610816372265,1.8178568623270237,-0.9796472945826913,-0.04540149946297961,0.158710085825624,0.11419715723497555,0.07156799786025658,0.006747357275946177,20501.297894060728
