%time,field.header.seq,field.header.stamp,field.header.frame_id,field.image_seq,field.transforms0.fiducial_id,field.transforms0.transform.translation.x,field.transforms0.transform.translation.y,field.transforms0.transform.translation.z,field.transforms0.transform.rotation.x,field.transforms0.transform.rotation.y,field.transforms0.transform.rotation.z,field.transforms0.transform.rotation.w,field.transforms0.image_error,field.transforms0.object_error,field.transforms0.fiducial_area
1682302873546109914,0,1682302873546109914,camera_1,1,0,0.6619464714015634,0.491813353510539,1.8120140826551876,-0.9800383931522098,-0.04457101916552261,0.15645243362559144,0.11428389305064575,0.2287829791312106,0.02149673022203851,20536.665023754354
1682302873555907011,1,1682302873555907011,camera_1,2,0,0.6619990976618423,0.4926448848182656,1.8122106278237204,-0.9801136387985685,-0.0444166076811528,0.1564160166996551,0.11374730644257558,0.21467666974058375,0.020179217660180278,20533.10025819065
1682302873566099643,2,1682302873566099643,camera_1,3,0,0.6618066657769329,0.4926409741010775,1.8116608660604414,-0.9800489418442252,-0.04447022864992361,0.15636573032661805,0.1143513390094816,0.20880932500585914,0.019615243632710427,20538.685134668485
1682302873576121568,3,1682302873576121568,camera_1,4,0,0.6619362368384523,0.492277227594721,1.812013387902153,-0.9801211164323299,-0.04464665681231742,0.1559132016120241,0.11428187398714953,0.22958679602015764,0.021573150016021215,20541.851288707694
1682302873585979938,4,1682302873585979938,camera_1,5,0,0.6620476620211942,0.4913512085136311,1.8122680883291469,-0.980051604968627,-0.04450580784809094,0.1566323484700355,0.11394907669204044,0.2061099800048396,0.01937048577947288,20535.49444030656
1682302873595644712,5,1682302873595644712,camera_1,6,0,0.6620680703784805,0.49005516731798343,1.81222322737689,-0.9800796877713103,-0.044468435708686034,0.15613246083113108,0.11440724854015565,0.20406112365890294,0.01917122369815737,20548.35003527173
1682302873606173515,6,1682302873606173515,camera_1,7,0,0.6620487151216281,0.48869340508119524,1.8120861776712656,-0.9800697522899784,-0.0445390117917372,0.1566598364475524,0.11374204464094191,0.20939618087140843,0.01966708667422665,20559.22892608633
1682302873615983724,7,1682302873615983724,camera_1,8,0,0.6621722231713931,0.4878347356337794,1.8123929247342512,-0.9801252154751984,-0.04448190036861304,0.15654115011245373,0.1134495079353058,0.20496666233520955,0.019254663075763817,20563.82676130766
1682302873626035928,8,1682302873626035928,camera_1,9,0,0.6619477180535169,0.4873359207301353,1.811734648920201,-0.9800651111168645,-0.04467683480640042,0.1564428022685653,0.11402634792682047,0.21957957313861698,0.020610260952567013,20576.215866478855
1682302873636016130,9,1682302873636016130,camera_1,10,0,0.6621382481656473,0.48779733214476034,1.8122912917675884,-0.9801388454049957,-0.04449241200444083,0.15638900724734553,0.11353742737255748,0.20369631482753903,0.019132771663267316,20567.62624585443
1682302873646141529,10,1682302873646141529,camera_1,11,0,0.6620144649408204,0.48863269418383903,1.8119794876766504,-0.9800530466229426,-0.04457006681518715,0.15658707989703372,0.11397377487167029,0.2114094090065919,0.019853166267937067,20560.555358365877
1682302873655977487,11,1682302873655977487,camera_1,12,0,0.6620974250364233,0.49003187518209645,1.8122973642799098,-0.9800602091370738,-0.044496833890608926,0.15694563457339503,0.11344640156594167,0.19495730911148712,0.018319905407156646,20544.34507581917
1682302873665971040,12,1682302873665971040,camera_1,13,0,0.6621951753459909,0.4914625067868801,1.8126800436460424,-0.9800857614505215,-0.04462177470649073,0.15607500381237557,0.11437390702849003,0.2152367023518309,0.02023583664726348,20530.41394709179
1682302873675955772,13,1682302873675955772,camera_1,14,0,0.6620055751417203,0.4923523698671783,1.8122132340076342,-0.980120212358307,-0.044601488387719095,0.15611164424224858,0.11403609556754053,0.20286163606215268,0.01906645962202768,20536.85254084225
1682302873685953140,14,1682302873685953140,camera_1,15,0,0.6618523598188795,0.4926870023626124,1.8117861018280508,-0.9800746784573443,-0.04450212986900153,0.1565983488251345,0.11379869168447088,0.20928404974984005,0.019663849669680263,20538.012847344267
1682302873695968151,15,1682302873695968151,camera_1,16,0,0.6620186966759815,0.4926947580929189,1.8123069728539651,-0.9801130702052311,-0.04437749906274515,0.15641212548546274,0.11377281833079345,0.2144930706708692,0.020163976809785582,20530.773282364004
1682302873705943584,16,1682302873705943584,camera_1,17,0,0.6620385097038208,0.49192654560809795,1.812296824931541,-0.9800521551395097,-0.04445541340604637,0.1563914330683427,0.11429439657362986,0.2084665388101712,0.019593569683598693,20531.088566806633
1682302873716017723,17,1682302873716017723,camera_1,18,0,0.6621133536320241,0.4907336388672008,1.8124232219008378,-0.9800805712088385,-0.044435569238900276,0.1567198060430552,0.11360658660130075,0.207882184360642,0.01953885565457578,20538.917842329014
1682302873726162910,18,1682302873726162910,camera_1,19,0,0.662140248887574,0.48935801542491975,1.8124002174643232,-0.9801204125949753,-0.04439353519597821,0.15607808546031626,0.11416138614479561,0.20827767282025889,0.019569088239087356,20553.02938035282
1682302873735968351,19,1682302873735968351,camera_1,20,0,0.6620077667872515,0.48809258977766107,1.8119232571241022,-0.9800708862352191,-0.0445857469417341,0.1569782476197334,0.11327399921428513,0.20912957505788654,0.019638040466745724,20566.51717683544
1682302873746145725,20,1682302873746145725,camera_1,21,0,0.6619995520551413,0.4874782572514979,1.811946578314713,-0.9801080353589623,-0.04464261587321144,0.1562952599866683,0.11387303270964454,0.2271202738629654,0.021323336716576404,20575.034812768576
1682302873756135463,21,1682302873756135463,camera_1,22,0,0.6619105990332685,0.4873775622620528,1.8116317789295227,-0.9800955168959073,-0.04453627788324258,0.15674296575166696,0.11340608625740776,0.21655613818438724,0.02032610556134658,20579.8736581034
1682302873766156911,22,1682302873766156911,camera_1,23,0,0.6619911765120885,0.4880971564593451,1.8119117334238355,-0.9801523632293431,-0.04474643913679856,0.15624742048679274,0.11351583427757575,0.2014670929638669,0.018916427561341286,20575.877467780483
1682302873776031255,23,1682302873776031255,camera_1,24,0,0.6620077797167435,0.48930487638713227,1.8120640005941213,-0.9800813841984188,-0.044438569242834486,0.1567226131286026,0.11359452647686642,0.20247234089765698,0.01901842480495703,20556.375668549437
1682302873786022424,24,1682302873786022424,camera_1,25,0,0.6620914256957671,0.490693340174532,1.8123287861550315,-0.9800877980141174,-0.04445522075913408,0.15647885830361488,0.11386838206935535,0.21567063650581986,0.020268099179432505,20541.987193879904
1682302873795966386,25,1682302873795966386,camera_1,26,0,0.6619363865209116,0.4918001065130217,1.8120079639824165,-0.9800312023902326,-0.04455315498473141,0.15677096227212078,0.11391542525371531,0.2121504488750361,0.019934603154296827,20535.93185373686
1682302873805692672,26,1682302873805692672,camera_1,27,0,0.6620524166293253,0.4926706018632518,1.8123201783085852,-0.9801231494596029,-0.044447173234887255,0.15626979597668023,0.11385434357205602,0.2163177843322046,0.0203356452483077,20531.61752830806
1682302873815242052,27,1682302873815242052,camera_1,28,0,0.6619527808698668,0.492777667719848,1.8121117743879005,-0.9801331313451607,-0.04437340456424841,0.15631237609698803,0.11373867805553928,0.21701490349369124,0.0203972447758492,20535.995223613798
1682302873826256275,28,1682302873826256275,camera_1,29,0,0.6618473247080998,0.49222290764215393,1.8117951699746686,-0.9800114966059684,-0.04455178767134929,0.15669660060514642,0.11418747783451597,0.19733546732459217,0.018538966348655088,20535.716879344774
1682302873836061954,29,1682302873836061954,camera_1,30,0,0.6621013269152528,0.49141089567170226,1.8124576265086685,-0.9800771639297241,-0.044485353068357054,0.15655555513108552,0.11384271721743981,0.206537866324652,0.019414744291328907,20533.680030703534
1682302873846154928,30,1682302873846154928,camera_1,31,0,0.6621082532457758,0.4900842835216639,1.812360516471841,-0.9800945274457543,-0.044437579912739396,0.15664661755116757,0.11358633708400347,0.222324067435693,0.02089275768499095,20545.946313457567
1682302873856015443,31,1682302873856015443,camera_1,32,0,0.6620108840696467,0.48867036668072084,1.8120172385408337,-0.9800448584651235,-0.044620738643021546,0.15678131594026568,0.11375712747369254,0.19607159035513178,0.018413927355065113,20558.9964123097
1682302873866091489,32,1682302873866091489,camera_1,33,0,0.6619359872263543,0.4876540472097288,1.8117406890084422,-0.9800731075082519,-0.04457529619356874,0.15665215159847964,0.11370949963807356,0.21399552508955821,0.02008813582223194,20574.106192764135
1682302873876027822,33,1682302873876027822,camera_1,34,0,0.6618411294011112,0.4872413347044453,1.8114584198515982,-0.9800348664392081,-0.04475022072122628,0.15658804659823414,0.11405815170970571,0.1990192995290272,0.01867443901590752,20580.133540642906
1682302873885961055,34,1682302873885961055,camera_1,35,0,0.6619507623292646,0.48766522692889425,1.8117766236595367,-0.9801274113287659,-0.04460242225641669,0.15618679927059453,0.1138708269243682,0.21665633947122842,0.020337726468753273,20578.862562541613
1682302873895889043,35,1682302873895889043,camera_1,36,0,0.6620614380649097,0.48868665020087776,1.8121378014383782,-0.9800948765206745,-0.04454394585498327,0.15598142290713723,0.11445377063887817,0.205561037233565,0.019305480341225423,20561.486178529456
1682302873906026601,36,1682302873906026601,camera_1,37,0,0.6622903698093359,0.4901782097728522,1.812841331352047,-0.9801134489971736,-0.04446122193973967,0.15640283029801047,0.11374964401378163,0.2189908100408502,0.02058952470026521,20537.403383336263
1682302873915920734,37,1682302873915920734,camera_1,38,0,0.6623490820360614,0.49156759027346447,1.8130943925164233,-0.9801920772244033,-0.04448669291408873,0.15548369461773479,0.11432080566588036,0.21585180598776788,0.02030226267043291,20530.86857427564
1682302873926074028,38,1682302873926074028,camera_1,39,0,0.6620637039667758,0.4924164960608992,1.812415914311711,-0.980121058272163,-0.04443597788943639,0.15623808039383938,0.11392022311825488,0.2363803084590472,0.02222280706724305,20531.53314583598
1682302873935978651,39,1682302873935978651,camera_1,40,0,0.6619291741362195,0.4927389166667501,1.8120169837817663,-0.980085773085499,-0.04449046562727921,0.15633055169284507,0.11407556474143943,0.20140556868864223,0.01892738519786058,20534.247365891464
1682302873946017742,40,1682302873946017742,camera_1,41,0,0.6619528092639254,0.4926245045370832,1.812091982579173,-0.9800919339818687,-0.04450459119856348,0.15645851365876576,0.11384145031410596,0.20298367575742304,0.01907730005330553,20534.096490647175
1682302873956045389,41,1682302873956045389,camera_1,42,0,0.6620516797357427,0.49192052268038033,1.8123254401150213,-0.9800690185360001,-0.044544881730112465,0.15640286729875086,0.11409914775431478,0.21415736636845395,0.02012949466530646,20532.338917994057
1682302873965994596,42,1682302873965994596,camera_1,43,0,0.6621641974530357,0.4907648615313791,1.8125799298615648,-0.9800556612080249,-0.04446839056534617,0.15644686611642117,0.11418336681399593,0.20450256014009938,0.019222960896733584,20533.737898478743
1682302873976084709,43,1682302873976084709,camera_1,44,0,0.6621862886359735,0.48940182248084474,1.8124856651170655,-0.9800896873417804,-0.044444373936148404,0.15685384196209923,0.1133392017505154,0.20991241885349154,0.019727402365664382,20547.211292873253
1682302873985607147,44,1682302873985607147,camera_1,45,0,0.6618051373148488,0.4879509064573295,1.8113679649005754,-0.9800383199208603,-0.04465883438641249,0.1567723219230407,0.11381089173186755,0.2324234409024939,0.02181089878860444,20576.616655734833
1682302873995110988,45,1682302873995110988,camera_1,46,0,0.6617577240847923,0.48727999901182834,1.811240406569458,-0.9800155315473633,-0.04471255701286402,0.15680864649206666,0.11393591864129812,0.1934620033716783,0.0181493723501467,20582.267643204657
1682302874006202220,46,1682302874006202220,camera_1,47,0,0.6619184133104848,0.48739980282506645,1.8116885822870337,-0.9800939045090993,-0.04473395634002284,0.1568384402588644,0.11321004880947595,0.20294218382332474,0.019049517966190355,20579.297742108472
1682302874015979766,47,1682302874015979766,camera_1,48,0,0.6618959343386314,0.488037577847387,1.8116427806793673,-0.9800557806418488,-0.04445166588938344,0.15710565674890722,0.11328075232646335,0.2373085756553337,0.022277990363459996,20570.72221692128
1682302874026013851,48,1682302874026013851,camera_1,49,0,0.6620580968357722,0.4893202344562251,1.812154088386216,-0.9800760707014842,-0.04441307128751403,0.1564425509112197,0.1140355339424521,0.20325118605978787,0.01909248283915817,20553.905533722136
1682302874035964488,49,1682302874035964488,camera_1,50,0,0.662067887687184,0.49069429542665727,1.8122717793352026,-0.9800478919164088,-0.044421142642032715,0.1566474578079203,0.11399326997193801,0.2161034831078723,0.020307583250014333,20539.237333743367
1682302874046086311,50,1682302874046086311,camera_1,51,0,0.6620294669847188,0.4918652185584176,1.81223809554763,-0.9800682301159335,-0.04458227135652775,0.1560553151145621,0.11456624294533391,0.206489747739397,0.019405425712244663,20534.940222503617
1682302874055918455,51,1682302874055918455,camera_1,52,0,0.6620538724902069,0.4927000379521269,1.8123809799068444,-0.9801527887252652,-0.04445810301795392,0.15615561937277808,0.1137515290817425,0.22726766939740628,0.021366497285796725,20533.250182104643
1682302874065984249,52,1682302874065984249,camera_1,53,0,0.6618738593547567,0.4927000876703876,1.811885992275437,-0.9800870542435173,-0.04433693171002925,0.15682921694194296,0.11343808577449763,0.2049742016242817,0.019261838023893432,20536.28639999521
1682302874076105833,53,1682302874076105833,camera_1,54,0,0.6618144947017748,0.49218037390796515,1.811651209695373,-0.9800308841387624,-0.04448186209269727,0.15674216026462578,0.11398563626413866,0.21362208505161107,0.020066764559107463,20540.104196440432
1682302874085785627,54,1682302874085785627,camera_1,55,0,0.6621553186256421,0.49144194538984065,1.8125584832100687,-0.9801158379450273,-0.04450134339200666,0.1560126053022938,0.1142481581138819,0.21979582961648703,0.02066200657449483,20535.360972872706
1682302874096185684,55,1682302874096185684,camera_1,56,0,0.6620493342248823,0.4900354423374399,1.8121940891929729,-0.9800813805115245,-0.04447197200757742,0.15666999214427738,0.11365405774495668,0.2398811228922568,0.02253859979482733,20548.624425219834
1682302874106149435,56,1682302874106149435,camera_1,57,0,0.6619425643778114,0.4886205442258462,1.8117775649810832,-0.9800173061689348,-0.044572127360507245,0.15654997736523996,0.11433070304553401,0.23949883540626615,0.022485929217021923,20561.487198697625
1682302874116134881,57,1682302874116134881,camera_1,58,0,0.6621700108278216,0.4878385344339902,1.8124127786467643,-0.9801698059323246,-0.04450870022267104,0.15624426877205833,0.1134630143216828,0.22425258829025552,0.02106653623235183,20567.9577085158
1682302874126161336,58,1682302874126161336,camera_1,59,0,0.6618908800779153,0.4872693053334845,1.8115628207666128,-0.9800311831260043,-0.04482050221699133,0.15684565155972138,0.11370771419946564,0.21145775489276275,0.019845200023951976,20577.147643328062
1682302874135998487,59,1682302874135998487,camera_1,60,0,0.6620295366534286,0.48771605905893467,1.811993566302266,-0.9801032914376979,-0.04454949027732564,0.15626698408361991,0.11398908155797775,0.20511733030434698,0.01925892797540477,20571.535493203904
1682302874146065473,60,1682302874146065473,camera_1,61,0,0.6619435095857004,0.4885892026649405,1.8117636296873239,-0.9799906021424206,-0.04469930093434538,0.1570450608490715,0.11382987776251131,0.23848670098232103,0.02239224337784445,20559.41476294316
1682302874156116962,61,1682302874156116962,camera_1,62,0,0.662232895285844,0.4901354909292096,1.8126442244377492,-0.9801263187080316,-0.04452892634743791,0.1564717810133089,0.11351720504271554,0.22361047461163253,0.021020093445784444,20542.914899898227
1682302874166006565,62,1682302874166006565,camera_1,63,0,0.6621972042100823,0.49146278357254214,1.8126963407794396,-0.9800457604206014,-0.044534510207342726,0.15657813519765573,0.11406258133245131,0.2095090122311376,0.01969890623278832,20525.5686272619
1682302874175964355,63,1682302874175964355,camera_1,64,0,0.6619066765690161,0.49229415702509055,1.8119919846421766,-0.9800384938510239,-0.04456785437392902,0.1564024007493498,0.11435272610025807,0.22748280625091868,0.02137549368983941,20534.048901085855
1682302874186199665,64,1682302874186199665,camera_1,65,0,0.66193934441378,0.49275852363147954,1.81204796342672,-0.9801462932009962,-0.04442558154363442,0.15597157636065148,0.1140722534029649,0.20614411786664277,0.01937296994733963,20539.144374812713
1682302874195931434,65,1682302874195931434,camera_1,66,0,0.6622013391021031,0.4928190811925626,1.8127988379889206,-0.9801899049767736,-0.04441769605415868,0.15600083992104757,0.11365982756801843,0.2051835733000189,0.019298761607199705,20527.30836487724
1682302874205772638,66,1682302874205772638,camera_1,67,0,0.6620627650633959,0.49193297319491675,1.8123509198145256,-0.980118090815649,-0.044524388986978594,0.1562874544434638,0.11384348213580675,0.23667841369751838,0.022247665749016435,20536.163180642292
1682302874216073751,67,1682302874216073751,camera_1,68,0,0.662098368944539,0.4907002721581799,1.8123525567394247,-0.9800702164279713,-0.04459694518976913,0.15616487286425856,0.11439412499713417,0.19419042847584933,0.018248253519215638,20540.87607359548
1682302874226189136,68,1682302874226189136,camera_1,69,0,0.6621682529722217,0.4893833782075069,1.8124452128641033,-0.9801183192819002,-0.0446452114240573,0.15643487453491006,0.11359144040891214,0.20188087958376855,0.018970411321999215,20552.150571326376
1682302874235993623,69,1682302874235993623,camera_1,70,0,0.6619968955628416,0.4880946030570449,1.8119055317071946,-0.9800846115252001,-0.04453131457349154,0.15684952850910283,0.11335493672675485,0.21224489517044276,0.019929859207535233,20568.14268511358
1682302874245976686,70,1682302874245976686,camera_1,71,0,0.6619333814944949,0.487427764281523,1.8117741550854953,-0.9800929471498343,-0.044682335505099445,0.15677599870183825,0.113325151983146,0.20404027320910245,0.01915405290302742,20577.30144076585
1682302874256019830,71,1682302874256019830,camera_1,72,0,0.661791623682736,0.48731132954807355,1.8113141476952765,-0.9800181016164174,-0.04440946367715881,0.15721784882087464,0.11346747574612408,0.23055552976438773,0.021633491884127495,20578.85885092849
1682302874265962600,72,1682302874265962600,camera_1,73,0,0.6618989212214481,0.48801713368923766,1.8116040026005311,-0.9800377704904157,-0.044651153587551055,0.15674789201971692,0.11385227816276382,0.19787478126818314,0.018573115537675433,20571.228193568182
1682302874276009559,73,1682302874276009559,camera_1,74,0,0.6621008553867621,0.48938358736799364,1.8122750069028055,-0.9801359736431785,-0.044424946742322134,0.1562514397876533,0.11377778711930422,0.2260159965371713,0.021234297889894855,20556.65209925011
1682302874285805225,74,1682302874285805225,camera_1,75,0,0.662218487028317,0.49079581472467604,1.8127212384195033,-0.9801047324771042,-0.04456539930437168,0.15652079084431228,0.11362165548123707,0.19026900752214715,0.01788859046807043,20535.349896983127
1682302874295796632,75,1682302874295796632,camera_1,76,0,0.6621318081067271,0.4919482077724118,1.8125096678649228,-0.9801027351005733,-0.0445303492712515,0.1562335821836356,0.11404711500176246,0.2208850624738261,0.020766017684981222,20531.377223135903
1682302874305810451,76,1682302874305810451,camera_1,77,0,0.6619181664681966,0.49258806838555247,1.8119859692450377,-0.9801142541107684,-0.04438958206796782,0.1563020985040927,0.11390903342553745,0.23016218066914007,0.021629256240570622,20538.16569112054
1682302874315909862,77,1682302874315909862,camera_1,78,0,0.6618108041693852,0.4926645238052087,1.8117379591690774,-0.9801077783478475,-0.044490902825338054,0.15606202311998316,0.1142538722649301,0.19206027110340074,0.01804268842182815,20543.11259153799
1682302874326109409,78,1682302874326109409,camera_1,79,0,0.6619334134854783,0.4922764234024712,1.812002246886962,-0.9800377378681313,-0.044566633447000514,0.15671684025213625,0.11392839645541873,0.2228355904808268,0.02094038956935274,20533.26047008857
1682302874336261034,79,1682302874336261034,camera_1,80,0,0.6621385060481311,0.4914330309377658,1.812546229786909,-0.9801055726896764,-0.0444623907009012,0.1560736981095578,0.11426794368592028,0.21328149730106816,0.02004922828947184,20534.68642257899
1682302874346182584,80,1682302874346182584,camera_1,81,0,0.6621936872428591,0.49015435758102677,1.8125844360926917,-0.9801162598563092,-0.044488369678614345,0.1565535365445439,0.11350723467697876,0.21097501320764422,0.01983098036991223,20543.101684375673
1682302874356092453,81,1682302874356092453,camera_1,82,0,0.6620245787399667,0.4886900734649894,1.81205520943558,-0.9800931584030836,-0.04457278096428435,0.15606394680721192,0.11434470934649232,0.20622756524244323,0.019366706766453645,20563.07559462008
1682302874365968465,82,1682302874365968465,camera_1,83,0,0.6621227000316079,0.4877946474996344,1.8122544918761774,-0.9801534625113201,-0.044674496611903515,0.15593259138606957,0.11396668909452665,0.19953529100166634,0.018739609180687684,20571.077179216427
1682302874376002073,83,1682302874376002073,camera_1,84,0,0.6618436107737906,0.48726015235612236,1.8114851701488466,-0.9800120356914974,-0.044727173049516566,0.15674622082757253,0.11404609658852795,0.21463866147678345,0.020141121472735984,20577.134947725455
1682302874385894298,84,1682302874385894298,camera_1,85,0,0.6622128579472452,0.48785130277430555,1.8124900919850124,-0.9801712631282573,-0.044473690859048225,0.15645736165300883,0.1131701362706171,0.1981076102820225,0.018612595101168534,20565.885927934905
1682302874395984888,85,1682302874395984888,camera_1,86,0,0.6620384944867815,0.48864441334718073,1.812046329485336,-0.9800877272168751,-0.04446822178471409,0.15681986449091279,0.11339380190829401,0.2007320414413698,0.018853117133011663,20561.56031807
1682302874408270359,86,1682302874408270359,camera_1,87,0,0.6621799020171449,0.49009981961891924,1.8125404568983057,-0.9800915137724191,-0.04454319804110102,0.15635153574187227,0.11397686348868023,0.21436345495749265,0.02014722850058335,20542.569166787565
1682302874418727159,87,1682302874418727159,camera_1,88,0,0.6621300354877546,0.49141854927264017,1.8124738846012667,-0.980134682746907,-0.04445405174097512,0.15598361601061733,0.11414443699402607,0.22453102993313223,0.021105561737317112,20538.702345789643
1682302874426779747,88,1682302874426779747,camera_1,89,0,0.6617413004753624,0.4921789548480267,1.8115741691353184,-0.9800331215630873,-0.04471050179870398,0.1563246916105761,0.11444930083262783,0.23671542567899453,0.022232346000690312,20543.84248225996
1682302874435237646,89,1682302874435237646,camera_1,90,0,0.6618507759212663,0.4926926482553423,1.8117978561461658,-0.9800723948372717,-0.04448248497375589,0.15664916859594094,0.11375608725116627,0.20452062576077878,0.019216609407329943,20537.456235857444
1682302874445163249,90,1682302874445163249,camera_1,91,0,0.6620755384576745,0.4927312395324745,1.8124160579531232,-0.9801312261629499,-0.0444662738910215,0.15598903763486685,0.11416194691887935,0.22622969438089058,0.02126880037828368,20530.472421961258
1682302874454995393,91,1682302874454995393,camera_1,92,0,0.6621053336771873,0.491990087565282,1.8124953010808327,-0.980121448550911,-0.04442851913274714,0.1561547740990063,0.11403393926469206,0.22807937621837482,0.021442136370265864,20532.982189286267
1682302874466486454,92,1682302874466486454,camera_1,93,0,0.6621377542661824,0.4907435720492535,1.8124772270831901,-0.980068923610507,-0.044498015583232006,0.15639772363493618,0.11412529791376964,0.20741973695112392,0.019495180726818925,20537.21575160569
1682302874476036787,93,1682302874476036787,camera_1,94,0,0.6619493555185382,0.48922470326793105,1.8118503185972883,-0.9800186107775883,-0.04449686336597607,0.15678521435281756,0.11402608578959673,0.21091855847043917,0.019806644930377402,20555.534142871977
1682302874486571311,94,1682302874486571311,camera_1,95,0,0.6619701494640766,0.4880730133148808,1.811838928070346,-0.9800325719201008,-0.04475754030012046,0.15723240474204306,0.1131852086669893,0.2185880719916895,0.020524856827704073,20565.380423048045
1682302874496012210,95,1682302874496012210,camera_1,96,0,0.6619533273694571,0.48746310211800997,1.8118120970234652,-0.9801155778058285,-0.0446306343536046,0.15673892903834188,0.11320101034644296,0.2269810646539554,0.021309203311121128,20578.011005041888
1682302874506155252,96,1682302874506155252,camera_1,97,0,0.6619504721430287,0.4874309642176511,1.8118037031723462,-0.980059015822072,-0.04478799366987014,0.15699566966604644,0.11327277181657011,0.20107511576497927,0.018876660972508022,20573.668623348934
1682302874516159296,97,1682302874516159296,camera_1,98,0,0.6617802622265331,0.4879630046373285,1.8113282754392326,-0.9800335824194855,-0.04448690032923436,0.15691514244626734,0.11372216626583445,0.22280200954992324,0.020907448448888893,20576.235602735076
1682302874526146411,98,1682302874526146411,camera_1,99,0,0.6620448291916239,0.48929984290228395,1.8120626892765563,-0.9800769047649769,-0.04457054928261833,0.15665861515538165,0.11366971971702101,0.20838851161533967,0.019574181468864887,20556.13577649009
1682302874535820007,99,1682302874535820007,camera_1,100,0,0.6618723391186075,0.4905441095431371,1.811721236881145,-0.9800163768452651,-0.04451572661815825,0.15684317455554356,0.11395819318537893,0.20672270871000364,0.019414555119490723,20548.88681372115
1682302874546398401,100,1682302874546398401,camera_1,101,0,0.6620208059657997,0.49186686498684945,1.8122225043333502,-0.9801466512808481,-0.04446705966204337,0.15599189118863974,0.11402522734616014,0.22979931079316884,0.02159701249389153,20541.960148895632
1682302874556194067,101,1682302874556194067,camera_1,102,0,0.6618695384679236,0.4925770867419748,1.8119116817803587,-0.9801161744406189,-0.04437938007243917,0.1563281409786965,0.11386073758068212,0.2058349606813863,0.019341169175747235,20540.24419786199
1682302874566047430,102,1682302874566047430,camera_1,103,0,0.6618968439814272,0.49271581526556796,1.8119115923396907,-0.9801010417855999,-0.04433662672277581,0.1564482277225764,0.11384271370664124,0.21114986221073195,0.01984171775138697,20537.12190872523
1682302874576072454,103,1682302874576072454,camera_1,104,0,0.6619312082778264,0.4922859810098853,1.8120088116307949,-0.980098657488956,-0.04454882351704827,0.1563896217064958,0.11386092452677636,0.20471723761875182,0.019237278799613868,20539.032934342387
1682302874586113452,104,1682302874586113452,camera_1,105,0,0.6620922863878534,0.49140591142108225,1.812413830612931,-0.9801061059086056,-0.044504063909221986,0.1564092059417084,0.11378738837374382,0.20616642636014149,0.01937883326836014,20537.414901080774
1682302874595970392,105,1682302874595970392,camera_1,106,0,0.6622396849434077,0.4901780595914599,1.8126909181412603,-0.9801328171707111,-0.044563880706964126,0.15616395319395657,0.11387072039895374,0.21264144137967378,0.01998871592511231,20542.913834895007
1682302874605725526,106,1682302874605725526,camera_1,107,0,0.6620489033532432,0.4887209728925073,1.812103265387086,-0.9800648084202395,-0.04454125550358639,0.15672600267991912,0.11369260283034176,0.2280670160544105,0.021421611390884658,20558.194446049867
1682302874615567207,107,1682302874615567207,camera_1,108,0,0.6620353090956614,0.4877246128951776,1.8120068493218202,-0.9800957131619853,-0.04449552631720422,0.15667976142087023,0.11350768053464012,0.2084058111649938,0.019569577695314387,20569.75489436335
1682302874625852584,108,1682302874625852584,camera_1,109,0,0.6618755640705246,0.4872717024077358,1.8115423992452495,-0.980080065014366,-0.04465905069725224,0.15676783546787357,0.11345695710256982,0.21627250564051792,0.02029707785362701,20581.530455762753
1682302874636210918,109,1682302874636210918,camera_1,110,0,0.662094663703143,0.48775170316456373,1.8121262714598914,-0.9801278277864671,-0.044492916513055335,0.15648723598627445,0.11349698917645334,0.21899128949735314,0.020566314165571323,20569.96045634208
1682302874646121501,110,1682302874646121501,camera_1,111,0,0.6619768755787686,0.48860833009268156,1.8118944163328807,-0.980055550304672,-0.04461302181187472,0.15647926168605117,0.11408346621666184,0.21163801971124485,0.0198723471110859,20563.091208500788
1682302874656136035,111,1682302874656136035,camera_1,112,0,0.6621751340887239,0.490096064708626,1.8125282098804205,-0.9800453023217905,-0.04459317195620073,0.1565330806280785,0.11410542967343143,0.197164234763477,0.018530204765609255,20538.72825038328
1682302874666236639,112,1682302874666236639,camera_1,113,0,0.6621366637919223,0.49143157465928405,1.8125030447542148,-0.9800714104403565,-0.04457880580007107,0.15666766190391265,0.11370138180537354,0.2264885735930875,0.02129209288687191,20532.013977203525
1682302874675845146,113,1682302874675845146,camera_1,114,0,0.6620185181433451,0.4923711502434719,1.8122679359975635,-0.9800663911896965,-0.044638209509773485,0.15621989340518547,0.11433566380022854,0.21560741687426344,0.020265437866652008,20530.714703270816
1682302874686047792,114,1682302874686047792,camera_1,115,0,0.6619136791318948,0.4927420073924639,1.8119636594305246,-0.980069518658993,-0.04446137551795638,0.15641274885652368,0.11411387592106033,0.21321692276978865,0.020036558807034154,20533.534599240753
1682302874696009874,115,1682302874696009874,camera_1,116,0,0.6620465830141072,0.49269862626296823,1.8123455153302834,-0.9801269972261496,-0.04443887034242975,0.15606365599411573,0.11410692962695265,0.21602752024773508,0.02030813903875216,20531.61084719176
1682302874706158399,116,1682302874706158399,camera_1,117,0,0.6621542800827896,0.49201753879073984,1.812616769668878,-0.9801502352134824,-0.04457868672453202,0.15556863202552254,0.11452797837462654,0.2007560635684058,0.01887382363588627,20534.23155082029
1682302874716095685,117,1682302874716095685,camera_1,118,0,0.6622079295299487,0.4908137862990687,1.8126754616105445,-0.9801491520287661,-0.04450751677220936,0.15580648175995385,0.11424124023157188,0.21425043273484334,0.020140576004864585,20540.679116721956
1682302874726179361,118,1682302874726179361,camera_1,119,0,0.6620688496110082,0.4893421134780219,1.8122315816438141,-0.9800949427975575,-0.04455995057823995,0.15662365404141768,0.11356647789656808,0.21555841655936092,0.02025127862466703,20554.46494544611
1682302874736154317,119,1682302874736154317,camera_1,120,0,0.6618663175620131,0.4880086904750263,1.8115586205811474,-0.9800459755661187,-0.04466038370090339,0.15682668114878526,0.11366938015226595,0.1987864501425065,0.01865808162770134,20573.1069327218
1682302874746222496,120,1682302874746222496,camera_1,121,0,0.6618802469629737,0.4873845274270146,1.8115794568488313,-0.9801152745047399,-0.04459433369261052,0.15639661850835326,0.11369033294068162,0.20869937218958512,0.019586348288999546,20583.51503443904
1682302874756054639,121,1682302874756054639,camera_1,122,0,0.6619603949609857,0.48745450023449793,1.8117972572672258,-0.9801383457225024,-0.04454525405625669,0.1564447159120837,0.1134442349729921,0.22386927995830774,0.021015871148511417,20580.323972891318
1682302874766092061,122,1682302874766092061,camera_1,123,0,0.6617189698595783,0.487901260439836,1.8110958174338432,-0.9799670888646373,-0.04451728109299159,0.1571991990391701,0.11389086112458405,0.22624441486550495,0.021225455211249168,20574.910695166334
1682302874776051044,123,1682302874776051044,camera_1,124,0,0.6621350565057391,0.48939383275511766,1.812364612262407,-0.980106565152306,-0.044500767340652864,0.15666702322324916,0.11342947802845454,0.2170318293501623,0.020393339463541677,20551.85349838284
1682302874786207914,124,1682302874786207914,camera_1,125,0,0.6621464588041356,0.4907604060143295,1.8125567002582026,-0.9800530446941368,-0.04469346057282647,0.15676540984663773,0.11367994741111209,0.19736384961288422,0.01855248479179441,20534.651678764378
1682302874796082735,125,1682302874796082735,camera_1,126,0,0.662025209634504,0.4918933123725664,1.8122663128102252,-0.9800443305456242,-0.04451441139942899,0.15636959774124162,0.11436837956963364,0.21566941827768457,0.020269636018597846,20531.531559257066
1682302874806179046,126,1682302874806179046,camera_1,127,0,0.661976107996271,0.49264551975079146,1.8121755645128927,-0.9801063423046632,-0.044425326389807,0.15626163377975888,0.1140186386421702,0.2129097378347069,0.020011544457619063,20533.506772383822
1682302874816090583,127,1682302874816090583,camera_1,128,0,0.6619510266537941,0.4927626662125074,1.812081861001852,-0.9800838225100046,-0.04444422390525312,0.15666818515853279,0.11364634430886608,0.20864086534129456,0.0196100818267846,20532.028414880628
1682302874825848340,128,1682302874825848340,camera_1,129,0,0.6618872286273658,0.49228314714962684,1.8119161418122902,-0.9800803559600871,-0.04454480715877271,0.15636713847302444,0.11405075195760368,0.22362668067216873,0.02101195871049311,20539.371845999965
1682302874835390806,129,1682302874835390806,camera_1,130,0,0.6620501358551396,0.4913799377584337,1.8122615193648925,-0.9800552191706001,-0.044437187841656,0.15643352246051917,0.11421758517753178,0.2333886366104707,0.02193386886951697,20535.523590025954
1682302874846402645,130,1682302874846402645,camera_1,131,0,0.6621706999065924,0.49014556479534827,1.812485506131616,-0.980068540309288,-0.044430026893348115,0.15642342227246914,0.11411985791634573,0.23632243991596624,0.02221039690376996,20540.515257041192
1682302874855798244,131,1682302874855798244,camera_1,132,0,0.6620963771201274,0.48873336779519383,1.8122262928412645,-0.9800759539691948,-0.0444213999339555,0.15707663287550527,0.1131582744821348,0.21555312594864517,0.02025036210363336,20555.67222284875
1682302874866076231,132,1682302874866076231,camera_1,133,0,0.662237477417956,0.48790022750189094,1.8125920932520114,-0.9801840283720552,-0.04455626810916433,0.15605869848370468,0.11357681155978457,0.22060195304220542,0.020727122584529824,20565.51630752627
1682302874875993013,133,1682302874875993013,camera_1,134,0,0.6617209042806991,0.4871740593748488,1.8111250454391794,-0.979996749337853,-0.04461075047696081,0.15670102218759482,0.11428491534094397,0.21977938909549266,0.020615048642735608,20583.320130241456
1682302874885978698,134,1682302874885978698,camera_1,135,0,0.6620780811799166,0.48774849201639187,1.8121069312807738,-0.9801003193587868,-0.04445308936164806,0.15650185789522567,0.113729746831478,0.2180809924029745,0.020479916078352353,20567.839944225845
1682302874895971298,135,1682302874895971298,camera_1,136,0,0.6618909922951863,0.4885633501989562,1.8116781031109583,-0.9800224652482469,-0.0446091638291984,0.15665185445511387,0.11413232060631455,0.21158917748834938,0.01986321268140373,20564.73981746193
1682302874906101226,136,1682302874906101226,camera_1,137,0,0.6621279965319072,0.4900737379553661,1.8123772928970336,-0.9800458671366941,-0.04443447516929791,0.15678951926531046,0.1138100275602609,0.20060797448968515,0.018851925188258685,20540.97382878186
1682302874916027069,137,1682302874916027069,camera_1,138,0,0.6619893237319507,0.491326112128294,1.8120869708410483,-0.9800145475484829,-0.04445875193963281,0.15669028018507122,0.11420622603359405,0.22785221348749474,0.021409756012604697,20535.59475947114
1682302874926192283,138,1682302874926192283,camera_1,139,0,0.6619952200047319,0.49236165479619304,1.8121982942414694,-0.9800819634978613,-0.044543036160322375,0.15621152356837828,0.1142507009179519,0.2312722193310037,0.021736652789552936,20533.194426320966
1682302874936064481,139,1682302874936064481,camera_1,140,0,0.6618427424235679,0.49268451003280767,1.8117676165722971,-0.980054363617395,-0.04450337426618059,0.15693910153416935,0.11350335873037093,0.21235437446739525,0.019953000966360386,20536.208205006078
1682302874946167230,140,1682302874946167230,camera_1,141,0,0.6621294083948582,0.49277687073649973,1.8125918664551877,-0.980193584866159,-0.04451155415245743,0.15562205836039764,0.11410973966245708,0.20659441745374352,0.01942576202297318,20532.968677837514
1682302874956012010,141,1682302874956012010,camera_1,142,0,0.6620655032101391,0.49193411738791487,1.8123745007259762,-0.9800392494832936,-0.04454624968000387,0.1566760428885823,0.1139794661175626,0.20093956397613508,0.018888449221642994,20528.333788601456
1682302874966137647,142,1682302874966137647,camera_1,143,0,0.6622012372347721,0.49079829717074175,1.8126881937019672,-0.980067566615618,-0.04435758486574496,0.15665139258527944,0.11384336051835452,0.195068990055006,0.018339221760529753,20531.697656885488
1682302874976248264,143,1682302874976248264,camera_1,144,0,0.6619395897860902,0.48923876444611375,1.811837153782828,-0.9800690613080101,-0.04446029045029226,0.15668582626988084,0.11374299752528218,0.21556521282764152,0.020243155455121738,20560.32551209093
1682302874986176967,144,1682302874986176967,camera_1,145,0,0.6619040502442924,0.4880626928974706,1.8116947845191858,-0.9800552034507246,-0.04459223026003394,0.15686905875727714,0.11355804504393788,0.19289440737338737,0.018107892165560528,20570.613444687682
1682302874996105670,145,1682302874996105670,camera_1,146,0,0.6618688654160723,0.4873718985170306,1.8114900682367416,-0.9800051762820573,-0.04461015960106961,0.15706693932005825,0.11370912317562676,0.21745893958723173,0.020407811591842514,20574.404950054377
1682302875006111860,146,1682302875006111860,camera_1,147,0,0.6618733731452808,0.4873738350140544,1.8115921328867006,-0.9800063586376204,-0.044578608113688634,0.15726962675624137,0.1134308125177213,0.19216203695395961,0.01803587842177794,20572.517896461646
1682302875016114950,147,1682302875016114950,camera_1,148,0,0.6619666066738371,0.48811028804686346,1.8118415820797038,-0.9800274003514504,-0.04465040049284202,0.15680400596067343,0.11386456872483165,0.20952954661333933,0.01967240303585366,20564.82906268177
1682302875026070833,148,1682302875026070833,camera_1,149,0,0.6621185427637442,0.48939697765978557,1.8123388091066475,-0.9800826863434653,-0.044573691546711286,0.15680906581985538,0.11341089378176819,0.18667548097437248,0.017540108991162706,20550.54508940503
1682302875035784006,149,1682302875035784006,camera_1,150,0,0.6621039776318695,0.4907182010250594,1.8123446983113047,-0.9800536913318628,-0.04456491910452746,0.15667465394274416,0.11384982610403022,0.20459638052852824,0.01922797432478341,20538.507620419834
1682302875046176433,150,1682302875046176433,camera_1,151,0,0.6619749528663956,0.49183715151693613,1.8121049221672123,-0.9800171869508383,-0.0445196379331259,0.1570241273565123,0.11370021348790409,0.20188992138719186,0.018973139167277463,20531.981081429407
1682302875056077241,151,1682302875056077241,camera_1,152,0,0.6619912115990789,0.49264308761260706,1.8121810343796667,-0.9801715062457041,-0.04448074306828047,0.15596779409031375,0.11383904886603033,0.21757966658333316,0.020450658665718807,20539.69237394957
1682302875066194057,152,1682302875066194057,camera_1,153,0,0.6618298085950629,0.4926844714262356,1.8117448879980558,-0.9800597394560169,-0.04443353495040009,0.15657223917764182,0.11398992055491232,0.21005771565251052,0.019735318959386877,20537.343742209017
1682302875076118469,153,1682302875076118469,camera_1,154,0,0.6619509130736088,0.4923414986757297,1.8120814657450988,-0.9800906948157356,-0.044537917536120894,0.15608383824236616,0.11435225960463252,0.21863350662169978,0.020545506865844266,20536.78556724603
1682302875086214065,154,1682302875086214065,camera_1,155,0,0.6620680444079856,0.49137666577275396,1.8123296481996662,-0.9800813663189853,-0.044576079748241154,0.1563916207269287,0.11399626956613094,0.22252724575810134,0.020914636934352457,20537.240507482085
1682302875096119403,155,1682302875096119403,camera_1,156,0,0.6621433941394947,0.49013882917733465,1.8124586788405306,-0.9800888684115265,-0.044620317741444815,0.1561883948260556,0.11419291826609206,0.21660511184018105,0.02035556978426308,20544.329019429395
1682302875106321573,156,1682302875106321573,camera_1,157,0,0.6620235848827063,0.4886944867502639,1.8120405015607972,-0.9800460075968273,-0.04454769607773856,0.15665263455095346,0.11395296334861428,0.20169781049480662,0.018942569951730978,20558.189208343174
1682302875116147994,157,1682302875116147994,camera_1,158,0,0.6621746010317664,0.48783620168397523,1.8124214622051005,-0.980156629508688,-0.04461505268543945,0.15640880161682819,0.1133082763121552,0.21977718611015007,0.02064671720613603,20566.816547217895
1682302875126147031,158,1682302875126147031,camera_1,159,0,0.6618742446552536,0.4872825654086529,1.8115557363464132,-0.980014045655232,-0.04477103951958636,0.15711206338948383,0.11350693316401181,0.21552346961107105,0.020227374670312784,20575.32350408101
1682302875135962486,159,1682302875135962486,camera_1,160,0,0.662194694710852,0.48786031976913985,1.812442838015438,-0.9801551400473534,-0.04455148488321987,0.156315942080842,0.11347419479702205,0.21837953646900132,0.020515580999777593,20565.811515413923
1682302875146090269,160,1682302875146090269,camera_1,161,0,0.6620554263336627,0.4886998210872919,1.8121016415307691,-0.9800545774225456,-0.04453323151378105,0.15684374268914192,0.11362155140341047,0.21150614193174988,0.019866111067349018,20557.24756243662
1682302875155842542,161,1682302875155842542,camera_1,162,0,0.662268033708547,0.4901851521958872,1.812778174163322,-0.9800758258662674,-0.04446146119856851,0.15657920907143177,0.11383103841750328,0.21033764502499253,0.019774657269555136,20535.056208605645
1682302875166035890,162,1682302875166035890,camera_1,163,0,0.6622476504200467,0.4915049264521694,1.8127734094248302,-0.9801312245423205,-0.044476638669030275,0.1562429169551813,0.11381020249174541,0.21900403045583516,0.020593810373117916,20531.296735300686
1682302875176192522,163,1682302875176192522,camera_1,164,0,0.6619386047805863,0.4923293461472112,1.8120781521785805,-0.9801002412349061,-0.044515132412086454,0.15627960645466202,0.11401142365565503,0.23439500975655392,0.0220277044553909,20537.57213794731
1682302875186205625,164,1682302875186205625,camera_1,165,0,0.6619955707250538,0.4928055331393769,1.8121953291164028,-0.9801398344111398,-0.04447478321537553,0.15597981412021641,0.11409731042172482,0.2101197986630723,0.019749850122557415,20535.31317839959
1682302875196179866,165,1682302875196179866,camera_1,166,0,0.662045438056208,0.4927019603436982,1.812353225070787,-0.9801101631368828,-0.04452788517324487,0.15630664741017386,0.11388400911972964,0.19956822029780596,0.01876137385593639,20530.102957787443
1682302875206117868,166,1682302875206117868,camera_1,167,0,0.6619940270446794,0.49188110351004066,1.812161702300981,-0.9800334058017018,-0.0445101387942875,0.15647426189939084,0.11432049868799163,0.20955517358379439,0.019693041573194174,20532.546503435817
1682302875216210365,167,1682302875216210365,camera_1,168,0,0.6619540295066559,0.49062963971029894,1.8120075813161018,-0.9800700034090362,-0.04441073143768021,0.15660990049609835,0.11385874765508451,0.21008569083642217,0.019736373440124414,20547.381085479858
1682302875226186513,168,1682302875226186513,camera_1,169,0,0.6621777901132948,0.4894127509047365,1.8124950717631796,-0.9801150542357191,-0.04461741233150719,0.15674172788280363,0.1132068801693034,0.18746461509726942,0.01761747265168622,20550.34498141298
1682302875236155986,169,1682302875236155986,camera_1,170,0,0.6618650490832616,0.48804766591547916,1.8115937491500964,-0.9800360045290547,-0.044582057772721354,0.15697926521620392,0.11357543855806677,0.21730918571120128,0.020398193634595996,20570.79286313719
1682302875246217250,170,1682302875246217250,camera_1,171,0,0.6617814852801468,0.487317976385371,1.8113235625985702,-0.9800286110899128,-0.04462055418763082,0.15674504011324072,0.11394700517812523,0.21051818615524098,0.019751429656222903,20581.229686884682
1682302875256167888,171,1682302875256167888,camera_1,172,0,0.6618974750855677,0.48738878238288025,1.811648897757356,-0.9800473647017576,-0.044606629211335486,0.1572319363663145,0.11311732739965984,0.19651208084542304,0.01844584084587302,20575.06961703277
1682302875266260385,172,1682302875266260385,camera_1,173,0,0.6617950224671417,0.4879795863371511,1.811358556520041,-0.979978236319097,-0.0446126481853283,0.1571204937266967,0.11386623034896448,0.20711742370622233,0.019436053305162623,20570.737793017415
1682302875276087045,173,1682302875276087045,camera_1,174,0,0.6619342581430556,0.489257583430811,1.8118571350548098,-0.9800720897282144,-0.04439019836424135,0.15667845055289634,0.11375443884656944,0.19602692784974352,0.018408387884990007,20560.0500313635
1682302875286134004,174,1682302875286134004,camera_1,175,0,0.6621619276720873,0.4907601993015991,1.8125442126023308,-0.9800782202354037,-0.044530380417777474,0.15665379418725087,0.11368076445375547,0.21580683439970016,0.02028625220893717,20536.375716922565
1682302875296078443,175,1682302875296078443,camera_1,176,0,0.6620073690467512,0.49189192718715613,1.812225773270642,-0.98004610600965,-0.044656334275896756,0.1564208619753003,0.11422764920659703,0.21879126911517233,0.020562492987450647,20533.038369275404
1682302875306251525,176,1682302875306251525,camera_1,177,0,0.6620139023293913,0.4926721015868693,1.8122733698784492,-0.9801482437454141,-0.044413015434889264,0.1563528616691878,0.11353716127601711,0.21926012955373153,0.020611773368829897,20534.93024222913
1682302875316032409,177,1682302875316032409,camera_1,178,0,0.6619049949374513,0.4927405550862415,1.811967483474828,-0.9800814643217874,-0.04444784515519935,0.15678652890899836,0.11350196785337435,0.21720635413657874,0.020413192727379913,20534.209556103564
1682302875325671195,178,1682302875325671195,camera_1,179,0,0.6618231995802749,0.49222337572096087,1.8117447645784595,-0.9800406844656906,-0.04451749627733724,0.1567273150916389,0.11390784881378604,0.20650694897631183,0.019400225013857738,20539.271270780584
1682302875336119890,179,1682302875336119890,camera_1,180,0,0.6621647519898501,0.49147414464346045,1.8126044841557383,-0.9800690426741762,-0.04435063245192143,0.15672196289985293,0.11373618306262757,0.2029772720998153,0.01908377731497555,20528.593873856364
1682302875345883369,180,1682302875345883369,camera_1,181,0,0.6621276456729779,0.49007980908196236,1.8123668808940672,-0.9800644093342131,-0.044456208673813245,0.1564721927364303,0.11407827123069353,0.21299269108567387,0.02001485090181256,20543.173343328184
1682302875356120109,181,1682302875356120109,camera_1,182,0,0.6620229539344972,0.48870711402437095,1.812054855368371,-0.9800837885114482,-0.04448638675714594,0.15682685427915605,0.1134110517861689,0.2230737498612143,0.02095202599659085,20560.82894166944
1682302875366102933,182,1682302875366102933,camera_1,183,0,0.6622105621441452,0.4878655628840886,1.8124607742058039,-0.9801480906817601,-0.04446979864924873,0.15659009862063297,0.11318877309599143,0.22027097007958218,0.02069490981881311,20563.931112934017
1682302875376251459,183,1682302875376251459,camera_1,184,0,0.6618052751012876,0.48722728089024936,1.8113736412637378,-0.980004164678582,-0.04476765962187964,0.15705011188070045,0.11367918113213984,0.2131888511357829,0.020003761662701704,20578.700034553658
1682302875386070251,184,1682302875386070251,camera_1,185,0,0.6621788257191776,0.48784219496878045,1.812396704739698,-0.9801419970448658,-0.044534709556626334,0.1562244599351589,0.11372002194678447,0.20521455886773765,0.01927711991727209,20565.750289711974
1682302875396394491,185,1682302875396394491,camera_1,186,0,0.6620243861677443,0.48866927083955547,1.8120075078670135,-0.9800776126911807,-0.044570377892992,0.15641655701238505,0.11399655787971519,0.21610018896171823,0.02029417436162951,20562.13536132907
1682302875407825946,186,1682302875407825946,camera_1,187,0,0.6619878905499033,0.48996934086649874,1.8119981898974238,-0.9800520824610346,-0.04451466634214304,0.15657112730201708,0.11402562097885079,0.2189297136501409,0.020564551159412494,20550.672678914158
1682302875417535066,187,1682302875417535066,camera_1,188,0,0.6620860137115153,0.49140504171750643,1.812397530346657,-0.9800997176481863,-0.04445069016776395,0.15635002047539362,0.11394450713790169,0.20657084573758766,0.01941613769581708,20537.063467761152
1682302875426270961,188,1682302875426270961,camera_1,189,0,0.6620079212479478,0.49237486971636757,1.8122741344841018,-0.9800865093622371,-0.044629847721019106,0.15611561170409008,0.11430890884267149,0.2216245646122843,0.020830978560254735,20532.65137746802
1682302875436333894,189,1682302875436333894,camera_1,190,0,0.6619253957249026,0.4927581725451102,1.8120193263621236,-0.9801015355885997,-0.0445384216534872,0.15638428055414902,0.11384755477851236,0.21596907981438562,0.020296759510388045,20535.654324663104
1682302875446506977,190,1682302875446506977,camera_1,191,0,0.6620134621591846,0.4926807314668464,1.8122594864776875,-0.9801518159684999,-0.044417302947100334,0.15603174302347805,0.11394567135969971,0.1952352697844617,0.018351683563686102,20535.851994274646
1682302875456068515,191,1682302875456068515,camera_1,192,0,0.6621351429117072,0.49199899516696627,1.8125616954022907,-0.980120566303176,-0.0444766769018434,0.15595088055120593,0.11430145920597232,0.2061576273990795,0.019381530795109996,20531.922748572317
1682302875466567993,192,1682302875466567993,camera_1,193,0,0.6619537025480988,0.49061611387490356,1.8119720511415214,-0.9799874237149961,-0.044572371742795366,0.1569587284619121,0.11402592072544881,0.20163362292805687,0.018941656742306426,20540.828368861345
1682302875476149082,193,1682302875476149082,camera_1,194,0,0.6621342223768212,0.4893899329744291,1.81235829032819,-0.98008316028353,-0.04445367843690504,0.15704557044380638,0.11312629316854733,0.2135988874360919,0.020071794080817593,20549.219192640856
1682302875486236095,194,1682302875486236095,camera_1,195,0,0.6618829136849274,0.48804879837246096,1.811661985740233,-0.9800517025456473,-0.044698874638628774,0.15708085672049701,0.1132531473972043,0.19478525506565347,0.018285453411983933,20571.332171609625
1682302875496080636,195,1682302875496080636,camera_1,196,0,0.6619345264630624,0.48742727175457057,1.8117354151868845,-0.9800824970583802,-0.04455155231510705,0.156779320697672,0.11346234065848045,0.21002185792895034,0.01971486271705149,20576.39883083163
1682302875506179809,196,1682302875506179809,camera_1,197,0,0.6618700707406794,0.4873691007499184,1.811545317744448,-0.9800459855529293,-0.044691720142501265,0.15683881315509474,0.11364023512996238,0.20712362875929102,0.019438382748569027,20577.880625137586
1682302875516037225,197,1682302875516037225,camera_1,198,0,0.6617956162940658,0.48796742921727243,1.811338649174676,-0.980021331944958,-0.044552564105480676,0.15672713533050983,0.11406078649364912,0.21171898063039407,0.019866664359997125,20575.25462455931
1682302875526183605,198,1682302875526183605,camera_1,199,0,0.6621130314786612,0.4894000809327484,1.812328223367956,-0.9800485144458256,-0.044504202687745804,0.15662525424176602,0.11398602988682659,0.1973229898721911,0.018539367073199517,20547.535297832444
1682302875536283493,199,1682302875536283493,camera_1,200,0,0.662201059384194,0.49076757666557935,1.812593289232052,-0.9801003567804275,-0.044519436270520386,0.1561890225314475,0.11413281593698084,0.20285112352576107,0.019067999057408636,20537.564775035135
1682302875546165466,200,1682302875546165466,camera_1,201,0,0.6619952411508874,0.4918733277529196,1.8121708915736607,-0.9800401072928736,-0.04444415739114027,0.15642917980734283,0.11435041178748125,0.22611349949147552,0.021249465992942213,20532.775382440763
1682302875556167602,201,1682302875556167602,camera_1,202,0,0.6621817517217062,0.4927909944252014,1.8127046446331585,-0.9801500761862944,-0.04449982873205407,0.15590674775066246,0.11409942769633336,0.22727736498927698,0.021374054305267533,20525.990151365168
1682302875566183328,202,1682302875566183328,camera_1,203,0,0.6618920062001526,0.4927107140007937,1.811923721090371,-0.9801013085978248,-0.044333670503384416,0.15647504020282577,0.11380471140534047,0.2184364105341956,0.02052679383046708,20537.006483045407
1682302875576242208,203,1682302875576242208,camera_1,204,0,0.6619249956510572,0.49232456671501784,1.8120295866629392,-0.9800660121839433,-0.044493971813082706,0.1565155422966107,0.11399027701412646,0.2279290067963302,0.021419358935578472,20535.074648466434
1682302875586163997,204,1682302875586163997,camera_1,205,0,0.6619944420968423,0.4913383234239624,1.8121676087798695,-0.9800572002729397,-0.04450350219409439,0.15674452450123624,0.11374742425439098,0.21740534889977425,0.020430452173918853,20538.175606599078
1682302875596087217,205,1682302875596087217,camera_1,206,0,0.6620404144193951,0.49002132624651973,1.8121580326811573,-0.9800848560623978,-0.04456223093930467,0.1564408975479545,0.11390403006589148,0.21143398445565253,0.019863857699657313,20550.38939597085
1682302875606198787,206,1682302875606198787,camera_1,207,0,0.6619346079685173,0.4886021561763803,1.8117613336136111,-0.9800349181429951,-0.04460885677088791,0.1571167160503776,0.11338406702703929,0.19798084709327668,0.018589352517113408,20563.15637982299
1682302875616060256,207,1682302875616060256,camera_1,208,0,0.6621775276655492,0.4878577970504698,1.8124391986931196,-0.9801686332766306,-0.04459769807243699,0.15592818368350408,0.11387228460176438,0.22760055994149297,0.02138041702234739,20567.906593563384
1682302875626106977,208,1682302875626106977,camera_1,209,0,0.6616577290043016,0.487116039431286,1.8109500432809238,-0.9799900406971324,-0.044608559879337636,0.15734279495046896,0.1134585448395108,0.20543432276463136,0.01926801503670433,20585.954289459747
1682302875636114597,209,1682302875636114597,camera_1,210,0,0.6620820524277042,0.48774836368459284,1.812109798295591,-0.9800994715760736,-0.04457605778729498,0.15656270508398196,0.11360510668641267,0.19706123822834343,0.018505960063546132,20568.150414826814
1682302875646188974,210,1682302875646188974,camera_1,211,0,0.661988928942111,0.4886393726085942,1.8119484261254826,-0.9800596490747758,-0.04453469197070239,0.15676222710629448,0.11368970762200295,0.19689700758317485,0.018490219524631778,20561.594611665
1682302875656143188,211,1682302875656143188,camera_1,212,0,0.6622470322348788,0.49016838902894555,1.8127078668390841,-0.9801202485643333,-0.044440322731579496,0.15630299632635053,0.11383641512761895,0.21574615768622607,0.020281316303809027,20540.803129762535
1682302875666212081,212,1682302875666212081,camera_1,213,0,0.6621449846920155,0.49143634439430484,1.8125538869681668,-0.9800937503525196,-0.04445721184606147,0.1560109545760632,0.114456886586492,0.19742820248939097,0.018558568822996453,20533.468688338875
1682302875676206350,213,1682302875676206350,camera_1,214,0,0.6619266420197997,0.4923065161502407,1.8119928042014708,-0.9801282558764451,-0.04437590694159308,0.15632344041571733,0.11376450629393434,0.22441202017944306,0.02108821613153178,20541.226672739955
1682302875686160087,214,1682302875686160087,camera_1,215,0,0.6619230677501488,0.4927683503536805,1.812032765370871,-0.9800590917846957,-0.04443830724139005,0.1564596653390413,0.11414809057392213,0.2317339379223995,0.021778472370777586,20530.99329266092
1682302875696215629,215,1682302875696215629,camera_1,216,0,0.6619797559048037,0.4926674311597755,1.8121688653628274,-0.9801634179810615,-0.04435443295550496,0.15612850481394794,0.11373762927650488,0.22156285279197618,0.0208253514244014,20538.4455505535
1682302875706226825,216,1682302875706226825,camera_1,217,0,0.6620278735492586,0.49191069909091534,1.812252095382997,-0.9800605355584836,-0.044403437724273326,0.15641749923823217,0.11420703695982397,0.21154867194127291,0.019882569267735364,20532.57753474801
1682302875716202497,217,1682302875716202497,camera_1,218,0,0.6621394543961637,0.4907548029943941,1.8124730209547113,-0.9801135175021005,-0.04453656724948115,0.15622176102337781,0.113968190167463,0.20551810920005664,0.01931637786969402,20541.609989230637
1682302875726106166,218,1682302875726106166,camera_1,219,0,0.6621627319597394,0.4893931772551225,1.8124344652543825,-0.9801268317985802,-0.04443824637548862,0.15637300682938798,0.1136842934740126,0.19523805991047993,0.018345796228171233,20552.369581465253
1682302875736163616,219,1682302875736163616,camera_1,220,0,0.6617073473430632,0.4879036276692786,1.8111388919392246,-0.9799729121203987,-0.044558164008041364,0.1575194943846443,0.11338108492735427,0.19751022738637403,0.01853129200956761,20574.72147108207
1682302875746137857,220,1682302875746137857,camera_1,221,0,0.6619482340875137,0.4874494868798117,1.811776400673936,-0.9801027201177165,-0.04454059734227153,0.15657035902329308,0.11358043793525319,0.22879922855645418,0.02147823672677071,20577.390856694314
1682302875756201267,221,1682302875756201267,camera_1,222,0,0.6619695591441563,0.4874716436215529,1.8118569006375056,-0.9801193170867918,-0.044663990338828806,0.15651061950080447,0.11347104575092465,0.2055173529079184,0.019293936512849778,20577.859342415584
1682302875766013622,222,1682302875766013622,camera_1,223,0,0.6620154073329829,0.4881468724709723,1.811979244857587,-0.9801358729039695,-0.04469167129536854,0.1564589566985566,0.11338835933375058,0.21578554261941463,0.020263256427022883,20572.12210329773
1682302875776247262,223,1682302875776247262,camera_1,224,0,0.6620839477480563,0.4893633268251792,1.8122400799063345,-0.9800128964294328,-0.04449054556958139,0.1571142001117198,0.11362412732412674,0.21324969368288293,0.020035476755130184,20545.638965700287
1682302875786354064,224,1682302875786354064,camera_1,225,0,0.6621660317458211,0.4907454878370807,1.8125407933585,-0.9800786619178051,-0.04439979914282593,0.15660496549258443,0.11379525065901433,0.20222357154125348,0.019008973361925266,20536.086830141154
1682302875796275615,225,1682302875796275615,camera_1,226,0,0.6619279568345643,0.49181743253007354,1.811970362921304,-0.9800026054561269,-0.04457978213052004,0.15667800382279595,0.11427834196601848,0.21707795222755522,0.020396107944551267,20534.142217512475
1682302875806320190,226,1682302875806320190,camera_1,227,0,0.6620722960858165,0.49271153831374565,1.812398838146288,-0.9801512476831498,-0.04442168720552339,0.15621587081388252,0.11369629315347055,0.1995479481993243,0.018760710707844894,20532.40195582853
1682302875816087245,227,1682302875816087245,camera_1,228,0,0.6619014875725115,0.4927305512526393,1.8119691697788924,-0.9801290162266083,-0.04461753482383799,0.15625656916955066,0.11375531516490181,0.19735267193755135,0.018545751023925278,20539.979590658564
1682302875826195478,228,1682302875826195478,camera_1,229,0,0.6619858411100695,0.492362351410105,1.8121631151681756,-0.9800833607855967,-0.0444921071079537,0.15652684463349797,0.11382620623294651,0.2249296548543498,0.021140973847497913,20533.483030329222
1682302875836054801,229,1682302875836054801,camera_1,230,0,0.6620706802910253,0.49140726607195373,1.8123812481981918,-0.9800712737211039,-0.044459231340801326,0.1564339008380505,0.11407063532684063,0.2281647624913603,0.02144564246415781,20534.75389766169
1682302875846103906,230,1682302875846103906,camera_1,231,0,0.6621486435672044,0.49013855133954515,1.8124453675528598,-0.9800493991578016,-0.04445507242290536,0.156709600684436,0.11388161747898982,0.2156456266529858,0.020266661971936294,20539.618449412985
1682302875856116533,231,1682302875856116533,camera_1,232,0,0.6621106052827633,0.48877434762564,1.8123234707372204,-0.9800867575085809,-0.04454103371671857,0.15654960491203065,0.11374649565436962,0.20580292987870052,0.01933423765056242,20555.780515740502
1682302875865664243,232,1682302875865664243,camera_1,233,0,0.6620680858109846,0.48778631881042017,1.812149141700817,-0.9801385518336061,-0.04466596976252736,0.15629383900468027,0.11360284434763748,0.21836017275927588,0.020506650949832415,20571.634065807564
