%time,field.header.seq,field.header.stamp,field.header.frame_id,field.image_seq,field.transforms0.fiducial_id,field.transforms0.transform.translation.x,field.transforms0.transform.translation.y,field.transforms0.transform.translation.z,field.transforms0.transform.rotation.x,field.transforms0.transform.rotation.y,field.transforms0.transform.rotation.z,field.transforms0.transform.rotation.w,field.transforms0.image_error,field.transforms0.object_error,field.transforms0.fiducial_area
1682465898577064037,0,1682465898577064037,camera_2,1,0,0.26771305657840716,0.3721240131656748,3.6799109190981474,-0.9984144505098119,0.0299868236082741,0.02576438904872811,0.04006958547355446,0.01031561876880005,0.0019431871299909701,19232.14036493306
1682465898586362600,1,1682465898586362600,camera_2,2,0,0.2677927440341366,0.3722494682792376,3.6811466986028227,-0.998428872307995,0.030028560103761103,0.026175883930772935,0.03940679662600148,0.01335834281053394,0.002518017930799415,19220.765497331973
1682465898605008840,2,1682465898605008840,camera_2,4,0,0.2677532824717616,0.3721809472098407,3.6802196883454084,-0.9983276647909253,0.030077827031960266,0.026163989763793177,0.04186458734746561,0.014261990319937468,0.002687261884076202,19220.479536594125
1682465898614448308,3,1682465898614448308,camera_2,5,0,0.26775182358594063,0.37215504025091073,3.6801822439309064,-0.9983727184830274,0.03036532168001247,0.02521197240013651,0.04116088769419312,0.017152773041743785,0.0032318464170191367,19226.347919432454
1682465898623682498,4,1682465898623682498,camera_2,6,0,0.2677397712256637,0.3721487957413491,3.6800915081563432,-0.9983925185034022,0.030163277678100595,0.024958227150589877,0.04098344267685669,0.0135400400031358,0.0025510109562093745,19228.683156643765
1682465898633150100,5,1682465898633150100,camera_2,7,0,0.2678020220057048,0.3722204061309627,3.6807731602456837,-0.9984204306466383,0.03029293980251661,0.02713491863294269,0.03876438644279203,0.023918326070997864,0.00450755898075906,19224.424038623456
1682465898642621994,6,1682465898642621994,camera_2,8,0,0.26785325428130347,0.3722685438178719,3.6814695745112727,-0.9984650771842875,0.030241438481036977,0.026684048806531753,0.037959275299501674,0.020747273694723845,0.003911456287044319,19221.53348597116
1682465898651600837,7,1682465898651600837,camera_2,9,0,0.26771021626682306,0.3721081580338368,3.6797661774613113,-0.9983542069424407,0.030140960141055207,0.02551246227867708,0.041587429237509355,0.011858117126394063,0.0022337157589762137,19228.197619533632
1682465898661187171,8,1682465898661187171,camera_2,10,0,0.2677825274552625,0.37218879828540335,3.680531490786875,-0.9984264715595594,0.03010568302081784,0.026378530414693287,0.03927342450231999,0.01005545660154894,0.0018947861156951176,19227.072204185424
1682465898670500278,9,1682465898670500278,camera_2,11,0,0.2678191030134276,0.3722581762921322,3.6811670139624137,-0.9984330746737399,0.0300941398526633,0.0245551723336918,0.04028376417036393,0.009680004615802318,0.0018248050336285302,19221.31151112728
1682465898679695129,10,1682465898679695129,camera_2,12,0,0.2677883975741447,0.3721635090675789,3.6805461327622258,-0.9984454644013534,0.03025362787748357,0.027593890204883377,0.03781467757336271,0.014488439075648785,0.00272990201746231,19229.230464027263
1682465898689238786,11,1682465898689238786,camera_2,13,0,0.2677862973055849,0.37220540798177115,3.680808649291984,-0.9984639180745206,0.02998998289712646,0.02780333456237714,0.037381543792617676,0.01048345654271543,0.001975519464450698,19227.54773053316
1682465898698340654,12,1682465898698340654,camera_2,14,0,0.26776389901798686,0.37214102805506677,3.680220642606111,-0.9983769715740997,0.030147101703379687,0.028192203033311148,0.03923996148754366,0.010848387610167265,0.0020436492145789026,19225.441145401448
1682465898707467079,13,1682465898707467079,camera_2,15,0,0.26774549113372303,0.3721434964706159,3.6801206084187075,-0.9984137318454093,0.030195020785643945,0.0278189827094222,0.038527717078628315,0.015358173404820263,0.002893208624212288,19230.269790278046
1682465898717075824,14,1682465898717075824,camera_2,16,0,0.26776102947284897,0.3721676737284649,3.6802889939855294,-0.9984056157341185,0.030099921241240436,0.026432372680297102,0.039768717433892625,0.01385309622855857,0.0026101553806132127,19227.49628012628
1682465898726402759,15,1682465898726402759,camera_2,17,0,0.2677992084391493,0.37219944879958256,3.680578510245955,-0.9984230997615985,0.030263104394803658,0.02742313262025253,0.038515323861059686,0.02272430859738961,0.004282127317317698,19226.574027798833
1682465898735723257,16,1682465898735723257,camera_2,18,0,0.2678890498268497,0.37229255129804617,3.6817142210495217,-0.998486844282846,0.030420099727808667,0.027276065211506825,0.03680564621374925,0.025122646358795464,0.004736752000718274,19221.64660801599
1682465898744932174,17,1682465898744932174,camera_2,19,0,0.26778924493225476,0.37220138648023104,3.6806924263875618,-0.9984915215081926,0.030266580333530926,0.0259583630158982,0.03774624459073245,0.016265169309917837,0.0030651352218281237,19232.417508350452
1682465898754217147,18,1682465898754217147,camera_2,20,0,0.26775346934363836,0.3721788964226356,3.6803643170610445,-0.9983870582252089,0.03017499917759781,0.025812758674895086,0.040576506535641654,0.014286252204328775,0.0026918436454136736,19225.230080220383
1682465898763601064,19,1682465898763601064,camera_2,21,0,0.2677871268587102,0.37218515213920356,3.6806000409152193,-0.9984660023245021,0.030254770994833518,0.02701909489098108,0.03768633101602922,0.01821431203279644,0.003432222431438926,19230.710292451546
1682465898772936344,20,1682465898772936344,camera_2,22,0,0.26776561005615995,0.3721655215177756,3.6803055502491135,-0.9983964511883813,0.030279313778960117,0.026586415108899412,0.039759928862847356,0.014922470378223807,0.0028115372920286185,19226.96698941314
1682465898782305240,21,1682465898782305240,camera_2,23,0,0.26783162645177583,0.37226234914769685,3.6810862305903918,-0.9984484891567429,0.03003280703279318,0.02572941647027829,0.039200027174065066,0.01555659534642473,0.002932452809355763,19223.242545687826
1682465898791727542,22,1682465898791727542,camera_2,24,0,0.2677071236542422,0.37210759108478153,3.679732481403222,-0.9983648826603154,0.03007427072145936,0.025948413721302733,0.0411069232195129,0.01381013129139319,0.002601315983348721,19229.327758051448
1682465898801109075,23,1682465898801109075,camera_2,25,0,0.2677887329683289,0.37220040163368356,3.680573196392505,-0.9983784053525392,0.030067274014547223,0.027134397441468387,0.040003040316248975,0.010988118883688003,0.0020705505593977824,19221.67303453572
1682465898810258865,24,1682465898810258865,camera_2,26,0,0.2678325695401423,0.37224977565093426,3.6810393569869295,-0.9984428287641102,0.030228468862394945,0.027387559169457273,0.03805363271090298,0.017097404808737338,0.003222537290869189,19223.63086257688
1682465898819790601,25,1682465898819790601,camera_2,27,0,0.2678168950029651,0.3722467395799042,3.6811168526276012,-0.9984829401242126,0.03027771155938178,0.02739228362560328,0.03694240465115065,0.013676854607183484,0.002577831509684706,19227.07072213757
1682465898829044342,26,1682465898829044342,camera_2,28,0,0.267771829178,0.37216639489389625,3.6802721852029414,-0.9984235221907467,0.030146976460350708,0.026857134971117295,0.03899133811074055,0.01608221704373136,0.0030300308934594683,19229.525094428092
1682465898838389873,27,1682465898838389873,camera_2,29,0,0.26774208440352165,0.372149821108751,3.679955315807587,-0.9983639713662241,0.030229710136194143,0.024519312301192236,0.04188494511420105,0.01160733081633225,0.002186843140519911,19227.504024042282
1682465898847809791,28,1682465898847809791,camera_2,30,0,0.2677881575276895,0.37219956233991597,3.680555560049684,-0.9983823264772986,0.03022241784006538,0.027072658525481557,0.03982972254535634,0.015409258485306054,0.0029036318078406883,19222.710338489396
1682465898857055902,29,1682465898857055902,camera_2,31,0,0.26783786933999454,0.37227266553629895,3.6813140100931863,-0.9984573162480791,0.030130915861623666,0.0271228392840411,0.037940310083014565,0.015954763744957745,0.00300756354063329,19221.990850883536
1682465898866573333,30,1682465898866573333,camera_2,32,0,0.26773090149231227,0.37213045185998683,3.680000679960686,-0.9983905041911473,0.03016374134859529,0.026946667783330856,0.03975458393917249,0.0074408932705409825,0.0014016774213107357,19229.209957697203
1682465898875683546,31,1682465898875683546,camera_2,33,0,0.26783549916855176,0.37227276008024784,3.681326943437865,-0.9984692500175827,0.030302603174023786,0.026813703976723616,0.03770854398212714,0.02019801433198154,0.003807577535631195,19223.58683172497
1682465898884989023,32,1682465898884989023,camera_2,34,0,0.2677834550354047,0.37222702281832526,3.680788305450152,-0.998423820667916,0.030250446944764427,0.02529190573213183,0.039938756702731976,0.01261470909230411,0.0023774981116337327,19224.701671952615
1682465898894600152,33,1682465898894600152,camera_2,35,0,0.2677750383385351,0.37214179351105536,3.680208379676161,-0.9984324296928693,0.03022169186545493,0.02758153074979664,0.038191515286530975,0.022319743293337524,0.0042049578098373435,19231.276902346857
1682465898903536558,34,1682465898903536558,camera_2,36,0,0.26770449094019755,0.3720790466876861,3.679559434515738,-0.9984055658902156,0.030225549288953196,0.027761109543813545,0.03875645709447742,0.01590825361199677,0.0029959502726622043,19235.424114275724
1682465898912997722,35,1682465898912997722,camera_2,37,0,0.2677224150930848,0.3721298514720255,3.679880937720608,-0.9983915527237842,0.03010348778463287,0.02699007757406822,0.03974447364775752,0.010408407193608582,0.0019605704960884342,19230.349466806518
1682465898922208786,36,1682465898922208786,camera_2,38,0,0.26770176186558975,0.37211069780227296,3.6797142633736692,-0.9984054274631714,0.030120743150039035,0.024512833634787807,0.04096906432132184,0.017579205916263163,0.0033113942257529867,19233.85722632194
1682465898931493282,37,1682465898931493282,camera_2,39,0,0.2677284310451773,0.3721112328192553,3.6796836616903974,-0.9983620600573105,0.03022369740074744,0.025640379235322076,0.04125889123837306,0.019030853698495775,0.003584735621940862,19229.968528646044
1682465898941006422,38,1682465898941006422,camera_2,40,0,0.2678047305799709,0.3722330496448802,3.680960393356435,-0.9984784609821704,0.03014112801569131,0.025792079611496536,0.03830201020746301,0.0180157603463158,0.0033956658992897325,19227.937969989143
1682465898950266361,39,1682465898950266361,camera_2,41,0,0.2677543825617555,0.37216057143377224,3.6801390821017606,-0.9984032305938437,0.030204313709863373,0.027003889420954972,0.03936341612758263,0.018562856945209205,0.003497067452681973,19229.07649122714
1682465898959591388,40,1682465898959591388,camera_2,42,0,0.26768193445132143,0.3720487546892247,3.6791420865120874,-0.9983756887662003,0.030246536457513507,0.028393241162478933,0.03905067181533099,0.01800455793272704,0.0033899369467903736,19236.793402306736
1682465898969127416,41,1682465898969127416,camera_2,43,0,0.26772506156099973,0.3720979033644582,3.6797369204406696,-0.9983984071876688,0.030180227163364586,0.027011182602078843,0.0394989927457747,0.015878185513429344,0.0029906450889182323,19232.772344326368
1682465898978270292,42,1682465898978270292,camera_2,44,0,0.26777803618846985,0.37220696792500263,3.6806647116335003,-0.9984479285924289,0.030124609798444394,0.026170172237633682,0.038850532287627304,0.023473734501749277,0.00442372229042162,19227.896415310912
1682465898987740278,43,1682465898987740278,camera_2,45,0,0.2677405335670548,0.37211787762360393,3.6799523993743866,-0.9984479213981398,0.030420532827116507,0.026581280542878376,0.03833764420186971,0.023120676283724606,0.0043554548063515705,19236.185788878713
1682465898996899604,44,1682465898996899604,camera_2,46,0,0.267743870515183,0.3721673931689352,3.680170634923697,-0.9984378861961843,0.030093323368856662,0.025154737927561274,0.039792190898574165,0.015557099191937596,0.002931107901525704,19232.061317587966
1682465899006387948,45,1682465899006387948,camera_2,47,0,0.2676757386812295,0.3720491030497883,3.679162629951497,-0.9983630470421753,0.030131029382320783,0.027060132506283974,0.0403868369368961,0.018377615662757307,0.0034605381547796856,19235.089314190907
1682465899015633583,46,1682465899015633583,camera_2,48,0,0.2677072695796612,0.3721288509167546,3.679734147046146,-0.9984133015136424,0.03013293756006721,0.02635907810020592,0.03959904590185497,0.01347718562465161,0.0025385571255152053,19234.140853296492
1682465899024826288,47,1682465899024826288,camera_2,49,0,0.26767411519930345,0.37204809901732305,3.679072011671276,-0.9983522377686368,0.03016403352245397,0.02741041057702083,0.04039319021828919,0.012054261867888272,0.0022696278215534626,19235.019699207045
1682465899034397363,48,1682465899034397363,camera_2,50,0,0.2676595423006107,0.372030324277281,3.6788788718091725,-0.9983548897726658,0.030218982859135803,0.025057248083349668,0.041790686288417485,0.016033744963351637,0.003018999765211266,19237.75415951875
1682465899043710947,49,1682465899043710947,camera_2,51,0,0.26767346429339484,0.37206060889251313,3.679273239044905,-0.9983740084334334,0.029984977064721325,0.026320511249558465,0.04071205131835965,0.00811368931317702,0.0015278721882026447,19234.7128006271
1682465899052833318,50,1682465899052833318,camera_2,52,0,0.26776113068981927,0.37219282162926337,3.680322804172264,-0.9984045007874618,0.030338030968992402,0.025585428381247628,0.04016768027670684,0.016806842759251595,0.003166833608787238,19227.812538622187
1682465899062379837,51,1682465899062379837,camera_2,53,0,0.26770583710263757,0.372093534183448,3.6797175627023697,-0.998458683062034,0.03018045378644825,0.025809058022072486,0.03877229618279097,0.014742766739800572,0.002776834006175833,19239.11649448704
1682465899072145223,52,1682465899072145223,camera_2,54,0,0.2677976827437097,0.3722197740811088,3.680755802752354,-0.9984169243361227,0.03031826835542304,0.026451930324960307,0.039303221053864815,0.021376706659793854,0.004028723857714103,19224.387454014737
1682465899081156253,53,1682465899081156253,camera_2,55,0,0.26766032667319967,0.37206044591922405,3.679052605481212,-0.9983845897358951,0.03014085506862001,0.026054039055457518,0.04050835571234541,0.011986725847236812,0.00225696738264641,19238.49280100154
1682465899090233325,54,1682465899090233325,camera_2,56,0,0.2676565755005498,0.3720383794064652,3.678829186458428,-0.9983330115872969,0.03024774991741397,0.026382242073952747,0.041475883391713445,0.015375741524621844,0.0028948280455692965,19235.993175327538
1682465899099611043,55,1682465899099611043,camera_2,57,0,0.2677087032361858,0.3720840390624024,3.6795198530372764,-0.9983878504729393,0.030073633803517782,0.028464870007274067,0.03882045534695766,0.008604647126048803,0.0016203901393046125,19233.550783778082
1682465899108925342,56,1682465899108925342,camera_2,58,0,0.2676813976478962,0.3720680341774942,3.67932364508968,-0.9983521995162046,0.03015006653401927,0.026089067976363123,0.041270082884280516,0.012025912175886333,0.002264747859247878,19232.535177173097
1682465899118295192,57,1682465899118295192,camera_2,59,0,0.26772847719610054,0.37213646500710174,3.6799088594354674,-0.9983847332556408,0.030344769757819207,0.026504066106745095,0.04005813063807926,0.014836861577350646,0.002794896721695432,19230.13016783075
1682465899127465009,58,1682465899127465009,camera_2,60,0,0.26769097993306945,0.3720548071010872,3.679373364081881,-0.9984010336428459,0.030209295440676586,0.029037409323160988,0.037942105235132674,0.011800813081208616,0.0022220617947900385,19236.827971353203
1682465899136901617,59,1682465899136901617,camera_2,61,0,0.26779508119932416,0.37218134328118524,3.6806140396260556,-0.9984753507949704,0.030300060885183316,0.02753931796705492,0.03701980728102934,0.014698883809614927,0.0027696983545462176,19231.61836644612
1682465899146385431,60,1682465899146385431,camera_2,62,0,0.2677548490371425,0.37213176201581594,3.6800057716971355,-0.9983780508667474,0.030359787608756503,0.02602120230027119,0.04052712517208907,0.026113180036190897,0.004919476801750357,19228.56339803338
1682465899155563116,61,1682465899155563116,camera_2,63,0,0.2677712278530662,0.372182155933204,3.6805239076287366,-0.9984371207695408,0.030199152245483783,0.026928335969103486,0.038551158154050816,0.013511479133740067,0.0025458432606255263,19228.499214845244
1682465899164983510,62,1682465899164983510,camera_2,64,0,0.2677065729409333,0.37210071749997287,3.6795316639990845,-0.9983873931606388,0.030082949860282177,0.026467103980640932,0.0402134518847324,0.012603442708496003,0.0023736713069675204,19233.538760700278
1682465899174142122,63,1682465899174142122,camera_2,65,0,0.26776339107608776,0.3721718984042706,3.6802712841738034,-0.9983875582727121,0.030321335295636305,0.026909203840474884,0.03973405165362923,0.012658457388170063,0.002384942656482444,19226.504207970112
1682465899183565378,64,1682465899183565378,camera_2,66,0,0.2677838254013455,0.37219557584311913,3.6807046111660746,-0.9984672377385955,0.030147863245086413,0.027512000025533268,0.03738143067098765,0.018937026150524616,0.003568460399090609,19229.429616682464
1682465899192882537,65,1682465899192882537,camera_2,67,0,0.2677036416475471,0.3720812956137565,3.6794438950202375,-0.998378086564663,0.030201519642881872,0.027167307638439286,0.039887364846796954,0.009966961340978742,0.0018770053121458744,19233.824468149804
1682465899202056407,66,1682465899202056407,camera_2,68,0,0.26775428245861776,0.3721596433157547,3.6801798416199865,-0.9984466482067215,0.030165029259700576,0.026224207194611156,0.0388156238071568,0.015629474830348045,0.0029446442393825205,19232.91239391058
1682465899211326837,67,1682465899211326837,camera_2,69,0,0.26773849500389013,0.37213504126864366,3.6798029026107733,-0.998360860814661,0.030083918646044826,0.026270897420378796,0.04099255275089601,0.02158862055512145,0.0040668316668622095,19228.05175637734
1682465899220930576,68,1682465899220930576,camera_2,70,0,0.2677005758225879,0.3721007475590361,3.6795829860778144,-0.9983701616907481,0.029975364982891453,0.025424317185305415,0.04137755231273247,0.015916856296826154,0.0029980181100028413,19231.15467432538
1682465899230300188,69,1682465899230300188,camera_2,71,0,0.26775805689120036,0.3721662396324183,3.680255540570785,-0.9984158011842005,0.030191457752341194,0.02723450367920385,0.038892745259842314,0.013625576684717089,0.002567078825773801,19229.06543750223
1682465899239587068,70,1682465899239587068,camera_2,72,0,0.26770547781925474,0.3720649021108398,3.6793822836539576,-0.9983470283263715,0.03020900920189257,0.02729618913482542,0.04056531589497782,0.010857495130039752,0.00204464294033723,19231.43086684262
1682465899248710155,71,1682465899248710155,camera_2,73,0,0.2677462868922628,0.3721417436493216,3.680131635960786,-0.998389743390079,0.030051323767888327,0.026339570109892962,0.04026245496384721,0.01650911761680618,0.0031102722393255705,19227.48854178842
1682465899258230686,72,1682465899258230686,camera_2,74,0,0.2677087761519549,0.37209771899971567,3.6796349244425195,-0.9983876561634606,0.02999445762047766,0.02726550235485865,0.0397367954649377,0.01189969980623573,0.002241154950732848,19232.190894423744
1682465899267661333,73,1682465899267661333,camera_2,75,0,0.267724363546932,0.37208036535581573,3.6795444114514875,-0.998398291080337,0.03024078883157359,0.028578533947756873,0.038335550812582546,0.015197224507573992,0.0028619605702490908,19234.806120040586
1682465899276747941,74,1682465899276747941,camera_2,76,0,0.2677470223153987,0.37213888220178337,3.679968896146609,-0.9983865760685203,0.03024983242254184,0.024605934634243428,0.04127638968417909,0.017447113641537726,0.0032870795674243393,19229.638151261952
1682465899286118030,75,1682465899286118030,camera_2,77,0,0.2676965494186095,0.3721181456183427,3.67962547669461,-0.9983739615679652,0.030044999030955886,0.024682841535169666,0.041683188818358065,0.01310305908555165,0.002468214111237075,19231.37761855311
1682465899295820474,76,1682465899295820474,camera_2,78,0,0.26778956172473384,0.37218494333678476,3.680594688321932,-0.9984234081197473,0.030157918532737582,0.026879048742960217,0.038970691641218067,0.01615746720926836,0.003044668001296781,19226.23886054195
1682465899304908514,77,1682465899304908514,camera_2,79,0,0.2677094694551461,0.3721216498133149,3.679655289854586,-0.9983854836988182,0.030050937442394614,0.026162537934921137,0.0404831904265727,0.009482122317422181,0.0017859412109626548,19231.99971106276
1682465899314265489,78,1682465899314265489,camera_2,80,0,0.26771542074707155,0.37207594618910056,3.6794337933343497,-0.9983664040204544,0.030152972532119373,0.027939497613393118,0.039682565993839965,0.008599709952250123,0.001619419821583564,19232.566566737376
1682465899323544740,79,1682465899323544740,camera_2,81,0,0.2677841098374921,0.37217909438801877,3.680506393090439,-0.9984635764424498,0.030196838879068995,0.02751695187831275,0.03743600938655907,0.012776277493685484,0.0024072978302587316,19231.232633461943
1682465899332785367,80,1682465899332785367,camera_2,82,0,0.26769411220699785,0.37205044101322315,3.6792043734937665,-0.9983507513293743,0.03010973141196244,0.026501831921497878,0.041071088361256114,0.014350765675771981,0.0027023591216372308,19233.431516064797
1682465899342337608,81,1682465899342337608,camera_2,83,0,0.26786025102887445,0.3722906989018717,3.6815103157433944,-0.9984839914753181,0.030129184086913084,0.027942638060408122,0.03662185156431499,0.016020837530959398,0.003020249842364137,19222.56010771589
1682465899351459026,82,1682465899351459026,camera_2,84,0,0.267756368695498,0.37215147947955907,3.680085029420462,-0.9984110727503446,0.030234116131301565,0.02664576666610923,0.039385671887635004,0.015451583545655012,0.0029108247148109086,19230.54591542296
1682465899360911607,83,1682465899360911607,camera_2,85,0,0.2676919299445426,0.3720729044383798,3.6793846969045703,-0.998343983129347,0.03022142570084081,0.027138784878155835,0.040736263124834984,0.011020592297427356,0.002075269017499967,19231.2021529274
1682465899370393514,84,1682465899370393514,camera_2,86,0,0.26772039443183715,0.37209485675997084,3.67962937836275,-0.9983893758308982,0.030122373620696336,0.026933337991942648,0.03982326129357627,0.0222981451661326,0.004199822687054807,19232.78724202211
1682465899379352569,85,1682465899379352569,camera_2,87,0,0.26778242947857617,0.37218662049145623,3.6804092125065395,-0.9984458933539795,0.030226727681679257,0.02664660555092404,0.038498069962594895,0.017049524234607816,0.0032125169502914357,19230.56226578192
1682465899388830423,86,1682465899388830423,camera_2,88,0,0.2677188366869509,0.3720934143601992,3.6795988031210753,-0.9983700696598145,0.030057795779203707,0.025141103908532244,0.04149286462288857,0.00960209604818374,0.001808600158102208,19231.26080359542
1682465899398022174,87,1682465899398022174,camera_2,89,0,0.2677509531079278,0.3721059025800737,3.6797822010997994,-0.9983914783373352,0.030216888974191402,0.028090871901067956,0.03888828255335411,0.01510878826957196,0.002845745538369211,19231.572210922594
1682465899407404184,88,1682465899407404184,camera_2,90,0,0.26768562836880466,0.37204358900635565,3.6791517231396274,-0.9983543267184928,0.030282010129895363,0.026470772946733893,0.040877088503957416,0.015931114787235856,0.0029998601273724637,19234.862627886934
1682465899416801452,89,1682465899416801452,camera_2,91,0,0.26775681336542273,0.37213680788311815,3.679998486408367,-0.9983785512485378,0.030029491400720882,0.02696482939618255,0.040142197607001294,0.01093128026695922,0.0020592563464579727,19227.56461500284
1682465899425948858,90,1682465899425948858,camera_2,92,0,0.26778933532881716,0.37219348223899107,3.680507342575782,-0.9983831208039855,0.030108079256858856,0.028064273079408484,0.03920515570281254,0.010322655842173845,0.0019449831899047436,19222.86909873085
1682465899435506105,91,1682465899435506105,camera_2,93,0,0.2678727769165082,0.37228583757845873,3.6815867310801407,-0.9984612943779209,0.030319369742713938,0.02750375219757177,0.03740752681782227,0.017124658217653632,0.0032284963595736113,19220.100644175887
1682465899445253372,92,1682465899445253372,camera_2,94,0,0.26778742773195985,0.37217857104850904,3.6803510658106138,-0.9983727686124553,0.030116035390412965,0.02742387158521476,0.03990952984867057,0.013279025093652308,0.0025018742285418012,19223.529691527827
1682465899454146385,93,1682465899454146385,camera_2,95,0,0.26774633966245287,0.3721437024874773,3.680004211927221,-0.9983529911840446,0.030126373341234164,0.025623060500562934,0.0415591794163497,0.01427301747025922,0.002688974374443256,19225.46615621983
1682465899463632583,94,1682465899463632583,camera_2,96,0,0.2678353282053071,0.372261939209695,3.681272400121909,-0.9984675557958883,0.030236852989776374,0.027123172225053407,0.03758465475043594,0.011716288572642952,0.0022084590033057453,19223.796874959724
1682465899472660541,95,1682465899472660541,camera_2,97,0,0.2678210834976611,0.3722407735101991,3.6810376386785055,-0.9984679296876938,0.030273058436639872,0.02643931786369246,0.038030222047275436,0.015888540365267545,0.0029946465337006593,19226.422904827632
1682465899482297897,96,1682465899482297897,camera_2,98,0,0.2676862180814096,0.3720626984235586,3.6790963712689337,-0.9982853718786305,0.030228532583896864,0.02761125488535781,0.04183504170697441,0.011836958641652018,0.00222882306162381,19228.311485773887
1682465899491557836,97,1682465899491557836,camera_2,99,0,0.26774090119298727,0.3721260306230451,3.6798490993663027,-0.9983659457160303,0.030186698403248845,0.0274749855257559,0.039991584669868796,0.017546402814332396,0.0033051316652199137,19228.29823376751
1682465899500750303,98,1682465899500750303,camera_2,100,0,0.26774224752545006,0.37212956584019313,3.6798705912440766,-0.9983432965151883,0.030094791982680936,0.025278221979898926,0.04202353260068919,0.011365881888195872,0.002141127649474602,19225.87480427068
1682465899510103464,99,1682465899510103464,camera_2,101,0,0.267720685925405,0.3721142004943256,3.6797336739285926,-0.99835821111501,0.03024430533475662,0.02697370278257375,0.04047942257805342,0.013676847622264177,0.002576089775313312,19228.99625743949
1682465899519472837,100,1682465899519472837,camera_2,102,0,0.2678322216564099,0.3722083230734452,3.6807828824643156,-0.998419647155444,0.03015895363958366,0.02696898645810308,0.03900409541044123,0.018506990047171712,0.003487737822218818,19223.832700057654
1682465899528814315,101,1682465899528814315,camera_2,103,0,0.2677679466442298,0.3721431076622493,3.6800945880873526,-0.9983887662485446,0.0302547630905915,0.028427186189074687,0.03868353428027613,0.019888855575118214,0.003746704441137557,19228.13489624555
1682465899538061857,102,1682465899538061857,camera_2,104,0,0.26776930928360326,0.37216661996888845,3.6801234265058698,-0.9983670965691949,0.030138568298367186,0.026822330965429166,0.04043970512382287,0.014577637019101532,0.002746415010429324,19225.42040807008
1682465899547378778,103,1682465899547378778,camera_2,105,0,0.2677939145128859,0.3722063187872273,3.680806840319012,-0.998425768002514,0.030127500590172142,0.02586787014439364,0.03961278570072983,0.01112931763054803,0.0020974398290375036,19224.312214327052
1682465899556739568,104,1682465899556739568,camera_2,106,0,0.2677847115206682,0.3721955787829562,3.68050776730819,-0.998419635452238,0.030248859468232633,0.026432981120591285,0.039300579555139416,0.016706271620932966,0.0031479952127352107,19227.0397381205
1682465899566101074,105,1682465899566101074,camera_2,107,0,0.2677346439166853,0.3721336098453324,3.6799492865701255,-0.998380853011648,0.030207140480527323,0.02663593957653099,0.04017123008571399,0.011006976070348173,0.002073393165672678,19228.930958436576
1682465899575398445,106,1682465899575398445,camera_2,108,0,0.26777356538549363,0.3721612467998505,3.680270251401606,-0.9983718474259408,0.030329827489153714,0.0283447948717029,0.03911941251441988,0.01633410161593929,0.0030772408566499534,19224.890168200247
1682465899584904670,107,1682465899584904670,camera_2,109,0,0.267680309607162,0.3720657062414182,3.6791768577512554,-0.9982791825125766,0.029993951525986908,0.026027273186996984,0.04314646780824474,0.010489234991837293,0.001975271910243818,19226.444626492223
1682465899594100475,108,1682465899594100475,camera_2,110,0,0.267720263102586,0.3720825398905039,3.6794531250634965,-0.9983502303237592,0.030315622083380924,0.027194285350531974,0.04047531981922284,0.020672829938121143,0.0038932583310324485,19231.288223563228
1682465899603366136,109,1682465899603366136,camera_2,111,0,0.2678372213117933,0.37226072877634164,3.6812156005379646,-0.9984401175573546,0.030203402722231456,0.026516040204738876,0.038755460620605864,0.01854194514453411,0.0034952269461390544,19221.554701101493
1682465899612708330,110,1682465899612708330,camera_2,112,0,0.2678232962570417,0.3722411724423928,3.6810244232910576,-0.9984695845350058,0.030176598563989913,0.02663903346426878,0.03792391796334593,0.010434560535941273,0.0019666639254196723,19226.40279355296
1682465899621720075,111,1682465899621720075,camera_2,113,0,0.2677388169568548,0.37213283348609694,3.6800174350967025,-0.9983755910375406,0.03020917303954271,0.026641499900011797,0.04029659498997836,0.01783876691479236,0.0033605546247551846,19227.709844951052
1682465899631299734,112,1682465899631299734,camera_2,114,0,0.2677141170454353,0.37211877897377893,3.6795692754891256,-0.9983296171510142,0.030098448993492663,0.027063708048405608,0.04122638225658758,0.013352671288885174,0.002514871559544557,19227.387591192502
1682465899640920400,113,1682465899640920400,camera_2,115,0,0.2677797594171206,0.37220472445402797,3.6805718023781178,-0.9984178331478609,0.03016261456949604,0.026406573463478716,0.039430191637631264,0.010574942221865058,0.0019926536997647614,19225.969627208076
1682465899650019168,114,1682465899650019168,camera_2,116,0,0.2677625504898698,0.3721667280497332,3.680205563863958,-0.9984484634913005,0.03015749353547077,0.025696923190128874,0.03912619933088337,0.012375072401482612,0.0023315007931053794,19232.85522370133
1682465899659335136,115,1682465899659335136,camera_2,117,0,0.2678051260801387,0.37220355708367403,3.6806065319282486,-0.9984157046050379,0.030252418273022563,0.028380945439731995,0.03801833666280909,0.01342581887729466,0.0025298081624496407,19225.465416589515
1682465899668836355,116,1682465899668836355,camera_2,118,0,0.26775290569015636,0.3721463074688016,3.6799495891306124,-0.9983662711193272,0.030158390982791404,0.027461622132675008,0.040013990734009894,0.013456024578772484,0.0025347760956814275,19227.165182058467
1682465899677862882,117,1682465899677862882,camera_2,119,0,0.26768833428326316,0.37204379568586926,3.678935325525168,-0.9983257925161844,0.030195623096400635,0.028082900676510675,0.040560905220987556,0.012838289898354558,0.002417058564099033,19233.79410311533
1682465899687433481,118,1682465899687433481,camera_2,120,0,0.26774532031529374,0.3721291695608719,3.6797935705368525,-0.9983592070909102,0.03027279945958629,0.028002017174044054,0.03972830557515874,0.012209726555738598,0.002299797708332881,19228.376966029173
1682465899696772098,119,1682465899696772098,camera_2,121,0,0.2677543370397107,0.37214778574278395,3.6802196459098004,-0.998421609590448,0.030164313384664906,0.027472291504877035,0.038596332731518024,0.014141875668428838,0.002664189519275643,19229.972589068813
1682465899705957174,120,1682465899705957174,camera_2,122,0,0.2677316027746288,0.3721078701282782,3.6797590298459166,-0.9983597434460708,0.03017184736176277,0.027209925596863232,0.0403373554176191,0.015610238304361701,0.002940281406289427,19228.641032148866
1682465899715414285,121,1682465899715414285,camera_2,123,0,0.26780618338540074,0.3721972710537743,3.6808125704574395,-0.9984244552284002,0.030371524085087743,0.026640774088078537,0.03894158294945605,0.016284985525999218,0.003069006633346579,19224.770041858545
1682465899724645376,122,1682465899724645376,camera_2,124,0,0.26778204838485203,0.37216898277837096,3.680356580253199,-0.9984281087386144,0.030194238541866973,0.027243936250061804,0.03856666406513467,0.010679676197469234,0.0020121379231765432,19229.231513187995
1682465899734046936,123,1682465899734046936,camera_2,125,0,0.2678358989956826,0.37225614405597107,3.681288854958035,-0.9984728265227913,0.030196938007265715,0.026592607327625733,0.037854892234583666,0.00972945598186925,0.0018340361884423432,19224.07272011461
1682465899743290424,124,1682465899743290424,camera_2,126,0,0.26776251018166286,0.37217496761879576,3.6802708575067915,-0.9983514972512929,0.030049453470690792,0.02659808966311661,0.04103486211122413,0.017552647332195193,0.0033072482265048384,19222.161770349376
1682465899752662897,125,1682465899752662897,camera_2,127,0,0.2677971824430502,0.3721962983180606,3.6804857850604313,-0.9983801261633816,0.030252703872082273,0.027603230083869015,0.03949631982039969,0.013270605180878192,0.002500508215298084,19223.220037442872
1682465899761916399,126,1682465899761916399,camera_2,128,0,0.2676401826568334,0.3719779626585032,3.678511244964507,-0.9982766241710116,0.0302528328219469,0.02760344862821277,0.042030909623824116,0.009053678310010582,0.001704144081345314,19233.726756821852
1682465899771142482,127,1682465899771142482,camera_2,129,0,0.26775347084100587,0.3721380384041908,3.6798570530731807,-0.998318046362128,0.030240896928742173,0.025906331110132276,0.04213583355128577,0.016820594086311758,0.0031687731782600883,19223.806730130687
1682465899780663013,128,1682465899780663013,camera_2,130,0,0.26776021568096525,0.37215807158976366,3.680221625775074,-0.9984130138458922,0.030279878648752572,0.025683556489147878,0.039936670595433904,0.017251331126317382,0.003250305477782484,19229.578620222634
1682465899790025472,129,1682465899790025472,camera_2,131,0,0.26781374807198155,0.3722399529776748,3.680866079617883,-0.9984424162866614,0.03013269446690434,0.02661370557792692,0.03868427017831418,0.021393757429905236,0.0040321636075188886,19225.14971496771
1682465899799405574,130,1682465899799405574,camera_2,132,0,0.2677976270349727,0.3722109106604775,3.680603380471756,-0.9983908123309191,0.03015490793234072,0.02588867802232185,0.040450509651377475,0.021639190905261785,0.004078043553357136,19222.933549490066
1682465899808536529,131,1682465899808536529,camera_2,133,0,0.2678716862575665,0.3723158128667401,3.681551561316844,-0.9984369125233158,0.030171217681188005,0.026778127196559098,0.0386828287278483,0.019761221075896174,0.003725839813223585,19217.525132537354
1682465899818187713,132,1682465899818187713,camera_2,134,0,0.2677657871429879,0.3721445881562846,3.67999532787175,-0.9983537211945296,0.03020578481040239,0.025252732186351816,0.0417103998799782,0.019251290243119,0.003627043311543955,19225.857834608527
1682465899827246665,133,1682465899827246665,camera_2,135,0,0.2677903011940888,0.37224402723960975,3.6809185645572544,-0.9984147654967837,0.030105749882466032,0.023580566000050495,0.041298387004024655,0.01555575430393219,0.0029323441482767137,19222.289275785217
1682465899836719274,134,1682465899836719274,camera_2,136,0,0.2678020096555967,0.3721946146136209,3.680579655842953,-0.9984246010858648,0.030172117336272765,0.02882679589759468,0.03750966702406726,0.020924197742715478,0.003942496810302314,19226.41393968882
1682465899845821380,135,1682465899845821380,camera_2,137,0,0.26781351110050755,0.37221252525025184,3.68091793291519,-0.9984391225011784,0.030251832873714933,0.027593991038822183,0.037983113687627225,0.018631712126079947,0.0035114294783030174,19224.671499022752
1682465899855649471,136,1682465899855649471,camera_2,138,0,0.2677849832943781,0.37214200090829663,3.6802345608905154,-0.9983961225522922,0.030337285950801252,0.028100904220937743,0.038667437665993266,0.014464739535469558,0.0027250385202317777,19227.7095272108
1682465899864575386,137,1682465899864575386,camera_2,139,0,0.2677344619290818,0.372099259019954,3.6796676738396954,-0.998353119905091,0.03007865291720172,0.02660613983576009,0.04096871901215941,0.015514289727434516,0.0029221678219127946,19228.709411918193
1682465899873915672,138,1682465899873915672,camera_2,140,0,0.26782621895007497,0.37228392056094955,3.6812848876508073,-0.9984402470465574,0.030098458513384357,0.025908979038529806,0.03924131340702448,0.012660061533097178,0.0023865623549074234,19220.599905573996
1682465899883205175,139,1682465899883205175,camera_2,141,0,0.26777044115106224,0.372180892823382,3.680480528199964,-0.998424857592216,0.030128539655911776,0.025581269742999655,0.039820515799038114,0.010333135083783418,0.0019471437142588146,19227.62228130503
1682465899892688989,140,1682465899892688989,camera_2,142,0,0.2677480697681235,0.3721334607010872,3.680085329638684,-0.9983871135897197,0.030005867599608056,0.02677490598478304,0.04007397830374312,0.011715784727130085,0.0022070992682910696,19227.529651453253
1682465899901979684,141,1682465899901979684,camera_2,143,0,0.2677365871466585,0.3721199223643391,3.6798711778400106,-0.9983857863755344,0.030272783176840925,0.026199545568668173,0.04028602703207684,0.018498002842534333,0.003484428313540772,19230.476898927474
1682465899911413431,142,1682465899911413431,camera_2,144,0,0.26779229512281383,0.3722121228816937,3.6806434246285926,-0.9983632695690067,0.03006332482920877,0.026133314080326275,0.04103691473387928,0.01629557419801131,0.0030710185707561203,19219.53687849804
1682465899920679330,143,1682465899920679330,camera_2,145,0,0.2678253468088544,0.37221642031228747,3.6808902264341694,-0.9984609520743377,0.030222558938190848,0.027039550284151562,0.03783103004764316,0.01698182534892112,0.003200409199020908,19227.053161895372
1682465899929924964,144,1682465899929924964,camera_2,146,0,0.2677326807310851,0.3721112470003872,3.67969724930628,-0.9983068046437953,0.030262450139678286,0.02567215833577844,0.04252820475662413,0.01370189874432981,0.002580988218121839,19224.540689747082
1682465899939326047,145,1682465899939326047,camera_2,147,0,0.26783407495930145,0.37223250715041434,3.6808332753388715,-0.9983942646644097,0.03021533403860621,0.02433573352512387,0.04127587610145246,0.02776743262074888,0.005234098856587247,19221.24982790626
1682465899948485136,146,1682465899948485136,camera_2,148,0,0.2677735337732472,0.3721465784123802,3.6801276202172204,-0.9983544164956213,0.030219770060152123,0.026366582128985773,0.040988143505588874,0.016650429693982005,0.0031369902746032252,19224.47191113629
1682465899957992553,147,1682465899957992553,camera_2,149,0,0.26774934690073376,0.37211315615828294,3.6798668222944944,-0.9983414577797493,0.030199503328211825,0.027234279768774135,0.040750677079169156,0.013872698647901418,0.0026131248367728677,19225.799594460987
1682465899967484712,148,1682465899967484712,camera_2,150,0,0.26768522070003514,0.3720478546240678,3.6790704113123,-0.9983228638892584,0.030096987187177168,0.026694972379689572,0.041629427666639615,0.011813601362518966,0.002224376741521724,19232.021893575788
1682465899976414203,149,1682465899976414203,camera_2,151,0,0.267747168552264,0.3721158541469732,3.6797808110387225,-0.998373692590865,0.030203253035902534,0.02672190390004385,0.040294829699196455,0.013895351497922093,0.002617290605414183,19229.90235623811
1682465899985929489,150,1682465899985929489,camera_2,152,0,0.2677552379659721,0.37211716400324424,3.679822926911485,-0.9983675063339877,0.030249074778486183,0.02670204392358716,0.040426682052867376,0.013541716733016074,0.0025508161334649626,19228.97151183081
1682465899995122432,151,1682465899995122432,camera_2,153,0,0.26780975419375397,0.372198846650174,3.6806851756130228,-0.998399378967823,0.030139782351840127,0.026727867540101525,0.0396975401405169,0.016334571701008826,0.003078261509666116,19222.832703285625
1682465900004810810,152,1682465900004810810,camera_2,154,0,0.2678536436995558,0.3722493972514647,3.6811467176583923,-0.998454098376108,0.030333729449906758,0.026467227957257134,0.03832445874205759,0.01524419744964689,0.002873426462911838,19224.03298711218
1682465900013983249,153,1682465900013983249,camera_2,155,0,0.26772241484929477,0.37208953160447206,3.679615524815377,-0.9984079929045989,0.030182417734947523,0.026078497453015558,0.03987998664087913,0.013480474939569831,0.0025389546487488003,19235.070798191242
1682465900023101329,154,1682465900023101329,camera_2,156,0,0.26780719665517766,0.3722448489871957,3.6809339380261132,-0.9984379945059708,0.03012514645455426,0.024490413693873298,0.040177933185886784,0.011744755844119936,0.002213781844343325,19224.290746420855
1682465900032493591,155,1682465900032493591,camera_2,157,0,0.2677747399995703,0.37215065442359335,3.6802382240115246,-0.9984232412606598,0.03030048858216258,0.027539522883909217,0.038399041414690784,0.019135333714075387,0.003605099398602117,19230.28043946763
1682465900042285203,156,1682465900042285203,camera_2,158,0,0.2678353656620809,0.3722495453388072,3.681037966936736,-0.9984077373769551,0.030236067603855922,0.026560143149342155,0.03952630715827968,0.013234210724476725,0.002494481769786292,19220.248923649546
1682465900051231384,157,1682465900051231384,camera_2,159,0,0.26781701587346907,0.37223310094435086,3.68088794515992,-0.9983788863835849,0.030038443439591278,0.026490194471027795,0.040442066417120615,0.01190725399646908,0.0022442186159799525,19218.403605441108
1682465900060526371,158,1682465900060526371,camera_2,160,0,0.2677432072362936,0.3721274684945014,3.679820902709587,-0.998396160604686,0.03003535492139717,0.02593998046673871,0.04037451371785478,0.012946240953169763,0.002438653778467907,19231.28421562258
1682465900069654464,159,1682465900069654464,camera_2,161,0,0.26775420678283574,0.3721234678510087,3.679858767110807,-0.9983681135585275,0.03037353294909124,0.026642928025616637,0.040357312992807155,0.015036650118418038,0.0028323870538882892,19229.057682628743
1682465900078991651,160,1682465900078991651,camera_2,162,0,0.26783615743887956,0.37227152616809295,3.681343837072273,-0.9984280265822928,0.030087534851540254,0.026351528372343842,0.0392659258643836,0.009339270531199872,0.001760546079697334,19218.73589738971
1682465900088767766,161,1682465900088767766,camera_2,163,0,0.2677841826323708,0.37217257423234973,3.6801994210452458,-0.9983343152982815,0.030132649666921245,0.027665943033238882,0.04068432029718152,0.010271013074088842,0.0019350199757429572,19221.300123314377
1682465900097902774,162,1682465900097902774,camera_2,164,0,0.26775640680522594,0.37215526667407595,3.6801061625213576,-0.9983695727960682,0.030265990071865527,0.026021249108575388,0.04080515353231638,0.01594161504181102,0.0030034394879649828,19226.373377108703
1682465900107350826,163,1682465900107350826,camera_2,165,0,0.26773784173969617,0.3721400661823082,3.679993851688149,-0.9983714885626594,0.030214029515298127,0.02550900161176369,0.04111902336387944,0.013529623218346387,0.00254889175959902,19227.685664511515
1682465900116421699,164,1682465900116421699,camera_2,166,0,0.2678335410600648,0.3722453752170896,3.6810852752990484,-0.9984318979642792,0.03032664754965723,0.02650155132185867,0.03888068097887341,0.017186904908157885,0.003239540219171738,19222.468287270283
1682465900125691175,165,1682465900125691175,camera_2,167,0,0.2677711684236279,0.3722069434297344,3.680343284671235,-0.9983813275031374,0.030367317186312266,0.02432440265124681,0.041483422901674054,0.020051118510309607,0.003778620518342896,19225.536971103393
1682465900135309219,166,1682465900135309219,camera_2,168,0,0.26774325118908665,0.37211851247831174,3.679793724072898,-0.9983767822703526,0.030176460852690316,0.02772624486609622,0.0395529667601337,0.015083645936101675,0.0028410701007924757,19229.893039117567
1682465900144402027,167,1682465900144402027,camera_2,169,0,0.26772493262460884,0.3721044179127921,3.6795637384923445,-0.9983377001786414,0.030242074297991715,0.025834694060333063,0.041711172687719816,0.012357184721622616,0.002327467797967577,19228.84131566623
1682465900153756141,168,1682465900153756141,camera_2,170,0,0.2678322588621429,0.37222535340243756,3.6810287581734475,-0.9985024412229796,0.03032701730627558,0.02782589515481363,0.036039789842455316,0.020923310017678887,0.003943324163070308,19230.087631707545
1682465900163174152,169,1682465900163174152,camera_2,171,0,0.2677658697924075,0.3721721286422699,3.6802701632867674,-0.9983782861515337,0.03000935642732276,0.02511310146608273,0.041346927367080684,0.015529553464148195,0.0029261684704140942,19224.899486994607
1682465900172388076,170,1682465900172388076,camera_2,172,0,0.2678046657728764,0.37218780374717,3.6806296950171156,-0.9984439175867712,0.03012421768648675,0.02731816206719725,0.03815747586028864,0.014425190747715533,0.002718190394589144,19227.762046457727
1682465900181767940,171,1682465900181767940,camera_2,173,0,0.26777464946152857,0.372145041804728,3.6801334457135093,-0.998402083286758,0.030306257746888884,0.027118753894369095,0.03923498460886222,0.016179046651814133,0.003047990032260451,19229.30023305118
1682465900191230058,172,1682465900191230058,camera_2,174,0,0.2677246431162811,0.3720668378930586,3.6794455162823856,-0.9983744581391301,0.030215857680625888,0.026617910652133116,0.04033522173656541,0.015600718557834625,0.002938072211446883,19233.53994403639
1682465900200341463,173,1682465900200341463,camera_2,175,0,0.26781748084494683,0.3722322804981866,3.681065410682705,-0.998498840495963,0.030106814420894433,0.026507382378082017,0.0372961651259964,0.010947090107947588,0.002063283092953232,19228.753830509257
1682465900209921121,174,1682465900209921121,camera_2,176,0,0.26777280998518316,0.37218111494941025,3.680235343776412,-0.9983779105960289,0.030067813422170294,0.025873883158298926,0.04084135649348857,0.011095821158960462,0.0020905964196929866,19225.24006264191
1682465900219005584,175,1682465900219005584,camera_2,177,0,0.26784114550179045,0.3722455526107039,3.6812840238806577,-0.9984798776745129,0.030139628508134578,0.026534930256497207,0.0377549221792926,0.013919445977080613,0.0026238477862598987,19224.675852125507
1682465900228600263,176,1682465900228600263,camera_2,178,0,0.2677995394151364,0.37221709303430306,3.6807257715701573,-0.9984415817991903,0.030214395234464186,0.026977833613701575,0.038388729445734786,0.010928376636002213,0.0020593506445715937,19226.81683134288
1682465900237757921,177,1682465900237757921,camera_2,179,0,0.2677969843129204,0.37219650035057156,3.6806279883129513,-0.9984217231965353,0.030218078066558223,0.027273367495528552,0.03869229681316763,0.0182389811379835,0.003436832520552402,19225.85865004966
1682465900247057914,178,1682465900247057914,camera_2,180,0,0.2677660106569197,0.37215642138190325,3.680064756911664,-0.9983779484190889,0.030198432303386438,0.025050918775873923,0.04125503927271944,0.01695882889907807,0.0031951831621094226,19227.525714266107
1682465900256563663,179,1682465900256563663,camera_2,181,0,0.26784713959758344,0.3722796517479333,3.681291291541215,-0.9984833224391101,0.030081103590494956,0.026205361602624034,0.03794022984919516,0.013281772146001458,0.0025037331848581324,19224.69580627326
1682465900265864133,180,1682465900265864133,camera_2,182,0,0.2677411750176498,0.37213694262426067,3.6799403745286043,-0.9983737543862556,0.030165763265702247,0.025955934915943776,0.04081865654243856,0.013400591735262424,0.002524380317453189,19228.25733164535
1682465900275023937,181,1682465900275023937,camera_2,183,0,0.2677649092995629,0.3720982475787441,3.6797969752355213,-0.9983955830654514,0.03029479375182697,0.02810323849182219,0.038712958724483125,0.01827340852469206,0.003441813945345352,19232.057374553522
1682465900284454822,182,1682465900284454822,camera_2,184,0,0.26779377671380644,0.3721857147676561,3.6806565559958577,-0.998442843815181,0.03020136141835415,0.02773517461684296,0.03782228829282121,0.01684313069563359,0.003173726121727191,19227.637351404417
1682465900293845176,183,1682465900293845176,camera_2,185,0,0.26776798839255495,0.37218835834474895,3.6803954622711044,-0.99840466007192,0.030250946520886546,0.025683395062226853,0.04016687938267031,0.015695587324444205,0.002957467364699369,19226.837000420077
1682465900303108453,184,1682465900303108453,camera_2,186,0,0.26779565390045734,0.37220457105229043,3.6807925688331435,-0.9984771016001126,0.030216685468640786,0.027687319761246193,0.036930229135033396,0.01131287292810157,0.002131797139483344,19229.704398837166
1682465900312566041,185,1682465900312566041,camera_2,187,0,0.26784696232222616,0.3722329645326332,3.6811080565020617,-0.9984619139119667,0.03022551685544767,0.027802756074035522,0.03724555480538828,0.016626316180918366,0.003133633069781875,19224.858163478315
1682465900321669578,186,1682465900321669578,camera_2,188,0,0.26779812411793386,0.3722091637322654,3.680511849636341,-0.9984052535809443,0.030235391216135176,0.026428024193860804,0.039677831054460405,0.013961569464299828,0.002630862943736299,19225.466417876072
1682465900331238031,187,1682465900331238031,camera_2,189,0,0.2678261812065491,0.37223988068430297,3.6809499991047496,-0.9984384785692173,0.030155255833357417,0.025317604691579353,0.0396268084848171,0.017321279330644757,0.003264867618314677,19224.113456847383
1682465900340643882,188,1682465900340643882,camera_2,190,0,0.2678127231735635,0.37223149791138255,3.680915831981297,-0.9984209238830717,0.03018338963771901,0.02558509791494281,0.039875111374566875,0.013316226948518306,0.0025098335376928117,19222.83154729195
1682465900349600076,189,1682465900349600076,camera_2,191,0,0.26775121039618566,0.37214748708724954,3.6801721410017274,-0.9984138283061611,0.030083630901112508,0.025231235300966198,0.040350803759384386,0.009174319973681122,0.0017284466602824479,19229.692145801142
1682465900359343290,190,1682465900359343290,camera_2,192,0,0.26784538879520037,0.372262973762358,3.681138281557452,-0.9984601723896528,0.03027294418474503,0.026989421676951605,0.037847115075732685,0.013124605698976666,0.0024738200350714118,19224.48704917682
1682465900368376016,191,1682465900368376016,camera_2,193,0,0.267808308914158,0.3722374074773335,3.6809270463553636,-0.9984841745722645,0.030044437196443098,0.02611686787749685,0.03800781675605888,0.013260762440040708,0.0024992606733925233,19228.520921969317
1682465900377749443,192,1682465900377749443,camera_2,194,0,0.26783666656185307,0.3722421055883525,3.68106244074852,-0.99839286867776,0.03029402636252925,0.02695150552917581,0.039592525681626294,0.01994466601172462,0.0037592589606585585,19218.69770239455
1682465900387108564,193,1682465900387108564,camera_2,195,0,0.2677486151324846,0.37211946984977723,3.6798771287912144,-0.9984118262041315,0.030251302107003424,0.027797627561521623,0.03854835818180866,0.015168931393418465,0.0028571653396845024,19232.7504682343
1682465900396682262,194,1682465900396682262,camera_2,196,0,0.2677356667236121,0.37211757157890013,3.6798691804998698,-0.9984343247163093,0.030257874080049332,0.026020675733929674,0.03919546808998607,0.015729801321867857,0.0029630075214516294,19235.263659103075
1682465900406010389,195,1682465900406010389,camera_2,197,0,0.2677332041164099,0.37214683715814795,3.6800091489607603,-0.9984041321521191,0.03019352969916444,0.02487666853819106,0.040727030683816536,0.015538874082267284,0.0029274932721265914,19230.768302049488
1682465900415075778,196,1682465900415075778,camera_2,198,0,0.2677345494391794,0.37212223072648576,3.6799153498323722,-0.9984071481899937,0.02993665533798429,0.027479752676578144,0.03913855264484409,0.007522330852225423,0.0014168858441893201,19231.01687327331
1682465900424390792,197,1682465900424390792,camera_2,199,0,0.26772902690179223,0.37210990768125884,3.67974511440758,-0.9983554261336068,0.030143945701897296,0.026496926618179772,0.04093529683410249,0.0165242949151434,0.0031124739709834496,19228.36684201239
1682465900433867692,198,1682465900433867692,camera_2,200,0,0.2677615596202306,0.372132875171492,3.680032758208444,-0.9984230762272277,0.030176103989514896,0.02740855483404786,0.03859449088772111,0.015328605310060084,0.002887514355317389,19232.047648871092
1682465900442984819,199,1682465900442984819,camera_2,201,0,0.26776706230091435,0.37213024850940246,3.6800620303112295,-0.9984008389835499,0.03017985016889257,0.02809717510348148,0.03867156722879368,0.012996881618164478,0.0024483028803785963,19229.494842330932
1682465900452375411,200,1682465900452375411,camera_2,202,0,0.2677396555352885,0.372143142821268,3.6799142516941035,-0.9983738000030947,0.030112425370548705,0.02563090143932803,0.041061590289363674,0.01492214627796784,0.002811140389857492,19228.373557150822
1682465900462134838,201,1682465900462134838,camera_2,203,0,0.26765311973327766,0.3719974066189037,3.678559130064788,-0.9983302571239141,0.030325645723846013,0.028893416528362668,0.03977717189104928,0.01264811964938417,0.002380674122118651,19238.532904726908
1682465900471087932,202,1682465900471087932,camera_2,204,0,0.2678068818192274,0.3722075169783785,3.6807433869963138,-0.9984179354968,0.03011855205614956,0.02858684553723055,0.03791162305387392,0.016121998720336705,0.0030379359625871552,19223.91275493428
1682465900480637550,203,1682465900480637550,camera_2,205,0,0.26774560920914353,0.3721121753069977,3.6797330973900415,-0.9983723114955075,0.030367954340598594,0.028237846666901153,0.039155318973307325,0.01852182298898697,0.0034884909706461315,19230.609599215677
1682465900489870309,204,1682465900489870309,camera_2,206,0,0.2677560614005018,0.3721433690993532,3.6800995078114944,-0.9984084430405723,0.030215865153813606,0.027405559580452515,0.038942491733184564,0.013238290790468454,0.002493794351586775,19230.042554472577
1682465900498984098,205,1682465900498984098,camera_2,207,0,0.2678442026616446,0.372249522339932,3.68103413213672,-0.9984182343589982,0.030277995233168823,0.026797884683361233,0.039065914562673755,0.014845251862425357,0.002798056640942418,19221.421646272767
1682465900508360147,206,1682465900508360147,camera_2,208,0,0.267734908766657,0.3721173569310762,3.6797829911733175,-0.9983955982185244,0.030195800217523532,0.02595523417530953,0.040258774521875956,0.010444477724377066,0.0019673695777581847,19232.11874408951
1682465900517591476,207,1682465900517591476,camera_2,209,0,0.26776659299369665,0.37217738321710686,3.6802577319895047,-0.9984065148520579,0.030210032538099185,0.026374017647171986,0.039701337863619915,0.014160093676764518,0.00266790085763864,19228.214717698746
1682465900527297019,208,1682465900527297019,camera_2,210,0,0.26770226703868305,0.37209909225546195,3.6795667034819055,-0.9983724463865067,0.030057186302654314,0.02762771168342463,0.039821268123041806,0.010056352999527007,0.0018938782796875304,19231.54292481136
1682465900536616802,209,1682465900536616802,camera_2,211,0,0.2677747736991025,0.37216810821793206,3.6802048291804055,-0.9983922925395969,0.030281392995351097,0.026053805005147413,0.04021276763097514,0.028966296929866076,0.005457614022336493,19227.59437709138
1682465900545584917,210,1682465900545584917,camera_2,212,0,0.26780356556455265,0.37221034641142603,3.6808463509000315,-0.9984711343019156,0.030288129122191032,0.02758058335914741,0.037112459116753864,0.02352649817476049,0.004433704214950646,19228.73447366058
1682465900555109262,211,1682465900555109262,camera_2,213,0,0.267797314854982,0.37220166142476385,3.6806726449187046,-0.9984133685524248,0.030192585915629365,0.026710154917795322,0.039315656878586014,0.01657893933588639,0.0031241749408273066,19224.540824217256
1682465900564673900,212,1682465900564673900,camera_2,214,0,0.2677748567898955,0.37215825918053064,3.680288716170591,-0.9984347482878307,0.03017897560767599,0.027303464752148083,0.038364093306318,0.01629133807728067,0.0030692408002171803,19230.57804827997
1682465900573855400,213,1682465900573855400,camera_2,215,0,0.2678356191345388,0.37225302411098865,3.681222005470732,-0.998440866476554,0.030359992772686882,0.026991569005601058,0.03828266175446308,0.013959038129542023,0.002631167262552443,19222.0419415324
1682465900583208084,214,1682465900583208084,camera_2,216,0,0.2677810137576273,0.37217926558794245,3.6803746307657694,-0.9984458036926136,0.030205379297394898,0.027810589428374513,0.03768531896850289,0.015994281158782542,0.003013426815992637,19230.793359319214
1682465900592283487,215,1682465900592283487,camera_2,217,0,0.267795935159119,0.37221783179359524,3.6806723817730713,-0.9984236153917726,0.03014720146045,0.02507359157664695,0.040159002447426,0.014994908648077399,0.002825955237135363,19225.565446057823
1682465900601853370,216,1682465900601853370,camera_2,218,0,0.26780338494654554,0.37222792502260543,3.6807669847028714,-0.9984433743667562,0.030184374667619588,0.0281313234301169,0.037528127466215255,0.01380531839095056,0.0026015287116330243,19226.374961612044
1682465900611207723,217,1682465900611207723,camera_2,219,0,0.2677246663090557,0.3721003601273688,3.6797487829776636,-0.998394289425325,0.030105640557112248,0.02642443455016993,0.040052996245598584,0.009884171886369586,0.0018616889402802543,19232.090761350002
1682465900620348215,218,1682465900620348215,camera_2,220,0,0.2677485365188135,0.3721685922216697,3.679993330807519,-0.9983665543184626,0.030146083721145557,0.02684219784866036,0.04043430807138291,0.013797766354400665,0.0025992544868526884,19226.744145567292
1682465900630040884,219,1682465900630040884,camera_2,221,0,0.26778431110327755,0.3721912303454258,3.680431975760443,-0.9983854517646997,0.030299638931102515,0.026851529044402606,0.03984240169993476,0.013477972068358213,0.0025395534556276935,19224.540695413256
1682465900639199256,220,1682465900639199256,camera_2,222,0,0.26773696870648367,0.3721357911599854,3.6799648439466273,-0.9983979637025205,0.03038349427174676,0.027142459619332943,0.03926367578706768,0.017638083780184388,0.003322548424301593,19230.918899205513
1682465900648390293,221,1682465900648390293,camera_2,223,0,0.2677544075084561,0.3721622172041057,3.680128959214299,-0.9984101094330097,0.03020388779112681,0.026420704639392816,0.039584402365386614,0.011209497111849487,0.0021118195571547846,19229.89932538359
1682465900657706975,222,1682465900657706975,camera_2,224,0,0.2678211199144399,0.3722365885034192,3.680938652335131,-0.9983850208273789,0.030363033848514392,0.025829500002454722,0.04047558884872742,0.017861786822322756,0.0033666318318374844,19219.54391597864
1682465900666982889,223,1682465900666982889,camera_2,225,0,0.26776406200429803,0.37219809515001673,3.6805221042579253,-0.9984335033174432,0.030115910638843068,0.026256278030445106,0.039168600225669654,0.010842043964657933,0.002042920613699254,19227.947731322143
1682465900676270961,224,1682465900676270961,camera_2,226,0,0.2678100865237725,0.3722521208616787,3.681032348965545,-0.998456146604131,0.030072607020886283,0.02645557360600808,0.038484597445923266,0.01106324075954035,0.0020851912330994847,19224.688920275777
1682465900685984373,225,1682465900685984373,camera_2,227,0,0.2677753837920454,0.37219371549864866,3.68048132041284,-0.9984347624878436,0.030180762258809685,0.026304891863367548,0.039053800191235825,0.010098960949108005,0.001902892485192201,19228.64653384756
1682465900695518016,226,1682465900695518016,camera_2,228,0,0.2678082981018004,0.37224509436622755,3.6809592461592544,-0.9983952681792079,0.030221072086108046,0.027025921462056655,0.03953700606344581,0.015097000927198678,0.002845355677430349,19219.799587539164
1682465900704851627,227,1682465900704851627,camera_2,229,0,0.2678137274591032,0.37220896386882285,3.6805794125680373,-0.9983750074837895,0.030415435779689214,0.02778173539738171,0.03937538414269439,0.019275093742180616,0.0036320747328580888,19222.18723011086
1682465900714924812,228,1682465900714924812,camera_2,230,0,0.26776648187622687,0.3721565750896553,3.6801662451657164,-0.9984442295958494,0.030218272639944598,0.027549236899283427,0.03790799297873424,0.013448426325339824,0.0025334730917045004,19232.871362641687
1682465900723330020,229,1682465900723330020,camera_2,231,0,0.26777355164154704,0.37215477544353176,3.6802570534856054,-0.9984341620490447,0.030172343191367863,0.029214116607900274,0.036951172519753585,0.013915000075940043,0.0026214293265525643,19230.7401023698
1682465900732566356,230,1682465900732566356,camera_2,232,0,0.26784790167104267,0.3722970167300123,3.6813611234655985,-0.998450641400607,0.0302203325175327,0.027102431223405107,0.038059248692361915,0.015043564199004322,0.0028359255400847746,19221.035603808465
