%time,field.header.seq,field.header.stamp,field.header.frame_id,field.image_seq,field.transforms0.fiducial_id,field.transforms0.transform.translation.x,field.transforms0.transform.translation.y,field.transforms0.transform.translation.z,field.transforms0.transform.rotation.x,field.transforms0.transform.rotation.y,field.transforms0.transform.rotation.z,field.transforms0.transform.rotation.w,field.transforms0.image_error,field.transforms0.object_error,field.transforms0.fiducial_area
1684908974236181974,21,1684908974236181974,camera_1,25,0,-0.8597547025503318,-0.17018890582220225,1.9187901273250754,0.971088807786211,-0.06164640645020842,0.2270400378304101,0.04048541942597614,0.008376561861950904,0.010078518390351102,2391.9856774875675
1684908974246318578,22,1684908974246318578,camera_1,26,0,-0.8588226589589224,-0.17024091795390012,1.9166888126679198,0.9707427510825499,-0.06021192363072721,0.22848262714928944,0.042763589235807906,0.005012483583413996,0.006015716284034369,2392.7468041602997
1684908974256173849,23,1684908974256173849,camera_1,27,0,-0.8605925066341741,-0.17087136179387613,1.9206125139306207,0.9717418131286805,-0.05990244911490624,0.2245842904241488,0.04112714069933195,0.009294171773944981,0.011191142936959003,2392.0606596241696
1684908974266454935,24,1684908974266454935,camera_1,28,0,-0.8595028142436504,-0.17095368667210606,1.9181987944007943,0.9712217468265819,-0.06055947099798612,0.22690082204192882,0.03971002291945861,0.007922832126496361,0.009528924091764897,2393.6139642180638
1684908974276197433,25,1684908974276197433,camera_1,29,0,-0.8597589981438923,-0.1716118474118884,1.9186512749640974,0.9709229464824712,-0.06029141866430477,0.22861417312154877,0.03753846929740811,0.0053604580025421456,0.0064592945936712285,2389.3720019372417
1684908974286315917,26,1684908974286315917,camera_1,30,0,-0.85963440590067,-0.171827767672336,1.9183864874461576,0.9708623369341981,-0.06053854040586748,0.228756708095995,0.03783882066448125,0.004066546825924888,0.004898784408019318,2389.403849935625
1684908974296172380,27,1684908974296172380,camera_1,31,0,-0.8600079718319965,-0.17211682697237674,1.9192030412010954,0.9707728755379051,-0.06037139612070938,0.2290783245892322,0.03845048574067218,0.008879192551830783,0.010704678106621795,2386.214287651003
1684908974306382179,28,1684908974306382179,camera_1,32,0,-0.8610561478767004,-0.17248570573454974,1.9215142474876188,0.9711269669298179,-0.0599194213427854,0.22737762402147693,0.04026776802836098,0.013451229853671975,0.01623618036958883,2383.1227771982094
1684908974316500663,29,1684908974316500663,camera_1,33,0,-0.8607047506521094,-0.17250939049634206,1.9207263297185,0.9712341227369578,-0.059261002510377726,0.2272256443625411,0.03950846690096928,0.010492304398212582,0.012656235746790093,2385.7465037342627
1684908974326776981,30,1684908974326776981,camera_1,34,0,-0.8600696481891283,-0.17227320592570142,1.9193198126443425,0.9709720369982328,-0.059652034624438514,0.22834878125933059,0.03888151527455981,0.013205483322963119,0.015915449975844178,2387.2042114306237
1684908974336391448,31,1684908974336391448,camera_1,35,0,-0.8593575842054573,-0.1719647292120795,1.9177332590182392,0.970889846193471,-0.06039455223284501,0.22890273021180432,0.03645469408175333,0.00975224413559772,0.011746547362030419,2391.2423281162055
1684908974346302509,32,1684908974346302509,camera_1,36,0,-0.8604858525478236,-0.17197539757989222,1.9202925930552028,0.9713116259966248,-0.06110349666378948,0.22677705876738669,0.03731291352956185,0.0050319185393163934,0.006070759623000835,2389.2236407402665
1684908974356353998,33,1684908974356353998,camera_1,37,0,-0.860012118459667,-0.17133558181728523,1.9194501283234686,0.9798165100472925,-0.05458805798152951,-0.18369027785141515,-0.05690019672565865,0.013641018027556129,0.016433111869846233,2390.366772499983
1684908974367048978,34,1684908974367048978,camera_1,38,0,-0.8592487585676383,-0.17086602294239123,1.9176535500193945,0.9709413983971256,-0.060682577536689764,0.22815974863585378,0.03916062773452251,0.006364499116898514,0.007655151456990706,2392.553896726982
1684908974376954317,35,1684908974376954317,camera_1,39,0,-0.8591337457610873,-0.17052505410227847,1.9173682468571125,0.9708529048983406,-0.06022839459514088,0.2282189142906092,0.0416329760521754,0.010260807554004714,0.012327282042725738,2392.0649930762
1684908974386510610,36,1684908974386510610,camera_1,40,0,-0.860679044272735,-0.17055836856304904,1.9209253853678079,0.9714165365005201,-0.061065009711786016,0.22552206973457922,0.0419615689037565,0.01077672975952737,0.01298142926220185,2389.100398066803
1684908974396955251,37,1684908974396955251,camera_1,41,0,-0.8594918097463896,-0.16991544251012924,1.9183363630888903,0.9712679671710944,-0.06093156811020646,0.2265521036474764,0.04000030359715293,0.011306618529488333,0.013595873991082646,2394.6660502341692
1684908974406659126,38,1684908974406659126,camera_1,42,0,-0.8594263478388292,-0.1698069185579472,1.918283099860396,0.9707982458313531,-0.06061917853212708,0.22831682148652943,0.041803230869710314,0.013027821158175357,0.015664392744457672,2390.140218916465
1684908974416624546,39,1684908974416624546,camera_1,43,0,-0.8601852379736109,-0.16992626476118738,1.9200035819277355,0.9710224042496449,-0.06048530831027576,0.22730818348317633,0.042284839427732104,0.006815509463194759,0.008205030723470973,2387.8385840595583
1684908974426559925,40,1684908974426559925,camera_1,44,0,-0.8599181761661221,-0.16992662264486758,1.9193979376846235,0.9709100883088074,-0.05950945826783656,0.22785904402968182,0.043272171782010566,0.010293970932252705,0.012382415076528687,2387.5972607405274
1684908974436429023,41,1684908974436429023,camera_1,45,0,-0.8583864637006503,-0.1699016552642988,1.9160369307783842,0.9707334293726932,-0.06005032314375903,0.22947509778609812,0.03757322563636701,0.0038501184317283332,0.004626713301699948,2395.2356846051407
1684908974446726083,42,1684908974446726083,camera_1,46,0,-0.8587757347184448,-0.17025598528942834,1.9169241153562433,0.9705073973035254,-0.06010838054987772,0.23009432131424457,0.03948389121838625,0.014327652112115175,0.01722726519199365,2390.5135630943114
1684908974456391334,43,1684908974456391334,camera_1,47,0,-0.8604428253427224,-0.17085224774256774,1.9205949114125496,0.9710443534212497,-0.06020079315966986,0.22792212762538255,0.03873282755457581,0.004623411936336197,0.005577685485254731,2386.2909442338278
1684908974466440916,44,1684908974466440916,camera_1,48,0,-0.8599537591530292,-0.1710715945474712,1.9194885739127345,0.9711745319800152,-0.0602939983009087,0.2278513737771482,0.03561479566352703,0.009961738673155196,0.012017061674863857,2390.483806064702
1684908974486446857,45,1684908974486446857,camera_1,50,0,-0.8600926328828623,-0.17193584697730804,1.919685473187938,0.9707383642091054,-0.059882201942909406,0.22979273691318758,0.03572741531437187,0.002705509541556239,0.003266840876396194,2385.0740528304596
1684908974506196022,46,1684908974506196022,camera_1,52,0,-0.8602834470420657,-0.1723337503892523,1.9200837040576935,0.9709162598924337,-0.05910838074511335,0.22924647323914463,0.0356913170055879,0.005410533820395358,0.006534475849429294,2385.064155104919
1684908974536822795,47,1684908974536822795,camera_1,54,0,-0.8597560159583088,-0.17204860353269488,1.919148064615786,0.9795682980853574,-0.054716140664234324,-0.18573097915625106,-0.05436999833205964,0.003800376216531731,0.004585153466179646,2387.5540504698884
1684908974566318273,48,1684908974566318273,camera_1,56,0,-0.858911333196656,-0.17081424091782182,1.9173083711409933,0.9704824232119463,-0.05964331265888661,0.2308878903905961,0.03601837812455167,0.003042546974029392,0.003665169775023938,2389.1962886921247
1684908974596225500,49,1684908974596225500,camera_1,58,0,-0.8597016611188562,-0.16997542603937157,1.9193179795705217,0.9710265168122789,-0.059126906349398635,0.2287804341233457,0.0356514453465184,0.010423181141959503,0.012571616053413637,2389.8107201853427
1684908974626372098,50,1684908974626372098,camera_1,60,0,-0.8604835577916783,-0.1700419757029842,1.9211733942907327,0.9712611410691417,-0.0589678815735823,0.2276345867763866,0.036838562606818254,0.010742997867055237,0.01297112457551523,2387.24652530055
1684908974646720886,51,1684908974646720886,camera_1,62,0,-0.861460205735658,-0.17075602433996545,1.923394945549169,0.9714989321985023,-0.05925632587071042,0.22664588922742837,0.036196042294458594,0.006111985276220366,0.007386577980130971,2385.953280056943
1684908974676099061,52,1684908974676099061,camera_1,64,0,-0.8603219140553079,-0.17175810284182633,1.9207365627302164,0.9710627161940869,-0.05908661308977826,0.2286762010075107,0.03540011954942994,0.0005700409092241898,0.0006887121413106303,2385.5134640396573
1684908974696080923,53,1684908974696080923,camera_1,66,0,-0.859910711322818,-0.1721135239385496,1.919779428333712,-0.971110871213852,0.06020039759982153,-0.2280874748665465,-0.03599571846899964,0.003529363078996539,0.004258654968918632,2388.544959255728
1684908974726206541,54,1684908974726206541,camera_1,68,0,-0.8598573033551846,-0.17223338305413888,1.91966261002823,-0.9712544018469714,0.05931892359316043,-0.2272954405211586,-0.03850889397169311,0.0025343787274323404,0.003054097584046553,2389.2582144038747
1684908974736675977,55,1684908974736675977,camera_1,69,0,-0.8596672367574432,-0.1720400017438537,1.919248134051067,-0.9712789133458876,0.06023328943792421,-0.2274721071126292,-0.03529396292370574,0.002072591581963934,0.002499548393190278,2391.5551373455673
1684908974746439218,56,1684908974746439218,camera_1,70,0,-0.8601637162606984,-0.17190120729447156,1.9203704749346198,-0.9715902118500955,0.06031214465555377,-0.22609498542261974,-0.035439568435289386,0.0030755782790947706,0.0037112959306192096,2391.836066672229
1684908974756445169,57,1684908974756445169,camera_1,71,0,-0.8598644274506428,-0.17128876983473434,1.9199477549119373,-0.9799385382767068,0.054113997604287936,0.1838645189417947,0.05464407687660948,0.0010813061671797186,0.0013042394008596233,2389.916286849941
1684908974766400575,58,1684908974766400575,camera_1,72,0,-0.8605733501492243,-0.1711356399809818,1.921392555135505,-0.9714901765435171,0.05926803672156181,-0.226735857523791,-0.03584672391682371,0.0032666239567333832,0.003945585878932242,2388.3879998585335
1684908974776476383,59,1684908974776476383,camera_1,73,0,-0.8593599220768982,-0.17060115797352454,1.9187478339772503,0.9707903300054083,-0.05844352391645774,0.2300299537660989,0.03516688855419934,0.000305963825667277,0.0003690293173047515,2388.3756371534555
1684908974786528348,60,1684908974786528348,camera_1,74,0,-0.8584431258731702,-0.17011268367008547,1.91675192341479,0.9706477061650587,-0.05937625919126971,0.23032398356712724,0.03561394326286777,0.00014481718244496733,0.0001743011431440723,2392.7041350400546
1684908974796172857,61,1684908974796172857,camera_1,75,0,-0.8611098832575284,-0.17025931232229993,1.9228072101873013,0.9714288969740291,-0.05874155641156265,0.22703560886618057,0.03647135836421517,0.00877298328850884,0.010608929397826119,2384.7233488405477
1684908974806310415,62,1684908974806310415,camera_1,76,0,-0.860092137754757,-0.1699478736654027,1.9205912816343644,0.9709839697650265,-0.05867218042989033,0.22912764646397588,0.03533026080899812,0.0025702971615828574,0.0031044699217666885,2386.3306257022205
1684908974816357135,63,1684908974816357135,camera_1,77,0,-0.859408894617863,-0.16978364670894536,1.9190097904502195,0.9705870944580209,-0.05886873256510225,0.23060682955712625,0.03627195279173485,0.0077721540874335915,0.0093744788193999,2386.5506352407974
1684908974826315402,64,1684908974826315402,camera_1,78,0,-0.8609112697713279,-0.17012805896081334,1.9224179748613708,-0.9713330389602836,0.05903893368461986,-0.2275694386899964,-0.03519491877932375,0.004251365025993437,0.005142106627072115,2385.223231000069
1684908974836258888,65,1684908974836258888,camera_1,79,0,-0.8576574863751932,-0.16979061981328825,1.9151115607273215,0.9703448706668012,-0.05975338309160345,0.23187718230001675,0.033065654512527486,0.005531787406653166,0.006656562828398813,2394.6687181288135
1684908974846428871,66,1684908974846428871,camera_1,80,0,-0.8610360453616068,-0.17068825878480576,1.9226639608783513,-0.9718038679518658,0.05922904594978738,-0.22525616950453073,-0.036726290989108915,0.002156501082936302,0.0026056674972498167,2388.49234185397
1684908974856109857,67,1684908974856109857,camera_1,81,0,-0.8595001531367791,-0.17068459237958364,1.9192397300318575,-0.9708774352962262,0.059015306746735816,-0.22931868431533808,-0.03642993585079679,0.0013070646236883476,0.0015762125910575822,2388.1495349660404
1684908974866424322,68,1684908974866424322,camera_1,82,0,-0.8592546307498543,-0.17094645499047656,1.9186193804161547,0.9711028504888268,-0.059249741005037104,0.22820988349907906,0.03699960860128209,0.0021592807752313092,0.00260094450202606,2391.5718878064654
1684908974876237154,69,1684908974876237154,camera_1,83,0,-0.8591663991819386,-0.17152272344616806,1.9183199626873613,-0.9708518644038079,0.05946130941165456,-0.22911400923526587,-0.037653430638444646,0.0014123720757197589,0.0017010683673008083,2389.5596918440415
1684908974886430501,70,1684908974886430501,camera_1,84,0,-0.8602053022904783,-0.1719710458119147,1.920579085630359,-0.9720111593459226,0.059969134689873915,-0.2243407736549526,-0.03562620197888642,0.0038220382120925933,0.0046097516303822165,2395.001301107928
1684908974896816730,71,1684908974896816730,camera_1,85,0,-0.8591216779485966,-0.17196022283810128,1.9181806208340189,-0.9711796613379844,0.060165108065107345,-0.22785281344573513,-0.035683617807263285,0.0011703966301865876,0.00140990940575675,2393.259345499915
1684908974906890869,72,1684908974906890869,camera_1,86,0,-0.8593915164968042,-0.17216065928468066,1.9189323409188734,-0.9801449841604092,0.05397018174387714,0.1824193217412172,0.05591261542083946,0.0027956322446698323,0.003366219451195124,2394.3978508273726
1684908974916666984,73,1684908974916666984,camera_1,87,0,-0.8607873001191203,-0.1725158457546468,1.9220038922998681,-0.9802111795828661,0.05374032737150641,0.18193015911230248,0.05656357343858134,0.00281280349008739,0.0033964618400024326,2387.4220990005415
1684908974926267147,74,1684908974926267147,camera_1,88,0,-0.8599153076933861,-0.17227254527860744,1.919899896273461,-0.9714774666452156,0.05968122280807098,-0.22630105654720795,-0.03817741806807726,0.0021781116374768317,0.0026248383660483093,2391.0023532146006
1684908974936209678,75,1684908974936209678,camera_1,89,0,-0.8591766478870438,-0.17195695141330725,1.9183923733722823,-0.9799468773052716,0.05546298744996134,0.18384863210691468,0.053175700796405316,0.004829743833397515,0.0058211116551548136,2394.111862623249
1684908974946217536,76,1684908974946217536,camera_1,90,0,-0.8607968259364344,-0.17208079353075395,1.9218637227861526,-0.972031144104072,0.060293293366001116,-0.22412427256980175,-0.035895460881112354,0.008033998441533186,0.009701429849098435,2392.111480195366
1684908974956297159,77,1684908974956297159,camera_1,91,0,-0.8593325474827865,-0.1711887485037238,1.9188185468869328,-0.9798919408119241,0.05389671522957109,0.1841450064127134,0.054749840479813995,0.001541992271086201,0.0018577910021593236,2392.071437933948
1684908974966840267,78,1684908974966840267,camera_1,92,0,-0.8606479208479524,-0.17115514696689094,1.9216529773313615,-0.9712546960237187,0.059274092475564914,-0.22781795756249276,-0.03535358008923728,0.008628256575320847,0.010430138541992217,2385.672216402482
1684908974977481842,79,1684908974977481842,camera_1,93,0,-0.8605282094421371,-0.17082375345741346,1.9214252352296335,-0.971419462765779,0.05919872470952462,-0.22713736313744146,-0.03533209050681052,0.0003267322899773717,0.0003947539021459087,2387.9640092758937
1684908974987819433,80,1684908974987819433,camera_1,94,0,-0.8596463660618818,-0.17034133587274036,1.9195566702696445,-0.9710582041825806,0.06016624098381732,-0.22853879030339244,-0.03458336106049727,0.003442709828959778,0.0041546134776188235,2390.1560311705684
1684908974997386693,81,1684908974997386693,camera_1,95,0,-0.8606528353132036,-0.17017949610309568,1.921882783540498,0.9713140514201114,-0.058785507400693396,0.22742519389880617,0.03702781135285527,0.008820271250442602,0.010655153979443631,2385.9503403781564
1684908975007099628,82,1684908975007099628,camera_1,96,0,-0.8601734427979737,-0.16996539908990674,1.9207854634887496,0.9711391860204502,-0.05865916554204418,0.2282680005287176,0.03662654239850939,0.0016580325464019552,0.0020014774811847207,2387.1216211746796
1684908975026421070,83,1684908975026421070,camera_1,98,0,-0.8594140717170644,-0.16983967811092046,1.9191623539339058,0.970276559938072,-0.05867550601402836,0.23200557084748546,0.035972174308359674,0.0015489871293539181,0.0018696693473199987,2383.2714632765847
1684908975036221504,84,1684908975036221504,camera_1,99,0,-0.8586214053935423,-0.16996650732027546,1.917315523739949,-0.9705765064555031,0.059622608057951,-0.2309204650420348,-0.033198321490236625,0.0031999929633457214,0.0038577310977193297,2391.279438102327
1684908975046386241,85,1684908975046386241,camera_1,100,0,-0.8613143819658229,-0.1707187993884847,1.923364772349218,-0.9718583757579147,0.05951580372079836,-0.22509687268308817,-0.035784975687418986,0.004334832847234793,0.005242878710915948,2387.589463113981
1684908975056287288,86,1684908975056287288,camera_1,101,0,-0.8610522563531116,-0.17098384123174537,1.9227198574219966,-0.971649211429854,0.05945085921812011,-0.22585677002772403,-0.03677124826020749,0.0026591841888148338,0.0032141017141766276,2386.83685688261
1684908975066435575,87,1684908975066435575,camera_1,102,0,-0.8599073807572877,-0.17105880076144026,1.92010777965934,0.9711075715714027,-0.05940113224128797,0.22798599003496103,0.03799971411635444,0.0013812533143209293,0.0016656481414366127,2387.891632785788
1684908975076505184,88,1684908975076505184,camera_1,103,0,-0.8600554648526049,-0.17170027483531594,1.9203841420359402,-0.9714329757648726,0.05907610570130928,-0.22669798925040324,-0.03789470941432698,0.002805415919283405,0.0033827500470900193,2389.6024128885465
1684908975086466550,89,1684908975086466550,camera_1,104,0,-0.8595511773046964,-0.17183440576342346,1.9192280719013353,-0.9716505361534233,0.06028130396889207,-0.22583501945530318,-0.0354956894875699,0.001392600024701096,0.0016782296056316193,2395.2850497652544
1684908975096189498,90,1684908975096189498,camera_1,105,0,-0.8590419640107629,-0.17198176069024246,1.9180178607622151,-0.9713307490159874,0.06001581926398858,-0.2271196976866802,-0.03648726321368052,0.0013710510393138975,0.001650439868742514,2394.8591059270548
1684908975106369972,91,1684908975106369972,camera_1,106,0,-0.8601550899962559,-0.1723331862856967,1.9206613765230527,-0.9799522648219898,0.054131687602535714,0.18302288154754173,0.057148437402862226,0.0012356120423646644,0.001490224737975931,2388.182684709086
1684908975116285085,92,1684908975116285085,camera_1,107,0,-0.8609750043809516,-0.1725528890668708,1.9222976367981817,-0.972000620016059,0.05935821978332287,-0.22397625644386154,-0.03906447211911382,0.0012095034035155547,0.0014595576900218784,2389.5389049089863
1684908975126376152,93,1684908975126376152,camera_1,108,0,-0.8603119593175014,-0.1723440796617765,1.9209902347727617,-0.9800374378432802,0.05458031382727459,0.18301728612787693,0.055247468235942794,0.004103428524103947,0.004953956779667894,2388.339287983253
1684908975136303663,94,1684908975136303663,camera_1,109,0,-0.8594082231404743,-0.17201333847120706,1.9187893927013477,-0.9712139583913969,0.06022226874762331,-0.22752576528162832,-0.03672535235518529,0.0023861956142354757,0.0028749886248287085,2391.9414729466675
1684908975146467685,95,1684908975146467685,camera_1,110,0,-0.8604442440123118,-0.17198781061102397,1.9211073118889361,-0.9716928932912395,0.05998413561955364,-0.22595772102021705,-0.034028413313359346,0.004558717148029245,0.005507441705594486,2390.9818743030764
1684908975156607627,96,1684908975156607627,camera_1,111,0,-0.8583243911580087,-0.1709867068327553,1.9166112751380753,-0.979528889278272,0.054107770388446726,0.18607924815763635,0.05449786837991686,0.006396309196134098,0.007694695039336343,2393.530310473696
1684908975166533470,97,1684908975166533470,camera_1,112,0,-0.8608388853616158,-0.17119045852270207,1.9220959319188806,-0.9718160552423224,0.059366561620508664,-0.22547541627935555,-0.03478509434026678,0.0035532615147531033,0.00429446541474347,2389.8935842369083
1684908975176359176,98,1684908975176359176,camera_1,113,0,-0.8601354314812083,-0.1707612656587321,1.9206340714874985,-0.9712146408201446,0.05875589785645634,-0.22801017459279854,-0.036072513162247924,0.0006337072845781222,0.0007650172964639223,2387.738799705985
1684908975186483860,99,1684908975186483860,camera_1,114,0,-0.8590788852176803,-0.17023240443414123,1.9183160523036185,-0.9708531101504141,0.059025737018665966,-0.22976093169697948,-0.03420694587956007,0.0020231426024110988,0.0024395077555102547,2390.7863363964125
1684908975196464538,100,1684908975196464538,camera_1,115,0,-0.8604702724542346,-0.1701394379009215,1.9214805569406967,0.9711941109770724,-0.05893037700190217,0.2277514181687431,0.037927575614508345,0.010068016214063391,0.012155253258520191,2385.8058913138802
1684908975206539630,101,1684908975206539630,camera_1,116,0,-0.8594485367846697,-0.16981933082439754,1.9192021833581965,0.9709204323448014,-0.0583312249943035,0.22925046551791486,0.03681312681459217,0.005239471807726659,0.006316051177038319,2388.8494679619325
1684908975216592311,102,1684908975216592311,camera_1,117,0,-0.8604629914788822,-0.1699929869710493,1.9215492741579123,-0.9709672628411785,0.05862025009871107,-0.22910812982147627,-0.03599591113973735,0.0017346031672786921,0.002096590479963507,2383.776739576947
1684908975226241111,103,1684908975226241111,camera_1,118,0,-0.8590842731094006,-0.16975566741237338,1.9184431672893685,-0.9708414856863904,0.058267826441655506,-0.2295507076052061,-0.037123344541628855,0.00873053481336683,0.01051582958590638,2389.959329968086
1684908975236297369,104,1684908975236297369,camera_1,119,0,-0.8595628091722382,-0.17016840814856332,1.9194822766238737,0.9710594837091011,-0.05956862347541888,0.2289360839947321,0.03291394295758367,0.006315653634374029,0.007626058222666781,2390.384347236716
1684908975246165752,105,1684908975246165752,camera_1,120,0,-0.8603482438254084,-0.17053385162887696,1.9212345565462767,-0.9711521807178941,0.05913873884222696,-0.228228548818657,-0.035746062148991266,0.0024741440574871376,0.002989147039198357,2386.1672506361497
1684908975256350517,106,1684908975256350517,camera_1,121,0,-0.8600070780555605,-0.1707875311572849,1.9204708442931353,-0.971350284237462,0.059322347870708544,-0.22705625502483773,-0.03748254805912162,0.0026047679275507107,0.003141458122773754,2389.5445888323593
1684908975266293764,107,1684908975266293764,camera_1,122,0,-0.861127887178513,-0.17129553722772262,1.922896465150149,-0.9717508531078007,0.05982324383581032,-0.225443909883021,-0.0360069781831132,0.007797541620675474,0.00942799531156423,2387.4363566689412
1684908975276279926,108,1684908975276279926,camera_1,123,0,-0.8604882101650777,-0.1717931412466563,1.921409634699027,-0.9715660347310238,0.05933143896212852,-0.22594929665073976,-0.03855043256248444,0.0014032984181540087,0.0016930943982227432,2388.35706563096
1684908975286622047,109,1684908975286622047,camera_1,124,0,-0.8582357602885576,-0.17160069770287673,1.9163821496234736,0.9711630056182509,-0.05978870121531377,0.22799078121111213,0.03588776126004354,0.0038366247463272884,0.004612697733115847,2397.569375548861
1684908975296460866,110,1684908975296460866,camera_1,125,0,-0.860074814888368,-0.17217657373246834,1.9204262364464313,-0.9720728019328121,0.05974882845862096,-0.22421066921966523,-0.035130059043278636,0.002127697807736695,0.0025660655210463508,2395.8149299006313
1684908975306475877,111,1684908975306475877,camera_1,126,0,-0.8602881532622564,-0.17237130887127414,1.9208946152183684,0.9722420195601228,-0.059148171575401164,0.22334535948157236,0.03692965744476893,0.0017752029234543443,0.002140034095054399,2395.5318407714367
1684908975316188573,112,1684908975316188573,camera_1,127,0,-0.8602865325242948,-0.1724461208477281,1.9208592166814498,0.9718893575381832,-0.059225423931304824,0.22452123532878648,0.038905536246280105,0.000877201629919,0.0010572163462867405,2392.066286217536
1684908975326444149,113,1684908975326444149,camera_1,128,0,-0.8592374937953651,-0.17212314463335035,1.9184797416989303,-0.9712328022087222,0.05959968042086896,-0.22747992056498936,-0.0375180989293118,0.003887222352204845,0.0046804219776588815,2392.380491886578
1684908975336309194,114,1684908975336309194,camera_1,129,0,-0.8588230688110907,-0.17190220691738917,1.9175991771254166,0.9712486756187707,-0.0605066378760039,0.2275108502040694,0.035408613657523375,0.00366037328785751,0.004406707916701527,2395.6166908659516
1684908975346288442,115,1684908975346288442,camera_1,130,0,-0.8602559641736035,-0.1719687066717473,1.9207509139217949,0.9716096914741252,-0.059868881549992814,0.22624443847081083,0.03469551147534343,0.002837943859049119,0.0034268577117902736,2390.964859810484
1684908975356269359,116,1684908975356269359,camera_1,131,0,-0.8594175581727415,-0.1712184909898753,1.9191129351830798,-0.9801992040373261,0.054269343567084904,0.18249601305899976,0.05440187470078206,0.006509762679343112,0.007841853163074224,2395.064012823859
1684908975366251468,117,1684908975366251468,camera_1,132,0,-0.8601531098541059,-0.17106111282560085,1.9206393661594499,-0.9717825642103205,0.05964084979035723,-0.22526081877905985,-0.03659481460652492,0.0038846757379360497,0.004684774713643956,2393.1501901639276
1684908975376125097,118,1684908975376125097,camera_1,133,0,-0.8604383559141213,-0.17083551635453098,1.9213670070656867,-0.9715040509816899,0.05870838555272002,-0.22671165610443253,-0.03653805383904397,0.001271411223569885,0.0015350403558998251,2388.527069079865
1684908975386465311,119,1684908975386465311,camera_1,134,0,-0.8592385263159636,-0.17027730061841587,1.918687398098812,-0.9710757806108388,0.05889210831165315,-0.22847080199334738,-0.036669340410963924,0.0023348433314822614,0.0028126878605700427,2391.5369960444514
1684908975396306991,120,1684908975396306991,camera_1,135,0,-0.8614208045149905,-0.17032149087536844,1.9236131880392089,-0.9719505216248615,0.05922469439665916,-0.22464983905499683,-0.03656595273401055,0.007033136804238893,0.008504537607392348,2387.841798717681
1684908975406315565,121,1684908975406315565,camera_1,136,0,-0.8612833986143105,-0.17019212205065837,1.9233083338329056,0.9715633391489373,-0.05873698090699078,0.22666281096904767,0.0351939656661253,0.0041631362400949,0.005038279597680614,2385.0118238065625
1684908975416256427,122,1684908975416256427,camera_1,137,0,-0.8600637490630058,-0.16991789593800005,1.9206483327720523,-0.9708898558663754,0.05837594773052589,-0.22954621579378612,-0.035688532010779005,0.00032270935480482876,0.00038978735854216487,2385.1991723438846
1684908975426411628,123,1684908975426411628,camera_1,138,0,-0.8610034710997677,-0.17015300800957062,1.9227539024463276,-0.9712528891309036,0.05944110165787373,-0.22795435318315688,-0.034225628605177555,0.009721440917928703,0.011768041293388853,2384.045177325023
1684908975436216831,124,1684908975436216831,camera_1,139,0,-0.8579196761770432,-0.16985139835181112,1.915794239818743,0.9703645761805128,-0.05948632383591385,0.2318429779419412,0.033208434915173335,0.0009551743278279901,0.00115006268531672,2393.036628129893
1684908975446201324,125,1684908975446201324,camera_1,140,0,-0.8598891182211194,-0.17046941169734212,1.9201411065700051,-0.9712390652501933,0.05954421857661413,-0.2277458966549432,-0.03579065133337683,0.0028586030239239335,0.0034492100165397026,2389.8445114832725
1684908975466575384,126,1684908975466575384,camera_1,142,0,-0.8600855491856197,-0.17111718020109223,1.9204892468822563,0.9712743026226439,-0.05974173224073182,0.2277214684376513,0.034642276287409166,0.001626032651984133,0.0019637150821890078,2389.084876205481
1684908975476262092,127,1684908975476262092,camera_1,143,0,-0.860084798573863,-0.17172107945383547,1.9203882331632653,-0.9710042420129145,0.05917626307369359,-0.2285599729170485,-0.03754025388455102,0.0010015033767558634,0.0012085890650090124,2385.688557876276
1684908975486256122,128,1684908975486256122,camera_1,144,0,-0.8596735910083926,-0.1718586566849917,1.919429921724336,-0.9715327741509342,0.060426535399115994,-0.22614903742493006,-0.03645977841439448,0.00428435871435795,0.005163229550920468,2393.6042650043964
1684908975496529817,129,1684908975496529817,camera_1,145,0,-0.8589047293798296,-0.17194949069459284,1.9176553710774302,-0.9713287432791965,0.05994701185378332,-0.22715794667754285,-0.036415594334045724,0.0013159362279111517,0.0015835471209201817,2395.692874307395
1684908975506345510,130,1684908975506345510,camera_1,146,0,-0.8595462384449943,-0.17219926061766533,1.9192618852034087,-0.9798306794714073,0.05447035542701309,0.18373808299003788,0.056613927662732016,0.002458019313053228,0.002961606201427828,2390.414721837501
1684908975516204357,131,1684908975516204357,camera_1,147,0,-0.8603523681070886,-0.1724124710065243,1.9208308537637164,-0.9716681866045984,0.0593457264630557,-0.2254367050815817,-0.038952687879831756,0.004436865114257671,0.005348868633830554,2390.106037763763
1684908975526203155,132,1684908975526203155,camera_1,148,0,-0.8598495237202629,-0.1722463345411291,1.9198736345988026,-0.9797680614711619,0.05413248517969164,0.184249973424799,0.05635749339948678,0.003910597501089796,0.004715862765786984,2387.9164668496232
1684908975536187410,133,1684908975536187410,camera_1,149,0,-0.8591514218080624,-0.17195385029150545,1.9181365630082985,-0.9712128976523394,0.05983830909463315,-0.22781520295233984,-0.03556849030006719,0.0032547070586588234,0.003920564020169739,2393.475629658613
1684908975546336412,134,1684908975546336412,camera_1,150,0,-0.8591619490129466,-0.17173720153611194,1.9182083509691363,-0.9710998891597495,0.060104602469160426,-0.2283738846822954,-0.034609403795268535,0.0027778538642451167,0.003348174949157113,2392.6868038683324
1684908975556241989,135,1684908975556241989,camera_1,151,0,-0.8587678395470412,-0.171087201097237,1.9173698018752365,-0.9711592562316409,0.05887660153133228,-0.22823914216040492,-0.03591850238539083,0.0029747281223535538,0.003579875894144641,2394.9261463518496
1684908975566797733,136,1684908975566797733,camera_1,152,0,-0.8599121481673808,-0.1710197567349345,1.9199182442567995,0.9708865591485198,-0.05901576592759763,0.22960951690304066,0.034291374779659274,0.0036948585329810157,0.004463044199816055,2386.5185830825358
1684908975576263666,137,1684908975576263666,camera_1,153,0,-0.8595051892648676,-0.17062082966156555,1.9190890217424792,-0.9707435250315773,0.05928563373965159,-0.23003433890200736,-0.03502035361431576,0.001231996007845737,0.0014866178715290865,2387.5802086871117
1684908975586564302,138,1684908975586564302,camera_1,154,0,-0.8583636749143536,-0.17009477212123947,1.9165738274986375,-0.9707176972918988,0.05889065933270695,-0.2302000732668868,-0.03531244363666435,0.001301826152484864,0.001566586398063111,2393.584161381355
1684908975596711874,139,1684908975596711874,camera_1,155,0,-0.8608815854575258,-0.1702224946712941,1.9222029562288334,0.9712322156391172,-0.05896857479270314,0.22782262565665373,0.03643544607325267,0.011328961729304865,0.013695756575090966,2384.477592429729
1684908975606354951,140,1684908975606354951,camera_1,156,0,-0.8600545385284827,-0.16995744419941605,1.9203873802105078,0.9709315293814863,-0.05892067953542067,0.2291246824251608,0.036362049991459464,0.005475351819768548,0.0066099401434799605,2386.274265443789
1684908975616229295,141,1684908975616229295,camera_1,157,0,-0.8605556959431331,-0.17000869073497937,1.921490939824437,0.9708297353094419,-0.05866665589573325,0.22982353283370094,0.03505698619173677,0.007086039491696284,0.008570094669344535,2382.6471158391787
1684908975626313447,142,1684908975626313447,camera_1,158,0,-0.8606542400341084,-0.17008961106835097,1.921767672677835,0.9713009649256836,-0.05922570734419257,0.2275360974790659,0.03597326045846894,0.005949003680143505,0.007188964387850205,2386.4875551945297
1684908975636232376,143,1684908975636232376,camera_1,159,0,-0.8592669363427444,-0.17009923046467734,1.9185734325375583,0.9706678754823163,-0.05953519111535229,0.23040181018666203,0.0342701384329637,0.0012462183512980118,0.001503551249248088,2388.712673716247
1684908975646404266,144,1684908975646404266,camera_1,160,0,-0.8599826553220151,-0.17048058475965353,1.9202082412949033,-0.9710870725800365,0.05935026462450892,-0.22820687666306325,-0.03727016233698558,0.0012372178171062842,0.001492461864701407,2387.911529971926
1684908975656199455,145,1684908975656199455,camera_1,161,0,-0.8600377035574589,-0.17079643721991888,1.9202449529581196,0.9709816443274352,-0.05886990526062224,0.2291371080658682,0.035002376219427235,5.8264253311790526e-05,7.03672175207198e-05,2386.622363191912
1684908975666325569,146,1684908975666325569,camera_1,162,0,-0.859148175058384,-0.17093249968905994,1.9182520549469833,-0.971184738449014,0.05928877945973435,-0.22814112502578413,-0.035166340524215155,0.0005006533756386489,0.0006031870786494408,2393.4524542229483
1684908975676228523,147,1684908975676228523,camera_1,163,0,-0.8601095635033588,-0.17170929306167232,1.9202702502020732,-0.9713111093901049,0.059347545873142005,-0.2271530191314161,-0.037869558667637894,0.0011466732539702207,0.001382812452201259,2388.7929180971123
1684908975686502456,148,1684908975686502456,camera_1,164,0,-0.8599846955633643,-0.17194087384575035,1.9198973223339684,0.9713814824256711,-0.06004897821589853,0.22706390007346747,0.03541357224509346,0.0025500754272798076,0.0030768447496729266,2390.8442891286113
1684908975696139812,149,1684908975696139812,camera_1,165,0,-0.8597785834674304,-0.17208911457417725,1.919416019239691,-0.9712935417241387,0.06056093500301477,-0.22730493991604495,-0.035407530926382595,0.0039046852180035785,0.004709574093381249,2391.3811461979058
1684908975706303834,150,1684908975706303834,camera_1,166,0,-0.8603545203887928,-0.17233941443454504,1.9207813459110654,-0.9798781273356945,0.05368918161012467,0.18403618820578627,0.05556085652518389,0.004013371610199101,0.004845239038843353,2386.480764909299
1684908975716156721,151,1684908975716156721,camera_1,167,0,-0.8600759245230071,-0.17236876272450868,1.9199934693542127,-0.9710037839655198,0.05921855753874551,-0.2282659872136904,-0.039235864321202386,0.004140915771131404,0.0049924296643860016,2385.8239207590227
1684908975726286411,152,1684908975726286411,camera_1,168,0,-0.8600555037918479,-0.17226166248853353,1.9200644501782729,-0.9797699563346581,0.05424923897065038,0.18435597535395096,0.055863468263084956,0.0071212756738532335,0.008591475053877454,2387.459844727769
1684908975736167669,153,1684908975736167669,camera_1,169,0,-0.8595552523280451,-0.17202882035083558,1.918895746657373,-0.9797425103916001,0.05447259752024205,0.18559633444504756,0.05187822367357189,0.0032795847655506805,0.003958846410323133,2389.61378957564
1684908975746229648,154,1684908975746229648,camera_1,170,0,-0.8595250717720947,-0.17180789440349448,1.918714386146234,0.9709394756160324,-0.05980233599575993,0.22920710267806305,0.034122124521227655,0.0011008258443325758,0.0013282155128157903,2389.6860284899594
1684908975756117105,155,1684908975756117105,camera_1,171,0,-0.8592342217730266,-0.17117672206966053,1.918273508694218,0.9795638798573937,-0.053573723838353245,-0.18621025604603889,-0.053946287509802016,0.0033460052218288183,0.004032998129649473,2389.297259782325
1684908975766227483,156,1684908975766227483,camera_1,172,0,-0.8600683458847262,-0.1710547231072532,1.919999517513588,0.9713649504883515,-0.059818436151884966,0.2272842632307106,0.03483893435193097,0.0005866405699634925,0.0007080081949248379,2390.977736884088
1684908975786532640,157,1684908975786532640,camera_1,174,0,-0.8606030591201717,-0.17056095696858747,1.9212736862424251,0.9714943050539157,-0.0591923954659335,0.2266680089514597,0.03628621342597419,0.01287721996777691,0.015549057287004009,2388.929850363347
1684908975796122312,158,1684908975796122312,camera_1,175,0,-0.8599221770146276,-0.17001932267554562,1.9197989193450598,0.9709783181511764,-0.05914764417222027,0.2287910839571146,0.03684157666167315,0.012895991108962335,0.015555951047724292,2388.016030853847
1684908975806238889,159,1684908975806238889,camera_1,176,0,-0.8596580663127533,-0.16988943617917512,1.9192659700375807,0.9710174842430128,-0.05942044471052621,0.22869566207083158,0.035952054110408985,0.01404890175035689,0.016941832816605395,2390.0467978348024
1684908975816286802,160,1684908975816286802,camera_1,177,0,-0.8610179900396102,-0.17012931344559998,1.922283446577521,0.9717107599978237,-0.058885423481345,0.22566658864187938,0.03721957249366851,0.01833210921904538,0.022142147856672324,2388.5138178998022
1684908975826765537,161,1684908975826765537,camera_1,178,0,-0.8608695194541651,-0.17012919353149059,1.9219360899036615,0.9714925532643859,-0.05904625736391098,0.22649958822010272,0.037599135352865964,0.010603524759062566,0.012804830921962829,2387.376559063327
1684908975836373329,162,1684908975836373329,camera_1,179,0,-0.8594387951754517,-0.1701379476873259,1.9187583671623458,0.9710651414745581,-0.059292728505091895,0.22889685252137104,0.0335125986045191,0.0043229068396613,0.005215161809608618,2391.798385057773
1684908975846490383,163,1684908975846490383,camera_1,180,0,-0.8614918993256591,-0.1707909523497675,1.9232756241484577,0.971610294689599,-0.05908373493763064,0.22626412069718946,0.0358761090997615,0.0029166963940951973,0.0035290938663163707,2384.9992461990914
1684908975856500148,164,1684908975856500148,camera_1,181,0,-0.8603164077111283,-0.17084587141953023,1.9206215283965646,0.9712855486618023,-0.05941443947344751,0.22763847792608388,0.03542641260830422,0.0037088078825036064,0.004478417844482939,2388.606048349989
1684908975866404533,165,1684908975866404533,camera_1,182,0,-0.8597303743990571,-0.17104028653682396,1.9192935987610549,0.9710594890817617,-0.0594037892294902,0.22877906714948829,0.03427531070108901,0.0012807879538740963,0.0015457252073216758,2389.739360674749
1684908975876330614,166,1684908975876330614,camera_1,183,0,-0.8593185261969938,-0.17155426353184966,1.9182792079627444,0.9705025833985381,-0.059743296927271254,0.23076390118320592,0.03610396099780667,0.0015260801010299474,0.0018402497229643734,2386.580932208395
1684908975886333465,167,1684908975886333465,camera_1,184,0,-0.8602755069190879,-0.1719975109297836,1.9203584819450832,0.9713194328757023,-0.05985216575181185,0.227493068350597,0.03468690567450724,0.0004672032664529979,0.0005642256648219587,2389.02081474592
1684908975896189928,168,1684908975896189928,camera_1,185,0,-0.8591027341334896,-0.1719596876635543,1.9178344877311881,0.979564143050378,-0.054468197124278125,-0.18598152545710148,-0.05383472244433765,0.0030224057263694704,0.0036424691188673515,2390.5129411639064
1684908975906551122,169,1684908975906551122,camera_1,186,0,-0.8599375926839851,-0.17224568678946595,1.919591032195386,-0.97062828063397,0.05909153605725789,-0.23036867593587246,-0.036320852791335394,0.004230447375448421,0.005107139499181143,2383.6940846280186
1684908975916279315,170,1684908975916279315,camera_1,187,0,-0.859594646409004,-0.17227170707103123,1.918804142614706,-0.970716197591895,0.05925398987848808,-0.22971109716538782,-0.03783966510537331,0.0017354563606204465,0.0020918716069089865,2386.2648254738315
1684908975926443815,171,1684908975926443815,camera_1,188,0,-0.8598490005457918,-0.17222676343114432,1.919515342317601,-0.9796144218620447,0.053835835909857785,0.18580213323341052,0.05417429775910848,0.002842908274033107,0.0034314882534165173,2386.4756011950667
1684908975936345338,172,1684908975936345338,camera_1,189,0,-0.8594615893339878,-0.17203281555993677,1.9186124924969505,0.9794665982517774,-0.054660431916963265,-0.18661227469822558,-0.05322855458958427,0.005696980282664299,0.0068743899806259345,2387.4845658490667
1684908975946355819,173,1684908975946355819,camera_1,190,0,-0.8614101121839173,-0.172187225216015,1.9228619831240499,0.9715414120426402,-0.0599747972482048,0.22632474553474777,0.035880606737642394,0.0009762320114532486,0.0011810781239051155,2384.771672314324
1684908975956359148,174,1684908975956359148,camera_1,191,0,-0.8596650430371905,-0.17126333788709303,1.9190553962454369,0.9711359060977964,-0.059797702304071554,0.2277736810922257,0.03792673052693336,0.008004984178114682,0.009643825369971949,2390.5678473504377
1684908975966406822,175,1684908975966406822,camera_1,192,0,-0.8596593340700168,-0.17096821347596888,1.9190391270894511,0.9708734553517995,-0.05891312841561505,0.2296923232565715,0.03428430589265953,0.006447485604439862,0.007781629551871875,2388.3687093877825
1684908975976604938,176,1684908975976604938,camera_1,193,0,-0.8596148116306832,-0.17066281281115686,1.9190035175316567,0.9710187439083596,-0.059438718772528196,0.22838239193647814,0.03783015652472004,0.0019434343848843127,0.0023414806411447622,2389.8688458653623
1684908975987837553,177,1684908975987837553,camera_1,194,0,-0.8595476711798129,-0.1703515593022881,1.918943654537404,0.9709905450857576,-0.05987680411714551,0.2286127644188581,0.03644631157673157,0.013033268798608333,0.01571034958771971,2390.428363528509
1684908976006771802,178,1684908976006771802,camera_1,196,0,-0.8606312085336761,-0.1700704175728359,1.9213651293428404,0.9716284962437343,-0.05959129685510865,0.22610293163195255,0.03555850016104328,0.013526046473998576,0.016334080840722,2390.59341957391
1684908976026624917,179,1684908976026624917,camera_1,198,0,-0.8597747102265264,-0.16992406307390398,1.9195103049772513,0.9708264446101431,-0.059150865892555644,0.22941724255437898,0.036944801102927194,0.013847359994542785,0.016701527578445754,2387.3796085446957
1684908976036238908,180,1684908976036238908,camera_1,199,0,-0.8586638451910855,-0.16997996961526418,1.9170111243346744,0.9707260057270021,-0.05992041879207912,0.2299752492151465,0.03481307176210582,0.008383777414564975,0.010096022825432708,2393.16915619158
1684908976046612024,181,1684908976046612024,camera_1,200,0,-0.860042689444736,-0.17049031893023953,1.9200870672929136,0.9710849279053206,-0.059385979890253585,0.22842860515014346,0.03588510187741418,0.0042281965288566425,0.0051030662998012,2388.2593229542263
1684908976057222843,182,1684908976057222843,camera_1,201,0,-0.859686535227253,-0.17070859604240435,1.9192742529789526,0.9704348044388674,-0.05895013708708309,0.2314364035816124,0.03490505362150487,0.0014568204642273486,0.001759321714653733,2383.9336474920865
1684908976066457748,183,1684908976066457748,camera_1,202,0,-0.85988060092349,-0.17105376339011377,1.919677166317932,0.9709264891655962,-0.05874696469826322,0.2294296817050905,0.03482194606869832,0.0014832360611762851,0.0017907281229242182,2387.167147462779
1684908976076257705,184,1684908976076257705,camera_1,203,0,-0.8606451567397579,-0.1718227158423382,1.9213086082315927,0.9709067844488617,-0.0593228176562773,0.22941833362741615,0.03446806365480132,0.0010758735297713429,0.001301475062300456,2382.821163103333
1684908976086363077,185,1684908976086363077,camera_1,204,0,-0.8601668714645474,-0.17197808823783511,1.9202108096246375,0.9708678335545091,-0.05929185103142571,0.2295141551525356,0.03497683168983362,0.0013432154373731464,0.001622842950318118,2384.9131094373306
1684908976096536874,186,1684908976096536874,camera_1,205,0,-0.8601998458603259,-0.17218496814558631,1.9204090390224515,-0.9797626534456414,0.05456717815650399,0.18464295689657292,0.054722430955530435,0.0034980488708242774,0.00422372125782435,2386.5976694557467
1684908976106701374,187,1684908976106701374,camera_1,206,0,-0.8598204477363698,-0.17223181307054808,1.9195448232020533,-0.9797389171032477,0.054095296942717454,0.18435526053769147,0.05655520377573463,0.01067626664007548,0.012870543023714836,2388.400008224998
1684908976116755008,188,1684908976116755008,camera_1,207,0,-0.8604941365580588,-0.1724501069273753,1.9208778854150492,-0.9714784248647914,0.0591806742928354,-0.22648730346518162,-0.037826170590477194,0.0020136596431257203,0.0024295955761671345,2388.160127974348
1684908976126347064,189,1684908976126347064,camera_1,208,0,-0.8598171772939681,-0.17222958867872257,1.9194958904546116,-0.9796606296615492,0.05384922382532541,0.18511929208270986,0.05564314408211862,0.004587158502545208,0.005532650183516448,2387.305927814219
1684908976136456251,190,1684908976136456251,camera_1,209,0,-0.8592798489469894,-0.17197154737335413,1.918181286069552,-0.9708915861945677,0.060369801290045884,-0.22916351462609114,-0.0347720938830859,0.002807621523970738,0.0033850866636973846,2390.662898828509
1684908976146376848,191,1684908976146376848,camera_1,210,0,-0.8603645767426099,-0.1719722588393548,1.9205783457147427,0.9709763102560327,-0.059951668886882435,0.22878874926110193,0.035588067252925785,0.003809945657849312,0.004602967618229774,2385.2702651883005
1684908976156282186,192,1684908976156282186,camera_1,211,0,-0.8598378475055604,-0.17129450561557322,1.9196447373700662,0.9795978019371563,-0.053507811773169295,-0.18595223432134722,-0.05428468540977075,0.0011719231551978737,0.0014142672163021416,2386.2910069102654
1684908976166637897,193,1684908976166637897,camera_1,212,0,-0.8604739340193551,-0.17115068105047612,1.9209184613237449,0.9711601914404085,-0.0594385326168049,0.22809010582014685,0.03591444039302583,0.00541910354513675,0.006545995868683644,2386.438212753972
1684908976176302671,194,1684908976176302671,camera_1,213,0,-0.8600077090757307,-0.1707531258946352,1.9199465016026074,0.9711567353439426,-0.05925387570904821,0.22820109990961568,0.03560662311415922,0.0038446504331659526,0.004639762373168093,2389.0127760837204
1684908976186343193,195,1684908976186343193,camera_1,214,0,-0.8604212602172567,-0.1705160385763353,1.9210844695006901,0.9799839450497695,-0.05370883408593992,-0.18387151163854254,-0.054204204574709265,0.0063242867472581565,0.007635698980935018,2387.75652716076
1684908976196249485,196,1684908976196249485,camera_1,215,0,-0.86053632898675,-0.17014919063317735,1.9212473726059598,0.9715216277124241,-0.059333854174395725,0.22640301770727975,0.03697153241144968,0.014034930689376779,0.01694013374370841,2389.555558981315
1684908976206259489,197,1684908976206259489,camera_1,216,0,-0.8612962013343813,-0.17019936145674258,1.9229845278951478,0.9713993942958242,-0.05920355402967859,0.22690133389717645,0.03733551429460863,0.009515078621916473,0.011505508122895742,2384.0908015808095
1684908976216159343,198,1684908976216159343,camera_1,217,0,-0.8600092625253936,-0.16992614132520717,1.9200975924585242,0.9709101895701426,-0.058956681954767616,0.22894410141329025,0.03797514805521613,0.009891111549222842,0.011930460868178368,2386.5243339076405
1684908976226320266,199,1684908976226320266,camera_1,218,0,-0.8601363244330249,-0.16999227050500007,1.9204266621274317,0.9710328279064151,-0.05897767375937218,0.22886292040498346,0.03519438576968987,0.009592305999831297,0.011584382122004994,2387.207548023842
1684908976236116647,200,1684908976236116647,camera_1,219,0,-0.8598790529353231,-0.17022570588621755,1.9198472320233013,0.9706584901318377,-0.05922880357505732,0.23068776311015682,0.03312401414805566,0.003927374506019987,0.004747062170363464,2385.3826788818105
1684908976246285200,201,1684908976246285200,camera_1,220,0,-0.8602300138832142,-0.17052584068786505,1.9207754938369281,0.9799137684271284,-0.05400710262696613,-0.18450004052892194,-0.053028052553443374,0.00556816156313289,0.006725034871936761,2387.715011538473
1684908976256461620,202,1684908976256461620,camera_1,221,0,-0.8598828902238874,-0.17075963190939328,1.919775866700075,0.9709678454184356,-0.058805739112361526,0.2289791849308488,0.03649467193076338,0.0013248055474832654,0.001598356000182928,2387.3694151033415
1684908976266518592,203,1684908976266518592,camera_1,222,0,-0.8606719722743269,-0.1712132747084053,1.9215463303332994,0.9713142355279489,-0.05944499632646275,0.22782399840335987,0.03333427701344388,4.958240606356412e-05,5.997542103299136e-05,2386.7285788198924
1684908976276521205,204,1684908976276521205,camera_1,223,0,-0.8599562036751838,-0.17168805656751793,1.919893312739073,0.970754061898903,-0.059316312952109075,0.2299517183807413,0.03521836933040248,0.0003769715840462595,0.00045530888650330373,2384.880001231854
1684908976286930322,205,1684908976286930322,camera_1,224,0,-0.8595907335419162,-0.1718476648913329,1.9190330164444236,-0.9710665702043587,0.05991236651917675,-0.22843533247478157,-0.035461577048280186,0.001176465506432578,0.0014188700395079779,2390.0206073962618
1684908976296676397,206,1684908976296676397,camera_1,225,0,-0.8595170191419282,-0.17205533276998275,1.9188885899624841,-0.9711344490984349,0.06051450668641306,-0.2280736240988961,-0.03490412934274285,0.003123542992398143,0.003767025554137492,2391.2764362160224
1684908976306937456,207,1684908976306937456,camera_1,226,0,-0.8600140520016539,-0.1722806800636013,1.9199480667579933,-0.9710840201040687,0.060461437582154595,-0.2277660965842233,-0.03824716604934708,0.004942791711073369,0.0059602970569664505,2387.5838791410783
1684908976326468706,208,1684908976326468706,camera_1,228,0,-0.8598098048634739,-0.17223141767971795,1.9196108516314385,-0.9797536615719057,0.05416118436512505,0.1840830480387392,0.05712057570943961,0.004781447365530767,0.005762776669495128,2388.5470941087688
1684908976346342086,209,1684908976346342086,camera_1,230,0,-0.8597745990631284,-0.17187225383148275,1.9194228722505482,0.9710584889455995,-0.05947956801757864,0.22840529516815433,0.03658706293595512,0.0012717163190245628,0.001533719074289878,2388.588865081895
1684908976366495847,210,1684908976366495847,camera_1,232,0,-0.8601001313910223,-0.17105014177696704,1.9202467858605614,0.9709378263161892,-0.059774445463916435,0.22893243224881335,0.036009645409490774,5.891826003789902e-05,7.113748126133893e-05,2386.329204852984
1684908976386448144,211,1684908976386448144,camera_1,234,0,-0.8610125885570712,-0.17064771885430385,1.922373506424437,0.9714890884284635,-0.05960476930203659,0.2268403927330367,0.034636090506951066,0.007371715575573035,0.00891689452759652,2386.673170780297
1684908976406291961,212,1684908976406291961,camera_1,236,0,-0.8602361522861053,-0.16998381153438405,1.920730140101665,0.9711133691654478,-0.05830611553706693,0.22829365099468038,0.03769920469492864,0.0024536343407817185,0.0029607435540184696,2386.5885169653334
1684908976426485776,213,1684908976426485776,camera_1,238,0,-0.859407326412288,-0.1698650824472428,1.9189370410933138,0.9706141923946475,-0.05880429370348649,0.2306918643199906,0.035091427737944374,0.006157089970656671,0.007429163446542192,2387.013406174665
1684908976446340322,214,1684908976446340322,camera_1,240,0,-0.8608749004174235,-0.1706596649194733,1.9221790419591065,0.9710943451410999,-0.059305891607761715,0.2282723043388972,0.036746960791288,0.0023847855045460165,0.002883326999838672,2383.113077875984
1684908976466349124,215,1684908976466349124,camera_1,242,0,-0.8587200885141015,-0.17082400151430024,1.9172640218724188,0.9704244586706234,-0.05953128043684722,0.23131812085211367,0.03499033622050421,0.0006661894876742736,0.000802817721223677,2389.005205867463
1684908976486293315,216,1684908976486293315,camera_1,244,0,-0.8611223221248713,-0.17214970056475223,1.9225318871217638,-0.9716795744141201,0.06028233218702735,-0.22577512492444993,-0.035077600514237105,0.00522784810164012,0.006322828869219195,2387.2776186469705
1684908976506353139,217,1684908976506353139,camera_1,246,0,-0.860145020861215,-0.17230593830570645,1.9203348394457767,-0.9711277551941774,0.05947261818732804,-0.22795508892143918,-0.03755486935513258,0.0034782433649525046,0.004196790885073474,2386.6321126352414
1684908976526536226,218,1684908976526536226,camera_1,248,0,-0.8605365209488636,-0.1723753976792052,1.9211517989540283,-0.9712630171411599,0.059464652807196504,-0.22721443004507255,-0.03854490082570395,0.007664888180443086,0.009250617573328,2385.6989252091735
1684908976546359777,219,1684908976546359777,camera_1,250,0,-0.8598038589807936,-0.17186558162836377,1.9195629316355551,0.9714371712724655,-0.05969581454956452,0.22692969752597467,0.03534323663990171,0.0005830292502650991,0.000703178372822557,2392.072365907602
1684908976566533088,220,1684908976566533088,camera_1,252,0,-0.8601482222880364,-0.17104954340861575,1.9204263982280243,0.9713159776045697,-0.059555215676741366,0.2275742071067027,0.03476245381919704,0.0005940157716395333,0.0007172661384054305,2389.4680346464156
1684908976586246252,221,1684908976586246252,camera_1,254,0,-0.8586487511748179,-0.1701663534700359,1.917181929239076,0.9704486811704001,-0.059274242855863156,0.23113228212695147,0.035969285609844484,0.0007679871778236702,0.0009249223715056653,2389.6585614868663
1684908976606737136,222,1684908976606737136,camera_1,256,0,-0.8602282031515197,-0.16997773227413143,1.920816657983959,0.9708739066919064,-0.05887854646309246,0.2291219264593118,0.03795150704204844,0.004327919814386405,0.005224111846157534,2384.481709380925
1684908976636217594,223,1684908976636217594,camera_1,258,0,-0.8593322326198272,-0.17011311876316373,1.9188005801664596,0.9709357794918895,-0.0595601705868827,0.2293722985731756,0.03353575449272481,0.00029313110280781984,0.0003536901139517527,2390.7829379094755
1684908976656406641,224,1684908976656406641,camera_1,260,0,-0.859649089666914,-0.17070527612842978,1.9194492701808383,-0.9707009281905853,0.058630392721193726,-0.23030362730252327,-0.035530610895331535,0.00044839912152383476,0.0005412083591604819,2385.849231766071
1684908976676166296,225,1684908976676166296,camera_1,262,0,-0.8601757239248946,-0.17171030973543558,1.9204635252755162,-0.9707482889553799,0.05906963031140539,-0.22965136568844863,-0.03766680903005332,0.004229283484164625,0.005106014266282772,2383.014881019247
1684908976696197271,226,1684908976696197271,camera_1,264,0,-0.8595032223075636,-0.1720454374145864,1.9189057468196133,-0.9711752515890122,0.060645423658994425,-0.22750739912854195,-0.03716378118553481,0.003711280500283465,0.004471601605808582,2391.409429545863
1684908976726913452,227,1684908976726913452,camera_1,266,0,-0.8601773045847912,-0.17229997625011384,1.9204576696056184,-0.979834150880305,0.05398544534661386,0.18436056164899375,0.05497082651613643,0.003703309761476703,0.004470857161122242,2386.8879455251154
1684908976746345520,228,1684908976746345520,camera_1,268,0,-0.861458834053937,-0.1721773595895966,1.923189134276074,-0.9718715884636191,0.06000314423876333,-0.2251566247024163,-0.03420135335449881,0.0019288087059976533,0.002334520416598514,2387.366483515826
1684908976766345024,229,1684908976766345024,camera_1,270,0,-0.8596007760443358,-0.1709727778471366,1.9191249018484466,0.9707014177465155,-0.05902395483899117,0.23049989497441672,0.033536975964631524,0.0028253868949832395,0.003412082480690554,2386.8179264715873
1684908976796322584,230,1684908976796322584,camera_1,272,0,-0.85970577218796,-0.169995833372814,1.9194978117577601,0.9709635686689343,-0.05915633043906614,0.22897623021220728,0.03605777148518822,0.009071401451365091,0.010942245007148254,2388.815017335932
1684908976816394805,231,1684908976816394805,camera_1,274,0,-0.8594095129206462,-0.16979242210402146,1.9188211111666162,0.9706440932506782,-0.05921654319912029,0.23044952841750238,0.03516333461528059,0.005415939798695035,0.0065337711956084165,2387.7780487188134
1684908976836505174,232,1684908976836505174,camera_1,276,0,-0.8592195147615471,-0.17009269525456447,1.9182807154929122,0.970731073926843,-0.05969469586300952,0.230093575789783,0.03427348507129756,0.001262922552996315,0.0015231287803747454,2390.020139584378
1684908976866641521,233,1684908976866641521,camera_1,278,0,-0.8600312383834738,-0.17109555411708238,1.9199626373625334,0.9711300455483138,-0.0593946052713864,0.22842097694005162,0.034678131318434335,0.0004689177294494584,0.0005661495966147825,2388.6804440642027
1684908976886514902,234,1684908976886514902,camera_1,280,0,-0.8601286113224911,-0.1719644315799843,1.9199937426820184,0.9711878456631516,-0.06034295870744022,0.22781213980778228,0.035419270557114024,0.0027403265848988667,0.0033079040069414756,2388.857879670688
1684908976906531810,235,1684908976906531810,camera_1,282,0,-0.8587170512189659,-0.17203352717419923,1.9168082670656026,0.9703833285084901,-0.05893541894571982,0.23111866579545332,0.038301102691774835,0.002160721764084883,0.002599954902083575,2387.9324695924884
1684908976926396608,236,1684908976926396608,camera_1,284,0,-0.8597811695418922,-0.17224129656404014,1.919107943355244,-0.9710583486408213,0.05876459523736709,-0.22874187516522615,-0.03563089147700069,0.003178253071382642,0.0038336166852983703,2388.708702135715
1684908976946593523,237,1684908976946593523,camera_1,286,0,-0.8599141707470147,-0.17189553275037261,1.9193547605462062,0.9715425521747982,-0.05970635760962143,0.2264773808410111,0.03533010249160424,0.0006088433001423255,0.0007340846423261228,2393.3469939011266
1684908976966266632,238,1684908976966266632,camera_1,288,0,-0.8593195519452462,-0.17090595414450482,1.9181022959246528,0.9711885778731024,-0.05997888415456609,0.22810891694488544,0.0340822780140266,0.004494602922932245,0.005417204856654215,2394.1389698200496
1684908976997241020,239,1684908976997241020,camera_1,290,0,-0.8598609204218004,-0.17001952697925268,1.9193808091925313,0.9714164201290305,-0.05962207025174735,0.22668544085386047,0.03753742595711357,0.01000253894017078,0.012049207394846382,2393.139118787076
1684908977016376733,240,1684908977016376733,camera_1,292,0,-0.8603980706223248,-0.17000214098043326,1.9206338440246435,0.9715913397972906,-0.059639719855643855,0.22532770824549544,0.04099751386705223,0.017192885890835896,0.02070439236253418,2391.292812363246
1684908977036111593,241,1684908977036111593,camera_1,294,0,-0.8594910066911073,-0.17014067686039647,1.918599415367894,0.9711508720119968,-0.0603413770640077,0.22785868824345246,0.03612921527421444,0.005788759852293879,0.006974448778814291,2393.0934513391694
1684908977056665420,242,1684908977056665420,camera_1,296,0,-0.859990563402849,-0.1707883843260528,1.919626648415723,0.9712395029544254,-0.06009561392906436,0.22753441887234455,0.036199907676044814,0.002379767087404616,0.0028700266578456563,2390.787338966562
1684908977076567411,243,1684908977076567411,camera_1,298,0,-0.8599873305966831,-0.17169476364182915,1.9195096926471291,0.971170787777247,-0.05997600164273597,0.22780536161148285,0.03653624797559304,0.00772849221539218,0.009320839764500106,2389.637673146208
1684908977106279134,244,1684908977106279134,camera_1,300,0,-0.859996430059179,-0.17230167355325346,1.919400826024891,0.971101625497528,-0.0592232893619956,0.22810859039566012,0.03769225306225843,0.004270184901542962,0.005148033750178546,2388.232382936636
1684908977126652717,245,1684908977126652717,camera_1,302,0,-0.8601488501532795,-0.1723131257483741,1.9196486230674685,0.9713252690491365,-0.0591083620351964,0.22725463845833546,0.037265970312200435,0.0032671603839844465,0.0039392050319098666,2389.647827903856
1684908977146652936,246,1684908977146652936,camera_1,304,0,-0.8600174847547365,-0.17192997388683284,1.919391157911793,0.9715106851817505,-0.05951048893221856,0.22671540454421077,0.03500879356803054,0.006671917755738832,0.008046641212301328,2392.7872973077456
1684908977166397094,247,1684908977166397094,camera_1,306,0,-0.8594156329228201,-0.17092035705888187,1.9181464692777774,0.9715870806293214,-0.060095075587192834,0.22612184323383727,0.035721683287519686,0.007944349155877717,0.009563680379921816,2397.492214516562
1684908977186321735,248,1684908977186321735,camera_1,308,0,-0.8605884147805765,-0.1705697948187026,1.9208836563362433,0.9717881366644238,-0.05975263186734886,0.2250370845289738,0.03762646688053202,0.005242356681264938,0.006321575017044563,2392.560167860589
1684908977216305732,249,1684908977216305732,camera_1,310,0,-0.8593684511001476,-0.16977703911198905,1.9182297215688189,0.9710763770754702,-0.05961254760431739,0.22765656844030832,0.04036707693263591,0.014206797495717183,0.01708319108147276,2392.549078058044
