%time,field.header.seq,field.header.stamp,field.header.frame_id,field.image_seq,field.transforms0.fiducial_id,field.transforms0.transform.translation.x,field.transforms0.transform.translation.y,field.transforms0.transform.translation.z,field.transforms0.transform.rotation.x,field.transforms0.transform.rotation.y,field.transforms0.transform.rotation.z,field.transforms0.transform.rotation.w,field.transforms0.image_error,field.transforms0.object_error,field.transforms0.fiducial_area
1683171230441254615,0,1683171230441254615,camera_2,1,0,-0.052024307136794984,0.8644554691601382,4.656760716961043,-0.7179576113281162,0.6907319609126529,-0.060173091592669446,0.06168813141899831,0.009008931345306337,0.0028035186684968825,11634.101431810996
1683171230451706886,1,1683171230451706886,camera_2,3,0,-0.05204543272075726,0.8643394377728317,4.656030873309754,-0.7179858560696672,0.6905940168719,-0.06047451638671293,0.0626022939869949,0.01267961983103305,0.003944839440700785,11633.99142358219
1683171230458210229,2,1683171230458210229,camera_2,4,0,-0.052041221333855844,0.8643188415165959,4.6559782169485455,-0.7178626408320462,0.6906833145921282,-0.05973384712228722,0.06373111759292373,0.010870934347622097,0.0033813683561782766,11633.24215299217
1683171230465013265,3,1683171230465013265,camera_2,5,0,-0.052022345998991464,0.8644465577173889,4.656648825903361,-0.7179461390566284,0.6907514930608125,-0.06033703406148177,0.06144231903665771,0.010161068639717996,0.0031619729771645345,11634.827764567217
1683171230471534013,4,1683171230471534013,camera_2,6,0,-0.05203689761389356,0.8640707195166906,4.654681168095157,-0.7178293517644144,0.6906744201318562,-0.06051031420803834,0.0634694335522973,0.012143641943112016,0.0037758799791200517,11638.039226824883
1683171230478335857,5,1683171230478335857,camera_2,7,0,-0.052038182218772475,0.8643753573717539,4.65623739979947,-0.7180509397530078,0.6906483658118872,-0.060337031098523494,0.061376912592667775,0.009170977398753166,0.0028534218991083165,11637.05104100169
1683171230484972000,6,1683171230484972000,camera_2,8,0,-0.05205754928272965,0.864509067188248,4.657042237958945,-0.7179002059190449,0.6907783997176207,-0.059634807030968996,0.06235532547693979,0.008076061843894422,0.002513065604950874,11632.401586742606
1683171230491643905,7,1683171230491643905,camera_2,9,0,-0.052042780617228085,0.8644357792039178,4.6566265561156435,-0.7178297557415851,0.6908684467225923,-0.0599475892135029,0.06186693496996597,0.009258792619220912,0.0028808466552660856,11634.92455627257
1683171230498265504,8,1683171230498265504,camera_2,10,0,-0.052049963740030535,0.8643124801775534,4.655884080125658,-0.7179325069737954,0.6907440633443326,-0.06004193422266032,0.06197193332213943,0.012200421129819006,0.0037950231755876887,11637.969579569999
1683171230505025863,9,1683171230505025863,camera_2,11,0,-0.05206360597644835,0.8647126260551355,4.658170314492152,-0.7179871397666884,0.6907209138543142,-0.05995330588997138,0.06168214820168508,0.00918042124249041,0.002858365432249427,11627.767856257495
1683171230511546373,10,1683171230511546373,camera_2,12,0,-0.052031846492089355,0.8644152363334372,4.656433149884802,-0.7178976967883163,0.6906878212638584,-0.05998781679901078,0.06304516111093174,0.012023927760310471,0.0037410398358111844,11632.226149504542
1683171230518345355,11,1683171230518345355,camera_2,13,0,-0.05200805244983275,0.8639273324937553,4.6538594136716505,-0.7178308684234949,0.6905867603477052,-0.060793337969965645,0.06413221366288833,0.008008883218280971,0.002489589118760847,11639.23754199687
1683171230525033950,12,1683171230525033950,camera_2,14,0,-0.05203073057912819,0.864137462166545,4.65498981905811,-0.7179106111039106,0.6906411563214824,-0.06038098246407024,0.06303399571667144,0.01162038929760456,0.0036135752268597254,11638.218662157657
1683171230531780719,13,1683171230531780719,camera_2,15,0,-0.05205099177406223,0.8645847031065189,4.657426925747511,-0.7179427595041629,0.6907851195921522,-0.05969450521173587,0.061730694740381405,0.00945066538406536,0.0029413669970715386,11632.135348969143
1683171230538450241,14,1683171230538450241,camera_2,16,0,-0.05202318212589731,0.8641241775469101,4.654953829703582,-0.7178492990544654,0.6907358362009682,-0.06105174339629764,0.062040898309379186,0.008717672200873494,0.0027113778524575113,11639.234089521688
1683171230545321941,15,1683171230545321941,camera_2,17,0,-0.052025379967627496,0.8642688305851731,4.655819450558447,-0.717925430484142,0.6907426619359053,-0.05905526713835921,0.06300894118358191,0.00654813542496413,0.0020362526039347253,11638.428523764946
1683171230551946640,16,1683171230551946640,camera_2,18,0,-0.052030185198435164,0.864315985475814,4.655978174317147,-0.7179078201335914,0.690689294565876,-0.05943816142549895,0.06343315481263584,0.010133037460036576,0.0031516268520239126,11635.100335591946
1683171230558739423,17,1683171230558739423,camera_2,19,0,-0.05202071497955167,0.8643899524694038,4.65634466720623,-0.7179978311567856,0.6907020056907106,-0.06010346333811452,0.06162327063492559,0.010756344418041408,0.0033465897312423085,11636.55841470277
1683171230564948320,18,1683171230564948320,camera_2,20,0,-0.05203792959690006,0.8642664139529402,4.655634136921436,-0.7177958854391138,0.6906723880036647,-0.061210611350814834,0.06319794580564632,0.008920425432734191,0.002775336496882567,11631.831781788263
1683171230571614265,19,1683171230571614265,camera_2,21,0,-0.05200643196252532,0.8642975668532998,4.655756751548997,-0.7178151827822602,0.6906586812312364,-0.060493003523783694,0.06381650203412294,0.010698854341171682,0.003328244257708873,11631.662758246066
1683171230578397274,20,1683171230578397274,camera_2,22,0,-0.05202098784384604,0.8643812943592609,4.656254602388486,-0.718023437546832,0.6906182375200128,-0.060222139337400116,0.06214569230291457,0.017413216060958803,0.005417769807734039,11635.05312574049
1683171230585315942,21,1683171230585315942,camera_2,23,0,-0.05203248646764162,0.8645914212040144,4.657341883158366,-0.7179577003396835,0.6907049497563562,-0.05901457419215856,0.06309273284571673,0.009952781663741916,0.003096966803550969,11630.621031841727
1683171230592105627,22,1683171230592105627,camera_2,24,0,-0.052030163050224995,0.8643368853984948,4.656144463076332,-0.7178064484168039,0.690759647672323,-0.06003349075501459,0.06325339316297456,0.007180503278505057,0.0022338045288518744,11632.959317751229
1683171230598341226,23,1683171230598341226,camera_2,25,0,-0.0520486897661257,0.8644828923862714,4.6569174691444815,-0.7179322620793769,0.6908245678097936,-0.058720760522046285,0.06234224779163207,0.011041155667044222,0.003434688402660074,11635.932544126405
1683171230604902029,24,1683171230604902029,camera_2,26,0,-0.0520148421492189,0.8642671899915118,4.655658139280375,-0.7181098329404358,0.6906413320713047,-0.059577314213690565,0.06150903917406116,0.008041610999498516,0.002500887189828647,11641.994379505752
1683171230611472129,25,1683171230611472129,camera_2,27,0,-0.05201158772278358,0.8641626135590508,4.655064062349915,-0.7178858444169847,0.6905472789213618,-0.061165599231081086,0.0635856857375837,0.008073490054812282,0.0025112348527417468,11633.670837234942
1683171230618170261,26,1683171230618170261,camera_2,28,0,-0.0520287929316417,0.8643054769923334,4.655976072641573,-0.7179019417486618,0.6907388723151082,-0.059935612318593665,0.06248467558008822,0.008726551313884556,0.002714522247002894,11636.409836418694
1683171230624772787,27,1683171230624772787,camera_2,29,0,-0.05205789204536688,0.8643616455942087,4.656249281888073,-0.7179323685391872,0.6906266692880054,-0.06028210366544643,0.06303955781521074,0.012741877872031182,0.0039642685938184406,11632.234509568669
1683171230631711483,28,1683171230631711483,camera_2,30,0,-0.05201447268059998,0.8643096364762565,4.655909611012094,-0.7178742742282056,0.690791959393604,-0.05963481433464269,0.06250347316545865,0.00819809443783015,0.0025498439077978946,11637.620630605614
1683171230638485193,29,1683171230638485193,camera_2,31,0,-0.05204244155091926,0.8642902221556685,4.655726054823372,-0.7179817389370581,0.6906779172474249,-0.06016288414429229,0.06202148459298515,0.013350448803976178,0.0041525690291266135,11638.216839558441
1683171230645087718,30,1683171230645087718,camera_2,32,0,-0.05201496921268826,0.8642133025512745,4.655351645378741,-0.7179062091678069,0.6906226448100397,-0.0608449475264729,0.0628405098196654,0.010956426267512143,0.00340805053331187,11635.508528827228
1683171230651583433,31,1683171230651583433,camera_2,33,0,-0.052029967990943206,0.8645245617305836,4.657023259804651,-0.7180322322861402,0.6906589571446529,-0.05952777535139403,0.06226043909062138,0.0075943628908135,0.002363154663269299,11633.109861733865
1683171230658138513,32,1683171230658138513,camera_2,34,0,-0.05202579725390433,0.8640333518337626,4.654476110305846,-0.7179094791839918,0.6906130925643378,-0.06090401771447933,0.06285090852744758,0.013503572146873921,0.004198823692886806,11639.665310765857
1683171230664885520,33,1683171230664885520,camera_2,35,0,-0.05201580857647788,0.8639731489573798,4.654006836782612,-0.7176628601820594,0.6907070158592857,-0.06138290793730961,0.0641558724609544,0.01232514256844297,0.00383213256235533,11636.458427940026
1683171230671540021,34,1683171230671540021,camera_2,36,0,-0.052002086177397926,0.8640908286314692,4.654685943122817,-0.717935855551456,0.6906104517423146,-0.05965695566384535,0.06376800842740206,0.009717127191834152,0.003020744463242834,11639.834535487462
1683171230678103446,35,1683171230678103446,camera_2,37,0,-0.05202531943907366,0.864291931008647,4.655662909312558,-0.7178967718725812,0.6906858320958759,-0.05947292099925265,0.06356318073202046,0.014867574616800994,0.004623472303770617,11636.08762661018
1683171230684952497,36,1683171230684952497,camera_2,38,0,-0.052037124913878366,0.8644583233891991,4.656692772005549,-0.71793520250379,0.6905959195250331,-0.05952619043855384,0.06405430190931141,0.007529629277996719,0.002342680465770229,11629.362860382073
1683171230691728353,37,1683171230691728353,camera_2,39,0,-0.05204891821292908,0.8645185402149032,4.657000038825623,-0.7180159479012461,0.6908242907645825,-0.05917468086198342,0.06093648327536495,0.011085369333159178,0.003449027371480843,11638.191880227998
1683171230698312044,38,1683171230698312044,camera_2,40,0,-0.05205073111481783,0.864523879148499,4.657035378646315,-0.7180253280441442,0.6907639670657361,-0.05889247974898531,0.061777390036494365,0.017963952443096787,0.005588707117093812,11636.419452339413
1683171230705016374,39,1683171230705016374,camera_2,41,0,-0.05202468298820203,0.8642060468573317,4.655436986942063,-0.7178091427513797,0.6907694949135463,-0.05881874493094737,0.06424869433818604,0.007824410975445062,0.0024325542262209386,11637.292104271237
1683171230711750507,40,1683171230711750507,camera_2,42,0,-0.052036509211986874,0.864303025871003,4.655859846965769,-0.7178813648032014,0.6907629502808603,-0.06006204031058101,0.06233332897659843,0.010365875496063381,0.0032243346551171954,11636.985237054523
1683171230718418121,41,1683171230718418121,camera_2,43,0,-0.05201252191349681,0.8639765342980108,4.654068206677928,-0.717795685976637,0.6905347953396297,-0.06190852789614518,0.0640186206686547,0.00912358023924753,0.002837240281728014,11634.893684724819
1683171230724851131,42,1683171230724851131,camera_2,44,0,-0.052075475917853234,0.8647857819925376,4.658497041109781,-0.71810936590754,0.6907347559037614,-0.0586915209079245,0.06131672655937125,0.009041317913215607,0.002814483858985929,11631.145932116782
1683171230731580734,43,1683171230731580734,camera_2,45,0,-0.0520739878761345,0.8646171576574544,4.657593161144894,-0.7179160838925879,0.6909221915256847,-0.059726506874863444,0.060462931802906926,0.012269629107322544,0.003818978199082539,11634.859002779704
1683171230738219499,44,1683171230738219499,camera_2,46,0,-0.052011839473972574,0.8642506901420423,4.655556091823679,-0.7178476582754127,0.6907054131766148,-0.05961236869757666,0.06377411085457933,0.010001919814385474,0.0031103637768496914,11635.611170639288
1683171230744913101,45,1683171230744913101,camera_2,47,0,-0.052020209330673445,0.8641621022705844,4.6551316955715265,-0.7179368219541867,0.6906312468797177,-0.060910179263048356,0.062330976069945226,0.006551872822456062,0.002037866339493212,11637.949820015114
1683171230751572847,46,1683171230751572847,camera_2,48,0,-0.05204694155121603,0.8645719572784315,4.65719750177307,-0.718038155884553,0.6907123807166939,-0.059603418096767204,0.061522730512949604,0.008438175660558045,0.0026259500962521596,11634.128247496443
1683171230758463382,47,1683171230758463382,camera_2,49,0,-0.05203144557992661,0.8642995312489493,4.655789975754736,-0.7178785752226333,0.6907078254876926,-0.06011197180970304,0.06292536763130242,0.010409492824692279,0.003237900313901821,11635.392082353126
1683171230765071868,48,1683171230765071868,camera_2,50,0,-0.052027598824814204,0.8644519247900123,4.6566204230525114,-0.7180189971920617,0.6905868826451916,-0.06044556110530248,0.06232825468732065,0.0070561765460297465,0.0021958360719942253,11631.999113555998
1683171230771709442,49,1683171230771709442,camera_2,51,0,-0.05203630790430346,0.8642779394356227,4.655763850826356,-0.7177633252072338,0.6906395236805323,-0.06069522331317133,0.06441232168418237,0.010842546296771616,0.0033731031947476986,11629.169128987935
1683171230778377056,50,1683171230778377056,camera_2,52,0,-0.05204978111144017,0.8647057209166409,4.658059221450689,-0.7179866154705618,0.6908598636307289,-0.058679046879522856,0.06135664826707238,0.012619641493074596,0.003927583071799675,11633.253450272365
1683171230785076141,51,1683171230785076141,camera_2,53,0,-0.0520062661669873,0.8642598933051525,4.655606800716892,-0.7179438663343148,0.6905652011013501,-0.05991665982171846,0.06392418710156463,0.014957542764022946,0.004652128018001458,11633.932101657148
1683171230791821241,52,1683171230791821241,camera_2,54,0,-0.05202381722236805,0.8645134225657931,4.656882230604923,-0.718023783953223,0.6906981054273561,-0.05885143823674738,0.06256581378055465,0.014176048978697509,0.004410048643224302,11634.977390756132
1683171230798448801,53,1683171230798448801,camera_2,55,0,-0.05202154808664304,0.8643066082316317,4.65589618126837,-0.7179513170794376,0.6906501127226485,-0.06000824376633746,0.06282785035454828,0.009351977438200265,0.002908977849966846,11635.527352578007
1683171230804924964,54,1683171230804924964,camera_2,56,0,-0.05205049311669636,0.8645746833456703,4.657373415482742,-0.7179400811684279,0.6907881937772207,-0.059122423598211744,0.06227559889515191,0.010589455021545291,0.0032952367841462466,11632.589886656497
1683171230811706542,55,1683171230811706542,camera_2,57,0,-0.052021683458333065,0.8641791672876817,4.655223808564446,-0.7179730232226551,0.6905217044435378,-0.0602204056225904,0.06378100315582264,0.007273447583429515,0.0022619622087993486,11635.339947809
1683171230818418741,56,1683171230818418741,camera_2,58,0,-0.052018535423226334,0.8642984460271562,4.655787030542625,-0.717960698114171,0.6907038097716994,-0.06005048158781453,0.06208560856868446,0.011590511014219373,0.0036051858664954187,11638.116051816145
1683171230824936866,57,1683171230824936866,camera_2,59,0,-0.052036154146736,0.8643835892553154,4.656355322123903,-0.7179263696180873,0.6906266486033711,-0.05983258380894321,0.0635344155605081,0.009740599780343473,0.0030303660877417185,11631.669322257163
1683171230831485986,58,1683171230831485986,camera_2,60,0,-0.05203518596192712,0.8642902464070635,4.655697877202941,-0.7179061136545543,0.690621646202531,-0.06108930863181869,0.0626150951832437,0.012323060887865722,0.003833967223541191,11633.619653041005
1683171230838005542,59,1683171230838005542,camera_2,61,0,-0.05203526463591246,0.8642170817860214,4.6553539866229645,-0.7178529816206632,0.6906274807066395,-0.06190687001502621,0.06235638793312855,0.006565552554093301,0.0020428726234704253,11633.487585766008
1683171230845005989,60,1683171230845005989,camera_2,62,0,-0.052026548832514154,0.8643009046496043,4.655791518255127,-0.7180464532229504,0.6905887747274809,-0.05971973221152123,0.06268962289663307,0.01250903436448425,0.003890531973111998,11637.335176846711
1683171230851746082,61,1683171230851746082,camera_2,63,0,-0.05197496612830689,0.8638763759431289,4.65351162513219,-0.7178827192854408,0.6904600212778765,-0.06122803869766,0.06450184218712991,0.01632524124579504,0.005074704402222557,11638.409651352322
1683171230858278751,62,1683171230858278751,camera_2,64,0,-0.05202661408883403,0.8643221406273291,4.6560043599166745,-0.7178630228154728,0.6907069186789629,-0.060465306523621795,0.06277403659355468,0.01068663113983348,0.003324662390623937,11633.689076995011
1683171230865056276,63,1683171230865056276,camera_2,65,0,-0.05204593350914517,0.8644718110670041,4.656773155353109,-0.7180671032412135,0.6907034764085032,-0.05940567519380819,0.06147608213564642,0.011109370097983629,0.003456375963810959,11637.035405234898
1683171230871748208,64,1683171230871748208,camera_2,66,0,-0.05205603939177269,0.8644503296625871,4.65663954265622,-0.7179537849497057,0.690617110974254,-0.05967279327177098,0.06347855109492626,0.01165886694798246,0.0036273762048771806,11630.876218251418
1683171230878303527,65,1683171230878303527,camera_2,67,0,-0.05203085941949137,0.8644249409339912,4.656614592402977,-0.7180455816864926,0.6905702661023536,-0.06096111410936516,0.061700832752694626,0.006765552214346826,0.0021056983689334697,11632.277100295296
1683171230884971618,66,1683171230884971618,camera_2,68,0,-0.05204773066476581,0.8644298857118891,4.656567584017747,-0.7179891494443311,0.6907074001316299,-0.059512427953190256,0.06223455312547091,0.006663973559625447,0.002073194803255934,11635.510309945095
1683171230891544580,67,1683171230891544580,camera_2,69,0,-0.05206463238894378,0.8646316139544552,4.657671847485704,-0.7179434008477922,0.6907630368640744,-0.059471264019502056,0.06218415262227532,0.00827930134255439,0.0025768626661869755,11630.276302893648
1683171230898251533,68,1683171230898251533,camera_2,70,0,-0.05202538918082897,0.8642760350709784,4.655628440271314,-0.7179245574859543,0.6905694487606396,-0.061151472223859436,0.06291791193195778,0.009901890065521002,0.0030806706141038604,11632.880846669195
1683171230904895067,69,1683171230904895067,camera_2,71,0,-0.05201194273583233,0.8642023920655895,4.655297288294446,-0.7177705541738184,0.6907106581481217,-0.06011517061625395,0.06411228075320018,0.0065540552022866905,0.002038290809178067,11634.288748646159
1683171230911643981,70,1683171230911643981,camera_2,72,0,-0.05205506575061208,0.8644480912166225,4.656613065052835,-0.7180690981129778,0.6906651819241316,-0.059578795416477974,0.06171502207439093,0.012437071476597339,0.0038692584687889135,11636.564170591068
1683171230918407201,71,1683171230918407201,camera_2,73,0,-0.052032161878242895,0.8642258384033092,4.6554402125024,-0.7177878022825006,0.6906878522378183,-0.06092185538708593,0.06339944165182132,0.006772964436095208,0.0021069080330683733,11633.143589375777
1683171230925108432,72,1683171230925108432,camera_2,74,0,-0.05204502076073277,0.8643807374264356,4.656208885267385,-0.7179550607669717,0.6906020821414367,-0.06037451653454547,0.06296199341051832,0.009318216645624489,0.0028992003982775435,11632.34453942161
1683171230931817293,73,1683171230931817293,camera_2,75,0,-0.05200684102323097,0.8642373154357118,4.655470378084081,-0.7178759964771647,0.6905069968942225,-0.06112345121306224,0.06417214842784016,0.006261347210966051,0.0019479472052945416,11630.011909242481
1683171230938504219,74,1683171230938504219,camera_2,76,0,-0.05203870384236741,0.8644867686727269,4.656875123456256,-0.7180037050084321,0.6906701652513761,-0.05996237863295781,0.062047687905988705,0.00966097239870578,0.0030063419137860378,11633.103633616123
1683171230945044040,75,1683171230945044040,camera_2,77,0,-0.05201100427752966,0.8642907998912897,4.655748368945489,-0.7177843266396084,0.6907405225841039,-0.05990643616168797,0.0638311036812659,0.010929292708169669,0.003399298536867465,11633.535163875902
1683171230951781988,76,1683171230951781988,camera_2,78,0,-0.05199960083253524,0.8641624025353888,4.6551441614681535,-0.7177196595691202,0.6907907479582359,-0.05985441227883764,0.06406311055546919,0.008026977360714227,0.0024959574557085174,11636.05583865568
1683171230958550453,77,1683171230958550453,camera_2,79,0,-0.05202788139665603,0.8642965077340199,4.655824825839198,-0.7178083540388983,0.6906970798884745,-0.060407782505013406,0.06355793041256934,0.008981989638414234,0.002794118206200647,11632.39549815096
1683171230964955806,78,1683171230964955806,camera_2,80,0,-0.05202668209708354,0.8644351496440797,4.656511266898825,-0.7179204477531659,0.6906196244402111,-0.06022618484952307,0.06330538440312064,0.009947857004590333,0.0030953776831081684,11630.29701398686
1683171230971625804,79,1683171230971625804,camera_2,81,0,-0.052043670752086095,0.8645388506797745,4.6570945020389845,-0.7179567214004247,0.6906952360005536,-0.05962193955430438,0.06263754054778549,0.012831699335947633,0.003993080268680649,11631.297814340796
1683171230978345394,80,1683171230978345394,camera_2,82,0,-0.05203452700749854,0.864451707392008,4.656602406732456,-0.7179101822831089,0.6906503635592706,-0.06019429935195651,0.06311649400281918,0.01239722961327061,0.0038576408665725284,11630.497172450647
1683171230984984874,81,1683171230984984874,camera_2,83,0,-0.05200822548638921,0.8641831242371524,4.655124955804233,-0.7179473545671777,0.6905526467545151,-0.060534467566967946,0.06343671150610516,0.011331292625982314,0.003524071321330867,11635.823299417512
1683171230991788625,82,1683171230991788625,camera_2,84,0,-0.05203300157750337,0.8644030696740528,4.656354547674007,-0.717799336829449,0.6907879723631458,-0.05908559830070809,0.0639138588966789,0.006434379203710705,0.0020014002630199157,11632.851412670689
1683171230998418331,83,1683171230998418331,camera_2,85,0,-0.052011242588236174,0.8642390716969266,4.655516131458575,-0.7180495144089657,0.6905768981884033,-0.06056875715663349,0.061966670089922155,0.010693988588172942,0.003326435528657683,11638.193948251661
1683171231005073070,84,1683171231005073070,camera_2,86,0,-0.0520101037047593,0.8640878471307061,4.65460366777492,-0.7177638506595836,0.690602825421241,-0.061600538331448344,0.06393876667407494,0.009179069136735052,0.00285493750542132,11633.450822910527
1683171231011736154,85,1683171231011736154,camera_2,87,0,-0.05203439585151016,0.8642188592308192,4.655388369980967,-0.7179268799289649,0.6906922840282673,-0.059921037670702046,0.06272665385418952,0.008713080896995962,0.002709614462066601,11638.613315477967
1683171231018393516,86,1683171231018393516,camera_2,88,0,-0.052031785821092934,0.8642327960628302,4.655421246004061,-0.7178452456210448,0.6905987899623133,-0.06040793141993503,0.06420589118932392,0.01462122390512377,0.004547645149965292,11632.38499798323
1683171231025186300,87,1683171231025186300,camera_2,89,0,-0.05201063930771728,0.8643236987822278,4.656008569594288,-0.7177432330868897,0.6906966245415131,-0.061220528348149665,0.06352063533775744,0.009524398774374276,0.00296378806759777,11629.00394904078
1683171231031679630,88,1683171231031679630,camera_2,90,0,-0.05201495219740183,0.8642282524755786,4.655441011934662,-0.7177403636255872,0.6906336214818598,-0.06161678204419833,0.06385407952495116,0.006810717575717717,0.0021191003279002617,11629.520221143495
1683171231038469076,89,1683171231038469076,camera_2,91,0,-0.05202396297959131,0.8645249854025608,4.657041079579789,-0.7178272920236911,0.6907640539977168,-0.0606570531144381,0.06236763934963516,0.010734810668509454,0.003341379551369374,11629.10246233503
1683171231045073509,90,1683171231045073509,camera_2,92,0,-0.05205331921103573,0.8646376351887891,4.657684854167024,-0.718010715920506,0.6906970642975993,-0.05912753261658163,0.06246688787410286,0.006152666523121297,0.0019148347638087706,11630.465196921956
1683171231051589012,91,1683171231051589012,camera_2,93,0,-0.052018624422535104,0.8641095862784605,4.654777881246441,-0.7178424745943799,0.6905924670024208,-0.060952121991254465,0.063789223325657,0.007813888892997056,0.0024300553878915717,11635.160610834602
1683171231058379888,92,1683171231058379888,camera_2,94,0,-0.05204424063663475,0.8646337534034211,4.657592618707848,-0.7180717614470572,0.6907200029837145,-0.058684288611838116,0.061927192416745984,0.013020398037042469,0.004051597480478097,11633.86289620283
1683171231065152406,93,1683171231065152406,camera_2,95,0,-0.05201593298363699,0.8640272810695406,4.654440024290188,-0.7177380659076898,0.6906415560375242,-0.06131899257728298,0.06408034777108611,0.010827716498170048,0.0033670901889773027,11634.800610903418
1683171231071714639,94,1683171231071714639,camera_2,96,0,-0.05202404055522062,0.8641854078898733,4.655246625365608,-0.717809682030456,0.6906136171392623,-0.06110258654890108,0.06378531274669857,0.00675560103263706,0.0021014418062000485,11632.372781390093
1683171231078289747,95,1683171231078289747,camera_2,97,0,-0.0520234831238652,0.8642744805443991,4.65562603530197,-0.7179644031250338,0.690503879554588,-0.05986858808211185,0.06439922613223817,0.00677261856617406,0.002106402709591476,11632.525961846348
1683171231084987878,96,1683171231084987878,camera_2,98,0,-0.05200937397720161,0.864091746669438,4.654772011567754,-0.7178695831857909,0.6905860773883159,-0.06057693810982539,0.06391060806561301,0.01106234936742112,0.0034398506341074765,11636.059267660603
1683171231091736316,97,1683171231091736316,camera_2,99,0,-0.052027902805198624,0.864232972118841,4.6553959568483325,-0.7178477636684075,0.6907170996205788,-0.060270387623354904,0.06302346280340392,0.012809303007088602,0.003983871395500294,11636.536363132294
1683171231098526954,98,1683171231098526954,camera_2,100,0,-0.052028375865934035,0.8643576824904469,4.656139744000661,-0.7179647803831627,0.6906462076042015,-0.058788865945362756,0.06386125031777529,0.010919428605120629,0.0033958323558209305,11635.010242747143
1683171231104927778,99,1683171231104927778,camera_2,101,0,-0.05201832770496742,0.86422826799489,4.655299570097124,-0.717804019239729,0.690725878372906,-0.060374356458738586,0.06332525555780785,0.010290957638062537,0.0032006170082582116,11635.767066037748
1683171231111706018,100,1683171231111706018,camera_2,102,0,-0.052043431005666614,0.8646380674620397,4.657669556502243,-0.7180687183503689,0.6905980397445162,-0.05951554465032104,0.06252649976343026,0.009603734884876758,0.002989153547598616,11629.132959473653
1683171231118377208,101,1683171231118377208,camera_2,103,0,-0.05203048112673407,0.8642144200053936,4.6553365371291004,-0.7177802186356949,0.6906791105989856,-0.06090642398459053,0.06359505825846662,0.014544294564984739,0.0045241106523222245,11633.072319203056
1683171231125073671,102,1683171231125073671,camera_2,104,0,-0.052022635646721396,0.86435312195676,4.6560303371638,-0.7179014682636105,0.6906765494522856,-0.06095991566168912,0.06218741499818408,0.009470864781178534,0.002946983146470535,11633.674819044772
1683171231131626605,103,1683171231131626605,camera_2,105,0,-0.05202800999383609,0.8644561047659444,4.6567161407067506,-0.7178441436809203,0.6907685084878493,-0.05996997672803155,0.06278737895244207,0.008941919601056725,0.0027823767825072595,11631.68333551567
1683171231138394355,104,1683171231138394355,camera_2,106,0,-0.052047137807868744,0.8644584357225802,4.656589229073192,-0.717983534932694,0.6905566232366436,-0.06021783731336315,0.06328511467050442,0.014345769362989813,0.004463842303207057,11629.948520571459
1683171231145156383,105,1683171231145156383,camera_2,107,0,-0.05204050068784683,0.8642687595847739,4.655606991753945,-0.7178748289133228,0.6907077039860455,-0.06015979680024757,0.06292373571194011,0.017253279103897512,0.0053661909608353885,11636.118724658852
1683171231151870727,106,1683171231151870727,camera_2,108,0,-0.05204126967768096,0.8646931211637052,4.657984211065635,-0.7180468388263157,0.6907263827229849,-0.05892744571443214,0.06191411473588592,0.012266253645066172,0.0038177522314049605,11631.22436522786
1683171231158602476,107,1683171231158602476,camera_2,109,0,-0.05202745571335351,0.8642210036655861,4.65540553236529,-0.7178767962118036,0.6906320397198387,-0.06010538328167059,0.06377800619065609,0.011309100722428411,0.003517139963386586,11634.7685624552
1683171231165236949,108,1683171231165236949,camera_2,110,0,-0.05200804036307819,0.8641133633951188,4.654868975779534,-0.7178618849655856,0.6906214584632758,-0.06051068721714451,0.06367709129838772,0.009771269164048135,0.0030385030308433827,11636.495087063173
1683171231171909809,109,1683171231171909809,camera_2,111,0,-0.05205176712119519,0.8645505325617331,4.657151387923472,-0.7178917603295022,0.6906382545903517,-0.05984473870578637,0.06378737333232534,0.007786705275066197,0.002423319985990177,11626.855450687923
1683171231178639888,110,1683171231178639888,camera_2,112,0,-0.052026452609575224,0.8642877524594336,4.655794042210467,-0.7179305166897589,0.6906876870872336,-0.05917084993406531,0.06344369653278237,0.01211299019632861,0.0037668091554186943,11636.811328466052
1683171231185319423,111,1683171231185319423,camera_2,113,0,-0.05203191625300168,0.864584458057652,4.657356958768726,-0.7179644001251694,0.6907324757202855,-0.059756601059649486,0.062007384786240634,0.013536981598008424,0.004213150801177334,11631.451490899317
1683171231191816329,112,1683171231191816329,camera_2,114,0,-0.05201343308881175,0.8643960104064712,4.656411517035909,-0.7179645697059922,0.6907092947996771,-0.05974871237361987,0.06227068406494995,0.009995361673645675,0.003109594903115406,11635.461394784741
1683171231198380708,113,1683171231198380708,camera_2,115,0,-0.05200600282057211,0.8638730965842901,4.653503860301192,-0.7176688748294521,0.6905307439545411,-0.0620455355078825,0.06533780894823774,0.01703791751060635,0.005297325103225347,11633.15950706694
1683171231205118179,114,1683171231205118179,camera_2,116,0,-0.05201023315717826,0.864271850659348,4.655604865557845,-0.7180358382507108,0.6905909423607348,-0.06029791508435209,0.062232200293669125,0.009864606254268438,0.0030683429940426147,11637.803618714215
1683171231211869955,115,1683171231211869955,camera_2,117,0,-0.05203149738949717,0.8644697412777568,4.6567992082252445,-0.717905292275569,0.6907116805906,-0.06022890269711134,0.06246474924580348,0.010766941239126027,0.0033506353345746516,11631.40225655329
1683171231218454837,116,1683171231218454837,camera_2,118,0,-0.05203418798001101,0.864361284345411,4.6561475789703595,-0.7179269067071221,0.6907247168368172,-0.05951892310461237,0.06275205151314991,0.010246388264931738,0.0031870984473027237,11636.018945652757
1683171231225355863,117,1683171231225355863,camera_2,119,0,-0.052044048998781296,0.864504463398266,4.656848698745627,-0.7178827895054988,0.690568218775336,-0.061273697416232856,0.06328799060017208,0.009313168353401124,0.002899162517240123,11625.27544149174
1683171231231609821,118,1683171231231609821,camera_2,120,0,-0.05203208249655356,0.8644086647199549,4.65636666410912,-0.7180941486473276,0.6905110912571963,-0.06042564762079112,0.06232148617349996,0.007648885191883892,0.002380045318292878,11633.334273904098
1683171231238332509,119,1683171231238332509,camera_2,121,0,-0.05205699199052065,0.8649265164164484,4.659199364232702,-0.7182471887941962,0.690638098773832,-0.05804880147642402,0.06140300447414256,0.007896556810010225,0.002458449360357677,11629.39661799604
1683171231244949102,120,1683171231244949102,camera_2,122,0,-0.052024963998236445,0.8645504476473207,4.657199444968932,-0.7180763391185878,0.6906185726064469,-0.05903279886443008,0.0626696659262882,0.01276407204568386,0.003971463430745935,11632.569997327639
1683171231251603126,121,1683171231251603126,camera_2,123,0,-0.052035888137152854,0.8643746532294261,4.656247234213316,-0.7179849003668778,0.6906398558679249,-0.05963274442356567,0.06291429189310269,0.009325998253189027,0.002901067685305123,11634.690137030087
1683171231258126497,122,1683171231258126497,camera_2,124,0,-0.05201442698036916,0.8642453810528686,4.655447019540207,-0.7178045365927433,0.6906150075597898,-0.06068173770351975,0.06422838382950126,0.012673004588577896,0.003942079404116656,11631.317746725399
1683171231264781475,123,1683171231264781475,camera_2,125,0,-0.052019508676747796,0.8642258655777371,4.6554148126123485,-0.7179620146034328,0.6905546129923488,-0.06032329266144051,0.06345055101454881,0.009055247181095183,0.002816379609307407,11635.0333900582
1683171231271559953,124,1683171231271559953,camera_2,126,0,-0.052023280379606726,0.8644095999904792,4.656331833068647,-0.717901180258224,0.6907439093630974,-0.059277734271947984,0.06306264568838069,0.010184326791204512,0.0031678971564139224,11634.910800601363
1683171231278411865,125,1683171231278411865,camera_2,127,0,-0.05204506156295719,0.864497099008296,4.656877310766544,-0.7180022789944511,0.6906451183138502,-0.05992711664287327,0.06237618615219808,0.013359428732655942,0.00415715645654114,11632.191684377613
1683171231285039424,126,1683171231285039424,camera_2,128,0,-0.052040441770054,0.8642144957785999,4.655373938164776,-0.7177811215212238,0.6906282725307749,-0.06128204165443544,0.0637758742751219,0.014806149119976908,0.004606034646219736,11631.130224857481
1683171231291747331,127,1683171231291747331,camera_2,129,0,-0.052042800336802184,0.8644579412207485,4.656800240396367,-0.7180369276459926,0.6907009390703683,-0.058651385016520716,0.06257154576689669,0.011314122355543077,0.0035194297643656473,11636.064108674185
1683171231298230886,128,1683171231298230886,camera_2,130,0,-0.052060684052694386,0.8643763427680088,4.656284506584849,-0.7179688874842804,0.690631307892181,-0.059743461385850904,0.06308559253393453,0.0072957921656779945,0.0022696319632854243,11633.635075159369
1683171231304929971,129,1683171231304929971,camera_2,131,0,-0.05200940066380606,0.8642519948109049,4.655530939372722,-0.718028773731623,0.6905419578766924,-0.05943095587754225,0.0636745317121991,0.009988001314923167,0.0031059479965509303,11636.607543618422
1683171231311500072,130,1683171231311500072,camera_2,132,0,-0.052026773166966335,0.8643727767298173,4.656203009429936,-0.7179164103278156,0.690726760934947,-0.05953637538271857,0.06283302886721424,0.00897250120760873,0.0027909582718289214,11635.454711573198
1683171231318550109,131,1683171231318550109,camera_2,133,0,-0.05204390792353036,0.8643485319592827,4.656045656963633,-0.7179752328736755,0.690621713873111,-0.06024399463148149,0.06264083666267958,0.012795802962500602,0.003980733455714327,11634.527608962726
1683171231324892520,132,1683171231324892520,camera_2,134,0,-0.05200851657497952,0.8641557629062585,4.655015721465806,-0.7179209324813891,0.6905836086633879,-0.06049252729273157,0.06343869711968805,0.010919768072199076,0.0033958426868598043,11636.510821749922
1683171231331496477,133,1683171231331496477,camera_2,135,0,-0.05201512547664812,0.8640067560721999,4.654252555411172,-0.7179189409092446,0.6905127619534696,-0.06074028460002474,0.06399326284733174,0.0127059412188828,0.003950219534425487,11637.839297392638
1683171231338458299,134,1683171231338458299,camera_2,136,0,-0.05203558382988071,0.8642501674052337,4.655562688761884,-0.717961095330616,0.6906179530655296,-0.059996465153907434,0.063080366710063,0.010828523256350309,0.0033678043234631016,11636.437534585835
1683171231345181941,135,1683171231345181941,camera_2,137,0,-0.05203663369605325,0.8645732875561476,4.657329048571317,-0.7179744690536061,0.6907165163783717,-0.05905928937602973,0.06273241688088922,0.012813145003747195,0.003986999195029479,11631.641545729479
1683171231351676464,136,1683171231351676464,camera_2,138,0,-0.05203789088738545,0.8644531707325329,4.656588298443871,-0.7178921695934434,0.6905897729096885,-0.060356497300707704,0.06382547784822004,0.014859567570965737,0.00462400206316218,11627.885550389296
1683171231358558654,137,1683171231358558654,camera_2,139,0,-0.05201525597001042,0.8640489242007869,4.6544761810080715,-0.7178422809539556,0.6906424343893358,-0.060969054953142685,0.0632318102992067,0.01229705789592117,0.0038238095710303424,11638.291921952734
1683171231364800453,138,1683171231364800453,camera_2,140,0,-0.05202198159502278,0.8642668890743193,4.65568389858732,-0.7178492222032166,0.690626466694834,-0.060960273069926144,0.06333579390902623,0.0069652157835662365,0.002166965247886679,11632.017053949412
1683171231371339082,139,1683171231371339082,camera_2,141,0,-0.052005637599993194,0.864219370880271,4.65526781546837,-0.7178336936310142,0.6906612967315959,-0.060758612563909416,0.06332576477544055,0.009778123465366662,0.003041418077344304,11634.71338437032
1683171231378060340,140,1683171231378060340,camera_2,142,0,-0.05203617571550617,0.8644769056942572,4.6568494707186945,-0.7180707417715525,0.6906118200294161,-0.05993903178742573,0.06194381579863984,0.005013085901737213,0.00155997195832014,11633.649339823745
1683171231384967327,141,1683171231384967327,camera_2,143,0,-0.05199891552624541,0.8641484410811537,4.655038295861079,-0.7177313803098807,0.6906982520097955,-0.060673953299024946,0.06415809987954849,0.01187000161735341,0.0036915716504002617,11633.651290495181
1683171231391386985,142,1683171231391386985,camera_2,144,0,-0.05202582475457884,0.8642989140838212,4.655957043710371,-0.7178774944522744,0.6906856687404086,-0.05955449504549614,0.0637061384437586,0.009106330515351146,0.0028323110406338553,11634.045146865534
1683171231398354768,143,1683171231398354768,camera_2,145,0,-0.052022411166054404,0.8644249293508459,4.656564089405578,-0.7179380398939778,0.6906990992733043,-0.05998454503950175,0.06246262476588285,0.008345203823409975,0.002596579938245183,11633.379239835078
1683171231405006170,144,1683171231405006170,camera_2,146,0,-0.0520307169880624,0.8644071388723049,4.656365203524725,-0.7179691338173404,0.6906785356600411,-0.0593055741863683,0.06297882290504082,0.012660375447012484,0.0039382372343536145,11634.913424053928
1683171231411399841,145,1683171231411399841,camera_2,147,0,-0.05204509664049969,0.8644150270874539,4.656463227514528,-0.7178236558839777,0.6907279296029883,-0.060454596129950265,0.06300292157110352,0.01098099211230874,0.003416954991102454,11630.714313083568
1683171231418380022,146,1683171231418380022,camera_2,148,0,-0.052025836793561694,0.8641451252432147,4.654975962788169,-0.7177733339984301,0.6905421762447923,-0.06182526477794712,0.06426959205581635,0.013709264050703496,0.004264758540294214,11629.84726963914
1683171231425066947,147,1683171231425066947,camera_2,149,0,-0.052059208480799576,0.8644699742150028,4.656849556227002,-0.7179247266192423,0.6907655664019942,-0.05952167691080729,0.0623232633913204,0.011932093475479633,0.0037125054470529763,11633.803752996024
1683171231431620359,148,1683171231431620359,camera_2,150,0,-0.05202446700267681,0.864236374539682,4.655384879366868,-0.718002142740021,0.6906420210200961,-0.05937657256589619,0.06293603460929646,0.01126466627465561,0.003502525440874922,11639.694063483272
1683171231438333511,149,1683171231438333511,camera_2,151,0,-0.05204239345610748,0.8645236106701478,4.657050554320081,-0.7179019864311018,0.6908069900212288,-0.059546709445962506,0.062101769783527584,0.009622117679100484,0.0029941458134786136,11633.371109569438
1683171231445050954,150,1683171231445050954,camera_2,152,0,-0.05203343145207596,0.8642536027293461,4.655616083195811,-0.7179663857810855,0.6906365768016203,-0.06030843643806257,0.0625162392229529,0.009245532448403537,0.002875798318168153,11636.887443704523
1683171231451652526,151,1683171231451652526,camera_2,153,0,-0.05204140660855796,0.8644979914818884,4.656811689698204,-0.7179701002342505,0.6905995865322744,-0.06015971241689432,0.06302345002448465,0.009078400093130767,0.002825157733235627,11629.838050897237
1683171231458307504,152,1683171231458307504,camera_2,154,0,-0.052004637906708166,0.864198903960094,4.655335613349265,-0.7178999243490782,0.6905633789864822,-0.06069071685032622,0.0637067901448012,0.007732872909400612,0.002405298423741098,11633.517852551768
1683171231464905261,153,1683171231464905261,camera_2,155,0,-0.05199794211037267,0.8640822503667862,4.654673277814344,-0.7177469834974299,0.6905899366562493,-0.060805629645994,0.06501909314049104,0.007652079511899501,0.002379539848443069,11632.411429425234
1683171231471732139,154,1683171231471732139,camera_2,156,0,-0.05206490695763825,0.8646782776441626,4.65781552734881,-0.7178853947377334,0.6908247434362088,-0.06100099939545514,0.06066804720197167,0.015330834779888391,0.004773899036838584,11629.048796246065
1683171231478177547,155,1683171231478177547,camera_2,157,0,-0.052006838673367105,0.8642741194030831,4.655624889816259,-0.7180614167810533,0.6905121980958759,-0.0601896366049203,0.06291195161935363,0.01504625560482964,0.004680078139005604,11636.013500576142
1683171231484916925,156,1683171231484916925,camera_2,158,0,-0.052053396694299654,0.86450234549223,4.6569597589058676,-0.7179910770983988,0.6907157868963308,-0.0584866461355607,0.06308587134277664,0.011734899482689798,0.003650445293752763,11634.200438466392
1683171231491610050,157,1683171231491610050,camera_2,159,0,-0.05202635938736432,0.8644746873478643,4.656846629444715,-0.7179428089885105,0.6907087470401793,-0.059183768516578375,0.06306212276833632,0.008829993661493063,0.002747193541295518,11632.708673426416
1683171231498182058,158,1683171231498182058,camera_2,160,0,-0.052044890168564145,0.8645739299125853,4.6573287426256575,-0.7179648688849677,0.6907110251057632,-0.059811749040078147,0.06218747077268412,0.010030193778220564,0.0031217163902579315,11630.89450216433
1683171231504880428,159,1683171231504880428,camera_2,161,0,-0.05202171786247225,0.864502973487774,4.656877760601868,-0.7179404354587351,0.6906429660181017,-0.06108885891431438,0.061983674782867385,0.015438629488926381,0.004805725265857184,11629.635725440921
1683171231511577367,160,1683171231511577367,camera_2,162,0,-0.052022205667455385,0.8642198560284221,4.655433518430827,-0.7179823246103679,0.6905922461997059,-0.061085614888516604,0.06206672771806886,0.009007321146782488,0.0028020419347658393,11636.649212874938
1683171231518153667,161,1683171231518153667,camera_2,163,0,-0.05202982356168687,0.8642848217234118,4.655797448574684,-0.7179824644270817,0.6905996118945759,-0.060446153234255964,0.06260686372480713,0.007484952104277909,0.0023284264351353424,11635.290846275166
1683171231524849891,162,1683171231524849891,camera_2,164,0,-0.05203444132675682,0.8642932766567546,4.655894109982219,-0.7178581282607769,0.6906398744064388,-0.060202698598774834,0.06381149309660304,0.012168340559583157,0.0037852389670901586,11631.948926425539
1683171231531677484,163,1683171231531677484,camera_2,165,0,-0.05201656131956396,0.8642916648046578,4.655813242355673,-0.718001932869816,0.6905899095638764,-0.060513259782989104,0.0624255283854442,0.008522251737304032,0.0026511939704421572,11635.53802226041
1683171231538326740,164,1683171231538326740,camera_2,166,0,-0.05201246829410969,0.864183313979452,4.655173260638874,-0.7178892236425308,0.6905079889618523,-0.06089607366339619,0.06422965024165392,0.015334384399466217,0.0047696048441252135,11632.005346632803
1683171231544898033,165,1683171231544898033,camera_2,167,0,-0.05202324717850665,0.8643197093072549,4.6559252960875295,-0.7179667044327038,0.690559745228452,-0.06026600841309293,0.06339603951361042,0.01523233822081238,0.00473843770032657,11632.815036793243
1683171231551601171,166,1683171231551601171,camera_2,168,0,-0.05206038476080428,0.8644555789247733,4.656790766685338,-0.7179315740447791,0.6907490132933329,-0.059241643050120335,0.062693567075059,0.009720647998619825,0.0030241767684091223,11633.888801620105
1683171231558291435,167,1683171231558291435,camera_2,169,0,-0.05201507956098094,0.864420988598734,4.6565195660624275,-0.717923995285526,0.690745096787628,-0.05929992675003978,0.06276835942223245,0.009956747700925916,0.0030973386459845677,11634.844248837326
1683171231565004825,168,1683171231565004825,camera_2,170,0,-0.05202001235820617,0.8642114894600207,4.65540319644986,-0.7178507984865559,0.6907540229682342,-0.06031689455019215,0.06253785331489704,0.011288104869890958,0.0035107643711382243,11637.864157631993
1683171231571739673,169,1683171231571739673,camera_2,171,0,-0.052036355242618675,0.864471980728337,4.656731947830183,-0.717933996936779,0.6907350620537448,-0.060325646643756864,0.061779174881210874,0.01462127745617181,0.004550011593498446,11633.411178017963
1683171231578310489,170,1683171231578310489,camera_2,172,0,-0.052008234310353556,0.8641380637505608,4.655008812451117,-0.7177418477011185,0.690669267706427,-0.06024736178369976,0.06475228260498866,0.0061638178885914385,0.0019167271710831312,11633.36371876439
1683171231585249900,171,1683171231585249900,camera_2,173,0,-0.0520205028940503,0.8643226279317835,4.655819495106211,-0.717839286872957,0.6905675249321372,-0.06039471121282347,0.06461989313165425,0.011850433249492198,0.0036864939992490237,11629.1619720431
1683171231591910123,172,1683171231591910123,camera_2,174,0,-0.052037288508926416,0.8642302308116241,4.655454139024181,-0.7179106021145188,0.6907004343897706,-0.06043901203342579,0.06232497998214674,0.010445620922837406,0.0032489770135594887,11637.822750318563
1683171231598634004,173,1683171231598634004,camera_2,175,0,-0.05202733097447123,0.8642019156397315,4.655342128140717,-0.7179996173677128,0.6906687335619255,-0.05992135699956745,0.062150469950874705,0.009871982096228749,0.003070000836229677,11640.579579610381
1683171231604948043,174,1683171231604948043,camera_2,176,0,-0.05203306783513035,0.8644078429653356,4.65631289454237,-0.7180487761976598,0.6906147455003507,-0.05967745772947219,0.06241657902733819,0.012118015671148896,0.0037698019370962506,11635.661247817328
1683171231611573934,175,1683171231611573934,camera_2,177,0,-0.05201153884141537,0.8639998024132028,4.654215663452646,-0.7179774280145784,0.6905333571232518,-0.06049159846252464,0.06334715524087203,0.01360350742470473,0.004228908343598799,11640.784136883907
1683171231618130683,176,1683171231618130683,camera_2,178,0,-0.05202760399278213,0.8640545444883153,4.6546764649616135,-0.7179080913909122,0.6906053373966479,-0.06018942417832063,0.06363547353325984,0.006622116197831929,0.002058884368346212,11638.650551326573
1683171231625030994,177,1683171231625030994,camera_2,179,0,-0.05202665631674635,0.8643659834183609,4.656130434162285,-0.7178773683044385,0.6906844081301559,-0.06050892082808208,0.0628156265781916,0.01183127413969487,0.0036811272376811813,11632.750744065968
1683171231631586313,178,1683171231631586313,camera_2,180,0,-0.05202540344458634,0.8642059924532192,4.655254249985186,-0.717914554641895,0.690486702197727,-0.062199433050330086,0.06291293070311312,0.009856737684458494,0.0030670570939697332,11631.345567291835
1683171231638511896,179,1683171231638511896,camera_2,181,0,-0.052031499738760555,0.864409179397105,4.656382656385667,-0.7179672600464049,0.6906625571564462,-0.05918461118744032,0.06328844635609447,0.011284533247817308,0.003510124753457265,11634.279753800016
1683171231645147800,180,1683171231645147800,camera_2,182,0,-0.05202876608958908,0.8643642594959757,4.656121778732676,-0.7178654037683371,0.6907117615085241,-0.05995535303576833,0.06318132816481806,0.01058459241176024,0.0032926737942667,11633.463888217928
1683171231651872158,181,1683171231651872158,camera_2,183,0,-0.0520334359327317,0.8643193036380739,4.6559423475227,-0.7179723010932741,0.6905987152701827,-0.059552601559626675,0.06358204917649676,0.012957619852386415,0.004030155820676189,11634.435120604932
1683171231658541679,182,1683171231658541679,camera_2,184,0,-0.0520199617647064,0.8644360397047087,4.6566238430600695,-0.717905720788466,0.6906809759612391,-0.060612982689149546,0.062427812983863816,0.010535067704040557,0.0032785466431185656,11631.172304299658
1683171231665325403,183,1683171231665325403,camera_2,185,0,-0.05202467402012593,0.8643610921180843,4.656190005908513,-0.7180250836751867,0.6905723526584198,-0.06007144848849892,0.06277918471555674,0.01082508487161249,0.003367679560954267,11634.00125321187
1683171231672022581,184,1683171231672022581,camera_2,186,0,-0.05203421510347381,0.864324754918575,4.655879372594198,-0.7178665556953779,0.6906285558755767,-0.060242710160979054,0.06380142549920455,0.016287024307530373,0.005066457854074164,11631.84404593776
1683171231678678750,185,1683171231678678750,camera_2,187,0,-0.052005176342155505,0.8641615251158262,4.655165434696434,-0.7178880160138454,0.6906748989995576,-0.059589367532883464,0.06367171768286715,0.00976490881294012,0.0030361480237876453,11637.98247007257
1683171231685261964,186,1683171231685261964,camera_2,188,0,-0.05201329505062419,0.8639815554363067,4.654121018827994,-0.7177413362325809,0.690582796956167,-0.061470576930272795,0.06453017110721473,0.01109130575787276,0.003448901088820859,11634.4903110736
1683171231691728830,187,1683171231691728830,camera_2,189,0,-0.05202201429524231,0.864223972011013,4.655391005716297,-0.717895044230484,0.6906697212157732,-0.06052634694582415,0.06275829021277869,0.014092786354012787,0.004383313271601477,11636.55625539133
1683171231698503255,188,1683171231698503255,camera_2,190,0,-0.052040808598194405,0.8642788067655568,4.655638873311403,-0.7178005477365783,0.6906934613262166,-0.06130891094424826,0.06281825840556676,0.01427057373803109,0.0044401582542064645,11632.582305863965
1683171231704839468,189,1683171231704839468,camera_2,191,0,-0.05201600424095543,0.8641145364131263,4.6546974969900425,-0.7177621494648798,0.6905376502480501,-0.06102637911063625,0.06519993434124136,0.011656616698019207,0.003625066139480003,11630.928935261905
1683171231711518764,190,1683171231711518764,camera_2,192,0,-0.05201588822734368,0.8644234863395682,4.656470829016153,-0.7178864228719656,0.6906833507486614,-0.06036252529293289,0.06286460367293492,0.01297032821457833,0.004035915027626224,11631.394741582688
1683171231718314409,191,1683171231718314409,camera_2,193,0,-0.05200872290090236,0.8642524773902062,4.655681475675175,-0.7179798122561779,0.6906206285629019,-0.05993554155999671,0.06289568708485248,0.0071903535863384604,0.0022363589763943373,11636.675643457096
1683171231724888086,192,1683171231724888086,camera_2,194,0,-0.052022414498805555,0.8644294130637822,4.656509407289724,-0.7179719412077916,0.6906486602938514,-0.059794515755072324,0.06281190618218926,0.008859472058247775,0.0027563789229993847,11633.181781121995
1683171231731510162,193,1683171231731510162,camera_2,195,0,-0.05204284618617558,0.8643752850208772,4.6562323144698246,-0.7179024440753993,0.690631347300216,-0.06026798610140949,0.06334187215528977,0.012314757914282382,0.0038314264629869532,11631.433292558184
1683171231738079309,194,1683171231738079309,camera_2,196,0,-0.05203098729606314,0.8645569328767785,4.657198878551487,-0.71813336640722,0.6906573995210474,-0.05881290284278371,0.061788890576406394,0.008008819015230983,0.0024918166113364728,11635.87204718031
1683171231744871616,195,1683171231744871616,camera_2,197,0,-0.052037241568715135,0.8642717799779345,4.655577428423134,-0.7179280248773456,0.6907033775640175,-0.05974018153076518,0.06276389111617538,0.011814685305580497,0.0036743246504798914,11638.0830939929
1683171231751424312,196,1683171231751424312,camera_2,198,0,-0.052003681524267466,0.8640644584577727,4.65456267640868,-0.7178461058685024,0.6905709564136547,-0.0601355867315857,0.06474900505648735,0.008438472519628704,0.0026234747526849515,11635.931866472587
1683171231758405447,197,1683171231758405447,camera_2,199,0,-0.052029736726371206,0.8644048017695857,4.656499906469748,-0.7179657793168206,0.6906344206823484,-0.06046469168627003,0.06239597549547524,0.010150560759939253,0.0031586396780701334,11632.368811567078
1683171231764958620,198,1683171231764958620,camera_2,200,0,-0.052019619373289895,0.864121330519981,4.654929236511429,-0.7177600109147101,0.6907048665197288,-0.059950012984680924,0.06444648974781651,0.012289928155951202,0.0038212242766922162,11635.61606673594
1683171231771704673,199,1683171231771704673,camera_2,201,0,-0.05200065656478122,0.8638864589528644,4.653728196928772,-0.7179532119689377,0.6905317086028281,-0.060536980611406166,0.06359574526647932,0.011101152980700135,0.003450476009436243,11642.381265536882
1683171231778445482,200,1683171231778445482,camera_2,202,0,-0.05203696534279421,0.8648025584120002,4.658657848201993,-0.718066492283927,0.6908429920484174,-0.059024787031057124,0.06027061898293116,0.0037669530720449984,0.0011728154243720286,11632.422825746467
1683171231784984827,201,1683171231784984827,camera_2,203,0,-0.05204195680018012,0.8644674626575921,4.656840830574382,-0.7180697287068064,0.6906365764018999,-0.05919842581108524,0.06239014691668501,0.01182847993914038,0.003679995303812259,11634.687328094618
1683171231791633605,202,1683171231791633605,camera_2,204,0,-0.0520373653494659,0.8644409861274582,4.656555164191875,-0.7178332063170562,0.6907551431800255,-0.059245652500000766,0.06373988342291101,0.01116234005894512,0.0034724609125424055,11631.854714460434
1683171231798295974,203,1683171231798295974,camera_2,205,0,-0.052017318578778365,0.8642193568648355,4.655382128229241,-0.7179969162530383,0.6906221759642759,-0.06012482882905183,0.06250154618706259,0.010625537426676601,0.003304557680839945,11638.675901504703
1683171231805048465,204,1683171231805048465,camera_2,206,0,-0.0520099202381892,0.8639827003353363,4.654135928188735,-0.7178299314360046,0.6905966386229833,-0.062075414776200634,0.06279422853718652,0.005769335606601089,0.0017942745971638524,11637.74490195559
1683171231811779260,205,1683171231811779260,camera_2,207,0,-0.052014134674358274,0.86379456970813,4.65319268896889,-0.7176101334989101,0.6907417393937949,-0.06108930402751251,0.06465015616644226,0.009018837823532522,0.0028029950034459497,11640.016205757858
1683171231818376302,206,1683171231818376302,camera_2,208,0,-0.05201368676824705,0.8642357658391957,4.655477051786672,-0.7179195193868079,0.6907603005115931,-0.059223052102367925,0.06272480386759881,0.01022287766681984,0.003178686302421916,11640.39499462489
1683171231825069427,207,1683171231825069427,camera_2,209,0,-0.052010708634225945,0.8642289319256027,4.655444368860807,-0.7178469428549202,0.6905851015667118,-0.060480266630450634,0.0642660211639785,0.012681457039434463,0.003944469261229332,11631.898131774276
1683171231831715822,208,1683171231831715822,camera_2,210,0,-0.05204002299702642,0.8644103221829746,4.6564018549777035,-0.7178588016279178,0.6907249529424523,-0.06044309829821896,0.06264512890950591,0.009393929620273411,0.002923046645811189,11632.126619762508
1683171231838310480,209,1683171231838310480,camera_2,211,0,-0.05204802460803439,0.8644749742285138,4.656796981415754,-0.7179835337902354,0.6906318662424078,-0.05929393735834614,0.06333639971737984,0.009500199637841433,0.0029556796724437115,11631.741640827155
1683171231845079898,210,1683171231845079898,camera_2,212,0,-0.05200600425640237,0.8640873864720977,4.6546957887160865,-0.7178025886595776,0.6906741221503017,-0.06106482819040209,0.06324387293324371,0.012846384372096509,0.003995079147893523,11636.862145564986
1683171231851595163,211,1683171231851595163,camera_2,213,0,-0.052049343589314505,0.8645711688253622,4.657290606858297,-0.7179800612500716,0.690657655541156,-0.06035667333028086,0.06207822866544145,0.014980829204432666,0.004663068822347542,11629.644361820767
1683171231858340978,212,1683171231858340978,camera_2,214,0,-0.05200974763448608,0.8642428229784224,4.655517683036732,-0.7178449844542152,0.690779094833606,-0.059074681160384494,0.06350592476761763,0.008538664900697768,0.002654949313964162,11638.317480820924
1683171231865032196,213,1683171231865032196,camera_2,215,0,-0.05199554161525854,0.8641854679748053,4.655280233819285,-0.7180155479235646,0.690540094347321,-0.06045743974037253,0.06287248220689072,0.006562963186297566,0.0020411874676891663,11637.082412253132
1683171231871572256,214,1683171231871572256,camera_2,216,0,-0.05203815253553197,0.8642098815863124,4.655340121809902,-0.7178668741652362,0.6906127270561135,-0.06064723111881669,0.06358557668191525,0.01246944913873449,0.003878518531149081,11633.929141159164
1683171231878061294,215,1683171231878061294,camera_2,217,0,-0.05202463356647017,0.8642333561697927,4.655419889376637,-0.7179227324740862,0.6904762414181128,-0.06057741042098937,0.06449719048722156,0.007641249452717602,0.002376765194237303,11630.99270062731
1683171231885020494,216,1683171231885020494,camera_2,218,0,-0.05204313156990435,0.8642323013088957,4.65551477396168,-0.7177363335294032,0.6908464501729681,-0.059496077772578544,0.06360781826833538,0.008426732907537371,0.0026203814415221415,11636.683616543884
1683171231891664981,217,1683171231891664981,camera_2,219,0,-0.052045598321757175,0.8644085865123312,4.65644048212769,-0.7179504209579212,0.6906472137992551,-0.05965415518636974,0.06320601938637065,0.012798199197277427,0.003981487223290332,11632.763789246554
1683171231898398876,218,1683171231898398876,camera_2,220,0,-0.05203595316831492,0.8642227016877645,4.655394320631781,-0.7179644733862174,0.6905081988022597,-0.06066056506049623,0.06360611754109873,0.013426398683805019,0.004176257593707985,11633.550059754867
1683171231904990911,219,1683171231904990911,camera_2,221,0,-0.052011419003649924,0.8640609459066604,4.654614121980593,-0.7178972156782786,0.6904929435527369,-0.06032257014310356,0.06484034358778766,0.008473219233565032,0.00263447530002514,11634.816439778548
1683171231911560773,220,1683171231911560773,camera_2,222,0,-0.05202928266264823,0.8643489733725019,4.656100551605058,-0.7181168806831609,0.6906242092491932,-0.05936022762867054,0.061828073337975055,0.009532106923870742,0.002964767748193629,11639.515639052952
1683171231918313503,221,1683171231918313503,camera_2,223,0,-0.05204893693937469,0.8645403695536211,4.657138517436816,-0.7180288678541763,0.6907632271803607,-0.05936727715715086,0.06128813348739951,0.009209505922626704,0.002865688046416871,11635.888203094244
1683171231925030231,222,1683171231925030231,camera_2,224,0,-0.05202246715731959,0.8643504004242237,4.656079329123023,-0.7180120519412032,0.6905817985845144,-0.05981139889983072,0.06307193744134904,0.009006489824969321,0.002801597192773223,11634.490294963125
1683171231931411981,223,1683171231931411981,camera_2,225,0,-0.05203270866520751,0.864310750326856,4.655939433728373,-0.7177620268177538,0.6908379615230512,-0.06092986404824583,0.06203334139160774,0.009083786513656378,0.0028263543805110854,11634.717700384095
1683171231938116788,224,1683171231938116788,camera_2,226,0,-0.05202739697759148,0.8642759979592566,4.655655423869844,-0.7179248797486367,0.6905845007622026,-0.05990455976474513,0.06394026950456932,0.009883734281174839,0.003074002391630334,11633.659151460979
1683171231944928884,225,1683171231944928884,camera_2,227,0,-0.052037604365922085,0.8643540962696453,4.656124137119763,-0.7179499612934146,0.6907147165209582,-0.05916147563132291,0.06293610459252826,0.010248727805446833,0.003187539494883685,11636.711252924992
1683171231951457500,226,1683171231951457500,camera_2,228,0,-0.05203482928542427,0.8643269835548192,4.656009918890561,-0.7179730056311328,0.6906290160424163,-0.06001064411764554,0.06280961692182656,0.00735085568157956,0.0022866641878693168,11635.00461607287
1683171231958058834,227,1683171231958058834,camera_2,229,0,-0.05203864218810808,0.8643768392998733,4.65626928287743,-0.7179832707248025,0.6906333324818819,-0.06004432952975984,0.0626123112143864,0.00806912558618933,0.0025104141978978126,11634.18490003049
1683171231964843511,228,1683171231964843511,camera_2,230,0,-0.052002640457696994,0.8641757861527675,4.6551304584490865,-0.7178935275011085,0.6905881279175429,-0.06031576477372345,0.0638664956852937,0.009749413817189634,0.003031873271825154,11635.219599261876
1683171231971637487,229,1683171231971637487,camera_2,231,0,-0.05203259936497752,0.8641132782316371,4.654829861263242,-0.7178990403262444,0.6905226887747467,-0.0609564074721771,0.06390383849220332,0.009353300440125167,0.0029088989802020667,11634.531661911631
1683171231978504419,230,1683171231978504419,camera_2,232,0,-0.05199429407275136,0.8640600167264618,4.654583412687635,-0.7177810691968394,0.6907180440356215,-0.05951593008813572,0.06447305182780996,0.009719425172079355,0.003021276474359566,11638.664029094392
