%time,field.header.seq,field.header.stamp,field.header.frame_id,field.image_seq,field.transforms0.fiducial_id,field.transforms0.transform.translation.x,field.transforms0.transform.translation.y,field.transforms0.transform.translation.z,field.transforms0.transform.rotation.x,field.transforms0.transform.rotation.y,field.transforms0.transform.rotation.z,field.transforms0.transform.rotation.w,field.transforms0.image_error,field.transforms0.object_error,field.transforms0.fiducial_area
1683559944478803634,25,1683559944478803634,camera_2,27,0,-0.14854972169432382,0.8582579825033595,4.643793201190308,-0.715676693045655,0.6883511644368703,-0.08976852685013502,0.07694905481418801,0.019170620500517543,0.005952755940859576,11558.057197502105
1683559944485354661,26,1683559944485354661,camera_2,28,0,-0.14865789989581835,0.8589068229630928,4.647525874498539,-0.7163276908806395,0.6885857278281206,-0.08663492986693509,0.07224073391086011,0.020573034289554926,0.006391998653563556,11563.440178785648
1683559944492081880,27,1683559944492081880,camera_2,29,0,-0.1486769365070047,0.858920660465323,4.647613193289536,-0.716363052426526,0.6884899929193897,-0.08602150411957346,0.07352419735716577,0.016082444755738834,0.004996101816814933,11561.9114550862
1683559944498837947,28,1683559944498837947,camera_2,30,0,-0.1486634242678785,0.8588868808203276,4.647325392167253,-0.7160699155224791,0.6885731065382175,-0.08639138602745108,0.07514972692029018,0.015866921577980975,0.004929057768400467,11557.7456183075
1683559944505375146,29,1683559944505375146,camera_2,31,0,-0.14869177717239584,0.8591436438070518,4.648828544178591,-0.7161675558314187,0.6887881779039963,-0.08533981936660473,0.07343019259555424,0.020638002250052523,0.00641325833574966,11558.554166665634
1683559944512106180,30,1683559944512106180,camera_2,32,0,-0.1487218551908181,0.8592346580965198,4.649257722543448,-0.7162566327925393,0.6887646713500302,-0.08624636015847498,0.07170236286338909,0.01820750005208538,0.00566066064587904,11557.573161665092
1683559944518711328,31,1683559944518711328,camera_2,33,0,-0.14874986885363378,0.8593721913075204,4.649863150526909,-0.7162022919688396,0.6887702976667064,-0.08628820942872394,0.07213944097567102,0.019693610549438745,0.006124282405042937,11553.303425908834
1683559944525370836,32,1683559944525370836,camera_2,34,0,-0.1485490558946538,0.8582249733687768,4.643698056849422,-0.7158010451878839,0.6882819836181487,-0.08894580725341034,0.07736548394884343,0.018869736246415414,0.005857574020797841,11560.455546285404
1683559944531991481,33,1683559944531991481,camera_2,35,0,-0.148679030153814,0.8590112388036489,4.648195361682126,-0.715885714165125,0.6889331887833579,-0.08701098064084328,0.07285461478178279,0.015561564188828925,0.004836878252559586,11557.172300124977
1683559944538700103,34,1683559944538700103,camera_2,36,0,-0.14861548693420756,0.8586723772890665,4.646191576291214,-0.7158663656733033,0.688472115702459,-0.08781228349748671,0.07635767980258015,0.01549617432829109,0.004813798102019179,11555.01502804819
1683559944545349359,35,1683559944545349359,camera_2,37,0,-0.14864644930485052,0.8587744591917831,4.646633369623819,-0.7159207440301735,0.6887670096594514,-0.08746224551239724,0.07353808728808053,0.017520498200610746,0.005442986457304614,11561.543887259246
1683559944552093267,36,1683559944552093267,camera_2,38,0,-0.14862119286675177,0.8586616650073393,4.6461077993951605,-0.7158342291811155,0.6886330330993579,-0.08778660078012394,0.0752290820130629,0.02692117911647074,0.008362483758803413,11558.560149935834
1683559944558720588,37,1683559944558720588,camera_2,39,0,-0.14866888251449767,0.8586807491089165,4.646144689081314,-0.7159513108616146,0.6885094170572633,-0.08834496639526676,0.07459001281419758,0.018495039843401173,0.00574602124111347,11557.940478421438
1683559944565345048,38,1683559944565345048,camera_2,40,0,-0.14868842379063976,0.8592427864311203,4.64931751315659,-0.7161032250692992,0.6888579465028125,-0.0867006812271633,0.0717906154035663,0.012198027543490753,0.0037929979986901347,11555.461906905783
1683559944572089195,39,1683559944572089195,camera_2,41,0,-0.1486131048173006,0.8584065552781354,4.645003498036047,-0.7158267619590728,0.6886104783711561,-0.08836071267239265,0.0748334176465529,0.015133052962482907,0.004699206492690354,11562.921738927196
1683559944578729391,40,1683559944578729391,camera_2,42,0,-0.14865494518167155,0.8587044796703712,4.6464779195747665,-0.7160226124078422,0.6887986244036362,-0.08680327213539224,0.0730292098197488,0.019207122957595857,0.00596522167672998,11565.986450891058
1683559944585370540,41,1683559944585370540,camera_2,43,0,-0.14873431257724867,0.8592524876232212,4.649318589826809,-0.7162528243423391,0.6886712656701706,-0.08529632125914931,0.07374494587104775,0.012556133067846531,0.0039025514495373325,11555.412925798853
1683559944592158794,42,1683559944592158794,camera_2,44,0,-0.14861245940861842,0.8584323032571652,4.6450091955631585,-0.7157850938988756,0.6886043541664214,-0.08861905755922486,0.07498270075516308,0.013299474147061119,0.004130232278942545,11561.551793493258
1683559944598781347,43,1683559944598781347,camera_2,45,0,-0.14864185593860998,0.8588687797079922,4.647338989595889,-0.7158570563796929,0.6887134915160354,-0.08686181548535916,0.07534869903177063,0.019448455092060613,0.006042621771593125,11555.485362359337
1683559944605360031,44,1683559944605360031,camera_2,46,0,-0.14863828185485825,0.8587828897709762,4.6467891049271755,-0.7159785968239696,0.6887340043567157,-0.08674587982041478,0.07413010499739804,0.013930054039519746,0.00432686647631191,11561.832462335136
1683559944612219333,45,1683559944612219333,camera_2,47,0,-0.1486861194683599,0.8588577037972721,4.647220870626674,-0.7161344698129012,0.688596483433159,-0.08633559785619714,0.07438056662929556,0.013582941275672056,0.004219220792956467,11560.453830655202
1683559944618815660,46,1683559944618815660,camera_2,48,0,-0.14852652693469157,0.8582490316068447,4.643755223824323,-0.7156752946916309,0.6886651385698622,-0.08782702478637534,0.07639118538007646,0.030117592665192205,0.009345998230834157,11566.999990826096
1683559944625413656,47,1683559944625413656,camera_2,49,0,-0.1486401311019102,0.8587334041319754,4.646562280790731,-0.7159111181995863,0.6887290942778417,-0.08699632566491636,0.07453284413093272,0.02524418790562777,0.007841071438186978,11561.0037485579
1683559944632295608,48,1683559944632295608,camera_2,50,0,-0.14873764951121607,0.8591515462153562,4.6487490102387286,-0.7162486998277092,0.6887593557850561,-0.08530711532553849,0.07294549943969213,0.019114097747660708,0.005939388413953841,11560.244276254445
1683559944638684511,49,1683559944638684511,camera_2,51,0,-0.14866445862659594,0.8588605118046018,4.647227890862219,-0.7157455446889349,0.6888980512463446,-0.08699526360473861,0.07456282154848164,0.019871649787091883,0.006173957461855473,11557.590100723028
1683559944645403385,50,1683559944645403385,camera_2,52,0,-0.14864921324257552,0.8588615272260233,4.647237107798473,-0.7159658824492308,0.6885704481865751,-0.08741918290531635,0.07497652641327242,0.013690117906662636,0.00425415301740724,11554.963308375092
1683559944652040958,51,1683559944652040958,camera_2,53,0,-0.1487523241558589,0.8594386044709186,4.650343977155412,-0.7162083415460371,0.6888304459826451,-0.0852235547383192,0.0727679455872586,0.010864219166251132,0.0033781842900886894,11553.11786661312
1683559944658816814,52,1683559944658816814,camera_2,54,0,-0.1486708647861687,0.8589426642244176,4.647748878643948,-0.7159967284244835,0.6887329166843772,-0.08684863526518416,0.07384422058253592,0.009646637634432409,0.002997696093526901,11557.424691811859
1683559944665438413,53,1683559944665438413,camera_2,55,0,-0.1486072402431016,0.8586558749766617,4.646131797598495,-0.7160339546113145,0.6884156795278767,-0.08752027122592977,0.07562691418002893,0.01464259545900859,0.00454818340305133,11558.37551627839
1683559944672247886,54,1683559944672247886,camera_2,56,0,-0.14855226725414553,0.8584071050850147,4.644826198951427,-0.7157760759536914,0.6887034446497473,-0.08826014532429356,0.07458097054371579,0.014396513841347769,0.004470093348212245,11564.920954018204
1683559944678931474,55,1683559944678931474,camera_2,57,0,-0.14859552248702898,0.8585179991265091,4.645326176782639,-0.7158791166216171,0.6885454251269794,-0.08780845629376466,0.07557752923367236,0.019563024456147105,0.006074878048958706,11561.434337049894
1683559944685372114,56,1683559944685372114,camera_2,58,0,-0.14858422780428765,0.8584546472545869,4.645000678118613,-0.7158039195075264,0.6886308899637577,-0.08707649358593672,0.0763539813641969,0.017838126099377405,0.005537184918032276,11563.61126767534
1683559944692120552,57,1683559944692120552,camera_2,59,0,-0.14859146142878177,0.8585903130429512,4.6457823503402045,-0.7156802122721387,0.6887746493594077,-0.08676257749679622,0.0765739597255102,0.02034507353164372,0.006316803858494251,11560.270072297106
1683559944699068307,58,1683559944699068307,camera_2,60,0,-0.14869476255855274,0.8588949609454526,4.6473637913515375,-0.7161621259824714,0.688726076791762,-0.08527730522672423,0.07413488833581014,0.019416638584516477,0.0060294959976843095,11564.12271161611
1683559944705939292,59,1683559944705939292,camera_2,61,0,-0.14859089945514967,0.8584765037371214,4.645127042408924,-0.7157595205724822,0.6886391233467783,-0.08829471737062179,0.07528950385328048,0.015888676138274604,0.0049341427765379345,11561.389993944349
1683559944712410688,60,1683559944712410688,camera_2,62,0,-0.14861329492844255,0.8586958626311092,4.646379180217135,-0.7159772580283027,0.6885844904544467,-0.0875185348333873,0.0746221920910949,0.01706158018350834,0.005299949139008409,11559.80700218794
1683559944719469547,61,1683559944719469547,camera_2,63,0,-0.14860994732522398,0.8585668599704819,4.645629134731737,-0.7158802869740257,0.6887147693175947,-0.0873452375631171,0.07455327438041487,0.014611967751989141,0.0045372197391356905,11564.302220217825
1683559944725930452,62,1683559944725930452,camera_2,64,0,-0.14864798363267762,0.8588933561439114,4.647428213044894,-0.7160287753808084,0.6885923086645931,-0.08858948411945562,0.07276900836258729,0.01565453030707431,0.004866663910630193,11555.468555976375
1683559944732417821,63,1683559944732417821,camera_2,65,0,-0.14868195000665796,0.8589391920263462,4.64754687916006,-0.7161672122032273,0.6883759859776284,-0.08749169847416281,0.07475445667311012,0.01869733842613641,0.0058109033723256496,11553.719888907375
1683559944739028930,64,1683559944739028930,camera_2,66,0,-0.14869941801952008,0.8591132029105172,4.648483647525638,-0.7163172590230454,0.68856757563152,-0.08620864598641374,0.0730229249745005,0.0190022541100916,0.005905661139357566,11558.211129905436
1683559944745606184,65,1683559944745606184,camera_2,67,0,-0.14851626612494512,0.8581732653929511,4.643454720314431,-0.7157121786092813,0.6884338764962001,-0.08970081138398667,0.07595156035148384,0.016242940506344894,0.005042916340891255,11562.753362887519
1683559944752232789,66,1683559944752232789,camera_2,68,0,-0.14868383846016234,0.8591959993050939,4.648985204438873,-0.7160237720698799,0.6886308916358196,-0.0867638875844998,0.07462895367684885,0.01128006718136021,0.0035070223375585716,11549.567319280486
1683559944758868694,67,1683559944758868694,camera_2,69,0,-0.14865360692819568,0.8588846415078909,4.647263265311002,-0.7160329798535436,0.6883799716394199,-0.08624732600020989,0.07740274649894369,0.01423600399721181,0.004422144935073535,11552.47002363652
1683559944765575647,68,1683559944765575647,camera_2,70,0,-0.1487252427047867,0.8592658335057681,4.649306226812746,-0.7161525209981895,0.6889590978447842,-0.08613473254065197,0.07100518301497058,0.016748084119171835,0.005206804184391971,11559.44334446306
1683559944772281885,69,1683559944772281885,camera_2,71,0,-0.1486164450383348,0.8587092084533063,4.646656750294766,-0.7160077970274464,0.6885487526806184,-0.08690816689077469,0.07536856311190324,0.009159492459730245,0.002845071491737582,11558.654274900095
1683559944778844594,70,1683559944778844594,camera_2,72,0,-0.14861155874315396,0.8586431331641027,4.6460324800028685,-0.7160994588223014,0.6886072230166179,-0.08655814236153818,0.07435956881712326,0.015551952532405267,0.0048289232162922885,11565.697257031325
1683559944785513639,71,1683559944785513639,camera_2,73,0,-0.1487240074203628,0.8590302556936277,4.648306647481109,-0.7159875341802855,0.6885766809572996,-0.08734701015151365,0.07479642476653092,0.019019658113393234,0.005912766059447925,11550.335467352355
1683559944792260169,72,1683559944792260169,camera_2,74,0,-0.14871087139042888,0.8592387578042497,4.649213381533211,-0.7160336309084061,0.688858331106179,-0.0853934622469387,0.07401348309068512,0.017745593537256354,0.005515448495621367,11554.926034626431
1683559944798679113,73,1683559944798679113,camera_2,75,0,-0.14866169939589335,0.8588576727926953,4.647284132710439,-0.7163036304099359,0.6885747006907034,-0.08593437937144803,0.0734116685023458,0.011296390664938372,0.003508698277355765,11564.144343429667
1683559944805394649,74,1683559944805394649,camera_2,76,0,-0.1486926999772149,0.859059113023022,4.648361032766767,-0.715924033032018,0.6888210039755043,-0.08694339091518363,0.07361555668143711,0.013871217182895634,0.004311744168494851,11554.635807747782
1683559944811994075,75,1683559944811994075,camera_2,77,0,-0.14866103155045762,0.8588066702737746,4.646858629140047,-0.7160507910811358,0.6886594574383054,-0.08660719282201261,0.07428735036565526,0.0211546280697803,0.006570764639866125,11561.554264798233
1683559944819076299,76,1683559944819076299,camera_2,78,0,-0.14856849155442223,0.8582650930353795,4.644071089528172,-0.7157791890215828,0.6885857951489337,-0.08829690310526903,0.07558711652613037,0.012072557703504572,0.0037474145028554167,11565.828025660161
1683559944825754165,77,1683559944825754165,camera_2,79,0,-0.14867645752132636,0.8591845409265533,4.648950572440096,-0.7161446455596873,0.6888380887280566,-0.08560320936456567,0.07287677750939814,0.013384724315983476,0.004159937421984715,11558.461884318127
1683559944832091331,78,1683559944832091331,camera_2,80,0,-0.14868633423460226,0.8589669617399474,4.647686863680831,-0.716058742079523,0.688621768640692,-0.08711810099511937,0.07396197756050446,0.015201223890471738,0.004723969922314099,11556.429996588718
1683559944838764905,79,1683559944838764905,camera_2,81,0,-0.1486670971756534,0.8589219997028213,4.647455093866682,-0.7161838655373677,0.6887244444792703,-0.08562440919325853,0.0735375473549375,0.023607204453583108,0.0073322213624537535,11564.07454857181
1683559944845450162,80,1683559944845450162,camera_2,82,0,-0.1486928146636483,0.859049647641997,4.648135287288732,-0.7156881505416175,0.6887533646016282,-0.08772614105165172,0.0755870233601066,0.017008975926728453,0.005287873189644505,11547.713487466885
1683559944852232456,81,1683559944852232456,camera_2,83,0,-0.1486360168608408,0.8585634797978402,4.645554515079165,-0.7159400007965911,0.6884818040987967,-0.08766911029006216,0.07574198165609426,0.022855804447317496,0.007097326866381507,11560.283440278032
1683559944858883857,82,1683559944858883857,camera_2,84,0,-0.14860647641822394,0.858340827806821,4.6443141724602395,-0.7158878740696417,0.6882381777766984,-0.08861096948227434,0.07733601035785326,0.024493339580658358,0.0076043451911140285,11558.663514651707
1683559944865445852,83,1683559944865445852,camera_2,85,0,-0.14866523097067955,0.8589812414976364,4.647814001674314,-0.7161201049238531,0.6886669293782628,-0.08712799439182688,0.07292851498434584,0.017239831260667415,0.005357918147650513,11558.48129091802
1683559944872121095,84,1683559944872121095,camera_2,86,0,-0.1485674112474738,0.8583588281384356,4.644644061766076,-0.7157760565799751,0.6884239399318683,-0.08831791020087493,0.07705233606616985,0.01581783141591586,0.004911224884600732,11558.946893559623
1683559944878789186,85,1683559944878789186,camera_2,87,0,-0.1487565937519899,0.8594251244992045,4.650465931348593,-0.7161140298798532,0.6889341207110885,-0.08481959484390596,0.07318544841559492,0.01603634934144793,0.004985923161774623,11552.845515067807
1683559944885444879,86,1683559944885444879,camera_2,88,0,-0.14858623274013802,0.8586097098507759,4.645885638948081,-0.7159113173439496,0.6885710098496557,-0.08605158432003078,0.07704592740365218,0.012389686020469526,0.0038462503959722748,11561.046004990249
1683559944892059803,87,1683559944892059803,camera_2,89,0,-0.1485775739881525,0.8583932706554135,4.644638580643406,-0.7157421286218149,0.6885547628088463,-0.08847289216636027,0.07601375718175378,0.02320656753727235,0.007205498643817914,11561.215372429184
1683559944898855447,88,1683559944898855447,camera_2,90,0,-0.14859401301191721,0.8585601340965794,4.645488900694734,-0.7162380442819172,0.6883812532902968,-0.08676083891531143,0.07487904160982642,0.027964096720097587,0.008681460288447022,11566.324078629406
1683559944905394792,89,1683559944905394792,camera_2,91,0,-0.14864530383129496,0.8587576421015131,4.646629572816256,-0.7158706912684073,0.688648149554807,-0.08820000368931925,0.07425388102205038,0.017284963807469467,0.005371102998703859,11557.011143330148
1683559944912144899,90,1683559944912144899,camera_2,92,0,-0.14864756179776273,0.858795081216799,4.646855885176897,-0.7159769719200602,0.6888173218868385,-0.08676317589898572,0.07334728390844973,0.021011717690271325,0.006526850358768807,11563.479767083369
1683559944918737888,91,1683559944918737888,camera_2,93,0,-0.14873948592516717,0.8593364584229514,4.649598315075881,-0.7160405415991626,0.68879274046492,-0.08594416440931944,0.07391957841592132,0.02454327901432407,0.0076308334542043305,11551.30216602171
1683559944925373792,92,1683559944925373792,camera_2,94,0,-0.1486830963691897,0.8591287579944779,4.648860253014365,-0.716188621241763,0.6888119026083138,-0.0845583098975576,0.07390476206717732,0.016529113465367118,0.005135328536737309,11559.927262128143
1683559944932060003,93,1683559944932060003,camera_2,95,0,-0.14854472161373167,0.8582683651838455,4.644074827278318,-0.7158674633594555,0.6885267599638534,-0.08779628545256836,0.07587152283767644,0.008161982932506362,0.002533171852339113,11566.913250428857
1683559944938726902,94,1683559944938726902,camera_2,96,0,-0.14860246178754324,0.8587363830651125,4.646498161097026,-0.715821722617878,0.688823186412691,-0.08641091835485719,0.07519994998476313,0.021014315821958007,0.006525880571130468,11561.700181183634
1683559944945421218,95,1683559944945421218,camera_2,97,0,-0.14875419107848942,0.8595010646168295,4.650673160837565,-0.7160864544747497,0.6889718871177439,-0.08527360932402046,0.0725695530649842,0.009412575040187221,0.002927159152117063,11551.790082586987
1683559944952039241,96,1683559944952039241,camera_2,98,0,-0.1487040327319144,0.8590411977067836,4.64822374126174,-0.716192396421373,0.6885385321958212,-0.0868105706291641,0.0738042398299322,0.018574392612208612,0.005773133947173813,11555.309299246288
1683559944958690404,97,1683559944958690404,camera_2,99,0,-0.1486664923895421,0.858925272709471,4.64749054994942,-0.7159423692704481,0.6885756719779373,-0.0889285326467371,0.07336064288736703,0.02061223347845953,0.0064087824987685525,11552.374283271918
1683559944965467929,98,1683559944965467929,camera_2,100,0,-0.14863867214541915,0.8589157186445004,4.6473669854413515,-0.7159467975755888,0.6887849367199541,-0.0868615475417328,0.0738279455734952,0.023286469473532634,0.0072350988102071,11559.358806804881
1683559944972106695,99,1683559944972106695,camera_2,101,0,-0.1486541759039188,0.8589757663442161,4.647797305704459,-0.7159599281552788,0.6887924260601402,-0.08613465808403013,0.07447949888943663,0.01940705980086932,0.00602978459252331,11558.147975535538
1683559944978824615,100,1683559944978824615,camera_2,102,0,-0.14863523240964455,0.8586857033421912,4.646163453231018,-0.7157980800482878,0.688605669022617,-0.0875231867691768,0.0761251139038031,0.02280236515798606,0.007082496964128558,11556.800221061028
1683559944985520601,101,1683559944985520601,camera_2,103,0,-0.1486441734213089,0.8589430059063811,4.647668682945402,-0.7161239596596516,0.6884985441569279,-0.08652429962525203,0.0751649830009451,0.018836739429389127,0.005852979635839422,11555.594551346163
1683559944992124557,102,1683559944992124557,camera_2,104,0,-0.14874752662423912,0.8594164059954761,4.650121056622927,-0.7162457117601838,0.6888029520616208,-0.08528271755108971,0.07259085137567621,0.01618392382079037,0.005031677395796864,11554.43618978134
1683559944998810291,103,1683559944998810291,camera_2,105,0,-0.14876339628780394,0.8594626966319365,4.650307337987085,-0.716423202129856,0.6887270265242614,-0.08457169911611563,0.072391339907934,0.030438136909651803,0.009462289891457901,11556.539083178854
1683559945005442619,104,1683559945005442619,camera_2,106,0,-0.14866188649780998,0.8589489803955701,4.6476954460484565,-0.7158405053701175,0.6888619048838014,-0.0863534248493507,0.07473107043327347,0.0118000554102764,0.003666246278309607,11557.157889231621
1683559945012354135,105,1683559945012354135,camera_2,107,0,-0.14865158839868425,0.8590460314808558,4.648117606879289,-0.7160318224199667,0.6887519407055719,-0.08639377364495926,0.07386006587888652,0.02245609376768698,0.006978246359861018,11557.232794484455
1683559945018787622,106,1683559945018787622,camera_2,108,0,-0.14862270265324473,0.8584545800522836,4.645149652709546,-0.7158232099364074,0.6886109855040216,-0.08737216835367614,0.07601412340279447,0.016604357413598336,0.005154919702248686,11562.663969321367
1683559945025759935,107,1683559945025759935,camera_2,109,0,-0.14861535118550556,0.8586500123546844,4.646071275143466,-0.7160031038735851,0.6884065282428317,-0.08914176275042518,0.07409286908866651,0.019240443776652683,0.005978854594135309,11556.720701234186
1683559945032220840,108,1683559945032220840,camera_2,110,0,-0.1486691099018999,0.8590120669985493,4.647955611715132,-0.7158678414795059,0.6887839628189649,-0.08770120396991077,0.07360967953403912,0.022770059753383975,0.00707814189352213,11553.92171078009
1683559945038738250,109,1683559945038738250,camera_2,111,0,-0.14869002833247036,0.8588828733839649,4.647377267802281,-0.7160031026474768,0.6888402461659483,-0.0866192160294028,0.073046448754709,0.020811808746657334,0.006465795958915202,11562.134681608355
1683559945045402050,110,1683559945045402050,camera_2,112,0,-0.14869104189832383,0.8592581094183886,4.649492242827514,-0.7160305658107725,0.688812261647897,-0.08618648952798148,0.07355124778722061,0.009322647852968657,0.002898657855563193,11551.96025626165
1683559945052046298,111,1683559945052046298,camera_2,113,0,-0.1486782429818551,0.8589048930359225,4.647417480164205,-0.7160165224397531,0.6886009091556173,-0.08676422500041187,0.07497397390706868,0.021507945632038172,0.006682525311251371,11556.41133225734
1683559945058782577,112,1683559945058782577,camera_2,114,0,-0.14871864189682987,0.8591340555972522,4.648716902398947,-0.7159045279318578,0.6887700925372227,-0.08666350518902692,0.07460498228189022,0.014559334886143915,0.004526097319449341,11551.30119157382
1683559945065426588,113,1683559945065426588,camera_2,115,0,-0.14868286971280364,0.8590082844406539,4.6480573276353585,-0.7159463855841379,0.6887533769510872,-0.08672557424820075,0.07428481324471796,0.010704380059905816,0.0033267416964952216,11555.192088785
1683559945072038173,114,1683559945072038173,camera_2,116,0,-0.14859132300644012,0.8586749103633058,4.646097855460686,-0.7158717879860922,0.6886232509514787,-0.08766852942045031,0.07509880401090127,0.019154967423673952,0.005949957258578629,11559.430918227268
1683559945078865766,115,1683559945078865766,camera_2,117,0,-0.14866164508026367,0.8588131752580428,4.646886107921801,-0.7159948025559479,0.6884733164025584,-0.0881090929476959,0.07478451079244959,0.017720397914672503,0.0055067115552093005,11554.649462313624
1683559945085681438,116,1683559945085681438,camera_2,118,0,-0.1485863410280035,0.8586381155965938,4.645933641273931,-0.7159954899442557,0.6885516352026976,-0.0887756501992709,0.07325290418047184,0.023298801828786964,0.00723870923225762,11560.977857353488
1683559945092096805,117,1683559945092096805,camera_2,119,0,-0.14865813203658337,0.858794026048416,4.646913336822515,-0.7162680147604855,0.688657497898966,-0.08547022320465224,0.07352429913950645,0.022497576159366872,0.006985715097489563,11567.34919515983
1683559945098740577,118,1683559945098740577,camera_2,120,0,-0.1486818802889219,0.85912065008436,4.648755407206516,-0.7158806335628833,0.6886825367480924,-0.08784455659773437,0.07426046016531725,0.016586516256211326,0.005158371640730421,11547.796182449743
1683559945105412721,119,1683559945105412721,camera_2,121,0,-0.14865123960543666,0.8586403882008999,4.645971905776716,-0.7157693207502716,0.6886254261634421,-0.08876931489413707,0.07476169237743419,0.01565948135976214,0.004865351224205452,11556.782215389005
1683559945112110853,120,1683559945112110853,camera_2,122,0,-0.14865647590113049,0.8588409460681321,4.64721794407586,-0.715542846607273,0.688862320764783,-0.08820027559390735,0.0754178300196762,0.014318523069960065,0.004450247339376058,11550.966391802769
1683559945118818044,121,1683559945118818044,camera_2,123,0,-0.14864939478643102,0.8587128004147269,4.646590877663804,-0.7160975645544165,0.6887727417687305,-0.08669933119579358,0.07266095379102387,0.020324233151768567,0.006312006621303798,11566.722016169339
1683559945125498294,122,1683559945125498294,camera_2,124,0,-0.14863788471781372,0.8588870953056256,4.647580998587627,-0.7159154650617685,0.6887178941558493,-0.08629724930103576,0.07540221427782508,0.008920632131776074,0.002771393918134498,11556.156997130116
1683559945132228374,123,1683559945132228374,camera_2,125,0,-0.14861691864997822,0.8586036254729805,4.645865231304168,-0.7157371564430711,0.6886144551121895,-0.0892354151637973,0.07461565370533052,0.024147923504642677,0.0075033174448576045,11556.002057152393
1683559945138883829,124,1683559945138883829,camera_2,126,0,-0.14872333907494492,0.8592513464670526,4.649387724134617,-0.7161820414861477,0.6887293843448038,-0.0864982017206312,0.07247882236804414,0.01209333731821971,0.003760195632168819,11554.048102452725
1683559945145425081,125,1683559945145425081,camera_2,127,0,-0.14867031917357856,0.8587175816051364,4.6465634818517785,-0.7160788333839541,0.6885163731164434,-0.08743680662380682,0.07437145404982347,0.018252619047416374,0.005670135500539561,11559.77719805521
1683559945152117490,126,1683559945152117490,camera_2,128,0,-0.14864442970678646,0.8586641310136491,4.646266292484153,-0.7159313333705353,0.6885032430365423,-0.08819708885324858,0.07501255724386129,0.01653939600873855,0.005138491250765194,11556.795982543843
1683559945158793687,127,1683559945158793687,camera_2,129,0,-0.14856901062296352,0.8584162388112823,4.6447871199434365,-0.715807803709878,0.6885796757215126,-0.08704836308905542,0.07681016088261741,0.023389380614389665,0.007259491419846441,11563.532187876477
1683559945165498971,128,1683559945165498971,camera_2,130,0,-0.14870396420620174,0.8591666113021208,4.648883276642049,-0.7159812182401414,0.6888375327474856,-0.08650908082306578,0.07341612589116858,0.015548524883342907,0.0048335434453917565,11554.129543784817
1683559945172274112,129,1683559945172274112,camera_2,131,0,-0.14860081029859384,0.858540036237999,4.645350480136009,-0.7158019195551416,0.688806525179948,-0.08699836546122922,0.07486298977314972,0.023241635517479153,0.007215317404358741,11566.146677732959
1683559945178834915,130,1683559945178834915,camera_2,132,0,-0.14869230989583665,0.858917657395184,4.647539669030294,-0.7160977054611772,0.6887537084506089,-0.08754881675111902,0.0718165023810667,0.018230441579362378,0.00566572423538203,11561.067695938473
1683559945185400724,131,1683559945185400724,camera_2,133,0,-0.14857408244383058,0.8584206680539674,4.644828133770724,-0.7158691222224771,0.6884553534875029,-0.08785716778362315,0.07643130361218375,0.01761794989943155,0.005469765430706971,11561.4260004644
1683559945192074775,132,1683559945192074775,camera_2,134,0,-0.14869932090639165,0.8589596849942793,4.647860101976866,-0.7159617829542261,0.68881035863509,-0.0868585960232575,0.0734479372268081,0.015271142128767679,0.0047456434143572255,11557.821170157626
1683559945198839187,133,1683559945198839187,camera_2,135,0,-0.14862043456886773,0.8588371457100734,4.647079114608547,-0.7159261711521379,0.6886516002517511,-0.08676991082855033,0.07536360862477151,0.017922974620887544,0.005567871857684161,11557.084669639211
1683559945205521583,134,1683559945205521583,camera_2,136,0,-0.14865880876693727,0.8588328537736515,4.647135895419756,-0.7158442056186298,0.688712690325602,-0.0876039104656318,0.07461540281894802,0.011593897597776959,0.003602656611808452,11555.693139543993
1683559945212052106,135,1683559945212052106,camera_2,137,0,-0.1486364987626997,0.8585909652057278,4.645712254698353,-0.715896206950124,0.6884615318612601,-0.08783552507372008,0.07614631019751657,0.017172554929857142,0.005333423167686955,11557.834708460392
1683559945218749761,136,1683559945218749761,camera_2,138,0,-0.14864132908579483,0.8587768177200388,4.646769562039992,-0.7161334409338653,0.6886447298853784,-0.08684579162666599,0.07334261553867771,0.01675577247806359,0.005204660944224572,11563.613962413281
1683559945225381374,137,1683559945225381374,camera_2,139,0,-0.14869257385383775,0.8590648568288188,4.648433927482068,-0.7158642710309938,0.6887729007364146,-0.08735934263854242,0.07415242360281067,0.016285187477478758,0.005062803698097401,11551.360041530586
1683559945232096672,138,1683559945232096672,camera_2,140,0,-0.14866191477940935,0.8589761391720708,4.6479072557770005,-0.7158710099083475,0.6889400557661505,-0.08697314077810334,0.07297924031481941,0.009714337957120733,0.0030189922784493316,11558.41450560158
1683559945238736629,139,1683559945238736629,camera_2,141,0,-0.14861835242003035,0.8587291294034316,4.646524277478109,-0.7160036183785797,0.6886985527622717,-0.08688627607139088,0.0740533383608038,0.015774419607623713,0.004899397433385399,11562.85969827864
1683559945245409727,140,1683559945245409727,camera_2,142,0,-0.1486873251580614,0.8589845568306113,4.647987158172062,-0.7162989002417275,0.6886409868229034,-0.08638071161421848,0.07230386878370271,0.021972739126795204,0.00682754917310793,11561.865654652749
1683559945252056837,141,1683559945252056837,camera_2,143,0,-0.14866952561061628,0.858972121607018,4.648014738814041,-0.7158923833805686,0.6889652401866653,-0.08545590367545787,0.07431205662091886,0.013042823207797483,0.004051707733421593,11559.855904474636
1683559945258805990,142,1683559945258805990,camera_2,144,0,-0.14868473780335367,0.8590993545930437,4.648451542151378,-0.7159758184553665,0.6887408872332274,-0.08679307460848344,0.0740376920248148,0.021707447842345573,0.00674771925093648,11553.679248998713
1683559945265466690,143,1683559945265466690,camera_2,145,0,-0.148646339754816,0.8586835137646405,4.646261233294811,-0.7159824752913994,0.6887584987298543,-0.08747023197260997,0.07300536981384408,0.012294279265915975,0.003818646551845124,11564.687223812452
1683559945272174596,144,1683559945272174596,camera_2,146,0,-0.14864459614519343,0.8588499670323592,4.647048303083072,-0.7160628729716586,0.6888587125422826,-0.08695240049871986,0.07188126427431114,0.019991433866380248,0.006210638098369805,11565.56208049618
1683559945278768539,145,1683559945278768539,camera_2,147,0,-0.14864944144727038,0.8587046117220578,4.646408081765919,-0.7160300312984669,0.6887739336330031,-0.08570021677295944,0.07447775152019401,0.018895039513154188,0.005866063492625438,11566.517731209256
1683559945285403251,146,1683559945285403251,camera_2,148,0,-0.14857239153530272,0.8582749132114486,4.64401137482878,-0.7155488875483687,0.6885478691887741,-0.0896587170831658,0.07650448231895733,0.01711585629163892,0.005314981193498559,11558.567099587177
1683559945292232275,147,1683559945292232275,camera_2,149,0,-0.14867153022154,0.8590576661038757,4.648431106578972,-0.7161554798511635,0.6887143229505108,-0.08524807970244425,0.07434160980914313,0.009855931777565274,0.003062167442901363,11558.486836613489
1683559945298786163,148,1683559945298786163,camera_2,150,0,-0.14864202067100318,0.8587528163793181,4.646602856291378,-0.7159953136597679,0.6885487842301933,-0.08690315674549982,0.07549254201601907,0.016345883326721378,0.005077077581936322,11558.576850642394
1683559945305529356,149,1683559945305529356,camera_2,151,0,-0.14870804037806504,0.8590206379265884,4.64793211565667,-0.7160787803582173,0.6887143386692721,-0.08662021912911103,0.07348930309956843,0.025072893949982245,0.007791452852732516,11558.240660974916
1683559945312077760,150,1683559945312077760,camera_2,152,0,-0.14868275164567446,0.8590735807593058,4.648387596540062,-0.7159941100563336,0.6887424302247731,-0.08673457720088995,0.07391489897507368,0.017858835650258698,0.005551108459412486,11554.519810826956
1683559945318743467,151,1683559945318743467,camera_2,153,0,-0.14860873967218408,0.8585879434544578,4.645794620222182,-0.7157869346533441,0.688627522537802,-0.08789342334926128,0.0756038723543031,0.009430440892174374,0.0029290406978152253,11558.696065196009
1683559945325414657,152,1683559945325414657,camera_2,154,0,-0.14866325329815125,0.8588904659519602,4.647456283225864,-0.7159771638174165,0.6888692619322644,-0.08618838778962719,0.07353504380287397,0.01306822606784408,0.004059668367852366,11562.06099623835
1683559945332155942,153,1683559945332155942,camera_2,155,0,-0.14866191594555775,0.858916842720814,4.64737187370324,-0.7160407151315725,0.6885910004653296,-0.08614215161398824,0.07554904411927094,0.015954984512063675,0.00495631025402524,11557.368451923656
1683559945338682651,154,1683559945338682651,camera_2,156,0,-0.1486502466469711,0.8588806902403564,4.647127117374614,-0.7162058056624963,0.6886955196933251,-0.08615512893754239,0.0729727267369873,0.02126709536969429,0.006605587322079357,11565.279224818732
1683559945346132040,155,1683559945346132040,camera_2,157,0,-0.1486807362518088,0.8591498283920885,4.648737397639766,-0.7159281087815402,0.6888663226110395,-0.08589234975998711,0.07438169722141301,0.01902582584079937,0.005913010187777158,11554.570114191156
1683559945352232933,156,1683559945352232933,camera_2,158,0,-0.148714389329829,0.8591706527223248,4.648906805447302,-0.7161576043101572,0.6887405735663353,-0.08599932249601708,0.0732039933506217,0.015674465539632365,0.004872098896584186,11556.392569574444
1683559945358993768,157,1683559945358993768,camera_2,159,0,-0.14867228620396797,0.858836557960868,4.647141515996388,-0.7158450761858551,0.6889083906712654,-0.08643337693463833,0.07416419294288257,0.02120787279272918,0.00658786013722671,11561.094941524163
1683559945365631818,158,1683559945365631818,camera_2,160,0,-0.14870764938733672,0.859183114027669,4.648930891026567,-0.7161635772857923,0.6886601371219919,-0.08671043924222169,0.07306330019070766,0.019609080180089222,0.006096365136215416,11554.088870246287
1683559945372127771,159,1683559945372127771,camera_2,161,0,-0.14867159810049765,0.8590158355410991,4.648249797084107,-0.7157433487958477,0.6888763909808646,-0.08648144095498539,0.07537729747101586,0.018501874761568615,0.005749918034634716,11552.224051487865
1683559945378921508,160,1683559945378921508,camera_2,162,0,-0.14855013353382845,0.8584278449658811,4.644727819197669,-0.7158312739217487,0.688493332546158,-0.08733301529060107,0.07704195451378174,0.02447055855373037,0.007595742197841284,11562.200007465424
1683559945385455608,161,1683559945385455608,camera_2,163,0,-0.1486063867439505,0.858517211245516,4.645248619065405,-0.7159363497267537,0.6883434275756106,-0.08776403627759108,0.07691516618754293,0.025420923360798042,0.007893475346348192,11558.336710391002
1683559945392122983,162,1683559945392122983,camera_2,164,0,-0.14861362566486175,0.8586513230290741,4.646308484354383,-0.7158073365304489,0.6887737275135674,-0.08729537378468454,0.07476715169138727,0.014582125866581919,0.004529139764497134,11560.54849943993
1683559945398759603,163,1683559945398759603,camera_2,165,0,-0.14874256226086535,0.8591146766234097,4.6487289566964325,-0.7162233504681099,0.6889003253627543,-0.08552098671700238,0.07160038261264154,0.008308963504532585,0.002581996047001177,11562.948045245146
1683559945405427694,164,1683559945405427694,camera_2,166,0,-0.14862476431838006,0.8586630110195242,4.646075880124944,-0.7158718047010636,0.6885410752374995,-0.08838564660981747,0.07501149524036153,0.018806420110195177,0.005842815869471618,11557.08666435423
1683559945412123680,165,1683559945412123680,camera_2,167,0,-0.14863988904793002,0.858810727822594,4.646983772059762,-0.7160397713685115,0.6886622984025126,-0.08677765008973036,0.07416821436709357,0.01808107761098654,0.005616713009840757,11560.658857674405
1683559945418748855,166,1683559945418748855,camera_2,168,0,-0.14859404783446897,0.8585292928272197,4.645289311664769,-0.7159714944213086,0.6885072426265199,-0.0881456052834967,0.07465218212584751,0.0166118394008663,0.005158894796447498,11562.843223854232
1683559945425458192,167,1683559945425458192,camera_2,169,0,-0.14859720330732068,0.8584291079955679,4.645010290701243,-0.7158127806027629,0.6885449666100288,-0.0889241304249554,0.07490254408163156,0.015312672276195372,0.004755838327754253,11560.641614557973
1683559945432072401,168,1683559945432072401,camera_2,170,0,-0.14865496453016808,0.8587540742154792,4.64657555784626,-0.7160453647264813,0.6886584160306198,-0.08755707721776847,0.07322827263427656,0.019278051218861947,0.005988922948040138,11562.267227336415
1683559945438801050,169,1683559945438801050,camera_2,171,0,-0.14864964685755,0.8590112576314002,4.647916081567019,-0.7158783738417941,0.6888071312585812,-0.08626645137251017,0.07497325630214112,0.01780091303953668,0.005531105367886061,11555.770615024181
1683559945445535421,170,1683559945445535421,camera_2,172,0,-0.14861895072926398,0.8588353726468964,4.6470697671051,-0.7158900216325863,0.6889032635839365,-0.08632423554891569,0.07390464604604985,0.021142764471733244,0.006567105960645411,11562.57315727591
1683559945452174663,171,1683559945452174663,camera_2,173,0,-0.14865294692811812,0.8588515562489445,4.647100009768721,-0.716165523742922,0.6887376504754696,-0.08597590991154773,0.07318151634420653,0.02409350886955508,0.007482957107978474,11565.513343134515
1683559945458824872,172,1683559945458824872,camera_2,174,0,-0.14859622428776087,0.8586046853070588,4.645896691402369,-0.7160673794478007,0.6886646685117511,-0.08659245452787842,0.07409608122698914,0.023421366327966098,0.007271805619426105,11566.937851601542
1683559945465471506,173,1683559945465471506,camera_2,175,0,-0.1486776231257126,0.859100141184322,4.648632062332092,-0.7161522614890576,0.688783499703536,-0.08522559530819464,0.07375518154422361,0.018541071578511037,0.0057609357360178266,11559.097608181097
1683559945472060680,174,1683559945472060680,camera_2,176,0,-0.14855445341950543,0.8581938961317616,4.643797162241004,-0.7158207611259495,0.6885795318998664,-0.08870807474540578,0.07476458830616783,0.01462863372580614,0.00454075889891665,11567.855942241764
1683559945478798866,175,1683559945478798866,camera_2,177,0,-0.14872065528598225,0.8593458543039427,4.649668312374003,-0.7161268410481192,0.6889699757053362,-0.08479691301812668,0.0727475336326029,0.020191277279081987,0.006275693998413572,11558.040344040946
1683559945485437870,176,1683559945485437870,camera_2,178,0,-0.1486643450978734,0.8590721103277328,4.648227613424159,-0.7159601783053352,0.6887944446173738,-0.08608398205614029,0.07451700596906989,0.0233065321444883,0.007242076175530797,11556.053321490648
1683559945492169380,177,1683559945492169380,camera_2,179,0,-0.14863458763498705,0.8586147946188798,4.645846778477784,-0.7158956419841409,0.6885212564556685,-0.08849148198307588,0.07484094342845686,0.017415641519619385,0.005410361657093971,11558.264060437823
1683559945498785018,178,1683559945498785018,camera_2,180,0,-0.1487525311760598,0.8593440477195218,4.649762900939483,-0.7162806046759564,0.6884680936148213,-0.0864981789561342,0.07397191681099353,0.01885475956441951,0.0058636566099992,11548.368528162044
1683559945505346536,179,1683559945505346536,camera_2,181,0,-0.14873518623108894,0.8591435627160304,4.64889888955999,-0.7160637242488171,0.6888024831237678,-0.08705503651311448,0.07228625509144965,0.01348504197812872,0.004192735183884754,11554.916163248014
1683559945512101888,180,1683559945512101888,camera_2,182,0,-0.1486608771527856,0.8590000775243694,4.647868824930068,-0.7159637757152244,0.688797615559129,-0.08705158321163894,0.07331942801199036,0.01679289839012199,0.005218994452679635,11557.480526243078
1683559945518755912,181,1683559945518755912,camera_2,183,0,-0.1486296769228424,0.8589002342846063,4.647475442430378,-0.7160209023171631,0.6887003957371917,-0.08759152791035993,0.07303120288397294,0.013424084085272625,0.004172041211001119,11558.24148754924
1683559945525398254,182,1683559945525398254,camera_2,184,0,-0.14863897841610546,0.8587989610183129,4.646965828954764,-0.7160946291303714,0.6887230299077735,-0.0869248568895821,0.07289128521310245,0.014504833063256228,0.0045059360891498935,11563.510967366059
1683559945532074689,183,1683559945532074689,camera_2,185,0,-0.14860751468056632,0.8584996426445806,4.645387224215054,-0.7158161980958901,0.6885468626059158,-0.08903283484409794,0.07472310793000504,0.012402347136230674,0.0038527894084672146,11558.85522707097
1683559945538693189,184,1683559945538693189,camera_2,186,0,-0.14863372764754135,0.8587393611924746,4.646444056864306,-0.7159300686238175,0.688698058923561,-0.08627992857235305,0.07546452412070974,0.024138916793162934,0.007495847162758492,11561.710241974393
1683559945545340061,185,1683559945545340061,camera_2,187,0,-0.14866092329475278,0.8588846818766103,4.647290218486572,-0.7159766100315363,0.6885832231139997,-0.08686685196512696,0.07539753817833827,0.021400116693257587,0.006648735691936506,11555.545633784908
1683559945552190542,186,1683559945552190542,camera_2,188,0,-0.14871390675203622,0.8592250812436899,4.649223690637096,-0.7159626000940815,0.6888286797572698,-0.08707235110233455,0.073013771878261,0.014981222891947255,0.004658707687344005,11551.448021731358
1683559945558928966,187,1683559945558928966,camera_2,189,0,-0.14868906249045416,0.8588154035794302,4.646910318527803,-0.7160915428289957,0.6886392917426585,-0.08626660705692597,0.07447751784159001,0.017143773242423777,0.005324421719323199,11561.968401498363
1683559945565442562,188,1683559945565442562,camera_2,190,0,-0.14867733153729124,0.8591717531961196,4.648952566580773,-0.7161766631828916,0.6887333009890497,-0.08436129742378715,0.07497065237759264,0.00990433599872631,0.003077068232463041,11557.362386873821
1683559945572111129,189,1683559945572111129,camera_2,191,0,-0.14856844518189588,0.8581418365789073,4.643213873466577,-0.7159331911230589,0.6882623798399028,-0.08953221655526891,0.07562105886700898,0.01950144919101149,0.0060534009106028635,11565.384571197323
1683559945578772544,190,1683559945578772544,camera_2,192,0,-0.14862172667944704,0.858653343146752,4.6461083704261705,-0.7159642454973592,0.6885980766903297,-0.08642660180000955,0.07588366391443266,0.017261689106817357,0.0053596752499275695,11561.71469090701
1683559945585396766,191,1683559945585396766,camera_2,193,0,-0.1486789037393854,0.8590807169482618,4.648422536414066,-0.7161048640195729,0.6887424933530615,-0.08685509805427576,0.07268970710698532,0.012254019286046969,0.0038090534116693477,11557.048570908835
1683559945592102050,192,1683559945592102050,camera_2,194,0,-0.14864439455105163,0.8586352795275245,4.645953695941675,-0.7160372323148043,0.688744726380093,-0.0866453635731261,0.0735796493185889,0.023648497030080765,0.0073423607132016445,11567.721536681376
1683559945598772525,193,1683559945598772525,camera_2,195,0,-0.14858148834269427,0.8585181510583567,4.645381977527533,-0.7160180001821632,0.6884060346846257,-0.0880203674849127,0.07528459160244294,0.01725544028522563,0.00535876160566323,11561.183474884252
1683559945605364799,194,1683559945605364799,camera_2,196,0,-0.14860039156561033,0.8585474882202332,4.645483231925241,-0.7157574974410225,0.6885701128476319,-0.08895212854324931,0.07516597220544545,0.015589773873216473,0.004843125881334595,11557.53090901795
1683559945612087011,195,1683559945612087011,camera_2,197,0,-0.14863677502020203,0.8587067054717366,4.646270917644928,-0.715762804029001,0.6887411526279664,-0.08748692551271597,0.07526799392553517,0.021807464076118777,0.006773788756645044,11558.709664311402
1683559945618793249,196,1683559945618793249,camera_2,198,0,-0.14863570243760768,0.8588643904724237,4.647265315423848,-0.7159703387940805,0.6888263684536973,-0.08575548603409634,0.07450305164915559,0.018298872135346755,0.005683288138696586,11562.05525390389
1683559945625432252,197,1683559945625432252,camera_2,199,0,-0.1486786460982883,0.8589560847343125,4.64769331358751,-0.7160587327840369,0.6888876933641033,-0.08511146879802964,0.07382191418709133,0.02068180033893441,0.006423229166426582,11563.949054009048
1683559945632113933,198,1683559945632113933,camera_2,200,0,-0.1485976402111877,0.8584421466090805,4.644949294989401,-0.7158206175787416,0.6885243146667946,-0.08855275860249671,0.07545542065151972,0.02006702857761411,0.00623179176535821,11560.878181463395
1683559945639063119,199,1683559945639063119,camera_2,201,0,-0.14864302821558031,0.8588272365398887,4.647007518755522,-0.7158948805350994,0.6887349485724045,-0.08611116111004717,0.07565420392075173,0.014633637216320494,0.004545043966995781,11559.002320559724
1683559945645626306,200,1683559945645626306,camera_2,202,0,-0.14874106991827488,0.8592745961601443,4.649362915653542,-0.7160774711083571,0.6888125605299082,-0.08581212252417533,0.07352952777753675,0.023443017977115232,0.007287558586059176,11553.924097169689
1683559945652412891,201,1683559945652412891,camera_2,203,0,-0.14868070187867133,0.8588464413612638,4.647113320648553,-0.7158101594877448,0.6887536967203548,-0.08714318807075909,0.07510143541264168,0.021120577777764993,0.006561888439061897,11556.169677395403
1683559945659095525,202,1683559945659095525,camera_2,204,0,-0.14861304605170206,0.8586210196186254,4.645820801340319,-0.7156824958259198,0.6886705131390046,-0.08818250030407669,0.07586393175524164,0.026014602324721636,0.008080824073778026,11556.821714000222
1683559945665675401,203,1683559945665675401,camera_2,205,0,-0.1486841325172481,0.8589620324337836,4.647710164100717,-0.7159937935474169,0.688610682901375,-0.08697888113926527,0.07485244973574937,0.018069244590151357,0.005615042684947473,11554.482993979122
1683559945672084331,204,1683559945672084331,camera_2,206,0,-0.14863520398864322,0.8589163564397595,4.647472410002978,-0.7161208337106072,0.688699951527089,-0.08621611669652486,0.07368927679100691,0.016802634207124356,0.005219879505086281,11561.53360255051
1683559945678745508,205,1683559945678745508,camera_2,207,0,-0.148666626999007,0.8588496957991096,4.647075481010589,-0.7161826923000645,0.6885966984377837,-0.0864287822937333,0.07380381928896183,0.019344667984114494,0.006008941403528573,11562.398688421752
1683559945685451269,206,1683559945685451269,camera_2,208,0,-0.14876725928139228,0.8593222194082057,4.649696254553689,-0.7163045044263745,0.6886257530693274,-0.08556730848879204,0.07335301538568148,0.012749073750455864,0.003963452902941323,11553.56128366412
1683559945692053079,207,1683559945692053079,camera_2,209,0,-0.148639229484365,0.8588202287789874,4.646916549838487,-0.7161610869660936,0.688730857541171,-0.08592996486498977,0.07334265146862447,0.017274305737373652,0.0053645322294198,11566.173429323682
1683559945698733568,208,1683559945698733568,camera_2,210,0,-0.14867387057915238,0.8589067463781925,4.647569715438855,-0.716037450156004,0.6886212658864834,-0.08792006219739382,0.07322011203345435,0.0135103026550496,0.004199281972337289,11556.01026343863
1683559945705530643,209,1683559945705530643,camera_2,211,0,-0.14862738402304915,0.8586311797185292,4.645928725011947,-0.7158775761083771,0.6884728509607047,-0.08890777251404203,0.07496557544517035,0.013587462257419247,0.004221734780112097,11555.981968338856
1683559945712671756,210,1683559945712671756,camera_2,212,0,-0.14864134472800142,0.8586396930677097,4.645996837037319,-0.7159467218762773,0.6885447290802916,-0.08735731376657191,0.07546619920102678,0.020212432606058428,0.006277320102529557,11559.99889540537
1683559945718976020,211,1683559945718976020,camera_2,213,0,-0.14866643676744287,0.8589811120551688,4.6476953963565935,-0.7160533778823746,0.6885013327670422,-0.08727557186358102,0.07494297403448377,0.023093177573173307,0.007176972605701698,11553.285965432231
1683559945725616455,212,1683559945725616455,camera_2,214,0,-0.14866108475012496,0.8591395710553014,4.64858647823801,-0.7162395633234628,0.6887229569105748,-0.08456839546610738,0.07422777810805069,0.018540491073508747,0.005759570452749843,11560.43279835663
1683559945732374429,213,1683559945732374429,camera_2,215,0,-0.14864164813782,0.8586566024225103,4.646078969346229,-0.7158368725857694,0.688639395575028,-0.08710537267162312,0.0759342397105737,0.029694113269215453,0.009221775503599839,11559.266697592975
1683559945739192485,214,1683559945739192485,camera_2,216,0,-0.14870422402428707,0.8591559084868001,4.648892897563573,-0.7158803928049106,0.6888109309115806,-0.08665740350753026,0.07446649630231005,0.016101838322356343,0.005005722495138458,11550.801639565205
1683559945745636701,215,1683559945745636701,camera_2,217,0,-0.1486747191876899,0.8589151922927658,4.64754774066337,-0.7161445668984526,0.6887600537306714,-0.08533423945694024,0.07392303607845058,0.01342604555611615,0.004169799823589424,11563.615502340948
1683559945752115011,216,1683559945752115011,camera_2,218,0,-0.14871322982928092,0.8590345818032782,4.648060009632515,-0.7160617678996678,0.6887568011792476,-0.08559393606813272,0.07445328394434396,0.027416023556725122,0.00851781043009052,11558.792844910198
1683559945758798360,217,1683559945758798360,camera_2,219,0,-0.1486504325052474,0.8588662109566418,4.647262971800427,-0.7159020032722822,0.6886762097445891,-0.08754185167764394,0.07447028969602018,0.016782509359472897,0.005215377066514863,11555.728609637681
1683559945765430688,218,1683559945765430688,camera_2,220,0,-0.14870527532270683,0.8590985526100271,4.648482660826913,-0.7160333303234969,0.6888556195964973,-0.08513681467570554,0.07433658589848258,0.017720743780955672,0.005505658514525,11558.60639387125
1683559945771987915,219,1683559945771987915,camera_2,221,0,-0.14867079919239434,0.8588820405705491,4.647301402888143,-0.7160374336212031,0.6885737622668767,-0.08724118915548647,0.07446839924113269,0.01591991952227545,0.004946807060619101,11556.597520312753
1683559945778760433,220,1683559945778760433,camera_2,222,0,-0.14864950665256899,0.8588907471761432,4.647349019610762,-0.7160197886072742,0.6887377237200348,-0.08612160701723183,0.07442498943573302,0.01960830236566835,0.006090970080839838,11560.541045708609
1683559945785331964,221,1683559945785331964,camera_2,223,0,-0.14863712575161198,0.8586507631785006,4.646068711818146,-0.7160851074662595,0.6885820992770194,-0.0871525936308538,0.07403537562343877,0.014821243694314035,0.004602853320045467,11564.173865222718
1683559945791992902,222,1683559945791992902,camera_2,224,0,-0.1486303293560206,0.8589256775502273,4.647581295059517,-0.7160396017949022,0.688753318151744,-0.08651229251201613,0.07363272805400907,0.019999893429485383,0.006214045959961231,11560.094460327193
1683559945798712015,223,1683559945798712015,camera_2,225,0,-0.1486085252006804,0.8584983492089171,4.64524366942195,-0.7157457672190544,0.6885325180216658,-0.08837638735857181,0.07629274206764079,0.021317979211744387,0.006620690380257645,11557.797178984827
1683559945805345058,224,1683559945805345058,camera_2,226,0,-0.14869108220700494,0.8590228240687993,4.6480870815664925,-0.7162510023826191,0.6887170775718031,-0.08523014268144137,0.07341056753185941,0.016949762910371646,0.00526528924497042,11562.64741194119
1683559945812020301,225,1683559945812020301,camera_2,227,0,-0.1487159237850197,0.8591031471405738,4.648558106275426,-0.7159052290576235,0.6888174034566356,-0.08623495223624215,0.074658025128068,0.01100192204467021,0.0034194465013818957,11553.465458722178
1683559945818744421,226,1683559945818744421,camera_2,228,0,-0.1486207512270305,0.8583468211735237,4.644557199609877,-0.7157252786647903,0.6884957824121789,-0.08852707536079951,0.07664098126272441,0.010784608926769579,0.0033485523562354633,11559.653840683837
1683559945825356960,227,1683559945825356960,camera_2,229,0,-0.1485910707131356,0.8583420315142796,4.644515613803075,-0.7158743190567164,0.6883325672101517,-0.08908622500484666,0.07606497714027484,0.015386999264592305,0.004778182366858697,11559.380237485197
1683559945831997632,228,1683559945831997632,camera_2,230,0,-0.14858064538125296,0.8584731702221104,4.645125784399128,-0.7157999089157001,0.6885313376653316,-0.08765952489026471,0.07662176678384364,0.01873330427406472,0.005816288258147122,11560.132627588695
1683559945838698148,229,1683559945838698148,camera_2,231,0,-0.1487025010685366,0.8592376211498367,4.649293585318089,-0.7161286851609943,0.6886228848266288,-0.08584616680680884,0.07475737038723776,0.01149984535004478,0.0035748995312685204,11550.991293859468
1683559945845332145,230,1683559945845332145,camera_2,232,0,-0.14857059507214443,0.8585909049131732,4.6457089188271885,-0.7159624511834635,0.6885553010461284,-0.08761896893536977,0.07491516655087348,0.019808277662377805,0.006151611066138196,11562.030411834776
1683559945852041959,231,1683559945852041959,camera_2,233,0,-0.14864818286772388,0.8589442540140715,4.647532096271292,-0.7160952557989441,0.6889608020609147,-0.08622976787346376,0.07144945750888913,0.01747082317888271,0.005427669172815285,11566.864728152203
1683559945858751296,232,1683559945858751296,camera_2,234,0,-0.14874017093043285,0.8592529845240477,4.649487294267615,-0.7159144115677414,0.6888022671773312,-0.08820489455866726,0.07237325899030364,0.014721002422447782,0.004579958514962064,11547.625743095763
1683559945865429162,233,1683559945865429162,camera_2,235,0,-0.14861301794055234,0.8587503450408123,4.646612368861537,-0.7160097589927085,0.6885189014153763,-0.08764569968970308,0.07476616043952773,0.013091711807646789,0.004067315581346218,11557.807264610456
1683559945872091531,234,1683559945872091531,camera_2,236,0,-0.148667403039725,0.8589627170157605,4.6477921661840265,-0.7160988132173525,0.6887054522909936,-0.08611682393171642,0.0739674410079923,0.015471864011487924,0.00480705145213716,11559.556496822508
1683559945879139184,235,1683559945879139184,camera_2,237,0,-0.1486645383543656,0.8589503904981736,4.64789088427761,-0.7162156087767828,0.6886925737948701,-0.08574208253966026,0.07338961660931317,0.02112971282986109,0.006564433159903801,11561.91360093526
1683559945885413169,236,1683559945885413169,camera_2,238,0,-0.14868911008068725,0.8587556517696908,4.646649783223355,-0.7158539546065649,0.6885595100874582,-0.08733068195390119,0.07623823667772105,0.021003467383707175,0.0065246438725726705,11554.719825489872
1683559945892071962,237,1683559945892071962,camera_2,239,0,-0.14858526792751592,0.8585166479537011,4.645310448830312,-0.7158161383390625,0.6885858248567124,-0.08757183897345548,0.07607884672207217,0.019284058624180034,0.005987670876369556,11561.022823710702
1683559945898780345,238,1683559945898780345,camera_2,240,0,-0.14865051846352192,0.8589500097404652,4.64762135483217,-0.7161066077762169,0.6884712252237984,-0.08640740220766102,0.07571300536766937,0.015161733816057676,0.00471069521662078,11554.752532373532
1683559945905533075,239,1683559945905533075,camera_2,241,0,-0.1486930286261984,0.8589386022134,4.647690163093201,-0.716044936015222,0.688597361560334,-0.08751680283180806,0.07385209869192284,0.009533524302241858,0.002963054599607344,11555.239927487914
1683559945912061214,240,1683559945912061214,camera_2,242,0,-0.148601215589069,0.8585134731326691,4.645252204771787,-0.7159540540096693,0.6886322301749653,-0.08699746416202381,0.07501256788532795,0.02945198737506871,0.009142644762648143,11566.22806926475
1683559945918736457,241,1683559945918736457,camera_2,243,0,-0.1486382813409836,0.8588279267426671,4.647039436324654,-0.7159061413253318,0.6886448344882848,-0.08727346853045033,0.07503352874509683,0.015494740655412897,0.004814290514701967,11556.326734412578
1683559945925642251,242,1683559945925642251,camera_2,244,0,-0.14867526057202313,0.8589254810978051,4.647541099023478,-0.7160156057409985,0.6886431279527834,-0.08803687833406125,0.07308763720323115,0.0149246145010693,0.004639191991132071,11556.09729143414
1683559945932221412,243,1683559945932221412,camera_2,245,0,-0.14860414989943407,0.8586363035106441,4.645901861596032,-0.716018029970365,0.6883754417259058,-0.08766876579047903,0.07597117539432784,0.021058400572655955,0.006540538201344242,11558.038824620216
1683559945938862085,244,1683559945938862085,camera_2,246,0,-0.14869430677691858,0.8590637104918292,4.648407650154654,-0.7160913805392312,0.6887131811586796,-0.08661832961559325,0.07337951887491757,0.012065925868228078,0.003750395424947019,11556.207915126339
1683559945945382356,245,1683559945945382356,camera_2,247,0,-0.14871397492041116,0.8592048247158707,4.649079938143551,-0.7160462106000512,0.6889788991139894,-0.08643162422144089,0.07152255025812497,0.012823293516703416,0.003986639029912625,11558.225356542049
1683559945952050924,246,1683559945952050924,camera_2,248,0,-0.1486485579230113,0.8587675538966303,4.646823342197073,-0.7155830032121197,0.6888843870357535,-0.08834290915918866,0.07466456464474419,0.015164025975536788,0.004712398350912991,11554.39145923014
1683559945958710670,247,1683559945958710670,camera_2,249,0,-0.1486298246457244,0.8585550201083109,4.6456600866161475,-0.7159583037005635,0.6885245295778737,-0.08737507931082163,0.0755200307680522,0.015666927389247576,0.004864920150355735,11561.453890951634
1683559945965411424,248,1683559945965411424,camera_2,250,0,-0.14867567485110353,0.8590126027712898,4.648061109462004,-0.716075998671433,0.6887787595246461,-0.08584145865605294,0.07382566308676732,0.019089125828031683,0.005930929484175413,11559.554338116823
1683559945972110748,249,1683559945972110748,camera_2,251,0,-0.14864018402230725,0.8587303743859376,4.646351539631446,-0.7160514980474361,0.6884489526819189,-0.08706410502147757,0.07568443242834709,0.017788593821023824,0.00552490484626034,11558.731522803195
1683559945978739738,250,1683559945978739738,camera_2,252,0,-0.14869849583943562,0.8590108548274807,4.647985262591087,-0.7161349289519297,0.6887594094885535,-0.08642824308742597,0.07274199731114338,0.01360672977170907,0.004228151262239421,11560.579634500029
1683559945985334873,251,1683559945985334873,camera_2,253,0,-0.14855554515369884,0.8583836896913309,4.644584218828774,-0.7156653444442279,0.6885199308459203,-0.08995397724948323,0.07531070021220926,0.023090841415978502,0.0071728292459096645,11557.888914105022
1683559945992034912,252,1683559945992034912,camera_2,254,0,-0.14864183052442662,0.8588458409654973,4.647116329424639,-0.7157429570667869,0.6889058025908237,-0.08689120097484662,0.07463734828578615,0.01628055483888602,0.005057908100716009,11558.354203743656
1683559945998692035,253,1683559945998692035,camera_2,255,0,-0.1486836647993357,0.859011956770022,4.647973912864032,-0.7162276089311806,0.6885929834089524,-0.08486097100292418,0.0752085833208094,0.020527864649920957,0.006375922468618843,11559.823752120368
1683559946005380392,254,1683559946005380392,camera_2,256,0,-0.14871482094058247,0.8591487913081819,4.648742091288853,-0.7159829824540669,0.6888875308210005,-0.086461354963938,0.07298474370253456,0.01477740888367407,0.0045934234473871,11556.07980278632
1683559946012092828,255,1683559946012092828,camera_2,257,0,-0.1486306501713891,0.8586117371530044,4.645805709913936,-0.7159719264465485,0.6885055943854255,-0.08850100415881303,0.07424162783285247,0.032824691697896924,0.01019724494204897,11560.03769238923
1683559946019113779,256,1683559946019113779,camera_2,258,0,-0.14868495302933799,0.8590794524798882,4.6483468181186,-0.7161434678415844,0.6887028989435864,-0.08646507307973415,0.07314807989172506,0.017981050859816605,0.005588350876337724,11557.650344040183
