%time,field.header.seq,field.header.stamp,field.header.frame_id,field.image_seq,field.transforms0.fiducial_id,field.transforms0.transform.translation.x,field.transforms0.transform.translation.y,field.transforms0.transform.translation.z,field.transforms0.transform.rotation.x,field.transforms0.transform.rotation.y,field.transforms0.transform.rotation.z,field.transforms0.transform.rotation.w,field.transforms0.image_error,field.transforms0.object_error,field.transforms0.fiducial_area
1684748099430102109,0,1684748099430102109,camera_1,1,0,-0.9271092593612464,-0.1052312680773791,1.8894159292687422,0.9742463226934727,-0.05509362581229456,0.2172794271002792,0.02446314926731684,0.0004925328103126958,0.0005930395912543518,2368.808110610349
1684748099450144529,1,1684748099450144529,camera_1,3,0,-0.9274160264572087,-0.1052583287136429,1.8900598341418562,0.9742525047520744,-0.05524940530343597,0.2172797356227932,0.023855328243709464,0.00033697533945087343,0.0004061148987484648,2367.4576255532447
1684748099460121393,2,1684748099460121393,camera_1,4,0,-0.9269979505653919,-0.10521017952726733,1.8891937019162044,0.9742890016107983,-0.055411385045192725,0.2171122691941101,0.02351132308041123,5.778696504421532e-06,6.958545091811014e-06,2370.139929941971
1684748099469991683,3,1684748099469991683,camera_1,5,0,-0.9268707520361483,-0.1052005595296858,1.8889516759029,0.9742002768279581,-0.05541536768979456,0.21743992908355086,0.024141973661555245,0.0007410235848510638,0.0008919962430382323,2369.7376691198438
1684748099480094194,4,1684748099480094194,camera_1,6,0,-0.9273541668065787,-0.10525632283361744,1.8899491122078267,0.974294098121636,-0.055124326815602545,0.21700280532998828,0.024941961378164467,0.0002463646524120122,0.0002967130970691661,2367.9700730417385
1684748099489863395,5,1684748099489863395,camera_1,7,0,-0.9271423073069418,-0.10523250516670625,1.889499613720643,0.9742207782762122,-0.05523840407201432,0.2172874224138804,0.025075285665374755,0.0004528317367658019,0.0005451630105908723,2368.3470650517856
1684748099499787330,6,1684748099499787330,camera_1,8,0,-0.926593126451616,-0.10516675100790006,1.8883385505998624,0.9742908046855071,-0.05519190199693106,0.21694266040425556,0.02543941736660073,0.00014750170521438122,0.00017730840585590942,2371.8942919328106
1684748099509755373,7,1684748099509755373,camera_1,9,0,-0.9266663347418695,-0.10518275996148974,1.8885138350693946,0.9741293137060676,-0.055337530120864405,0.21779123731554148,0.024016970817184624,0.0012016208202112466,0.0014460405412335495,2370.0366014821916
1684748099519827365,8,1684748099519827365,camera_1,10,0,-0.9272875080279394,-0.10525114912600186,1.889757409585064,0.9744560657696716,-0.05526363367953806,0.2163185138473915,0.02424061146265207,0.00025065628869924694,0.00030182640897037253,2370.2878130436875
1684748099529945135,9,1684748099529945135,camera_1,11,0,-0.9272297682226911,-0.10524637931390124,1.8896566806396202,0.9746166724800759,-0.055408117247970935,0.21552414164920214,0.02452807846682175,0.0009507901850156485,0.0011442783040699997,2372.305109431967
1684748099540142774,10,1684748099540142774,camera_1,12,0,-0.9280647690899022,-0.10534959495242523,1.8913480874779849,0.9747722434009713,-0.05557455606590786,0.21483772993514788,0.023985245661183215,0.0011447555152699351,0.0013801120808908695,2369.8642083916347
1684748099550354957,11,1684748099550354957,camera_1,13,0,-0.9271140937944958,-0.10522861049989592,1.889400331164417,0.9743554525877798,-0.055330121912419074,0.21661508140511243,0.02545458955622943,1.7050610040314496e-05,2.0516545735970294e-05,2369.992995292413
1684748099560381174,12,1684748099560381174,camera_1,14,0,-0.9268916634224268,-0.10520759151364198,1.8889314469158385,0.9742691106854843,-0.05546368844085587,0.21706392141312994,0.02463195585831501,0.00039662839844822884,0.00047726764909399277,2370.4248808901757
1684748099569939374,13,1684748099569939374,camera_1,15,0,-0.9273348342758244,-0.10525823998535187,1.8898072035498754,0.9745155044353216,-0.05515424503754976,0.21606113823586956,0.02439519243065894,6.959990423638374e-05,8.379861202724041e-05,2370.668160170316
1684748099579838514,14,1684748099579838514,camera_1,16,0,-0.9279955149097358,-0.10532941581707343,1.8911534336446716,0.9749255922424027,-0.055988066620793496,0.21403383519714603,0.023977976930236195,0.00011240469757467508,0.000135449466457853,2372.173116622959
1684748099589973926,15,1684748099589973926,camera_1,17,0,-0.9273513420622274,-0.10525064492769759,1.889818313634196,-0.9743232157245376,0.055351243872471596,-0.21673326448151287,-0.02563597412139696,0.00039128227217588574,0.00047102359029427054,2368.5462609806564
1684748099600039482,16,1684748099600039482,camera_1,18,0,-0.9268732966034979,-0.10519960404004197,1.8888213996564296,0.9742142434813129,-0.055581259419714354,0.21725420549362867,0.02485843106037894,0.0005337719485396519,0.0006422329179181328,2370.0986043084413
1684748099610011816,17,1684748099610011816,camera_1,19,0,-0.9275372331750424,-0.10527925163782129,1.8901739295203508,0.9747992268955882,-0.05520289136251867,0.21474543832649767,0.024566333608053055,0.0006819712725700811,0.0008209357340454217,2372.7208296044255
1684748099619865655,18,1684748099619865655,camera_1,20,0,-0.9282176643825245,-0.10535966808389613,1.891539966469453,0.9748063194385892,-0.055245236701001246,0.21449703625872132,0.026298761200229653,0.0008936593221733347,0.0010764971285189824,2369.1536934664464
1684748099630066394,19,1684748099630066394,camera_1,21,0,-0.9277840410844548,-0.10531500065436131,1.8906427928055527,0.9748442578495549,-0.055389564220916246,0.2143548134974482,0.025742630860925365,0.0004254182567819953,0.0005120558333651678,2371.946734670781
1684748099639986276,20,1684748099639986276,camera_1,22,0,-0.9276131116226491,-0.105292818498537,1.8902729323727299,0.9747953727680163,-0.05567168807753856,0.21438101230883327,0.026747447319348413,0.0007770421216264367,0.0009346117860719141,2372.3696863243817
1684748099649943828,21,1684748099649943828,camera_1,23,0,-0.9283090002696311,-0.10537874166661054,1.8916977612113794,0.9747306275716509,-0.05573926291667328,0.21472127720697476,0.0262318767511424,0.00168366011348553,0.002028832140939664,2368.2181620547785
1684748099660296440,22,1684748099660296440,camera_1,24,0,-0.927711550634976,-0.10531173351601458,1.8904620550673041,0.9746554894346418,-0.05577304218264277,0.2148485601601454,0.027859305047405324,0.0025189879233948886,0.003029754403358641,2370.312004002859
1684748099670347690,23,1684748099670347690,camera_1,25,0,-0.9279807014270381,-0.10533913860853672,1.8909799074004008,0.9748334946577621,-0.0558851668255367,0.2139964633583157,0.027964611428550733,0.0013705961755476892,0.0016488075310409438,2370.924162804032
1684748099680513858,24,1684748099680513858,camera_1,26,0,-0.9277794960815902,-0.1053107568642895,1.8905519867705547,0.9748065332800863,-0.05601192843619831,0.21419039588267885,0.02715438931258811,0.0005014962662244216,0.0006032616650569918,2371.873315408244
1684748099690768241,25,1684748099690768241,camera_1,27,0,-0.9265442921000426,-0.10517867454077308,1.8880098596320871,0.9743189433977798,-0.056244682523950484,0.2163506851212291,0.027046502021313906,0.0007285122410394251,0.0008748208698495595,2373.207663913955
1684748099700826883,26,1684748099700826883,camera_1,28,0,-0.9268644334133217,-0.10520561445899984,1.8886526810666582,0.9744236734137035,-0.05613442831168888,0.21584881831319136,0.027508512898063886,0.0026934352645184845,0.003235328270049316,2372.5772624153183
1684748099710941791,27,1684748099710941791,camera_1,29,0,-0.9281634083517909,-0.10535744476717604,1.8912940456744722,0.9747932387652624,-0.05634310194366111,0.21399420799133412,0.028461824731702216,0.0010907225660048425,0.001312395178461506,2369.8608153029354
1684748099720841407,28,1684748099720841407,camera_1,30,0,-0.9267112952851149,-0.10518497842604184,1.8882613381844802,0.974157178558201,-0.05671815986141543,0.21676812077809754,0.028503045798518162,0.0006451974331866951,0.0007747353328628249,2370.8734073333917
1684748099730704784,29,1684748099730704784,camera_1,31,0,-0.927474578406538,-0.10528097118073798,1.8898400007718517,0.9747227129002217,-0.05671543552592146,0.21413823291307343,0.029048399859601025,0.001242404934600927,0.001492440492656938,2372.85869388876
1684748099741270065,30,1684748099741270065,camera_1,32,0,-0.9264726034685746,-0.10516330526961025,1.887763281640518,0.9741193559095527,-0.056609222002691605,0.2168694164431134,0.029232390224404475,0.0017829204152803868,0.0021392289974816853,2371.5601413887935
1684748099751029253,31,1684748099751029253,camera_1,33,0,-0.9284354150812653,-0.10538210692206933,1.8917224236920442,0.9748948399140493,-0.05681707574142764,0.21316767341570173,0.03018963437489468,0.0014973428915254772,0.0018008612615646633,2369.8143476987025
1684748099760001897,32,1684748099760001897,camera_1,34,0,-0.9270081614907002,-0.10521820701232822,1.8888071378795124,0.974280536420128,-0.05700871852261535,0.21587437984822166,0.03042522786212998,0.0002765112003544346,0.0003318709076676974,2370.6899715515324
1684748099769934654,33,1684748099769934654,camera_1,35,0,-0.9271310413109503,-0.10524445067318042,1.8890226590990242,0.9745136888183699,-0.0570267796129981,0.21488339511240015,0.029935651279907934,0.0025656122888904065,0.0030793838374318936,2372.656833536108
1684748099780130624,34,1684748099780130624,camera_1,36,0,-0.9272135366546017,-0.10525269768672366,1.8891791144511454,0.9744143255114126,-0.057337275600355384,0.21517800126486986,0.030456310290703944,0.002840750210452825,0.0034100434307128328,2371.317573421751
1684748099790696859,35,1684748099790696859,camera_1,37,0,-0.9267589819076738,-0.10519731756683534,1.8882413820922905,0.9744034608642008,-0.056997302619667393,0.21542585117231847,0.029680053851564674,0.0015565236244583502,0.0018672611879196029,2373.447897216654
1684748099800176620,36,1684748099800176620,camera_1,38,0,-0.9269920892330719,-0.10522671399606656,1.8886532313297617,0.9741649239580431,-0.057518118470933,0.2161709219448753,0.03105639198114208,0.0002586916816653684,0.00031042003516703183,2369.964676668168
1684748099810307979,37,1684748099810307979,camera_1,39,0,-0.9263314627492247,-0.10514953183253911,1.887285278239559,0.9741155277230341,-0.057595534275781644,0.21646365129878428,0.030416783964786472,0.0008712309354450554,0.001044327460652066,2372.985075062023
1684748099820537567,38,1684748099820537567,camera_1,40,0,-0.9266542009451434,-0.10518966200522042,1.887924160943303,0.9743119992111303,-0.05745148241196165,0.21538951833579836,0.03198141261657151,0.0010325706243747845,0.0012372870119036154,2373.161522582407
1684748099830564498,39,1684748099830564498,camera_1,41,0,-0.9265055165904325,-0.10516183784727086,1.8875768257902588,0.9740894988297127,-0.05714355948547288,0.21656446415897343,0.03137028438739725,0.0014330393460113555,0.0017176979120101976,2371.5253112639757
1684748099841019868,40,1684748099841019868,camera_1,42,0,-0.9272280340730124,-0.10524407098188678,1.888996985441113,0.9744861374384299,-0.05765619355907418,0.21461480606914282,0.03151216115267991,0.0003451349912211299,0.0004139955109795207,2372.414000367281
1684748099850858688,41,1684748099850858688,camera_1,43,0,-0.926086969030374,-0.1051231043726716,1.8866223980695105,0.9739623229729852,-0.05739400983670888,0.2170446187411058,0.03154289998491491,0.00038700856384821236,0.00046349347548921033,2372.6048092114497
1684748099861438751,42,1684748099861438751,camera_1,44,0,-0.9259930861482228,-0.1051094409119576,1.886439102264399,0.9738428017247277,-0.05760448824495421,0.21749728219950354,0.03173094229296127,1.8089747754856944e-05,2.166339792063998e-05,2371.9117549024527
1684748099870739459,43,1684748099870739459,camera_1,45,0,-0.9269277080913644,-0.10521584654838703,1.8883190818868956,0.974172610535548,-0.05751192526912139,0.21592185089537477,0.032524723520888386,0.0007295726827578619,0.0008746364735911776,2370.509164889576
1684748099880574703,44,1684748099880574703,camera_1,46,0,-0.9257833158877002,-0.10508047412536595,1.8859781641773588,0.9736618351547625,-0.05742383512561473,0.21847618697945542,0.03087538899260125,0.0003135756851406768,0.00037560751917477313,2371.120909480844
1684748099890277147,45,1684748099890277147,camera_1,47,0,-0.9270281608012485,-0.10521030081803673,1.8884697966528565,0.9741102338406687,-0.057539297772362434,0.2163771691683507,0.031295402241096316,0.0008090687624644488,0.0009707271982848926,2369.603844965808
1684748099900467157,46,1684748099900467157,camera_1,48,0,-0.925648303217324,-0.1050592684575789,1.8856809065128066,0.9735342590352714,-0.0574754622493738,0.21903079936901126,0.03087274933720669,0.00041294249240309,0.0004945928158773502,2370.5255899822805
1684748099910591840,47,1684748099910591840,camera_1,49,0,-0.9256337017116286,-0.10505267724408411,1.88562820375011,0.9735612949257031,-0.05727896588163723,0.21888866481116095,0.03138913040059798,0.00010400144674349575,0.00012452424724392953,2370.74744934379
1684748099920358657,48,1684748099920358657,camera_1,50,0,-0.9262794734364258,-0.105144899487716,1.8869745669682356,0.9738689092660756,-0.05748665062496287,0.21737036740816965,0.03201180934694124,0.0012235870963195339,0.0014659211676111064,2370.6947825383395
1684748099930290699,49,1684748099930290699,camera_1,51,0,-0.9265470526291905,-0.10516278650766975,1.8875188564229892,-0.9740577008180462,0.05730457843609691,-0.2166799438376175,-0.03126631903262022,0.0005387021519709378,0.0006457461818754701,2371.323618290829
1684748099940279483,50,1684748099940279483,camera_1,52,0,-0.9262410515225512,-0.10513893428164112,1.8869130343259857,0.9738658842063889,-0.057136894005504084,0.21743102044306226,0.032316656253405254,0.001079189489246346,0.001292673276112185,2370.5818712349283
1684748099949889898,51,1684748099949889898,camera_1,53,0,-0.9266334335252081,-0.1051722977919613,1.8877363460325878,0.9738434979985201,-0.05746567206523694,0.21753440621874595,0.031706782415670605,0.00032896130869630724,0.0003944947981863982,2368.584540684009
1684748099959815025,52,1684748099959815025,camera_1,54,0,-0.9268068494428598,-0.10520361093706931,1.8880959815047604,0.9740491678217439,-0.05755767558230837,0.21640890981625077,0.03290161697351417,0.0010076655307784677,0.0012078023876760983,2369.7510979326908
1684748099970166683,53,1684748099970166683,camera_1,55,0,-0.9272311164504576,-0.10523998156402184,1.888990098084987,0.9742493670472155,-0.05742505106243133,0.2157741509954595,0.03133767829252474,0.00024322335957549512,0.000291894461574746,2369.8007037017965
1684748099980314254,54,1684748099980314254,camera_1,56,0,-0.9271515522787426,-0.10524306356978809,1.8888188378612314,0.9742591576952441,-0.05734059258992337,0.21575718145451406,0.03130477182785304,0.00014563070726580918,0.0001747412209805059,2370.265542917187
1684748099990221023,55,1684748099990221023,camera_1,57,0,-0.9265221687591499,-0.10516805328209253,1.8875456070100964,0.9739683874812249,-0.05747082016303032,0.2171048819165459,0.030792129920056536,0.0010429044777993113,0.0012506290769092353,2370.524031924084
1684748100000282764,56,1684748100000282764,camera_1,58,0,-0.9272108350264435,-0.10524515445028987,1.8889623963026716,0.9741730678112731,-0.057574240269433676,0.2160124989711066,0.031790581888790796,0.0006745012651663274,0.000809407349223115,2369.0939150222125
1684748100010227918,57,1684748100010227918,camera_1,59,0,-0.9271284405137571,-0.10524207766122934,1.888839276660705,0.9741942109622065,-0.057151979843285704,0.21588312610993315,0.03276837482572841,0.0011958562099607661,0.001434176115274997,2369.28708164033
1684748100020541191,58,1684748100020541191,camera_1,60,0,-0.927205585293028,-0.1052300017519226,1.8890070177193665,0.9741762979743291,-0.05759602700169987,0.2160309140177728,0.03152589930986883,0.00014291016850620508,0.000171516893543012,2369.1221587096798
1684748100030902862,59,1684748100030902862,camera_1,61,0,-0.9267222646153201,-0.10519408452634275,1.8880365210663836,0.974026720943548,-0.057022718018495275,0.21688623749527006,0.03131639351662377,0.00011583624291233718,0.0001389300382925584,2369.657440509181
1684748100041095495,60,1684748100041095495,camera_1,62,0,-0.9267491734081607,-0.10518816903736493,1.8881313249184457,0.9741429239228372,-0.057154596511177595,0.21635065465160935,0.031165848304351658,0.0006673238531220704,0.0008003296603187679,2370.784782310716
1684748100050239086,61,1684748100050239086,camera_1,63,0,-0.9267885446765751,-0.1051929036929976,1.888220648671678,0.9741315700515857,-0.057270766443760925,0.21643077767296975,0.030748366064725894,0.00022582478413823992,0.0002709123386354226,2370.5756927751936
1684748100059909105,62,1684748100059909105,camera_1,64,0,-0.9268154008625448,-0.10520283233021535,1.8882888703718403,0.9741295129870843,-0.057154029293998834,0.21634539853888016,0.03161925669682886,0.0008434193587163463,0.0010115096805235725,2370.208902911284
1684748100069810867,63,1684748100069810867,camera_1,65,0,-0.9267536258112957,-0.10519046044468772,1.8881757359173783,0.9742854596200755,-0.057743710293167515,0.2155125295924248,0.03143018745013957,0.0014853110915282741,0.0017807478368666234,2372.544680023566
1684748100080077409,64,1684748100080077409,camera_1,66,0,-0.9263227372047402,-0.10514449334458992,1.8873080008360106,0.9743319064531707,-0.05736540793765212,0.21543535944946218,0.03121140718323774,0.000386927233194001,0.00046346788913485067,2375.015785627883
1684748100090148448,65,1684748100090148448,camera_1,67,0,-0.9277675156242065,-0.10531442630688703,1.890302821711691,0.9746982899695961,-0.05703967405982813,0.21406395663126046,0.02977148946330657,0.0027651509881252423,0.0033225209955377952,2371.415402998914
1684748100100024223,66,1684748100100024223,camera_1,68,0,-0.926848775937969,-0.10521042696737365,1.8884300402806302,0.9743363807911273,-0.0568315112638361,0.21578612415090032,0.029582850069732353,0.0007777832943247631,0.0009333915475809459,2372.178871737443
1684748100110502719,67,1684748100110502719,camera_1,69,0,-0.9274074142352896,-0.10526636114902427,1.889592203655593,0.9746182497284915,-0.057281557865873106,0.2143082036582711,0.030167602977288325,0.003125435294350609,0.003752457904522224,2372.477021450644
1684748100120375871,68,1684748100120375871,camera_1,70,0,-0.9275604249145646,-0.10528175757875774,1.8899099304819893,0.9746298886431886,-0.056786412570917426,0.21451082467409235,0.029274384849771417,0.0007833604468032718,0.0009411737824445432,2371.6233573120558
1684748100130286693,69,1684748100130286693,camera_1,71,0,-0.926977239330595,-0.10521088266831957,1.888739965842751,0.9744864327144567,-0.05650716516666941,0.21526266134548053,0.02907093687414248,0.0013959087227704003,0.0016756179728660277,2372.9284516497273
1684748100140436172,70,1684748100140436172,camera_1,72,0,-0.9275095115157597,-0.10528585112628314,1.8898172118592187,0.9746112875933467,-0.056700078306544235,0.21459659078967797,0.02943199682519145,0.0012196908646728843,0.0014652086357325141,2371.5939237225093
1684748100150377988,71,1684748100150377988,camera_1,73,0,-0.927049314612588,-0.10522658096774215,1.8888784700251122,0.9744701679969201,-0.05706085094526301,0.2151479544212937,0.029382114998577926,0.0008961488056229427,0.001075769739995278,2372.673481954378
1684748100160627603,72,1684748100160627603,camera_1,74,0,-0.92713022085175,-0.1052312092106684,1.8890747745658938,0.9743880941366931,-0.057113591002466685,0.21541034184580934,0.03007098856601677,0.000772652929299511,0.0009275678446670778,2371.282847258728
1684748100170963287,73,1684748100170963287,camera_1,75,0,-0.9262622626571839,-0.10515252441119075,1.8872725756115232,0.9741375673888165,-0.05658063167021632,0.2167900648127979,0.0292694332036257,0.0014011365856276825,0.0016802250879807213,2372.889426242212
1684748100180999279,74,1684748100180999279,camera_1,76,0,-0.9275660754099522,-0.10529494929955983,1.8899568515488727,0.9747690019979289,-0.05684449270802799,0.2139729572993611,0.02845469974001662,0.0031832736276555806,0.003825126775606916,2373.146578924847
1684748100191439867,75,1684748100191439867,camera_1,77,0,-0.9278850548171815,-0.10533056194213566,1.8906047617624144,0.9748463224994527,-0.05651950610694657,0.21354971287783608,0.029609340899680286,0.0006114793504821137,0.0007348044519745233,2371.9973374038236
1684748100201187133,76,1684748100201187133,camera_1,78,0,-0.9271878373873171,-0.10524248485260272,1.889223066124173,0.9746376838512293,-0.05630336551253979,0.21453463137658366,0.02976924905310752,0.00136539748928044,0.0016388790793518309,2373.1441052580494
1684748100211053609,77,1684748100211053609,camera_1,79,0,-0.9280066524115737,-0.10534671358479297,1.8908684960494615,0.9748543852260201,-0.0565558829384752,0.21346814417968932,0.02986153263192597,0.0022000030876370147,0.0026441428847683987,2371.4126524078874
1684748100221238374,78,1684748100221238374,camera_1,80,0,-0.9271642259582257,-0.10523323261287532,1.8891898311051176,0.9743365295752123,-0.0566314292017558,0.21615800149708703,0.027146394800840645,0.00023493223125115037,0.00028244819719811887,2370.589215545798
1684748100230926990,79,1684748100230926990,camera_1,81,0,-0.927170636917631,-0.10524327814777404,1.889187824760667,0.9743079749514527,-0.05662640388587251,0.2160101378025597,0.029275257393792956,0.0018404306028969586,0.002210772222434315,2369.9879011813323
1684748100241073608,80,1684748100241073608,camera_1,82,0,-0.9271893364821666,-0.10525433918523475,1.8892569257037788,0.974439381540392,-0.05641305239553001,0.2155898404978977,0.02839858969541712,0.0010718515404732898,0.0012877994502707819,2371.2135144184576
1684748100250767707,81,1684748100250767707,camera_1,83,0,-0.9268134423512264,-0.10518974113970239,1.8885083492528822,0.9742138103171923,-0.055934142267128534,0.2168730592180352,0.027292850739869843,0.00014278160233516246,0.00017156255798286688,2370.601019780617
1684748100260284662,82,1684748100260284662,camera_1,84,0,-0.9283995447351934,-0.10539026166001988,1.8917546090107258,0.9749073423497548,-0.05609893708823146,0.21352365954310745,0.028569737580657444,0.0013031108683208001,0.0015683171340348436,2369.7410532800704
1684748100270391225,83,1684748100270391225,camera_1,85,0,-0.9275543508288806,-0.1052952383235154,1.8900349197454278,0.9746025317213243,-0.05639272518738751,0.2148479971495494,0.028462322975329787,0.0018098511500284076,0.002175546213734071,2371.0078901615916
1684748100280840158,84,1684748100280840158,camera_1,86,0,-0.9265247978615284,-0.10516858466316803,1.8879077548986338,0.9740536292281823,-0.056653088652266044,0.21717850703975583,0.02904222810921855,0.000997447787085548,0.0011972009205070307,2370.574624394998
1684748100290966272,85,1684748100290966272,camera_1,87,0,-0.9280176110073886,-0.10533254358843112,1.890969139582905,0.9746702013159518,-0.056518486340562536,0.21438682696685302,0.029358947385396655,0.003324135861475952,0.003997687811069546,2369.3531068384173
1684748100300731182,86,1684748100300731182,camera_1,88,0,-0.9273418324461808,-0.10526012131236892,1.8895971685925907,0.9745419295880945,-0.056324545462724196,0.21510742865741816,0.02871179530306468,0.00037813663948327303,0.00045432844055358503,2371.3971342855366
1684748100310702085,87,1684748100310702085,camera_1,89,0,-0.9280100920064923,-0.10533656632732794,1.8909474272382059,0.9745587571928818,-0.05614717560355905,0.2149673740037985,0.029525439273957437,0.000422812721808441,0.0005085409926941845,2367.9708148810323
1684748100320729017,88,1684748100320729017,camera_1,90,0,-0.9277231784564901,-0.10531056878812907,1.890373028752423,0.9744136818836351,-0.0563066360165026,0.215760216957205,0.02819695155620543,0.002358547440962866,0.0028374437454901716,2368.139162201434
1684748100330261945,89,1684748100330261945,camera_1,91,0,-0.9277087307361047,-0.10530013803402327,1.8903284494805934,0.9745387882859219,-0.05642922964638601,0.21514009091701777,0.028366061551440162,0.0021671871800208464,0.0026063264119642387,2369.6183558492917
1684748100340322494,90,1684748100340322494,camera_1,92,0,-0.927154915906492,-0.10524758659755487,1.8891640323050005,0.974454207852998,-0.05647187247837059,0.21547683190278422,0.02862969314386573,0.002202723204391077,0.0026459452580243313,2371.585806425195
1684748100350421667,91,1684748100350421667,camera_1,93,0,-0.9277207598088943,-0.10530754207605425,1.8903477886691202,0.9745132214983769,-0.05678887919279892,0.21517010533942335,0.028298941554455916,0.0023209821665659547,0.0027915374371695555,2369.5170016392367
1684748100360471487,92,1684748100360471487,camera_1,94,0,-0.9286957193136949,-0.10541725954975704,1.8923411898292755,0.9749388568038238,-0.056243514314184076,0.21327864449787426,0.029036397724113518,0.001371731879771687,0.0016515086744992736,2368.619917832083
1684748100370542764,93,1684748100370542764,camera_1,95,0,-0.9274665932792785,-0.10528221698265053,1.8898382533543245,0.9744980604303457,-0.05621972987370988,0.21533695502581693,0.028685675704625078,0.0025440941972192377,0.003057826689601895,2370.2488600339275
1684748100380470037,94,1684748100380470037,camera_1,96,0,-0.9269947263476416,-0.10521915998572977,1.888850420028232,0.9742442927727547,-0.05647607941624363,0.21642842833881784,0.028587512313495458,0.00030087155755609274,0.00036143051431817744,2370.1763301336914
1684748100390351772,95,1684748100390351772,camera_1,97,0,-0.927640565821709,-0.10530945122969354,1.8901785223658811,0.974631107859078,-0.056221528531106964,0.2147420040592565,0.028621932422995253,0.0019336732802912593,0.0023244926401053095,2370.791777858045
1684748100400288343,96,1684748100400288343,camera_1,98,0,-0.9276972739234415,-0.1053121535266823,1.8902888558064728,0.9745822542453305,-0.05650612323018744,0.2149443255859523,0.02820327367496328,0.0030691726715303957,0.0036909117400725925,2370.223759971909
1684748100410534143,97,1684748100410534143,camera_1,99,0,-0.9282047022482715,-0.10535542723334233,1.8913344915536712,0.9747822734214394,-0.05652888907371334,0.21395651711667918,0.02875087662528268,0.0023529478639829904,0.0028309922963368804,2369.6893986149225
1684748100420483827,98,1684748100420483827,camera_1,100,0,-0.9272105812839245,-0.10524428623462448,1.8892535313389354,0.9742720696867626,-0.05648700005359224,0.21619839640434363,0.0293497264963058,0.00034161761868745083,0.0004104005694026174,2369.3383751262445
1684748100430614948,99,1684748100430614948,camera_1,101,0,-0.927776968811967,-0.10530528087658542,1.890449102858645,0.9746906871886228,-0.056401326108357054,0.21450234292773046,0.028030333560333104,0.000426784812589176,0.0005132570501055577,2370.943085293985
1684748100440974473,100,1684748100440974473,camera_1,102,0,-0.9274542312610818,-0.10525193320657732,1.8897828881834866,0.9745605226493129,-0.0567942800377672,0.21488882513364327,0.02879219132286192,0.0017804072267608717,0.002139449066594504,2371.373302351449
1684748100450924873,101,1684748100450924873,camera_1,103,0,-0.9271955994487955,-0.10523540065357355,1.8892175283386103,0.9744093269284851,-0.05639260486595892,0.21560588177727605,0.029333282364094722,0.0007789246301399544,0.0009354986500487556,2370.831049886998
1684748100460684776,102,1684748100460684776,camera_1,104,0,-0.9274709490113066,-0.10527567794014354,1.8897882025534405,0.9744193114788443,-0.056579043547720004,0.21558968050024918,0.028755989117411396,0.0006302350957412273,0.0007575473904316963,2369.696856511291
1684748100470594406,103,1684748100470594406,camera_1,105,0,-0.9261823355274361,-0.1051299172743985,1.887153927855499,0.9741969086309277,-0.05657222026355108,0.21642983541592167,0.029968207324317982,0.002955384145025164,0.0035421228902241995,2373.779994701967
1684748100479959249,104,1684748100479959249,camera_1,106,0,-0.9266204696562271,-0.10518180715253017,1.8880231803771819,0.9740581857749285,-0.05692017598565619,0.21695181409557146,0.030044211609851847,0.0007968082936713472,0.0009560880422974464,2370.294503514539
1684748100490368843,105,1684748100490368843,camera_1,107,0,-0.9270296008142516,-0.1052156517884291,1.8888566595879328,0.9743221561508539,-0.05648192910792212,0.21600040633047546,0.02915393940564737,0.0006581064808415249,0.0007902831608755903,2370.868101184373
1684748100500619173,106,1684748100500619173,camera_1,108,0,-0.9267568415266781,-0.10519019381813427,1.8882918341904285,0.9741704195552565,-0.056785194319344624,0.2165305549438099,0.02969771279704409,0.0013800705928588286,0.0016563338928403063,2370.773339966313
1684748100510848283,107,1684748100510848283,camera_1,109,0,-0.927583972637434,-0.10529839713812085,1.8899870100585194,0.9745955153759351,-0.05618444275362319,0.21482805746648426,0.029253983092172437,0.0011391505831852555,0.0013688446277017154,2370.7307524848734
1684748100520766496,108,1684748100520766496,camera_1,110,0,-0.9266031927392733,-0.10517739229883646,1.8879854910053608,0.974304513657281,-0.056651134866268035,0.21595861438107866,0.029719361702730113,0.001344982418231666,0.0016132905613690607,2372.8838235920985
1684748100530724763,109,1684748100530724763,camera_1,111,0,-0.9265718192299056,-0.10517669170136344,1.887881769881861,0.9741355502389756,-0.05678831187340209,0.2167179693886254,0.02946759473130422,0.0007577298383694142,0.000909167630639472,2371.434973820345
1684748100540693283,110,1684748100540693283,camera_1,112,0,-0.9265822416677444,-0.10516938500102241,1.8879049513753978,0.9741896810230943,-0.057118792368982686,0.2163081586567938,0.03004479064560347,0.0006601805216632783,0.0007918670167968866,2372.075875084847
1684748100550512313,111,1684748100550512313,camera_1,113,0,-0.9275948870201995,-0.10530249825032004,1.889969776484408,0.9744969058611808,-0.05654810941889168,0.21499359123566386,0.030591624927857,0.0012194417213322595,0.0014647289925492901,2369.7345694347746
1684748100560144186,112,1684748100560144186,camera_1,114,0,-0.9269903574998786,-0.10522317564285238,1.8887213980219943,0.9744052324543647,-0.056766197943729654,0.21550824113683398,0.02946590807488022,0.0007225453446153551,0.0008673045101813749,2372.1551447692327
1684748100569791793,113,1684748100569791793,camera_1,115,0,-0.9261960908105726,-0.10511942889118908,1.8871215650092046,0.9739697341982926,-0.05663032317709721,0.21744969238004164,0.029859582153642775,0.0006239136710064486,0.0007481019252493531,2371.4525612294674
1684748100580516576,114,1684748100580516576,camera_1,116,0,-0.9275055240097206,-0.10528400195939094,1.8897667902333473,0.974460508373351,-0.056597107507005175,0.2152670201442432,0.029725327261593184,0.002865199072402902,0.0034423519136525154,2369.9766329035615
1684748100590742588,115,1684748100590742588,camera_1,117,0,-0.9279229463345103,-0.10532087182134604,1.8906335033552109,0.9745617908456032,-0.05683472656446439,0.21473369223572805,0.029808909724524907,0.0008891619218047709,0.0010689981125281127,2369.035925302888
1684748100600627660,116,1684748100600627660,camera_1,118,0,-0.9271006821447974,-0.10523135283245892,1.8889462899807572,0.9743819688158779,-0.05671077153456259,0.21562757770859325,0.029468881383129905,0.0015558929299004376,0.0018681354669020875,2371.320072800385
1684748100610861063,117,1684748100610861063,camera_1,119,0,-0.9269872704900183,-0.10521345287757145,1.8886913837525074,0.9742846137026038,-0.056924568214894986,0.21575801182330975,0.03126604180206465,0.00018542971520218998,0.00022244842231687853,2370.8015553319124
1684748100620857238,118,1684748100620857238,camera_1,120,0,-0.9270661864130804,-0.10522484158462322,1.8888267158577317,0.974130254868749,-0.05700941762954096,0.21654207466093564,0.03049102740847444,0.0007904629746917635,0.000948999057705246,2368.9469572576936
1684748100629815101,119,1684748100629815101,camera_1,121,0,-0.9270142725859376,-0.1052253158560208,1.8887478869050154,0.9741406280042415,-0.05712199233900684,0.21628293911098617,0.03176169252791708,0.0018120118184015155,0.002173988233472333,2369.1889110544
1684748100639806032,120,1684748100639806032,camera_1,122,0,-0.9267839355607581,-0.10519334126474943,1.8882452924507134,0.9740522227093482,-0.056952529981585245,0.21681041391050412,0.031175650492505674,0.0004361468745628372,0.0005232147327654138,2369.4573356263572
1684748100649809360,121,1684748100649809360,camera_1,123,0,-0.9275864515758191,-0.10528965991183364,1.8898642616953727,0.9744690057290116,-0.05688149175706273,0.21503880422624227,0.030544483068971815,0.0007601204124512151,0.0009129977736430126,2369.830524510705
1684748100660081624,122,1684748100660081624,camera_1,124,0,-0.9275072447027235,-0.10528170153502281,1.889751121766857,0.9742961691362034,-0.056927675342318663,0.21577309337959347,0.030792641329375717,0.0006419803976314142,0.0007711505850532901,2368.327177447499
1684748100669787168,123,1684748100669787168,camera_1,125,0,-0.9268243799543209,-0.10520276876943066,1.8883214041449692,0.9742585176633266,-0.056764038437270785,0.21597147266458003,0.030895107959713026,0.00030567904468625784,0.0003666404422466865,2371.367528209695
1684748100680280208,124,1684748100680280208,camera_1,126,0,-0.9265362567294629,-0.10516835708565087,1.887727282612793,0.973976836831105,-0.05703324026006757,0.21715871603658338,0.030958405502465654,0.0005089550104457885,0.0006103640338402592,2370.0219514709897
1684748100690258979,125,1684748100690258979,camera_1,127,0,-0.9263228267398168,-0.10514594732580573,1.8872924430670779,0.9738826957642441,-0.05719827322562282,0.2175067039582113,0.03117188098609079,0.00023034455080050975,0.00027613453303566713,2370.1817421575547
1684748100700409889,126,1684748100700409889,camera_1,128,0,-0.9271476672650787,-0.10522866220928473,1.88894851388376,0.9743168203512946,-0.057226989460271244,0.21564009284120733,0.030514842573615277,0.0005794515745947137,0.0006955143071811369,2370.72416249651
1684748100710511922,127,1684748100710511922,camera_1,129,0,-0.9264095591151645,-0.10516016000422607,1.8874401203873539,0.9739861595249514,-0.05745816157425179,0.21692810281061717,0.03149156924209243,0.0008749273838475347,0.0010486904580586064,2370.9927435743157
1684748100720496654,128,1684748100720496654,camera_1,130,0,-0.9268275411509327,-0.10520513612760111,1.8882548240982524,0.9739592428362153,-0.057161358123905104,0.21715947700802984,0.03126873801316387,0.0003719435480888933,0.00044626526631261817,2368.4786730897613
1684748100730687379,129,1684748100730687379,camera_1,131,0,-0.9267440090600204,-0.1051854951505247,1.8881185933777291,0.9739277178053767,-0.05703558345531748,0.21734343154977825,0.0312021709579498,0.000649010413326323,0.0007786386311972367,2368.467606435297
1684748100741081714,130,1684748100741081714,camera_1,132,0,-0.9273109035486362,-0.10525936623485865,1.889260474431564,0.9740790241076105,-0.057522762806097714,0.2164418064824658,0.03184542289443528,0.0010827835358213633,0.0012999234976667998,2367.382909284555
1684748100750856876,131,1684748100750856876,camera_1,133,0,-0.9272717750022206,-0.10525532772679799,1.8891604151843429,0.9742792713323966,-0.057265484654120374,0.21555403415088395,0.03220285826790171,0.0009333391935797408,0.0011198201500395152,2369.546556578134
1684748100760035991,132,1684748100760035991,camera_1,134,0,-0.9272412064976578,-0.10524308746061824,1.889083636057165,0.9739929407643456,-0.05780245379707819,0.21665609258001567,0.03250792556005859,7.158658991102129e-05,8.591490568438428e-05,2366.9799409596026
1684748100769939422,133,1684748100769939422,camera_1,135,0,-0.9269159044483722,-0.10520787064858853,1.88847475126088,0.9741860609786284,-0.057465160974435034,0.21600039659101306,0.031671794102194215,0.00014159329293761402,0.00016982470019779512,2370.506686862792
1684748100780107021,134,1684748100780107021,camera_1,136,0,-0.9263456244254205,-0.10514256864010683,1.8872389424585259,0.9737568555123747,-0.05737356841049171,0.21787779993403125,0.03217334745414485,0.00011620613804552704,0.00013927261850450512,2368.8674463705383
1684748100790251731,135,1684748100790251731,camera_1,137,0,-0.92636235521382,-0.10515784717851105,1.8873015521559795,0.9739398624311412,-0.057252518380948296,0.21723697755733698,0.031167115496980025,0.0028159424691693857,0.0033755337591225175,2370.7223630704675
1684748100800413608,136,1684748100800413608,camera_1,138,0,-0.9266165158217256,-0.10518020173408676,1.8878492311571755,0.9738135816623336,-0.05744666103067112,0.21755569255972734,0.03250399885033424,0.0012224829551996663,0.001465726577587962,2367.9843303668304
1684748100810409784,137,1684748100810409784,camera_1,139,0,-0.9266759271546893,-0.10518594482396465,1.8879648844189159,0.9739678302690932,-0.05699002201005251,0.21709385229993197,0.031765740756107594,0.0014121116400929168,0.0016933690947223293,2369.1530829584226
1684748100820653915,138,1684748100820653915,camera_1,140,0,-0.9270203269572349,-0.1052241854650435,1.888697859821592,0.9740819453380197,-0.05695159277379611,0.21667513320439732,0.031189204829292067,0.00010865737567655742,0.0001304040794016507,2368.6041429375773
1684748100830641984,139,1684748100830641984,camera_1,141,0,-0.9269762948690415,-0.10521622748393998,1.8885973212875764,0.9740450868947754,-0.05702831743391329,0.21684704794556012,0.031004798081946845,0.00138941386830993,0.0016675771131992583,2368.5276589808063
1684748100840580940,140,1684748100840580940,camera_1,142,0,-0.9266189734698538,-0.1051906410767941,1.887868478744765,0.9740218198986744,-0.056834660437992054,0.2169160165471037,0.03160312483773104,0.0015137916925596073,0.0018150646852236325,2369.90217180911
1684748100850714921,141,1684748100850714921,camera_1,143,0,-0.9269736770249559,-0.10521361364169238,1.8886259386892397,0.9740658486102174,-0.05734221962990996,0.2166306422937927,0.03128509610903059,0.0010803632030729204,0.0012964705293396857,2368.860810726416
1684748100860758543,142,1684748100860758543,camera_1,144,0,-0.9273715297118119,-0.10527095477180276,1.889435741394521,0.9740419219752738,-0.057218093287433144,0.2168319561833534,0.030859792821170136,0.0016067131364252418,0.001930206896084832,2366.5492941493867
1684748100870482921,143,1684748100870482921,camera_1,145,0,-0.9268436427118522,-0.10519884161460968,1.8883740816667096,0.9739267088758191,-0.057286880821498014,0.21717605574454293,0.03193023387484508,0.0003422171575948596,0.0004105471589919194,2367.91065679281
1684748100880263328,144,1684748100880263328,camera_1,146,0,-0.9275133827304936,-0.1052684384634614,1.8897310945396695,0.9741934983836577,-0.056920774783760196,0.21629393260631555,0.030397168004957554,6.46863627480343e-05,7.772784578979827e-05,2367.3139698144514
1684748100890015840,145,1684748100890015840,camera_1,147,0,-0.9280742835260785,-0.10534830438202651,1.8909014204460806,0.9743825303529308,-0.056882037808318686,0.2155134427214295,0.02995119904361397,0.0002559164568083361,0.0003078451069427341,2366.4391845217924
1684748100900391817,146,1684748100900391817,camera_1,148,0,-0.9270797977581168,-0.10522601026521722,1.8888935667854168,0.9741035518527712,-0.05688839691631596,0.21668082224832483,0.030584339683850815,0.0003398501576157287,0.0004080371851404779,2368.451506189769
1684748100910561800,147,1684748100910561800,camera_1,149,0,-0.9263786930195175,-0.1051512796104356,1.8874645403106989,0.9739742526045545,-0.05657104927486964,0.2173597607855148,0.03047303789587874,0.0006588303513126448,0.0007900449902687154,2370.4827230442315
1684748100920466184,148,1684748100920466184,camera_1,150,0,-0.9274531295928252,-0.10526800471523713,1.889689113234181,0.9741063696215138,-0.056884127567108395,0.21666455763452355,0.030617742548403205,0.0002111671637976542,0.00025374089845890473,2366.5149184581833
1684748100930329084,149,1684748100930329084,camera_1,151,0,-0.9272181535349396,-0.10524574628244776,1.889186409909217,0.9741156069823427,-0.05700574351090905,0.21662742488659786,0.03035931862200238,0.0011913915659533814,0.0014309895942108454,2367.9443553896854
1684748100940717935,150,1684748100940717935,camera_1,152,0,-0.9276803161614166,-0.10529207177194205,1.8901243930418887,0.9742349947152392,-0.057004771394780905,0.2160166272133078,0.030877951321510354,7.460860069841146e-05,8.966124871896641e-05,2366.8031436108276
1684748100950531005,151,1684748100950531005,camera_1,153,0,-0.9271355871806402,-0.10524900856802949,1.8890270753449458,0.9742561299776327,-0.057118942139949655,0.21605288790087174,0.02972489326326846,0.0006345341680571437,0.0007620257578748386,2369.987324683694
1684748100960548162,152,1684748100960548162,camera_1,154,0,-0.9268405493993496,-0.10520354506006337,1.888436870896113,0.9742189600264916,-0.056826614836435155,0.21642138170131886,0.028808667335104236,0.0013058709009783342,0.001567999864750279,2371.0371800470166
1684748100969877958,153,1684748100969877958,camera_1,155,0,-0.9276920582805619,-0.10529090646506631,1.8901675457765676,0.9742568141611346,-0.05710960260491491,0.2159803432419669,0.030243093161698622,0.0004902842483716086,0.0005893683800270896,2367.08572309278
1684748100979972839,154,1684748100979972839,camera_1,156,0,-0.9260234443037358,-0.10510700115666155,1.8867705835306507,0.9739816516939599,-0.057164273726215416,0.2173112916111579,0.029458284253337762,0.0016758089914219454,0.0020089528323239585,2372.8200669366643
1684748100990433931,155,1684748100990433931,camera_1,157,0,-0.9272902163226682,-0.10525637182023945,1.8893402939948094,0.9741910057871198,-0.05677146714453519,0.216267148486139,0.030941965797461116,0.0007358146540354936,0.0008835885512547398,2368.149411167251
1684748101000424861,156,1684748101000424861,camera_1,158,0,-0.9268796685451026,-0.10521502713791803,1.8885489334537908,0.9740770416779764,-0.0568342702891408,0.21694096526344758,0.029671538334681363,0.0028191807505209,0.0033850660149491035,2369.1707651225142
1684748101010490894,157,1684748101010490894,camera_1,159,0,-0.9270996642592411,-0.10523918761809484,1.888975653964576,0.9743363479054106,-0.05698786570871464,0.21562262380399214,0.03046224575100081,0.0010398781159892678,0.0012481530756117193,2370.8237033894984
1684748101020808935,158,1684748101020808935,camera_1,160,0,-0.9268072734933044,-0.1051995583561626,1.8883576536975157,0.9743334503815281,-0.056635604788921504,0.21587778366799595,0.029385681145985724,0.0019604752451414242,0.00235273759132336,2372.2554044544218
1684748101030381202,159,1684748101030381202,camera_1,161,0,-0.9265622622404147,-0.10517659418241085,1.887838087346909,0.974293825816652,-0.05669099802147242,0.21592668478919128,0.030221490943204733,0.0010231760970782489,0.0012268654166105466,2373.0470997747025
1684748101040899991,160,1684748101040899991,camera_1,162,0,-0.927214281394816,-0.10525247755610695,1.8891955518179822,0.9744614008729473,-0.05701051515589362,0.21522235039719517,0.029225318816046945,0.002069038921035826,0.0024847925860706573,2371.7632108156095
1684748101050373315,161,1684748101050373315,camera_1,163,0,-0.9272758231621084,-0.10524622727315322,1.8893203059645338,0.9746395760390856,-0.05700996175126751,0.21421890045210473,0.03062390844686039,0.0019127940904581921,0.0022953477799886974,2373.1598240013686
1684748101059903383,162,1684748101059903383,camera_1,164,0,-0.9264199934254999,-0.10516005799471077,1.887555368379238,0.9742345926574035,-0.05735348699645368,0.21607010600615265,0.0298537315841844,0.0006271035090321675,0.0007519183421836137,2373.5723046526537
1684748101070104837,163,1684748101070104837,camera_1,165,0,-0.9277337080932663,-0.10530446212789316,1.8902269651552164,0.9747003543313008,-0.057031789846046566,0.21394914965239076,0.03053449813591501,0.001161250431323424,0.0013947412652764095,2371.5248319159737
1684748101080100774,164,1684748101080100774,camera_1,166,0,-0.9270139441628972,-0.10523241522872695,1.8887482009207945,0.9743425736767107,-0.0569890793913493,0.2156646892901595,0.029958900923583928,0.0022155499609652907,0.0026592756852025605,2371.4665204735948
1684748101089974880,165,1684748101089974880,camera_1,167,0,-0.9265647592310796,-0.10517700009112656,1.8878351517503016,0.9742394364055452,-0.05701888148542789,0.21618466456260965,0.029505228592715517,0.0002368693531025201,0.00028413916681312216,2372.75350368407
1684748101099956035,166,1684748101099956035,camera_1,168,0,-0.9267189381428887,-0.10519298818549161,1.8881511868739658,0.9742291476550836,-0.056964978533025824,0.2161616183182556,0.03011168952440219,0.0003398324188310653,0.0004076870589875743,2371.740765225258
1684748101110204458,167,1684748101110204458,camera_1,169,0,-0.9266092664708815,-0.10518203053930376,1.8879338293264967,0.9741981506022188,-0.05706816432713008,0.21619480927673215,0.03067559983677162,0.0012865924218203872,0.0015428482800704962,2371.9508671448557
1684748101120490550,168,1684748101120490550,camera_1,170,0,-0.9270291855029974,-0.10523006615509245,1.888774321102718,0.9742807069940224,-0.056972651277740545,0.21575412490519158,0.03132696238079782,0.0005253740382613614,0.0006303041273236106,2370.5626828887025
1684748101130513906,169,1684748101130513906,camera_1,171,0,-0.9264161324561592,-0.10516009839299155,1.8875077247999577,0.9738342593580666,-0.0571485360580728,0.2178176341372995,0.03059997362376221,0.0007861738267820328,0.0009429899678410193,2369.18785968423
1684748101141102075,170,1684748101141102075,camera_1,172,0,-0.9265377333397273,-0.10516833735245545,1.8877429260439957,0.9740702607087613,-0.057138885833631886,0.2167051780740213,0.031002269664715122,0.001123177062254399,0.0013467473537835295,2371.0357694299887
1684748101150053977,171,1684748101150053977,camera_1,173,0,-0.9273591696502563,-0.10527370661908778,1.8894394695756271,0.9744324303327142,-0.05699162545443611,0.21528177824903152,0.029785051584252088,0.002086891618091613,0.002506468958306451,2370.6970688505107
1684748101160325288,172,1684748101160325288,camera_1,174,0,-0.9269846532781151,-0.1052148415416333,1.8886582956461904,0.9741181280262527,-0.057114176550107296,0.21658270348731043,0.030393684175499924,0.00010412826668471098,0.00012499719153909305,2369.318726083381
1684748101170541048,173,1684748101170541048,camera_1,175,0,-0.9273873890526347,-0.10526103113911006,1.889461231578404,0.9742977449131319,-0.057013427787567406,0.2157771050466143,0.03055510181295671,0.00029842767980881035,0.00035840285802018465,2369.1128507121457
1684748101180628299,174,1684748101180628299,camera_1,176,0,-0.9265620634846994,-0.10517669265467312,1.8878143289572737,0.9742014621312108,-0.05680444699018257,0.21622232935109337,0.030865357174962298,0.0014389130665222183,0.0017251512426149482,2372.0813066707924
1684748101190563440,175,1684748101190563440,camera_1,177,0,-0.9274558286715527,-0.10527295109151652,1.8896413128492426,0.9745037425818448,-0.05691878075169732,0.21479131008568864,0.031103073857601367,0.0008272666163975373,0.0009931002157477034,2370.7544271770166
1684748101200691699,176,1684748101200691699,camera_1,178,0,-0.9270145100515385,-0.10522222264958057,1.8887218775882417,0.9741064694622835,-0.05731079081162693,0.21657873542013809,0.030425495428754758,0.0012829515617340803,0.0015401958028372804,2369.152953939746
1684748101210757017,177,1684748101210757017,camera_1,179,0,-0.926808986939708,-0.10520520780622976,1.8883153155778025,0.9738795285969724,-0.0570751705650341,0.21756539361724173,0.03108678473058838,0.0014759398327441886,0.0017713287339591471,2367.5475139532937
1684748101220508098,178,1684748101220508098,camera_1,180,0,-0.9268741845824713,-0.10521805123163204,1.8884606423372081,0.9741423950315531,-0.05688671280629223,0.2165528200449931,0.03025511921716419,0.0013869238609913737,0.0016645687874842158,2369.96828740777
1684748101230605363,179,1684748101230605363,camera_1,181,0,-0.9281098235997813,-0.10535021096334318,1.8910166339736074,0.9746567957192601,-0.05681480346584865,0.21421270658979188,0.030481551812157833,0.002328528178622946,0.0027993400091511932,2368.9810274777706
1684748101240722417,180,1684748101240722417,camera_1,182,0,-0.9273087688387198,-0.10526676860619105,1.8893960670795742,0.9745378860680084,-0.05709403358728415,0.21457401872983872,0.031211703461335664,0.0034277006197953597,0.00411328897232294,2371.861463260255
1684748101250560283,181,1684748101250560283,camera_1,183,0,-0.926409202517394,-0.10515627668781627,1.8875250874608414,0.9741486827465216,-0.05674037524395351,0.21660605654868134,0.029944782297118902,0.0009326795698143542,0.001118415151431446,2372.3492789100865
1684748101260639190,182,1684748101260639190,camera_1,184,0,-0.9264552317848334,-0.10516322447300826,1.887620284462373,0.9739580157822053,-0.05707846836016385,0.21734666375252693,0.03013734724379839,0.0011813048040494323,0.0014170575755070522,2370.272593578323
1684748101270819664,183,1684748101270819664,camera_1,185,0,-0.926956150262238,-0.10521519965004958,1.8886696375123062,0.9741567049374489,-0.05662354963653412,0.2166322169760695,0.029714818188983548,0.000834595994092524,0.001002087938721234,2369.5569099256536
1684748101280854463,184,1684748101280854463,camera_1,186,0,-0.927019151804704,-0.10522311449399671,1.8888121317988358,0.9741768882534082,-0.056721568063382286,0.21639144511141495,0.030607133023713,0.0007474320736946538,0.0008971796115446723,2369.371334292926
1684748101290913343,185,1684748101290913343,camera_1,187,0,-0.9277411934488844,-0.10529521283709439,1.890330615509387,0.9745028458693112,-0.056392562835801,0.2151719853445926,0.029412564870988454,0.003027449900400825,0.0036395448088344974,2369.033058258122
1684748101300679683,186,1684748101300679683,camera_1,188,0,-0.926899252442245,-0.10521018152463547,1.8885886682498312,0.9744110020160507,-0.05652389257417022,0.21545862814056407,0.03009698121283787,0.0010226792946923524,0.0012270368336615648,2372.3745350264953
1684748101310612440,187,1684748101310612440,camera_1,189,0,-0.92741561973081,-0.105278700838804,1.8896670112131257,0.9745572784153339,-0.05642853696433565,0.21485510971905308,0.029853192984595975,0.002283619018271566,0.002742623287547759,2371.2166697494686
1684748101320558309,188,1684748101320558309,camera_1,190,0,-0.9272799396042503,-0.10525351382853917,1.8894112737217577,0.9742516476515511,-0.05667575521690379,0.2161473086601829,0.030032095794185528,0.001089149242034182,0.0013083216796862032,2368.7651765465266
1684748101330626249,189,1684748101330626249,camera_1,191,0,-0.9278777281599951,-0.10530916807920608,1.890623318122067,0.9745736900940623,-0.056860786096598954,0.21480411960637089,0.028847249107178584,0.00038917311758268625,0.0004680501280018605,2369.4073876477787
1684748101340571641,190,1684748101340571641,camera_1,192,0,-0.9280787734486362,-0.1053387049015941,1.891071048756239,0.9746312043600458,-0.056525992965096826,0.21473619653385176,0.0280569689234507,0.0013753642269875854,0.0016552826060275364,2368.8325243738946
1684748101350601196,191,1684748101350601196,camera_1,193,0,-0.9271554685318174,-0.10523807434034808,1.8891801959754775,0.9741934843118301,-0.05597984508153042,0.2167309855498493,0.028999861579242614,0.00016332890663761646,0.00019625376361594087,2368.4771580053502
1684748101360721111,192,1684748101360721111,camera_1,194,0,-0.927904756647056,-0.10532405024047457,1.890760837177695,0.9745890356211356,-0.05627774221288288,0.21508830728356648,0.027313869157907542,0.002504802672774531,0.003014791989762693,2369.1467687638938
1684748101370488405,193,1684748101370488405,camera_1,195,0,-0.9270346881572373,-0.10522396046178906,1.8889780846110378,0.9743573794449759,-0.05600684298811401,0.21605150800781503,0.02850748230154903,0.000857643157360144,0.0010302241055600806,2370.8344505112627
1684748101380975961,194,1684748101380975961,camera_1,196,0,-0.9272307339391287,-0.10524440374332811,1.8894022475039904,0.9742628388801127,-0.05627879963423659,0.21644521496337837,0.028215003250929925,0.00010597748041618615,0.0001273962170081432,2368.992075864576
1684748101390977859,195,1684748101390977859,camera_1,197,0,-0.9282452628566968,-0.10535226208664962,1.8914810604851913,0.9746673544335824,-0.05620495838139398,0.2148245012522764,0.026739194387600387,0.0027171803667442873,0.003273184634541302,2368.242955797351
1684748101400938034,196,1684748101400938034,camera_1,198,0,-0.9274456352864272,-0.10526822732040861,1.8898785844053108,0.9741721009272705,-0.056127189070885646,0.21705493999616213,0.026937138771807433,0.0007413879066007212,0.0008923164856270054,2366.950693695224
1684748101410957574,197,1684748101410957574,camera_1,199,0,-0.9273806831369295,-0.10526036279248291,1.8897371227330058,0.974328824797372,-0.05627036934685013,0.21622270781851327,0.027653703661008614,0.0013749500649282709,0.0016536285101396463,2368.9465135986693
1684748101421322584,198,1684748101421322584,camera_1,200,0,-0.9270633972995008,-0.10522831083728404,1.8890914549292117,0.9743552912551824,-0.056059000046268494,0.21616993341636342,0.02756292443856936,0.0015160102338995785,0.0018220263311729582,2370.727546149398
1684748101431127786,199,1684748101431127786,camera_1,201,0,-0.9275978506742784,-0.10529344234295365,1.8901920343167116,0.9744685820267109,-0.05622018320467889,0.21566791659605522,0.027159223008047233,0.0015810241020517424,0.0019022932467143642,2369.3312615420436
1684748101441089868,200,1684748101441089868,camera_1,202,0,-0.9272699281978821,-0.10525300578845474,1.8895507422888485,0.9742916069669451,-0.056036653300064146,0.21653094891107663,0.027020478240863764,0.0008118462428683415,0.0009765222149652275,2368.998137606309
1684748101450778484,201,1684748101450778484,camera_1,203,0,-0.9272679068334708,-0.10525774300896262,1.8895469374705365,0.974302978108209,-0.055655783553616785,0.21656848084828764,0.027096747213879824,0.0010788956569740549,0.0012976740500992368,2368.8887366248528
1684748101461289405,202,1684748101461289405,camera_1,204,0,-0.9276347153225636,-0.10528857859574514,1.8903263668795074,0.9745290149106891,-0.05591315647272233,0.21557441566768107,0.026355062891153504,0.0005981929134577513,0.0007200113655166506,2369.612676985097
1684748101471306800,203,1684748101471306800,camera_1,205,0,-0.9278073030225154,-0.10529879061885838,1.8906695695854556,0.9745275508715769,-0.056097017627629864,0.2155432399555617,0.02627334990043477,0.0005193622200749815,0.0006253740685931825,2368.8590170548996
1684748101481011152,204,1684748101481011152,camera_1,206,0,-0.9281913817248397,-0.10534654816845732,1.8915029773026508,0.9746587580474037,-0.055763868277198085,0.21489028249509398,0.02743834625910883,0.002219323316239752,0.0026726572607189045,2367.8640757646626
1684748101490820407,205,1684748101490820407,camera_1,207,0,-0.9269013690428353,-0.10520921101392366,1.888873092143332,0.9742021061958201,-0.055505221368530304,0.21713575674919708,0.026485653199649663,0.000336115961545147,0.0004041571865202736,2369.574241885799
1684748101501005411,206,1684748101501005411,camera_1,208,0,-0.9267252259354836,-0.10520492822343114,1.88853717935718,0.9741916135876179,-0.05538102843950425,0.21724214779355752,0.026258159238199026,0.0009444703173357993,0.0011353923300542856,2370.273886973272
1684748101510703086,207,1684748101510703086,camera_1,209,0,-0.9271608906874071,-0.1052411126953121,1.889422720210585,0.9741982110175096,-0.05558442936848278,0.21722710044541693,0.025702211853081403,0.00048733942094258964,0.000586535489163368,2368.3216138343555
1684748101521120071,208,1684748101521120071,camera_1,210,0,-0.9271489584045879,-0.105226740530662,1.8894212106748176,0.974314949359899,-0.05569256621733183,0.21666430492256225,0.025793342055043692,0.0003903288161382079,0.0004696553540086335,2369.6404715527306
1684748101530938625,209,1684748101530938625,camera_1,211,0,-0.9275521249767499,-0.10527294909954504,1.8902450930693062,0.9743568087810303,-0.05564887645278302,0.21642686034418193,0.026294977717232472,0.0004842375201405958,0.0005829882230160809,2367.9234671997838
1684748101540825128,210,1684748101540825128,camera_1,212,0,-0.9267237879158166,-0.1051907884402284,1.8885776969324717,0.9738941767845002,-0.055421578493874295,0.21878178298062412,0.024353901090116595,0.0006742070108884946,0.0008116464116258897,2367.338472591714
1684748101550066232,211,1684748101550066232,camera_1,213,0,-0.9279702294755385,-0.10533280001851358,1.891124831848713,0.9744650982713552,-0.0552691521928984,0.21617684722384098,0.02511302035272502,0.0006640717765549198,0.0008004823335559404,2366.826855443768
1684748101560354232,212,1684748101560354232,camera_1,214,0,-0.9274694486430257,-0.10526674657108795,1.890130454112222,0.9743339189085624,-0.05546367639700831,0.21671916022234008,0.025099813890437524,0.0015514445985900238,0.0018686291805638027,2368.0707879299293
1684748101570360422,213,1684748101570360422,camera_1,215,0,-0.9270630470236472,-0.10521256548952287,1.8893079415941083,0.9743457556893915,-0.05538540756552086,0.2167804954563193,0.024269771086321747,0.00044420910126063973,0.00053474105012725,2370.325891084968
1684748101580334663,214,1684748101580334663,camera_1,216,0,-0.9269286009272247,-0.10520277409327633,1.8890289088746954,0.9742337488317723,-0.05509117947439432,0.2173277062221985,0.02454042969284201,7.452747377101333e-05,8.969749316528546e-05,2369.6304003943233
1684748101590344429,215,1684748101590344429,camera_1,217,0,-0.9271625587899804,-0.10523472664337744,1.8895145999628173,0.9742163114674578,-0.05537279683686745,0.21738030577117126,0.024129535926665138,0.00021592227858491242,0.000260062740045467,2368.4452033720445
1684748101600417137,216,1684748101600417137,camera_1,218,0,-0.9269635137238609,-0.10520508257672223,1.8891203399962455,0.9743036956423821,-0.05523345285888661,0.21701212047388163,0.024234560245883517,0.0009180674242088571,0.0011050434342928892,2370.289017857052
1684748101610101938,217,1684748101610101938,camera_1,219,0,-0.927652880367491,-0.10528319236780356,1.8905393499963141,0.9744203875208591,-0.05524085015652452,0.21649717982690767,0.024131472907364403,0.0001905874960357323,0.0002297090136820126,2367.9867038573157
1684748101620334386,218,1684748101620334386,camera_1,220,0,-0.9264145625509508,-0.10514285503709399,1.888025645454436,0.9739312021521673,-0.05530450268125165,0.21851205264108037,0.025532495142374517,0.00036093425296712667,0.0004339935544839824,2368.9684677836485
1684748101630101919,219,1684748101630101919,camera_1,221,0,-0.9264547374489961,-0.10513810411084104,1.888116140658863,0.9741860111649973,-0.0551479472328628,0.2175822203345005,0.024047805736534214,0.00012893865641672164,0.00015507878496341242,2371.566998387105
1684748101640368461,220,1684748101640368461,camera_1,222,0,-0.9279389723834682,-0.10531989773142139,1.891138201114492,0.9746865828239071,-0.05516034202929995,0.21528620468621615,0.024397786827297086,0.0013089672575006261,0.001577678650691531,2369.24631439359
1684748101650415897,221,1684748101650415897,camera_1,223,0,-0.9274927268330359,-0.1052685073581757,1.8902380371069285,0.9743819617453423,-0.05556560157816993,0.21663341939900022,0.02371113970376071,0.00040646863635629416,0.0004898678428290229,2368.602465500938
1684748101660467147,222,1684748101660467147,camera_1,224,0,-0.9275261262413999,-0.10526332568058058,1.890293543975065,0.9744614876699018,-0.055203297981646374,0.2163398989327653,0.02396775062186961,0.00034769781632348895,0.0004189574015089208,2369.051462192787
1684748101670641422,223,1684748101670641422,camera_1,225,0,-0.9275608936754042,-0.10529612037498362,1.8903824340913133,0.9745107304761489,-0.055349893406401264,0.21595112338592531,0.025106528933722148,0.00086784060113132,0.001045186066366923,2369.283049722203
1684748101680334329,224,1684748101680334329,camera_1,226,0,-0.927658027004089,-0.10528321153864442,1.890553059057324,0.9744680070577837,-0.05502833596814936,0.21630000988788212,0.02445999149447745,0.0010641303524607792,0.0012822919256534706,2368.2897678087465
1684748101690461635,225,1684748101690461635,camera_1,227,0,-0.9269627256642853,-0.10521109923381206,1.889132104216494,0.9742991921075085,-0.055180677823726335,0.21708035376776078,0.023922731065545492,0.00013671921624336392,0.00016458924360116854,2370.2251630780524
1684748101699877738,226,1684748101699877738,camera_1,228,0,-0.9268042907278853,-0.10520311496859125,1.8887989729933843,0.974283259165184,-0.0551200938948901,0.21715711916133723,0.02401440728051359,0.0005325209494912997,0.0006408504744492405,2370.8229116384173
1684748101709887504,227,1684748101709887504,camera_1,229,0,-0.9277086861614082,-0.10530199449197641,1.8906422685539517,0.9746346880756703,-0.05512841402784502,0.2154521755057342,0.025068762160539996,0.0002646400826051831,0.0003187412096313233,2369.7942536927294
