%time,field.header.seq,field.header.stamp,field.header.frame_id,field.image_seq,field.transforms0.fiducial_id,field.transforms0.transform.translation.x,field.transforms0.transform.translation.y,field.transforms0.transform.translation.z,field.transforms0.transform.rotation.x,field.transforms0.transform.rotation.y,field.transforms0.transform.rotation.z,field.transforms0.transform.rotation.w,field.transforms0.image_error,field.transforms0.object_error,field.transforms0.fiducial_area
1683559637897821187,8,1683559637897821187,camera_2,10,0,-0.15977064553348902,0.8882616954981774,4.640607408294582,-0.7158893789410288,0.6889505923573785,-0.08718049696471775,0.07245025437381254,0.019641600290924544,0.0061008778053206645,11566.043454592
1683559637904618024,9,1683559637904618024,camera_2,11,0,-0.15974972384347402,0.8882865209411424,4.640814860135519,-0.715944798698666,0.6886766117058121,-0.08634350837397424,0.07544778503973656,0.021620677467581118,0.006714502749121959,11560.261865450258
1683559637911233425,10,1683559637911233425,camera_2,12,0,-0.1597878114304061,0.8883867650260869,4.641365525850042,-0.7159435840175136,0.6887589924027809,-0.08677956966561952,0.0741966385836551,0.01893308560102014,0.005882030896772815,11559.238103411371
1683559637918016910,11,1683559637918016910,camera_2,13,0,-0.1598632832083062,0.8886512530374642,4.642698102505204,-0.7160024028746224,0.6886460921058877,-0.08693891881862732,0.07448988723111626,0.012613249688001815,0.003921202443174847,11551.250328535987
1683559637924935579,12,1683559637924935579,camera_2,14,0,-0.15972514685728584,0.887960029102342,4.639165071843675,-0.7159524597314083,0.6884180798169754,-0.08851693319832037,0.07521552580962712,0.018564454283477968,0.005765441171528891,11561.182687815453
1683559637931612253,13,1683559637931612253,camera_2,15,0,-0.15973059766910966,0.8880652091770602,4.639678806421325,-0.7156710751448251,0.6887335022286843,-0.08966943937233723,0.07362381918585723,0.012731702507153386,0.00395622908445862,11558.504326552284
1683559637938338756,14,1683559637938338756,camera_2,16,0,-0.15991830858099967,0.8890186173379631,4.644393453348498,-0.7158910234932478,0.6892295217343419,-0.08594011363827568,0.07125311024425816,0.02250574546997086,0.0069989639262233875,11554.611762647346
1683559637945265769,15,1683559637945265769,camera_2,17,0,-0.1598212214102675,0.8885239159782432,4.642129778173993,-0.7159514879129856,0.6888992010774172,-0.08672272910194907,0.07287335567399594,0.012651992878090823,0.0039318498120459585,11559.036956779912
1683559637951986074,16,1683559637951986074,camera_2,18,0,-0.15975329884348427,0.8883837603805489,4.641065629244619,-0.7159720715568014,0.6887282941289229,-0.08650997672313529,0.0745208262453456,0.028946868293132866,0.008991004655997724,11560.87892689311
1683559637958354711,17,1683559637958354711,camera_2,19,0,-0.15978326193521933,0.8884094763753451,4.641460870126784,-0.7158412381756533,0.6888173867411773,-0.08774283598658172,0.07350594658417138,0.01088798999262508,0.003383816587541729,11557.069325448
1683559637964926958,18,1683559637964926958,camera_2,20,0,-0.15980536865896877,0.8885436052885634,4.642329210760209,-0.7159768519543276,0.6888559314049472,-0.08733242174487937,0.07230284466027802,0.01812707989665796,0.005634852664125624,11557.323810523329
1683559637971587896,19,1683559637971587896,camera_2,21,0,-0.15976279670847116,0.8881901179239204,4.640173128944703,-0.7158356264591481,0.6885991199389071,-0.0878180969301054,0.07548900425079405,0.017327423200185876,0.005382273006540151,11557.969009439868
1683559637978024959,20,1683559637978024959,camera_2,22,0,-0.15981322127986425,0.8886977698196283,4.642769045754203,-0.7159054849782898,0.6887463426553309,-0.08749149557908253,0.07384477136697414,0.020342699386674216,0.006325234287642333,11550.63348330387
1683559637984863758,21,1683559637984863758,camera_2,23,0,-0.15976667381950332,0.888383386956749,4.641405959625646,-0.7160151395758864,0.6888107733124019,-0.08608713950300687,0.07383117823172564,0.021670769121556077,0.006731451675620899,11562.530180652439
1683559637991472244,22,1683559637991472244,camera_2,24,0,-0.15977675635907207,0.8882076681030799,4.640360532076506,-0.7158305697912555,0.6886525994909485,-0.08768100761458769,0.07520793488972106,0.02432559274166124,0.00755616513414968,11558.269222367056
1683559637997934103,23,1683559637997934103,camera_2,25,0,-0.15981282304099562,0.8884287780125755,4.641406317872613,-0.7160511431157266,0.6886831707008375,-0.08776120975180932,0.07269264680145633,0.027454638522613095,0.008531999803497397,11559.32105034994
1683559638004736185,24,1683559638004736185,camera_2,26,0,-0.1598810683956761,0.8888710906115636,4.643731931420116,-0.7161625660952577,0.6886954248417699,-0.08705910686044017,0.07232221400463383,0.026840693830308737,0.008347970846717685,11551.286158951754
1683559638011366128,25,1683559638011366128,camera_2,27,0,-0.15976601908909782,0.8882886357208719,4.640841578288098,-0.7160238574820049,0.6888975706056891,-0.0869105206988404,0.07194813494473314,0.017176742854644544,0.0053353692712178585,11567.140158375161
1683559638017999410,26,1683559638017999410,camera_2,28,0,-0.15993338355267334,0.8891154553933418,4.645044123193429,-0.7162995005820044,0.6887951196187111,-0.08523751731686136,0.07218638581529262,0.02406683631852502,0.007485071200377566,11551.579581908782
1683559638024580955,27,1683559638024580955,camera_2,29,0,-0.15985325560289038,0.8885579612863692,4.642077135508895,-0.7162790190733336,0.6884814327411977,-0.086906719713086,0.0733819165372642,0.01637019291956676,0.005087483721271941,11557.299299333405
1683559638031240463,28,1683559638031240463,camera_2,30,0,-0.1598531962530907,0.8887612355999798,4.643186839857331,-0.7162343451434693,0.6887352419774555,-0.08531427790982235,0.0733048653220716,0.022492876454634828,0.006990379308270021,11557.73788319154
1683559638037870883,29,1683559638037870883,camera_2,31,0,-0.15980164322791818,0.8885764214958619,4.642305853179326,-0.7157810713170429,0.689018471541493,-0.08673337572590759,0.07340521339823133,0.026703305022238055,0.00829943650204303,11556.82099123663
1683559638044703483,30,1683559638044703483,camera_2,32,0,-0.1598252319806363,0.8884227506614482,4.64156732139507,-0.7160405462702899,0.6890511690083845,-0.08669707954804719,0.07055521938852666,0.019480936654872494,0.006052399775351322,11567.684092570216
1683559638051215887,31,1683559638051215887,camera_2,33,0,-0.15976873215197424,0.8883388643594567,4.640874548632352,-0.7158352257969768,0.6886248460570187,-0.08866950634124995,0.07425274100218575,0.021392438626207877,0.006648336279423806,11554.601054744606
1683559638057834863,32,1683559638057834863,camera_2,34,0,-0.1597911821803898,0.8883031407867722,4.64090001653357,-0.7158693357061253,0.6885624217843012,-0.08871633559937737,0.074446607041743,0.02463116580111091,0.007655371336852395,11553.8074905377
1683559638064646244,33,1683559638064646244,camera_2,35,0,-0.15972351565671228,0.8879317727516293,4.639117573896602,-0.7160137574899426,0.6885906559825612,-0.0881693373521863,0.0734396046388864,0.016752986037317896,0.005202015632495292,11567.33635283394
1683559638071300268,34,1683559638071300268,camera_2,36,0,-0.15985759924924275,0.8886791308609013,4.64283292286023,-0.7161072338406159,0.688759570370577,-0.08727116347863151,0.07200297139122636,0.012705139572062762,0.003950272629143828,11555.761211497707
1683559638077897787,35,1683559638077897787,camera_2,37,0,-0.15984795298439888,0.8884148542778522,4.641441936914701,-0.7159691129273404,0.6886203957244669,-0.08799286094094723,0.07380675002832089,0.02520018522773171,0.007832437640345295,11555.4193965461
1683559638084631443,36,1683559638084631443,camera_2,38,0,-0.1597927009371751,0.8883170140655934,4.640983786359623,-0.7158124240313303,0.6888702018079574,-0.08757882211832646,0.07348720010873584,0.018122314158972586,0.005630496745022383,11560.040284507417
1683559638091254472,37,1683559638091254472,camera_2,39,0,-0.15982417967001705,0.8886030695677728,4.642352523684623,-0.7159023953661601,0.6886695703643911,-0.08676218883652038,0.0754341153021297,0.01632931835774798,0.005075240092440978,11551.110649140737
1683559638097748041,38,1683559638097748041,camera_2,40,0,-0.15982579139792702,0.8885012005901852,4.641947031197679,-0.7159781796453857,0.6885695223656797,-0.08780560354274221,0.07441394444104052,0.01601296839362476,0.0049776695135035215,11552.030465044692
1683559638104521036,39,1683559638104521036,camera_2,41,0,-0.15980409804352708,0.8883345945634125,4.640838399788884,-0.7160209449037926,0.6886869179023729,-0.0894621576594703,0.07085801236361698,0.02579675220840727,0.0080195755949435,11560.48705900651
1683559638111216783,40,1683559638111216783,camera_2,42,0,-0.15980268181272436,0.8884861656806815,4.641644620482666,-0.715931254479394,0.6888095682405462,-0.08738318448011902,0.073129998153611,0.0236201939478633,0.0073403611401522875,11558.417751889236
1683559638117871284,41,1683559638117871284,camera_2,43,0,-0.15989529453083837,0.8889598696591203,4.644357031144248,-0.7162993074424533,0.6887889934079807,-0.08616745318333192,0.0711350457185555,0.0067353505655773915,0.0020948608471734772,11554.34660169437
1683559638124496936,42,1683559638124496936,camera_2,44,0,-0.15987210395523244,0.8886235469245906,4.642395010662789,-0.7159456860051114,0.6888991951925563,-0.08732782361563744,0.0722047420622409,0.01541901824020897,0.004793154596953663,11557.16999967285
1683559638131184339,43,1683559638131184339,camera_2,45,0,-0.15980115346078927,0.8885264814286697,4.641866189771347,-0.7159362462505755,0.6887192297028382,-0.08725597530450481,0.07407772077908487,0.019719974068721058,0.0061288352880740134,11555.354837002744
1683559638137831449,44,1683559638137831449,camera_2,46,0,-0.1597783331817173,0.8884248794817832,4.641798236990832,-0.715907668789683,0.6889488305166713,-0.08692476958955385,0.07259340968459467,0.01217282869038172,0.0037828147081160482,11560.74166464839
1683559638144555807,45,1683559638144555807,camera_2,47,0,-0.15972507279329196,0.8878135492311924,4.638489357795729,-0.7155240016501289,0.6886147856929111,-0.08943428420015069,0.07639757062432871,0.01786534233542625,0.005548138251307618,11557.88412776863
1683559638151235580,46,1683559638151235580,camera_2,48,0,-0.15980252493043456,0.8884355090576788,4.641364714247024,-0.7157626434150896,0.688771664222744,-0.0884305109578356,0.0738747425512343,0.026321298668335658,0.008181749215579013,11554.066024266987
1683559638157838582,47,1683559638157838582,camera_2,49,0,-0.15978283435877094,0.8883244573196151,4.640966946057417,-0.7159927247376751,0.6886512511780513,-0.08649058423595461,0.07505498792317326,0.02223044073980418,0.0069045122567264715,11559.978248785312
1683559638164531707,48,1683559638164531707,camera_2,50,0,-0.15976865815260466,0.8880744745428927,4.6396540721189865,-0.7158858947830425,0.688517739919161,-0.08705384473634681,0.07663116587860014,0.02407797673731693,0.007475613422630429,11560.214728356572
1683559638171498537,49,1683559638171498537,camera_2,51,0,-0.1597565440016539,0.888130042801819,4.640055488747471,-0.7157194240687763,0.6888652265193914,-0.08894014501102879,0.07280148561989694,0.01580745021783514,0.004911500818797473,11561.429593998182
1683559638178210735,50,1683559638178210735,camera_2,52,0,-0.15969804079069883,0.887772250263254,4.638238226236445,-0.7157517018436936,0.6885804112523265,-0.08827614968676942,0.07591995748096945,0.02051797708554659,0.006369102002446728,11564.783021748719
1683559638185148715,51,1683559638185148715,camera_2,53,0,-0.15981937290561757,0.8885358101887469,4.642060769759066,-0.715999201729275,0.6886926994046314,-0.08806225178703389,0.07274990529203582,0.0224264582793694,0.006972264277223413,11554.857942719245
1683559638191992521,52,1683559638191992521,camera_2,54,0,-0.15972052948211327,0.888139310742568,4.640212587124264,-0.7159567004730144,0.6887724129222392,-0.08660392490215266,0.07415070085045306,0.015837417151487898,0.0049178609574701704,11565.80096342589
1683559638198659420,53,1683559638198659420,camera_2,55,0,-0.1597792976153586,0.888260126893121,4.640598293922629,-0.715979150991845,0.6887189466094412,-0.08822521841357134,0.07250088800874245,0.018208341167337494,0.005657703196792187,11562.16402625962
1683559638205636262,54,1683559638205636262,camera_2,56,0,-0.15993881732597898,0.8890570447726858,4.644772547631595,-0.7160692160174746,0.6887916213535243,-0.08626437911149598,0.0732764431574728,0.025605755457945634,0.007965156088599514,11546.474910567078
1683559638212287664,55,1683559638212287664,camera_2,57,0,-0.15992102639026692,0.8890402526702362,4.644685571961636,-0.7161657844939093,0.6889541403411351,-0.08521380571087718,0.07202339163979793,0.01696644906041911,0.005275872576772631,11553.833155227883
1683559638218936681,56,1683559638218936681,camera_2,58,0,-0.1597843765274769,0.8882631671791585,4.640680114822998,-0.7160165157990445,0.6885182335299554,-0.08749900538824086,0.0748793379768749,0.024611741624539718,0.007646073446896386,11558.266348023648
1683559638225536823,57,1683559638225536823,camera_2,59,0,-0.15973198507824732,0.888074954101556,4.639645129959345,-0.7158401337330624,0.6884896124519612,-0.08749223656522938,0.0768118807450618,0.020521519651083512,0.006372159950304611,11558.19855762752
1683559638232272624,58,1683559638232272624,camera_2,60,0,-0.15976972158898947,0.888016681418526,4.639617963695906,-0.7158026428645018,0.6884984247260154,-0.08894575581069478,0.07539992136106237,0.02065174331437447,0.00641586380034868,11556.817614123469
1683559638238708496,59,1683559638238708496,camera_2,61,0,-0.15975033691791735,0.8880711295690648,4.639596414564191,-0.7158539273209618,0.6885900428791049,-0.08791220078384372,0.07528846219872676,0.0241024887545791,0.007485132617071083,11561.03326687135
1683559638245204687,60,1683559638245204687,camera_2,62,0,-0.15982697241214666,0.8884966587305917,4.641679637616349,-0.7158361339727589,0.6889602796446038,-0.0873701628431847,0.07265546789966552,0.023040555635816418,0.007160501545928466,11559.48990519228
1683559638251758337,61,1683559638251758337,camera_2,63,0,-0.15969771998754673,0.8878521516481404,4.638573189244717,-0.7156146561532291,0.6883745845190558,-0.09069281347802194,0.07622931765635806,0.017404322934453376,0.00540753480475938,11553.253842299979
1683559638258501291,62,1683559638258501291,camera_2,64,0,-0.15981506734879278,0.8886524199197403,4.642830249922283,-0.7159448307908027,0.688989180088586,-0.0872822201042463,0.07140534320666002,0.014190020949172322,0.004411967221319614,11557.276936985447
1683559638265173435,63,1683559638265173435,camera_2,65,0,-0.15978857180749767,0.8882026801964262,4.640396113327818,-0.7156900593535712,0.6887524085433527,-0.08815707736222873,0.0750745521409368,0.01670154977182392,0.005188856489823898,11556.687034725968
1683559638271650552,64,1683559638271650552,camera_2,66,0,-0.15977685051162752,0.888371687408197,4.641169315145616,-0.7159723284901935,0.6887795899689304,-0.08755093678552249,0.07280889194693262,0.019306383044749967,0.005998997550487587,11561.020684431554
1683559638278243541,65,1683559638278243541,camera_2,67,0,-0.15979569790761633,0.8882636685208558,4.640784905316817,-0.7158669145814979,0.6888916698311968,-0.0880922371535862,0.07212895117793118,0.01954476553146378,0.00607291414443007,11562.613450418345
1683559638284860610,66,1683559638284860610,camera_2,68,0,-0.15978224379532294,0.8882564715179723,4.640573755192231,-0.7157843617252326,0.6887776125926586,-0.08765894541747446,0.07452554722412559,0.019690597284352407,0.006116986205886957,11559.0978684855
1683559638291682243,67,1683559638291682243,camera_2,69,0,-0.15979706156520881,0.8884534106095898,4.641661855344317,-0.7157749592369126,0.688789016886757,-0.08774035736548032,0.07441456601330727,0.024451812234474346,0.007599912970203901,11553.721122418781
1683559638298378944,68,1683559638298378944,camera_2,70,0,-0.159768965550984,0.8881729519692139,4.6402202177262595,-0.715983405375909,0.688590267710643,-0.08797269896663155,0.07397304020403916,0.013585770255303942,0.004220232052663267,11561.153387593335
1683559638305052042,69,1683559638305052042,camera_2,71,0,-0.15981217565258476,0.8883964619672171,4.6414840778058775,-0.7158954217161443,0.688723340189213,-0.08821262396091363,0.07329692229833476,0.01814152302176808,0.005638973600052021,11555.749789363486
1683559638311738252,70,1683559638311738252,camera_2,72,0,-0.1598878373708797,0.8888354409132544,4.643773927216858,-0.71609227130501,0.6889358379146723,-0.08620669668445224,0.07174730420576965,0.01124455829631188,0.00349645060368436,11555.559662116138
1683559638318317651,71,1683559638318317651,camera_2,73,0,-0.15977597766501028,0.8882526502968167,4.640590534087675,-0.7160207463761855,0.6887573909031864,-0.08842992733940891,0.07146814105510521,0.033683035377180204,0.010466488251888798,11564.057647024993
1683559638324950933,72,1683559638324950933,camera_2,74,0,-0.15963404079691093,0.8876160744486415,4.637133547788003,-0.7155635439401813,0.6887174774468747,-0.09015496599937445,0.07422353365768625,0.020979478784283856,0.0065129348136231625,11567.803190108434
1683559638331650972,73,1683559638331650972,camera_2,75,0,-0.15987995736934973,0.8888277086593029,4.643693633882405,-0.7160945070021938,0.688750273875929,-0.08708315817646652,0.07244474335057272,0.018414813373965444,0.005727149725722529,11551.044598564009
1683559638338372468,74,1683559638338372468,camera_2,76,0,-0.15981640678237002,0.8882800211545288,4.640677545939037,-0.7159106719587945,0.6886378234740219,-0.08835980730469153,0.07377263930175479,0.024322397737705614,0.007557808767081261,11557.94763958639
1683559638344954013,75,1683559638344954013,camera_2,77,0,-0.15984160484629314,0.8887282023133192,4.64305211153024,-0.7161664566061229,0.688804531028293,-0.0864727115783488,0.07194716547169526,0.01619616977768601,0.0050349821276526,11557.734337981672
1683559638351752042,76,1683559638351752042,camera_2,78,0,-0.15970771480349513,0.8879558434055669,4.639055964061956,-0.7158256905825681,0.6886928152047476,-0.08766273694311463,0.07490681904200358,0.02106987378647318,0.006541245646011259,11565.670616574062
1683559638358300924,77,1683559638358300924,camera_2,79,0,-0.15989917632009998,0.8890393767184687,4.644779716740448,-0.7158892652099861,0.6890169203172177,-0.08612534636167887,0.073079875395105,0.00961566128898994,0.002991281061964245,11547.52483585394
1683559638365068197,78,1683559638365068197,camera_2,80,0,-0.1598022278856573,0.88831151944386,4.640989468749921,-0.7159598191390074,0.6885687622097875,-0.08735273632982402,0.07512720241705613,0.023023194811685244,0.007152975037582738,11556.566514040505
1683559638371576070,79,1683559638371576070,camera_2,81,0,-0.15986314411394303,0.8885905831156027,4.642335898861986,-0.7160315316837137,0.6887262079913855,-0.08773381646069658,0.07251091993432793,0.02450649695310858,0.0076190511194139535,11555.257802964028
1683559638378364324,80,1683559638378364324,camera_2,82,0,-0.15982059817341515,0.8884836862002464,4.641878935038933,-0.7159716289525118,0.6887957160214654,-0.0869211001063219,0.07341532865737609,0.03195369908644352,0.009929387174325045,11558.164256894106
1683559638385029315,81,1683559638385029315,camera_2,83,0,-0.15984353956006833,0.8885375479564165,4.6420409646279035,-0.7160498172667349,0.6885111304028012,-0.08715028607643256,0.07503272712975557,0.017724387773341732,0.00550878374819619,11552.301328583631
1683559638391481399,82,1683559638391481399,camera_2,84,0,-0.15975902984567047,0.8882741246827031,4.640796372458582,-0.7160089171484287,0.6888164827585517,-0.08669106072311691,0.07312826836985448,0.02221430130157387,0.006899696053253341,11565.19281186297
1683559638398125410,83,1683559638398125410,camera_2,85,0,-0.159771676180804,0.8882828830591323,4.640913793016935,-0.7161195848166688,0.6885536726270212,-0.08656027922878927,0.0746585441438352,0.016736524674342945,0.005198484513907141,11561.099083508423
1683559638405002832,84,1683559638405002832,camera_2,86,0,-0.1596704891167613,0.8876721739660656,4.637487763649963,-0.7156113626672554,0.688521926192937,-0.08973999368621279,0.07605700695057768,0.030187015247065574,0.009371486629358123,11562.688495957962
1683559638411339282,85,1683559638411339282,camera_2,87,0,-0.15971143115059408,0.8881138399416608,4.639847088680743,-0.715828664187582,0.6887339004344084,-0.08787018333587544,0.07425475607897586,0.020587614435498836,0.006394075033792576,11562.715775181627
1683559638418000221,86,1683559638418000221,camera_2,88,0,-0.15976246376276304,0.8883345191643461,4.641074371061244,-0.7160791581794186,0.6885908802689445,-0.08647624811257805,0.07480038331363817,0.020042952532094205,0.00622556277568706,11560.22585939016
1683559638424458742,87,1683559638424458742,camera_2,89,0,-0.15990442511902797,0.8888938575257564,4.64394510483766,-0.7160692456791328,0.6889032006316271,-0.0862831018010509,0.07219724299173436,0.023433719270542497,0.007286938677873138,11553.268807525603
1683559638431144952,88,1683559638431144952,camera_2,90,0,-0.15982323706090382,0.8884495899014953,4.641767173782462,-0.7159148852643811,0.6886173045380383,-0.08737975803258152,0.07507904390588982,0.019278154246421764,0.005991349093215628,11552.70960255151
1683559638438002109,89,1683559638438002109,camera_2,91,0,-0.15977564166734576,0.8884159921770292,4.641394215411032,-0.7157346047158994,0.6887775210018844,-0.0871389652891956,0.07560623587378487,0.013746138403803343,0.004271218830721425,11554.083227475132
1683559638444877624,90,1683559638444877624,camera_2,92,0,-0.1597779708810424,0.888185338464566,4.640326076275299,-0.7158528040610241,0.688609609456329,-0.08879519192477546,0.07407416940751682,0.016034126798331272,0.004982457034240807,11557.351736057739
1683559638451551914,91,1683559638451551914,camera_2,93,0,-0.1597885094114312,0.8882859494719355,4.640854277685946,-0.7158352041596883,0.6887456401262758,-0.08707642700132451,0.07501399571671348,0.021003076155466257,0.00652431477599907,11558.534411919478
1683559638458252906,92,1683559638458252906,camera_2,94,0,-0.15971668040476109,0.8880914464299298,4.639595257308801,-0.715925891972646,0.6884171187356827,-0.08792579304201409,0.0761645767582622,0.025405607360880822,0.00788982111501523,11558.674265563339
1683559638464944124,93,1683559638464944124,camera_2,95,0,-0.15974734645369523,0.8882872836150214,4.640866600530806,-0.7158046845355843,0.688877169413857,-0.08717054284894207,0.07398104836162858,0.01897150218792376,0.005893256531478252,11560.873662728134
1683559638471631288,94,1683559638471631288,camera_2,96,0,-0.15982677604042664,0.8884892523938215,4.641908725471919,-0.7161374985267388,0.6886063466616031,-0.08735229720678031,0.07306133528702859,0.018571667933429126,0.005772145823221482,11557.388877760259
1683559638478204727,95,1683559638478204727,camera_2,97,0,-0.1597951372495063,0.8881962799729495,4.640541318377539,-0.7159599422475622,0.6885631019283195,-0.08776973097429905,0.07469062916067493,0.013452237588353455,0.004179176222382467,11558.416877566026
1683559638484956979,96,1683559638484956979,camera_2,98,0,-0.1597123568762016,0.888062610245201,4.639555423891239,-0.7157734271105559,0.6884958192546801,-0.0892642581435235,0.07532463162421135,0.01687920050244429,0.005244030939534963,11556.178359749276
1683559638491664171,97,1683559638491664171,camera_2,99,0,-0.1599139351771297,0.8890416790002232,4.644807503137945,-0.716171796906974,0.6892490873388009,-0.08533744972467595,0.06892875011310387,0.015940286139084492,0.0049572755728640285,11560.35366589745
1683559638498351573,98,1683559638498351573,camera_2,100,0,-0.15976120469877717,0.887891744021347,4.638853592607573,-0.7159449122548394,0.6885723194810565,-0.08821919110496013,0.0742187158449583,0.01867466772091575,0.00579811267113492,11566.376468359324
1683559638505205869,99,1683559638505205869,camera_2,101,0,-0.15971332442561495,0.8880365890150548,4.639472824132899,-0.715659249037978,0.6888061417721101,-0.08803204596960895,0.0750219781518866,0.023389894973661285,0.007263646003834728,11561.944520603804
1683559638511762857,100,1683559638511762857,camera_2,102,0,-0.1598947274501663,0.8889378183978885,4.644322389028486,-0.7161420485027573,0.6886808511869431,-0.08629492575631925,0.07356926915100712,0.01217781752711744,0.0037876500253644285,11547.910971523463
1683559638518371582,101,1683559638518371582,camera_2,103,0,-0.15988912491149654,0.8889095263238956,4.644123621120466,-0.7161610073749087,0.6890047303193617,-0.08605891326293323,0.07056739021178646,0.016743124186177738,0.00520649731129588,11557.249846050789
1683559638524998188,102,1683559638524998188,camera_2,104,0,-0.15982717811613614,0.8884204086129747,4.641557517100023,-0.7159295780574136,0.6885615601070645,-0.08817783007447147,0.07451501519034014,0.015053985887789167,0.004679441278589749,11552.33617914261
1683559638531651735,103,1683559638531651735,camera_2,105,0,-0.15970204900521257,0.8880214148227772,4.639362396840707,-0.7158310557281937,0.6886776677937488,-0.08823125031272958,0.07432506983161971,0.01574785206321394,0.004890521477570852,11563.611793839724
1683559638538210391,104,1683559638538210391,camera_2,106,0,-0.1598483608956476,0.8885641328549007,4.642188271842334,-0.7159959857730877,0.688742180009036,-0.08775632410717676,0.0726827724596491,0.01952406765849446,0.006069615926112839,11555.470405772969
1683559638545013427,105,1683559638545013427,camera_2,107,0,-0.15979396501770649,0.8883115250592726,4.641005432844283,-0.7158434356153993,0.6887983722638565,-0.08714418338428627,0.07436981481279525,0.020484114364080597,0.006363483943797133,11559.215632301104
1683559638551612377,106,1683559638551612377,camera_2,108,0,-0.15975097713615954,0.8881018002471259,4.639904699324925,-0.7157643698860849,0.6883598858836665,-0.08901735924880476,0.07692817468373306,0.021039920015027747,0.006537190138369499,11550.990509983287
1683559638558437824,107,1683559638558437824,camera_2,109,0,-0.15983333879380573,0.8885960974344222,4.642380598544325,-0.7161428506619765,0.6887442973484872,-0.08722437222314934,0.07185136885233628,0.023181843222118914,0.00720593090164145,11558.561433850555
1683559638565233707,108,1683559638565233707,camera_2,110,0,-0.1597939832032953,0.8885687829519859,4.642204318305911,-0.7158022174804506,0.6889751806283203,-0.08657798685547524,0.07378779113306193,0.022148421900055833,0.006882937553403422,11556.874427730867
1683559638571688890,109,1683559638571688890,camera_2,111,0,-0.15977233206152947,0.8882050844096194,4.640375821414301,-0.7158271390015056,0.6887349112214511,-0.0878597985518885,0.07427236991049056,0.020174024994048523,0.006266996120618794,11560.017459706287
1683559638578298330,110,1683559638578298330,camera_2,112,0,-0.1598369417826191,0.8884359263507265,4.641760418401127,-0.7161059976688815,0.6886532101316033,-0.08751323731567699,0.07273506425805645,0.012873973486421164,0.004001222854383859,11558.34621059874
1683559638585085868,111,1683559638585085868,camera_2,113,0,-0.15989015450082017,0.8887631925059178,4.643270124677717,-0.715905055128463,0.6887815490902388,-0.08746237132921271,0.07355449188074203,0.015883189371379558,0.0049396331273904685,11548.91960331604
1683559638591721057,112,1683559638591721057,camera_2,114,0,-0.15976523392225872,0.8882787994528357,4.6407574851230535,-0.7159841192534866,0.6886702445175887,-0.08780143744436729,0.07342304049545062,0.01479363606631523,0.004596370599814781,11560.58161426017
1683559638598334789,113,1683559638598334789,camera_2,115,0,-0.1597722802209696,0.8882374242510264,4.640523103858455,-0.7158944501115401,0.6887241794325174,-0.08794210569890859,0.07362287015420778,0.01902891635108972,0.005911787814298116,11560.681709645272
1683559638605203151,114,1683559638605203151,camera_2,116,0,-0.15983891725513077,0.8885224718322101,4.642146940632269,-0.7161825204473173,0.6886460220694406,-0.08684204340327928,0.07285405404784381,0.023771177078742767,0.0073877437720484525,11558.581524760317
1683559638611626863,115,1683559638611626863,camera_2,117,0,-0.15976678952687542,0.8883597662528915,4.641174979313044,-0.7159393351917922,0.6887511107520119,-0.0871250271249884,0.0739053814784457,0.009676169902377296,0.003006244918940102,11559.709308069847
1683559638618293285,116,1683559638618293285,camera_2,118,0,-0.1598511483666104,0.8886339624555084,4.642564999281841,-0.7160229818375251,0.6887265369254988,-0.08778776354812708,0.07252692869773851,0.01588011938292766,0.004937671294669747,11553.8920096877
1683559638624955892,117,1683559638624955892,camera_2,119,0,-0.15987684067766064,0.8889234255311512,4.644183415595132,-0.7160626937301716,0.6890173522679034,-0.08401461810911143,0.0738298778652557,0.014480612171610119,0.004500367417599646,11555.951822993422
1683559638631578922,118,1683559638631578922,camera_2,120,0,-0.15983211785046106,0.8885494740639591,4.642140984116222,-0.7157703612134976,0.6887286330777767,-0.08866242196099892,0.07392316902789077,0.014674147590994835,0.004563099622947869,11549.192397564459
1683559638638288736,119,1683559638638288736,camera_2,121,0,-0.15983748672019316,0.8884659030559219,4.641799260078417,-0.7160118672533815,0.6887519076802815,-0.08708415721577308,0.07324046136608992,0.019563661677238997,0.006079496094299665,11558.400781600209
1683559638645154953,120,1683559638645154953,camera_2,122,0,-0.15974180231579505,0.8880126545711623,4.63935491034788,-0.7157957377505608,0.6886098279993836,-0.0890135477352635,0.07436097713432653,0.020284847432776587,0.006301103515010911,11560.628266984513
1683559638651529312,121,1683559638651529312,camera_2,123,0,-0.15975707622876817,0.8882365946387121,4.640606612155233,-0.7159334151924309,0.6885593671055509,-0.08736452210490693,0.07545053518356973,0.01485333934033406,0.004613999856182885,11557.59843007152
1683559638658240795,122,1683559638658240795,camera_2,124,0,-0.15981148706994358,0.8885071973925507,4.642009138395124,-0.7159933975826797,0.6885094538711761,-0.08761069654274464,0.07505033243977512,0.01365759414693457,0.004245417692107719,11550.782070968067
1683559638665025472,123,1683559638665025472,camera_2,125,0,-0.15989115586281477,0.8888445494210816,4.643618303093894,-0.7160195201110755,0.6887260874732816,-0.08784343442773729,0.07249796053400727,0.020812796494283248,0.0064743449960914185,11548.515041718594
1683559638671752214,124,1683559638671752214,camera_2,126,0,-0.1598305662270883,0.8886973136524248,4.64295861127408,-0.7160317917598787,0.6888568781598584,-0.08726420101010643,0.07183059113678189,0.02426158238449716,0.007543741334999099,11555.64183178599
1683559638678252458,125,1683559638678252458,camera_2,127,0,-0.15981571756545332,0.8883155182831524,4.64103530523555,-0.7160213113240932,0.6885742960827423,-0.08753629558460217,0.07427191568289808,0.016635495299851755,0.005168775275396418,11557.904491844845
1683559638684980630,126,1683559638684980630,camera_2,128,0,-0.15979388616381085,0.8883324051314223,4.64096222515726,-0.7159644115374157,0.6887674443032199,-0.08739842207237929,0.07318391147752924,0.025229847222362878,0.007838674114376188,11561.63828046249
1683559638691734552,127,1683559638691734552,camera_2,129,0,-0.15969370579205677,0.8878248094258053,4.6383048688408826,-0.7157518447653575,0.688530662889896,-0.08946280694614735,0.0749748567768198,0.018233563911053352,0.005662145924198748,11562.5705893999
1683559638698361158,128,1683559638698361158,camera_2,130,0,-0.1598271009847672,0.8885279940302443,4.6419025671560705,-0.7161354693947969,0.6885959787632484,-0.08614329870136915,0.07459825463524165,0.02193932778027374,0.0068161570447505815,11557.770159603591
1683559638705162286,129,1683559638705162286,camera_2,131,0,-0.15966358190698363,0.8877522457583336,4.6379875852282435,-0.7157239025529076,0.6886160178408696,-0.08913973054124386,0.07484239257569,0.015958809046423994,0.004954672719272585,11565.7430921058
1683559638711883068,130,1683559638711883068,camera_2,132,0,-0.15983648292663755,0.8886196009263642,4.642598679919952,-0.7159375811259088,0.6889194797540791,-0.08698458981999171,0.07250525140153272,0.01715594025881728,0.005333110649002432,11556.713514126895
1683559638718415260,131,1683559638718415260,camera_2,133,0,-0.1597515630336669,0.8880879516324292,4.6396012460986995,-0.7157709475610435,0.6885932064314729,-0.08876249889274468,0.07505041954782388,0.03632064673729474,0.01128230854919015,11558.502555961997
1683559638725073575,132,1683559638725073575,camera_2,134,0,-0.15987489212490225,0.8888712283366451,4.643914151128833,-0.7160768680126681,0.6888828559736914,-0.08556736302280181,0.07316116611989042,0.017674693779554218,0.005494999520860683,11553.5718031193
1683559638731465578,133,1683559638731465578,camera_2,135,0,-0.15982798265748566,0.8884977237886527,4.641966671223784,-0.7160427169101121,0.6885158331549562,-0.08811302996986116,0.07392475231241459,0.02321516034862725,0.007217275152671082,11552.100789329575
1683559638738115072,134,1683559638738115072,camera_2,136,0,-0.15978324180091413,0.8884064010370678,4.641401281771121,-0.7161891872872401,0.6885360255604236,-0.08627945121253015,0.07447849230994902,0.022017225324816536,0.006839297532792694,11560.14312926878
1683559638744848012,135,1683559638744848012,camera_2,137,0,-0.15992173702413817,0.8889613143954602,4.644180600869935,-0.7160446129526177,0.6889570542378997,-0.08603997005418736,0.07221781795683323,0.023536638404038968,0.007319596027451361,11552.949304186921
1683559638751421928,136,1683559638751421928,camera_2,138,0,-0.15976252558800907,0.8881346845849817,4.640112097223297,-0.7158785277833192,0.6885602991219101,-0.08841740369245729,0.07473292886150179,0.01146233978215605,0.0035610699354130964,11558.086635218482
1683559638757946014,137,1683559638757946014,camera_2,139,0,-0.15980884591203978,0.8884473189483747,4.641750201657364,-0.7159553715670985,0.6890394412609119,-0.08626807039109426,0.07204425266504973,0.01835400693016709,0.005702149067000668,11564.668645823815
1683559638764674186,138,1683559638764674186,camera_2,140,0,-0.15983819213778716,0.8886865605221005,4.642864910954849,-0.7160740030452617,0.6886739053693858,-0.08546975478337882,0.07524091468929658,0.019257034437032416,0.005984012481880246,11553.691968876967
1683559638771283626,139,1683559638771283626,camera_2,141,0,-0.15969544912678124,0.8877453886485966,4.637875853907515,-0.7157800840625507,0.68839697831991,-0.09074054600232198,0.07439505904712833,0.014599506212107372,0.00453462694488014,11561.393800013584
1683559638777804851,140,1683559638777804851,camera_2,142,0,-0.15977589552284047,0.8882560617930547,4.640734065666101,-0.7157519139274426,0.6889145514181995,-0.08726842272981802,0.07402810917289213,0.013714787892240565,0.004260431885364759,11561.045050734156
1683559638784500122,141,1683559638784500122,camera_2,143,0,-0.1598917245306622,0.8887514349740119,4.643262787898571,-0.7161190117530342,0.6888156143565966,-0.08686493919680825,0.07184074583923229,0.016855096946528647,0.005240779007651798,11555.465818141585
1683559638791241168,142,1683559638791241168,camera_2,144,0,-0.15984648218408953,0.8886356962687941,4.642533030779696,-0.715895672671134,0.6886930926604381,-0.08698062822468608,0.07503052902775728,0.014241041008062894,0.00442676728052544,11550.464259373055
1683559638797774791,143,1683559638797774791,camera_2,145,0,-0.1598031043417361,0.8882315646208594,4.640364736530878,-0.7158536888749527,0.6884062702465933,-0.08874923904585393,0.07598602357064622,0.022792466268583667,0.007082277494114029,11552.193947098596
1683559638804468393,144,1683559638804468393,camera_2,146,0,-0.1598530329138152,0.8885659695366338,4.642269804698444,-0.7157695054277163,0.6886907338202003,-0.08792386101394974,0.07515638971076236,0.012654547103011282,0.003934468351916132,11548.014004400717
1683559638811209917,145,1683559638811209917,camera_2,147,0,-0.15979394807043448,0.888430725108311,4.6416200996428465,-0.7159948980085737,0.6887427577778996,-0.08635184829215176,0.0743510452563716,0.015085716411704198,0.004686753465775569,11559.120912832892
1683559638817773580,146,1683559638817773580,camera_2,148,0,-0.15983249668387603,0.8885805175635355,4.642403321262516,-0.7161755640142081,0.6887250758458046,-0.08732227956945338,0.07159015924633848,0.02036535946535878,0.006331120779831449,11558.795903061753
1683559638824527263,147,1683559638824527263,camera_2,149,0,-0.15964129429533208,0.8875800387905856,4.637148473160544,-0.7158449447375076,0.6884015741187751,-0.08931132574110921,0.07545048004428387,0.015193143426586175,0.004715524656445137,11567.662520499174
1683559638831175088,148,1683559638831175088,camera_2,150,0,-0.15977046688179622,0.8883410257436842,4.641101775496666,-0.7158342436341661,0.6888399303778794,-0.08647611309287041,0.07485163873990167,0.022138869535410777,0.006876727426628728,11559.94575108579
1683559638837706089,149,1683559638837706089,camera_2,151,0,-0.1598443737094152,0.8884359413076398,4.641521713533718,-0.7160677174443496,0.6884767300501111,-0.08715221534683967,0.07517517923945292,0.02360979938021046,0.00733619063887698,11554.464926876884
1683559638844411373,150,1683559638844411373,camera_2,152,0,-0.1597590303513243,0.8882974898442401,4.641016354742918,-0.7160294493091781,0.6887004667965181,-0.08750853179217949,0.0730462293334185,0.009434976607735734,0.0029315042870366693,11561.343750990367
1683559638851141691,151,1683559638851141691,camera_2,153,0,-0.15980548503518552,0.8882883040108642,4.640674086912945,-0.715997475776998,0.6885783313870845,-0.08703411830261219,0.07505037292667305,0.02459918410750106,0.007640830249032746,11559.480849915193
1683559638857780694,152,1683559638857780694,camera_2,154,0,-0.15981510601588578,0.8884955869383717,4.641975789296599,-0.7160863863902672,0.6887601290742735,-0.08548428416722946,0.07431156696326298,0.019987808922451222,0.006208864320508408,11560.526136886683
1683559638864468812,153,1683559638864468812,camera_2,155,0,-0.15978643382826488,0.888248375536736,4.640652238877471,-0.7158442235393085,0.688679970478596,-0.08730174507293142,0.07526852724894843,0.01843342656866298,0.00572593888022048,11558.029269103772
1683559638871295928,154,1683559638871295928,camera_2,156,0,-0.15978860873780024,0.8883352985991669,4.640977018153778,-0.7159120110450718,0.6887704566024331,-0.08755588732832634,0.07347936545198315,0.016352696555259172,0.005080892166882821,11560.222777061601
1683559638877821922,155,1683559638877821922,camera_2,157,0,-0.15972679493970351,0.8879567783044886,4.63911211827993,-0.7158152362897716,0.688532587420327,-0.08826206765654053,0.07577091109839329,0.02483341875267797,0.007711203886267727,11560.859137138568
1683559638884798049,156,1683559638884798049,camera_2,158,0,-0.15986812181122226,0.8886963339533339,4.643121841255046,-0.7160053228712254,0.6887880670614374,-0.08722650962994276,0.07279362823502254,0.011645540511381114,0.003621305179775915,11552.49726443172
1683559638891627788,157,1683559638891627788,camera_2,159,0,-0.1598455046531852,0.8888066638248233,4.643537372004477,-0.7160521863932944,0.6890938821253768,-0.08571416780350513,0.07121776054126354,0.02390907603330561,0.007432134888117757,11559.822850684668
1683559638898573398,158,1683559638898573398,camera_2,160,0,-0.15971789419186194,0.8880468202816274,4.639627196441084,-0.7158560383773369,0.6886283288770993,-0.0888581881252364,0.07379281394376042,0.014150501425319817,0.004395884966637052,11561.369987860657
1683559638905369758,159,1683559638905369758,camera_2,161,0,-0.1597784506825633,0.8881423365227212,4.640142040525695,-0.71604639297192,0.6886462235460544,-0.0874427480484356,0.07346909364758941,0.017831118955655256,0.0055380403797345434,11564.799758420282
1683559638912079334,160,1683559638912079334,camera_2,162,0,-0.15979583973558986,0.888320797380585,4.64100098681528,-0.7159773372338478,0.6884780468204128,-0.08728836489170227,0.075862856315931,0.02728541012402275,0.008477067967863952,11554.787257302803
1683559638918533325,161,1683559638918533325,camera_2,163,0,-0.1597433110334087,0.8880065572569449,4.639232685602245,-0.7158227950128364,0.6886679759806233,-0.08852088258139745,0.07414983712573459,0.023014442835119553,0.007147417066929346,11563.600753234816
1683559638925251007,162,1683559638925251007,camera_2,164,0,-0.15984221696675643,0.8885925035555413,4.642379279082049,-0.7158601024559872,0.6888642633908368,-0.08728070313301392,0.07343309332521708,0.013903533850680105,0.004322198780635741,11554.360199515071
1683559638931766748,163,1683559638931766748,camera_2,165,0,-0.15978512315541832,0.8883321260669557,4.641088948278479,-0.7158277307476144,0.6887510709006499,-0.08716633771185565,0.0749309802140063,0.027542722229554784,0.008556895529806749,11557.28522871925
1683559638938366174,164,1683559638938366174,camera_2,166,0,-0.1598497650653781,0.8886703995291556,4.642922282233073,-0.7158278396349143,0.6890180915790295,-0.08654790754177917,0.07317125925213519,0.006397008852218278,0.001988615112574343,11554.96238498748
1683559638945285558,165,1683559638945285558,camera_2,167,0,-0.1597709503016999,0.8882157796343725,4.640396727263136,-0.715889856569922,0.6884707138081924,-0.08867192383924821,0.07514705191410627,0.01501356306107482,0.0046652523976330705,11554.632677949761
1683559638951759815,166,1683559638951759815,camera_2,168,0,-0.15977619911018381,0.8880752049630924,4.639720400776415,-0.7156419319699072,0.6886801904003886,-0.08844467307205704,0.0758535454783789,0.018899175996921258,0.0058704340539175994,11556.89218470766
1683559638958419561,167,1683559638958419561,camera_2,169,0,-0.15985632659448062,0.8885812350689357,4.642342416029401,-0.7160510462815287,0.6888995056780551,-0.08605406258635728,0.07268471990757498,0.019225076328439172,0.005973893843926918,11560.836648327397
1683559638965127944,168,1683559638965127944,camera_2,170,0,-0.15972974629448639,0.8879552265676937,4.639090063666735,-0.7158248597762389,0.6884600831335851,-0.08832748916298325,0.07626099078944795,0.02633785252692178,0.008178635450476562,11559.417707638002
1683559638971583127,169,1683559638971583127,camera_2,171,0,-0.1597209824786754,0.8879258724573375,4.638984566376929,-0.7158102718537613,0.6886450381741567,-0.08876278705751463,0.07419456678585613,0.01986732389923418,0.006169833153148567,11563.836669466833
1683559638978376150,170,1683559638978376150,camera_2,172,0,-0.15978358769078532,0.8882429092222366,4.64072876634274,-0.7158729469379006,0.6888024973373864,-0.08786268794865568,0.07319283824707715,0.017198818448378006,0.005343528199624257,11561.044670280682
1683559638985281944,171,1683559638985281944,camera_2,173,0,-0.1598256137139059,0.8884650933318536,4.641852697572349,-0.7159122665715935,0.6889318760175291,-0.08773135448328682,0.07173357804974824,0.018034809494565707,0.005605860110299583,11559.643568732437
1683559638991782903,172,1683559638991782903,camera_2,174,0,-0.1597934947211953,0.8882205368386804,4.640407403208872,-0.7155863976747723,0.6889289465154224,-0.08791580372954763,0.07472499963587094,0.02315852570245625,0.007194266127822182,11558.424231723584
1683559638998346328,173,1683559638998346328,camera_2,175,0,-0.1597220683582392,0.8878645148554591,4.638402685355054,-0.7158464200346164,0.6883190532738268,-0.08878132292327315,0.07680273773661939,0.028973319629585603,0.0089958158602564,11559.681653237421
1683559639005204677,174,1683559639005204677,camera_2,176,0,-0.15977897162747534,0.8882030224019335,4.640628203225572,-0.7159679942983307,0.6886266145402964,-0.08861823604486993,0.07300702108353252,0.01577745212125592,0.0049028726180698635,11559.24921467085
1683559639011880874,175,1683559639011880874,camera_2,177,0,-0.15982386776853486,0.8884775492836697,4.641822639587867,-0.7159485382427595,0.6886314780599856,-0.08761057630272732,0.0743556651027998,0.017967528729059268,0.00558459963140221,11553.510511926605
1683559639018422603,176,1683559639018422603,camera_2,178,0,-0.1597639704454618,0.8883791180692111,4.641441481446759,-0.7158902230061909,0.6887082120415483,-0.0871248716687704,0.07477595875266588,0.013825690508383559,0.004296016111558714,11556.1353669792
1683559639025007724,177,1683559639025007724,camera_2,179,0,-0.15984246075734132,0.8886672823972515,4.642685857402584,-0.7160495791102318,0.6885869763613996,-0.08854395298940074,0.07267010823258695,0.02218731737957569,0.006900890800154615,11550.190960105188
1683559639031877517,178,1683559639031877517,camera_2,180,0,-0.1598095190722511,0.8885356388686353,4.642128706824073,-0.716109774998162,0.6887959143462897,-0.08638350465624059,0.0726971021103735,0.015705510013503954,0.004880373049958931,11560.750361238785
1683559639038386583,179,1683559639038386583,camera_2,181,0,-0.1598027947791876,0.8884707173902295,4.641796340590123,-0.7160406107547969,0.6889498511243501,-0.08635751048923865,0.07194669393192683,0.01474344804591965,0.0045806950940722084,11564.378419265793
1683559639045063257,180,1683559639045063257,camera_2,182,0,-0.15979593648332108,0.8882146564733733,4.640344750807519,-0.7160191144744398,0.6886599353167051,-0.08764967870969553,0.07335976430522256,0.018939307985419873,0.0058827719205711785,11563.257822863452
1683559639051709413,181,1683559639051709413,camera_2,183,0,-0.15984774137053964,0.8886661821661975,4.642800974284492,-0.7158866701316462,0.6889200321737231,-0.08815419919466003,0.07158422984099255,0.01768591476502479,0.0055004087699342015,11553.768231214057
1683559639058427572,182,1683559639058427572,camera_2,184,0,-0.1597264388483215,0.8878753605655518,4.638469004750059,-0.7157047666441784,0.6882681004844163,-0.0883590381318476,0.07903410174595928,0.030466931322735036,0.009458468904648538,11554.65778893535
1683559639065011024,183,1683559639065011024,camera_2,185,0,-0.15983234753505615,0.8886228472049215,4.642604899381208,-0.7159123451896496,0.6889185412454866,-0.08689015682654716,0.07287563502230957,0.019846028597385157,0.006169238244596356,11556.094956032044
1683559639071665763,184,1683559639071665763,camera_2,186,0,-0.15983726066412868,0.8886730093162171,4.642796381213834,-0.7161360543007708,0.6888742739629065,-0.08523135669885391,0.07305478928773099,0.020295332204113947,0.0063060700541341394,11560.59551234424
1683559639078311204,185,1683559639078311204,camera_2,187,0,-0.15986484256055927,0.8885179545785837,4.641880946627379,-0.7160525352871303,0.6887561268950037,-0.087998669341102,0.07169378332646609,0.019970684668805916,0.0062080864459588365,11558.572417188963
1683559639084962129,186,1683559639084962129,camera_2,188,0,-0.15985352340547054,0.8885592193639756,4.642151425653035,-0.7158827877616948,0.6887421000285096,-0.0879853774529992,0.07351684969662667,0.021522285769606245,0.006691043686314506,11552.649579229215
1683559639091667413,187,1683559639091667413,camera_2,189,0,-0.15973248108569038,0.8880539623921734,4.639605617208678,-0.7158415496589564,0.6887491459860098,-0.08794826374211788,0.07389582254872766,0.018395609469735064,0.00571296633305631,11564.549030047707
1683559639098373413,188,1683559639098373413,camera_2,190,0,-0.15972435550160824,0.887998856288607,4.639277374317237,-0.7159548939726936,0.688635572566235,-0.08764820165922016,0.0742120659921771,0.01801255422469694,0.005592578419474033,11566.439979860255
1683559639105137348,189,1683559639105137348,camera_2,191,0,-0.15993389855236056,0.8889824468734566,4.64452654026553,-0.7161877791338729,0.6888776446800462,-0.08643539305075776,0.07107445749018504,0.01824903111628373,0.005676473629224698,11552.629669875025
1683559639111583232,190,1683559639111583232,camera_2,192,0,-0.15974783858428127,0.8880793632769772,4.639611487370672,-0.715853374329794,0.6884029342761597,-0.08861504631239586,0.07617558734708198,0.017254247755772667,0.005359566372974941,11555.97638543636
1683559639118245601,191,1683559639118245601,camera_2,193,0,-0.15983611010653231,0.8886315313137861,4.642570682463698,-0.7157456782740123,0.6887857292001182,-0.08754827661270109,0.07495093424689139,0.021857224539417075,0.006795673965455712,11548.466847153353
1683559639125146150,192,1683559639125146150,camera_2,194,0,-0.15981332330154627,0.8884304811784707,4.64175067284363,-0.7157363761114508,0.689075181562335,-0.08770722090642347,0.07214067830672685,0.00982307722006226,0.0030531772622209765,11559.20195962541
1683559639131880998,193,1683559639131880998,camera_2,195,0,-0.15973302480732446,0.887937245929864,4.63886443223725,-0.7155526194325976,0.6885767025348482,-0.08894620280057572,0.07703990236716422,0.01515708168517449,0.004707115943952035,11556.077931519063
1683559639138510704,194,1683559639138510704,camera_2,196,0,-0.1597526242745717,0.8881974953414591,4.640378816807662,-0.7157763260810355,0.6887053193067619,-0.08813064207845897,0.074714283154863,0.014492348032945301,0.004502429007401475,11557.869621380785
1683559639144976377,195,1683559639144976377,camera_2,197,0,-0.1597954942888146,0.8883576391349277,4.641105332774305,-0.715947541773883,0.68872088158182,-0.08810308022143294,0.07294183954761785,0.02111927951409598,0.006563394064519404,11558.971848758594
1683559639151662826,196,1683559639151662826,camera_2,198,0,-0.15971929279288538,0.8879939962232909,4.6391266671266225,-0.7158730243633605,0.6884489776414704,-0.08813407243778106,0.07613280139861968,0.02453723502185312,0.007619194739677326,11560.312418067391
1683559639158296108,197,1683559639158296108,camera_2,199,0,-0.15970295641063603,0.8879168967288902,4.638892466208472,-0.7157360181617095,0.6886042889668424,-0.08952492008446963,0.07437320892875184,0.022985327701462666,0.007139815232018879,11561.035573382105
1683559639165103435,198,1683559639165103435,camera_2,200,0,-0.15984722460871248,0.8884760051565223,4.64181397566248,-0.7160283198376937,0.6889581345377119,-0.08640560696171729,0.07193194791122304,0.029740278903773287,0.009240349594023999,11564.120881217172
1683559639171645879,199,1683559639171645879,camera_2,201,0,-0.15986311234049388,0.8887700634519838,4.643366997029293,-0.7160488752379319,0.6891172527926669,-0.08607735591679043,0.07058405607752001,0.02334743870960665,0.007258041464429131,11560.928806400054
1683559639178297758,200,1683559639178297758,camera_2,202,0,-0.159811161993376,0.8883716117870808,4.641221101955211,-0.7157602180616631,0.6887894831090571,-0.08797398537209229,0.07427608024410959,0.019310562733153347,0.006000953220965072,11555.338094921533
1683559639185105562,201,1683559639185105562,camera_2,203,0,-0.15978328651066392,0.88823954807997,4.640497182263729,-0.7159031726393433,0.6884619579344381,-0.08855801547514239,0.07523468466809158,0.0217726043665607,0.006765698792754261,11554.331393813522
1683559639191695451,202,1683559639191695451,camera_2,204,0,-0.15982493605909698,0.8884625642303215,4.641848164574198,-0.7160177254697748,0.6888084097276966,-0.08771943535071795,0.07188109739871099,0.01375813423510408,0.0042765464576640785,11559.34831481113
1683559639198247671,203,1683559639198247671,camera_2,205,0,-0.1597787158277944,0.8882108372279669,4.6403738756873,-0.7159069316466855,0.6887359372766327,-0.08807997559289077,0.07322562272498635,0.026870981440879405,0.008348045209072338,11561.950116646218
1683559639205224037,204,1683559639205224037,camera_2,206,0,-0.15975239013917206,0.8881568785770062,4.640143637271058,-0.7155994537694966,0.6887245767772097,-0.08877499504505118,0.07546442448334706,0.01870092713579652,0.005810483178258037,11554.652878689927
1683559639211879730,205,1683559639211879730,camera_2,207,0,-0.15981205911621754,0.8884087091827153,4.641494641666205,-0.7157675246282861,0.6889749921569714,-0.08737318835780011,0.07318631583834219,0.016820127217215486,0.005226838713042488,11559.03227366762
1683559639218319892,206,1683559639218319892,camera_2,208,0,-0.15982915362454841,0.8885217042404445,4.642221790652382,-0.7163123430224153,0.6885875670832033,-0.08701221880192243,0.07192123101935133,0.01564075637725182,0.004861511514153219,11559.990823606138
1683559639224902629,207,1683559639224902629,camera_2,209,0,-0.1598039006438785,0.8883484528019181,4.64121710037234,-0.7159196912727668,0.6888683801499101,-0.08658453597521275,0.07363741309621391,0.01746186229865998,0.005424289951931395,11562.105778761532
1683559639231621742,208,1683559639231621742,camera_2,210,0,-0.1598483771257998,0.8884045447026765,4.641579255739244,-0.715982267019279,0.6890363943844006,-0.08727488901235357,0.07057856810364047,0.012012555340334075,0.0037328152302333975,11565.442795816318
1683559639238432407,209,1683559639238432407,camera_2,211,0,-0.1597756951808898,0.8881660353837264,4.6401602422013175,-0.7157367198449661,0.6886792320537448,-0.08876304496031441,0.07458542118139506,0.013304828611580888,0.004134029434772201,11556.94371536018
1683559639245008707,210,1683559639245008707,camera_2,212,0,-0.15971285028663337,0.8880341071884243,4.639464365248163,-0.7157320697769491,0.688860817645187,-0.08811023837205878,0.07372220900127567,0.020535301409836393,0.006377267643072227,11565.110517239953
1683559639251596689,211,1683559639251596689,camera_2,213,0,-0.15986468658382266,0.8886498548110962,4.642620370258232,-0.7160585817558841,0.6888984574192385,-0.08613160398710301,0.07252840584043142,0.021194259978074115,0.006586613369595908,11559.564351330864
1683559639258219957,212,1683559639258219957,camera_2,214,0,-0.15969394495129735,0.887951209397166,4.638905335294195,-0.7159436231221169,0.6883444287060729,-0.08860875855509466,0.07586279646448013,0.02369180347159272,0.00735712483009537,11560.425554994785
1683559639265072822,213,1683559639265072822,camera_2,215,0,-0.15979692789757977,0.8882328296577745,4.64039790403746,-0.7158883567648052,0.6886333110264997,-0.08979131227158246,0.07228792315327745,0.023599841973918956,0.007335690470829301,11557.832445745502
1683559639271673202,214,1683559639271673202,camera_2,216,0,-0.15969938668574493,0.8879908106396859,4.639232065638859,-0.7157351829755942,0.68858936315827,-0.08874229416432514,0.07544959922115728,0.018847863822884392,0.005853930458843222,11559.403015188294
1683559639278458356,215,1683559639278458356,camera_2,217,0,-0.1599000629493278,0.8888404395689832,4.643842374582306,-0.7160900146942515,0.6888265389267078,-0.0865552345462293,0.0723966953533581,0.012083588881068863,0.003757766984988267,11552.310382284804
1683559639285043954,216,1683559639285043954,camera_2,218,0,-0.1597363660563333,0.8881189801174872,4.639942670277847,-0.7158577451432898,0.6885643133357439,-0.08806414712744394,0.07530990047501353,0.015426360892888624,0.0047916726874713735,11558.71904393041
1683559639291617631,217,1683559639291617631,camera_2,219,0,-0.15987246645306685,0.8888278740645548,4.64369157300207,-0.7160031228700456,0.6890387254904443,-0.08561965388574083,0.07234941384235646,0.018992128992977086,0.005904078615617656,11556.547160021903
1683559639298285245,218,1683559639298285245,camera_2,220,0,-0.1598242982241596,0.8884240787785147,4.641666565515307,-0.7159482294747228,0.688752124180084,-0.0872630470652587,0.07364648509140354,0.014737229044840205,0.00457982269898934,11557.396527419689
1683559639305063962,219,1683559639305063962,camera_2,221,0,-0.15980985543709447,0.8885980453396377,4.642488585133703,-0.7160501843420048,0.6889649436312633,-0.08576376127394283,0.07241558674137413,0.018446730176947312,0.005731903364946912,11561.891312340362
1683559639311416625,220,1683559639311416625,camera_2,222,0,-0.15990368696517704,0.888940849987629,4.6441978370333565,-0.7160248184167924,0.688907428431431,-0.08701376426295811,0.0717190301941033,0.015584569686325267,0.004847879969617957,11550.600549708208
1683559639318138837,221,1683559639318138837,camera_2,223,0,-0.1597944325528203,0.8882461272280813,4.640632765137236,-0.715975730305242,0.6885831096171425,-0.08704129255783838,0.0752055061396611,0.02645057126210304,0.008215527336536585,11559.239159145814
1683559639325082778,222,1683559639325082778,camera_2,224,0,-0.1597707471902614,0.8882192233913149,4.640452448198935,-0.7158984417197133,0.6885909718186151,-0.08899803837361024,0.07356115713357682,0.013866103854525136,0.00430928601806439,11557.319768032758
1683559639331617832,223,1683559639331617832,camera_2,225,0,-0.15978494310281494,0.8883719072374376,4.6413143145207805,-0.715854601106092,0.68878661850188,-0.08606327045902874,0.07561942690790417,0.016875476292625535,0.005241678347330616,11558.310742217043
1683559639338165283,224,1683559639338165283,camera_2,226,0,-0.15985869181704584,0.8885094105220563,4.64184813169577,-0.7159441583883318,0.6886130986655437,-0.0883272085542977,0.07371747855744402,0.023178305669716792,0.007205901623099787,11552.390314250995
1683559639345026731,225,1683559639345026731,camera_2,227,0,-0.15983632127124728,0.8886962402041387,4.642753937105605,-0.71588356122579,0.6888027788647436,-0.08644351871683868,0.07475945871085106,0.017451299590902636,0.005424363775823724,11552.056234680233
1683559639351637840,226,1683559639351637840,camera_2,228,0,-0.1598133698170486,0.8882780468332969,4.640742709599815,-0.7158178133843834,0.6888469118839085,-0.08793380371206229,0.0732286569201679,0.021669437344826292,0.0067328587900090065,11560.607208082496
1683559639358288049,227,1683559639358288049,camera_2,229,0,-0.15978712662292952,0.8882390909963284,4.64051478533794,-0.7161528669040987,0.6885367751576783,-0.08684619071100295,0.07416144307855005,0.023338706483627902,0.007248242128121704,11563.302059318634
1683559639365151643,228,1683559639365151643,camera_2,230,0,-0.1596922810120065,0.8879726448083127,4.639499763407383,-0.7157493046675479,0.6888872965553455,-0.08720287414977507,0.07438336005187962,0.013597462271718541,0.004221720344305514,11566.561053989924
1683559639371687650,229,1683559639371687650,camera_2,231,0,-0.15973589283283463,0.8880228086291464,4.6395274022452,-0.7156881275047842,0.6885947504640235,-0.08898742728307941,0.07555800134746567,0.011712993946275674,0.0036386807677523344,11556.692852204931
1683559639378446817,230,1683559639378446817,camera_2,232,0,-0.1598103465708725,0.8884802282009611,4.641881936417235,-0.7160031447273583,0.6886294269475574,-0.0878499893010655,0.07356214014161895,0.028630279513890855,0.008899621409429332,11554.44160785203
1683559639385362386,231,1683559639385362386,camera_2,233,0,-0.15988256324198302,0.8887199508204278,4.6431616948458885,-0.7159315632590769,0.6890115803682914,-0.08627693447574497,0.07253502206018649,0.02004058355669258,0.006229879677736379,11556.33927890178
1683559639391844511,232,1683559639391844511,camera_2,234,0,-0.15974637923224175,0.8879984086000229,4.639338452895879,-0.715852306011156,0.6886364282597113,-0.08776520429178028,0.07505074661747241,0.017486965502030216,0.005429741487859814,11563.466822120634
1683559639398666858,233,1683559639398666858,camera_2,235,0,-0.15983184345037718,0.8885231823765114,4.642259555568107,-0.7159803767812419,0.6888436765527842,-0.08624802079136708,0.07367338900177094,0.017343950225040317,0.005389519363142248,11558.044213106741
1683559639405220270,234,1683559639405220270,camera_2,236,0,-0.15975646684153522,0.8881561020348951,4.640028623610196,-0.7157542719876215,0.6885522123300332,-0.08829253270830979,0.07613213312943952,0.03271882654007641,0.010164044871052226,11555.230373233206
1683559639411712884,235,1683559639411712884,camera_2,237,0,-0.15967769467820317,0.8877515506378957,4.6381132535255905,-0.7157595418472775,0.6883204855493065,-0.09029626545819854,0.07582725019440412,0.013636671865242533,0.004235592537288367,11558.14782771081
1683559639417984962,236,1683559639417984962,camera_2,238,0,-0.15971251656203458,0.8879165467958655,4.63875327126052,-0.7158195633634464,0.6884809678501345,-0.08907898506284065,0.07524123892176066,0.026422285809530877,0.008205193255059437,11561.02442890004
1683559639424687623,237,1683559639424687623,camera_2,239,0,-0.15983152047146998,0.8884470634935987,4.641477855838952,-0.7158839960702938,0.6888241846078114,-0.08732677915933083,0.07352129291211487,0.033240009208384436,0.010328777556497118,11558.396494926943
1683559639431153297,238,1683559639431153297,camera_2,240,0,-0.1597865524081312,0.8881997514276938,4.640225538689344,-0.7157332867455664,0.688596947186599,-0.08887600995582069,0.07524068994910924,0.039858617332356516,0.012384752404339349,11554.431724184262
1683559639437851667,239,1683559639437851667,camera_2,241,0,-0.15983962530164258,0.8883924331450594,4.641376267229159,-0.7161078302018975,0.6887518916523998,-0.08728844594352261,0.0720495279202865,0.017356295858917292,0.005392975363458563,11562.784123463916
