%time,field.header.seq,field.header.stamp,field.header.frame_id,field.image_seq,field.transforms0.fiducial_id,field.transforms0.transform.translation.x,field.transforms0.transform.translation.y,field.transforms0.transform.translation.z,field.transforms0.transform.rotation.x,field.transforms0.transform.rotation.y,field.transforms0.transform.rotation.z,field.transforms0.transform.rotation.w,field.transforms0.image_error,field.transforms0.object_error,field.transforms0.fiducial_area
1684965453354266166,0,1684965453354266166,camera_1,1,0,0.22924269324469101,-0.10717813095036023,0.5182069876286179,0.9742250895199341,0.04490823840706771,-0.19152857197752965,0.11038809351238289,0.49121408874634653,0.04665267533251609,31945.15844389179
1684965453364722728,1,1684965453364722728,camera_1,2,0,0.22927117411988274,-0.10699040536122502,0.5181357470938079,0.9742224799943644,0.044793477569017436,-0.1915103744902145,0.11048927687120542,0.553511866251938,0.05255380148519003,31954.38438548497
1684965453374467611,2,1684965453374467611,camera_1,3,0,0.22938722696568897,-0.10683525730953813,0.5182456842350681,0.9743323971586937,0.04476077834023146,-0.1911072522562222,0.11023098795006339,0.5643050387734547,0.05357393157155881,31956.93177209784
1684965453384422302,3,1684965453384422302,camera_1,4,0,0.22943752845104615,-0.10674427485480417,0.5182879244915928,0.97431112466348,0.04473624553827633,-0.1912715748497247,0.11014393013974845,0.517800037167035,0.04916534547269098,31949.194495949418
1684965453394380569,4,1684965453394380569,camera_1,5,0,0.22931628281268499,-0.10672137299276792,0.5180498816699115,0.9742790964029372,0.04471371257853068,-0.1915401347426395,0.10996955488903438,0.5614127381122671,0.05326017351757149,31973.917269630838
1684965453404417753,5,1684965453404417753,camera_1,6,0,0.2292193738243399,-0.10706172568751125,0.5181115511679402,0.9741893610553095,0.044817198521582585,-0.1916637124761477,0.11050578646924068,0.596467581926845,0.056634091615160566,31953.41562510083
1684965453414414167,6,1684965453414414167,camera_1,7,0,0.229134248603527,-0.10719014212123726,0.5180302184080399,0.9740427730701593,0.04491003740729234,-0.19246684273767864,0.1103643022741486,0.5941258821403609,0.05642015683097712,31941.645693855597
1684965453424413919,7,1684965453424413919,camera_1,8,0,0.2291760881810878,-0.10724307418879599,0.5181410438660083,0.9742296762250378,0.04498539985414038,-0.19164456410039918,0.11011454405839985,0.5281461837003008,0.05014262921312655,31954.31382741849
1684965453434325218,8,1684965453434325218,camera_1,9,0,0.22927833046663706,-0.10717791288416595,0.5182735713891853,0.9742374828141638,0.04486915280228525,-0.19142879599429966,0.11046765259975427,0.497179358091671,0.04723148931064149,31938.633831798114
1684965453444228649,9,1684965453444228649,camera_1,10,0,0.22931946182186028,-0.10699062982561287,0.5182221279972591,0.9743397739420022,0.04475804704771015,-0.19094611302041517,0.11044593275226457,0.5185156683437526,0.049229083445025267,31960.013325191816
1684965453454464197,10,1684965453454464197,camera_1,11,0,0.22930359921076846,-0.10677449420425493,0.518040745719728,0.9742167031748016,0.044761932783427896,-0.1916007685938992,0.11039624134425836,0.5628488672082312,0.05341465407276005,31965.876419582397
1684965453464327096,11,1684965453464327096,camera_1,12,0,0.2293829843152749,-0.10676721354049318,0.5181952183206961,0.974323123182076,0.044739864641649536,-0.19138015297867433,0.10984731762965912,0.5310750611824915,0.05040206607422443,31961.571975394385
1684965453474437952,12,1684965453474437952,camera_1,13,0,0.22928517694533743,-0.10711528394196185,0.5182698812593961,0.9742700706651658,0.044893013888930404,-0.1914525666483982,0.11012884015462032,0.5742777364212088,0.05453972289271332,31945.06679148937
1684965453483832359,13,1684965453483832359,camera_1,14,0,0.2291750372524483,-0.10721805765624493,0.5181222801727112,0.9741942228514071,0.045016099644569034,-0.19159307158681127,0.1105045784375658,0.5658487771870568,0.05373105238061679,31952.579917787563
1684965453493141651,14,1684965453493141651,camera_1,15,0,0.22915873509967732,-0.10723444780080699,0.5180974602945854,0.9742099129966938,0.04496270864947892,-0.19163767809194407,0.11031047359795323,0.549632033042144,0.05218093420952112,31956.852580229737
1684965453502991199,15,1684965453502991199,camera_1,16,0,0.22930204771722845,-0.10717342357471858,0.5183135321013335,0.9742231669917439,0.04502138705413054,-0.19158034804788668,0.11026906114658605,0.4984500851132907,0.04735631451394997,31932.42068227997
1684965453513117551,16,1684965453513117551,camera_1,17,0,0.22936709457478038,-0.10679652565784811,0.5181749598490419,0.9742549704822377,0.044671808495501404,-0.1914180506574541,0.11041200975843025,0.5743226889753714,0.05452634762770146,31954.14415003895
1684965453523142337,17,1684965453523142337,camera_1,18,0,0.229420515479759,-0.1067299743386659,0.5182382718510173,0.9742650638982504,0.04472071823807225,-0.19176126817715206,0.10970532646457738,0.5181048642843962,0.049184326546883726,31947.70979673066
1684965453533545970,18,1684965453533545970,camera_1,19,0,0.22931956571438317,-0.10674353137012743,0.5180607175416502,0.9742156997472945,0.04469406046324543,-0.1917210870790263,0.11022357322475766,0.5689384361030534,0.05399261496873241,31963.186137791727
1684965453544604778,19,1684965453544604778,camera_1,20,0,0.22928682033488468,-0.1069037043946717,0.518113308391429,0.9741809083538282,0.04469109275916228,-0.1918153616338577,0.1103681614786375,0.5285906606004573,0.05018579304293344,31951.060769950273
1684965453554426908,20,1684965453554426908,camera_1,21,0,0.22925779888418843,-0.10710810690761147,0.518214965693912,0.9742407397025545,0.04502455480454893,-0.19146058341380515,0.11032051290361654,0.5587357761687599,0.053058419603638524,31948.8146844008
1684965453564325094,21,1684965453564325094,camera_1,22,0,0.229105400211526,-0.10718691999318206,0.5179620440768543,0.974039337597732,0.044976463802279855,-0.19253866852108115,0.11024222258346858,0.544928805611562,0.051732294960490324,31949.22592320806
1684965453574515342,22,1684965453574515342,camera_1,23,0,0.22926576841497218,-0.10715232495880776,0.518232841837959,0.974265242918573,0.04502738515108796,-0.19141950925091558,0.11017414626584614,0.5319193869945593,0.050512058124240436,31948.555154116708
1684965453584309577,23,1684965453584309577,camera_1,24,0,0.229274498224498,-0.1069424368757356,0.5180939167129903,0.9742023762172941,0.04482654772742899,-0.1914596186511626,0.1107408019537957,0.534645805018954,0.05076078022166614,31956.862846710723
1684965453594337701,24,1684965453594337701,camera_1,25,0,0.22928782530633626,-0.10675623626396749,0.5180004666168797,0.9741631629184696,0.04470458576335629,-0.19190976793681586,0.11035521281229756,0.6107943708775565,0.05796508256944406,31963.001296732677
1684965453604553461,25,1684965453604553461,camera_1,26,0,0.2293622686165163,-0.10677038090580529,0.5181571042247748,0.9742433049018948,0.04465739104914252,-0.19132706075664432,0.11067816451649803,0.5683244157698937,0.05395961360392677,31955.46972486842
1684965453614319324,26,1684965453614319324,camera_1,27,0,0.22935202047207506,-0.10694845142739898,0.5182691969737956,0.9742611248655717,0.044675071253800346,-0.19101970548475222,0.11104445371407617,0.5107694758917205,0.048522982794978596,31944.06009839753
1684965453624589681,27,1684965453624589681,camera_1,28,0,0.22915834898414766,-0.10722133879437767,0.5180859636976316,0.974163064308167,0.04501663659667343,-0.19183919358060716,0.11035193869428506,0.5608938356745057,0.05325562278392859,31952.03786526226
1684965453634192705,28,1684965453634192705,camera_1,29,0,0.22913511819105029,-0.10721001956183689,0.5180270743635396,0.974103488236424,0.045082710844994746,-0.19207416714874695,0.11044210113273335,0.5572446271544322,0.052907985158168976,31951.082683677545
1684965453644687414,29,1684965453644687414,camera_1,30,0,0.2292604543852221,-0.10713273705757036,0.5182081975611396,0.9742782950677092,0.04501114317149783,-0.1912747719155075,0.11031664597431891,0.5256102735875174,0.049908320413669584,31953.589996394338
1684965453654378652,30,1684965453654378652,camera_1,31,0,0.2293282298919279,-0.10694088051105291,0.5181932404177084,0.974235640342428,0.044800133201992706,-0.19138666022639347,0.11058486080404503,0.5372837781324051,0.05102250029329727,31949.015799269662
1684965453664538621,31,1684965453664538621,camera_1,32,0,0.22936386278376922,-0.10677751610014928,0.5181595386568333,0.9742897519769292,0.044838766314305376,-0.1912847050140498,0.11026842637778472,0.6414136976818553,0.06088043464427818,31962.3956210484
1684965453674407243,32,1684965453674407243,camera_1,33,0,0.22938858475762394,-0.10671523970719102,0.5181636962418067,0.974293005623179,0.04478048051150219,-0.19132162172514122,0.11019929591142198,0.5040681388927624,0.04784168026248033,31961.881442288053
1684965453684493064,33,1684965453684493064,camera_1,34,0,0.22935535912308921,-0.10697659371930526,0.5182952452882543,0.9741975628547284,0.04492966114879113,-0.19121436386758286,0.11116429790035176,0.5419818061636761,0.05150298854134087,31933.591390497517
1684965453694444656,34,1684965453694444656,camera_1,35,0,0.22924915155612863,-0.10714008055674977,0.5182012242997681,0.97421967561906,0.044986893061493734,-0.1913010701680073,0.11079757958521697,0.5178409229265526,0.04918620017481632,31946.84004678226
1684965453704377412,35,1684965453704377412,camera_1,36,0,0.22915906144057094,-0.10722848322419183,0.518089892929197,0.974219551880297,0.044975358530402805,-0.19158740823957127,0.11030751045717078,0.5466944459476508,0.0518991146694472,31959.12865699444
1684965453714354038,36,1684965453714354038,camera_1,37,0,0.22913828089053234,-0.10720685867990853,0.5180224832681061,0.9741590809637554,0.04509810875220572,-0.191738168921052,0.11052927278159438,0.5580761259188876,0.05297835799042816,31959.514578812756
1684965453724597930,37,1684965453724597930,camera_1,38,0,0.2293011054029997,-0.1071320222642668,0.5182721410967873,0.9743393478983359,0.04484437264054463,-0.1907235075691325,0.1107987411483045,0.5386180802015588,0.051157750229296674,31953.60053208378
1684965453734485387,38,1684965453734485387,camera_1,39,0,0.22929099743392378,-0.10691569170878329,0.5180925393660536,0.9742417406962074,0.04468800183396568,-0.19127146638844614,0.11077562603264753,0.5468518935376778,0.05191515575903618,31961.407086261912
1684965453744557380,39,1684965453744557380,camera_1,40,0,0.22938165488421342,-0.10671665023764908,0.5181494593926277,0.9742187139664228,0.044632619152266996,-0.19185325417514773,0.10999161571512625,0.5070563851040788,0.04813222011618143,31951.586725442663
1684965453754445552,40,1684965453754445552,camera_1,41,0,0.2293173074996107,-0.10696348090701116,0.5182114711589324,0.9742571710885339,0.044829111349853526,-0.19102357883727303,0.11101039449686563,0.5400070381583646,0.051288222582926424,31951.45998293848
1684965453764134407,41,1684965453764134407,camera_1,42,0,0.22926683931481928,-0.10714879204892783,0.518247129571785,0.9742723927696846,0.04507391331777537,-0.19129586047585012,0.1103065763672284,0.5901546123786829,0.05604525718061818,31949.07308329784
1684965453773946762,42,1684965453773946762,camera_1,43,0,0.22917923412893124,-0.10724048280931348,0.5181389291692043,0.9742069152843219,0.04490236964131002,-0.19175459570357078,0.11015824272092094,0.5650766670005396,0.0536543426630169,31950.664336175425
1684965453785098791,43,1684965453785098791,camera_1,44,0,0.22914098385544543,-0.10720745422482168,0.5180235718128539,0.9741633725027509,0.044886238993030146,-0.1917653473437007,0.11053054230065522,0.5637308807345107,0.05351789406341028,31958.390622737927
1684965453794784307,44,1684965453794784307,camera_1,45,0,0.22931993339336687,-0.10691791926691745,0.518146463830509,0.9742909008116596,0.044813405193638,-0.19097942133320445,0.1107964798077537,0.5628017863491551,0.053431732277073166,31962.689791357625
1684965453804421424,45,1684965453804421424,camera_1,46,0,0.22932380972680488,-0.10674388288198826,0.5180401614684028,0.9742621709477141,0.044739904313224256,-0.19177255679355043,0.1097034624939213,0.5617409261176362,0.05328913418776204,31970.79265402944
1684965453814554452,46,1684965453814554452,camera_1,47,0,0.22940132649479397,-0.10672517086529656,0.5181956324773466,0.9743122540248437,0.044696334871170924,-0.19135263292335644,0.11000926860684021,0.5136956982896663,0.04875656843950794,31959.88394053279
1684965453824769020,47,1684965453824769020,camera_1,48,0,0.2293584459827083,-0.10680097483931258,0.5181713078744624,0.9743251779115073,0.0447829648331234,-0.1909549138370601,0.11054933120533139,0.5706413428997621,0.054165825553351275,31965.982665197454
1684965453834285974,48,1684965453834285974,camera_1,49,0,0.2293255280355882,-0.10698840268819854,0.5182343185630796,0.9742258994357226,0.04484233801361415,-0.1915336648829154,0.11039889857534467,0.5032111242762767,0.04779262403242371,31942.75988990325
1684965453844448328,49,1684965453844448328,camera_1,50,0,0.2292389973108329,-0.10716221584767603,0.5181963388834324,0.9741868373997808,0.04498413661941204,-0.19165294387708012,0.11047887758692883,0.5449792269500904,0.05176352341383824,31942.1740444107
1684965453854424476,50,1684965453854424476,camera_1,51,0,0.22912304157485408,-0.10718489630563217,0.5179654328119095,0.9740820115494375,0.04494296740757879,-0.19242665442063883,0.11007428003345333,0.5591893076780252,0.05307888274362614,31953.410953978084
1684965453864390134,51,1684965453864390134,camera_1,52,0,0.22926364830710547,-0.10708304930631266,0.5181640502862388,0.9742482985737112,0.044929702580978954,-0.19108057577535265,0.11094948451242724,0.5470163758727722,0.05194891342995933,31954.776101294687
1684965453874328851,52,1684965453874328851,camera_1,53,0,0.22932649267692967,-0.10689558143769066,0.5181425183844207,0.9743055386039866,0.04466871533153792,-0.1908848757057545,0.1108890776543133,0.5460731438943185,0.05184295506608574,31964.46143206441
1684965453884664773,53,1684965453884664773,camera_1,54,0,0.22934901907588268,-0.1067018091515987,0.5180679578071846,0.9741698638247941,0.04472529708998482,-0.1918956651945257,0.11031218380281167,0.48908314626896754,0.04642303227326051,31955.343296856143
1684965453894531250,54,1684965453894531250,camera_1,55,0,0.22933355469310585,-0.10681092270441694,0.5181274360494201,0.974217527266747,0.04479408618746644,-0.19157846192613898,0.11041463822750108,0.590542143152561,0.05606167608598108,31955.650143128576
1684965453904328107,55,1684965453904328107,camera_1,56,0,0.2292126202845728,-0.10716428508238306,0.5181490332546107,0.9741734033877699,0.04502229530812789,-0.19175020194955675,0.11041301150399566,0.5192415960482322,0.049310323660860904,31946.173120983316
1684965453914424657,56,1684965453914424657,camera_1,57,0,0.22916099364782502,-0.1072415347937042,0.5180968271760639,0.974152632703911,0.04499670835928088,-0.19207786892095907,0.11003652440736218,0.5453855270170607,0.051782884201414525,31948.179370864767
1684965453924526453,57,1684965453924526453,camera_1,58,0,0.22912540647562782,-0.10718724423460889,0.5179753496517171,0.9740712606300442,0.045020953734411,-0.19222307050975004,0.11049246174850343,0.5372012224397622,0.05100118710870835,31951.82187830111
1684965453934378385,58,1684965453934378385,camera_1,59,0,0.22924802750035228,-0.10707029424246267,0.518126376027242,0.9741846143213372,0.04487641543706733,-0.19159515394064577,0.1106424039126404,0.5622240056982264,0.05339080330682708,31949.61834865412
1684965453944442272,59,1684965453944442272,camera_1,60,0,0.22935772475792157,-0.10690943524482222,0.5182032602534006,0.9742792173314427,0.04478273234438704,-0.1911442560837076,0.1106272431456581,0.526300989324227,0.04997668058949087,31953.226432637217
1684965453954529047,60,1684965453954529047,camera_1,61,0,0.22933850010380516,-0.10674124198497886,0.5180658724278132,0.9742778030599016,0.04470406121490253,-0.1915443511929031,0.10997759272577075,0.525323579844553,0.04984191450190386,31969.94491165795
1684965453964404582,61,1684965453964404582,camera_1,62,0,0.22933219787440706,-0.10680956693156082,0.5181191385120093,0.9741714977027545,0.04475990043024906,-0.19172836459401693,0.1105743125104122,0.5838302579941228,0.055434495511949074,31949.874884802368
1684965453974399566,62,1684965453974399566,camera_1,63,0,0.22927628636156916,-0.10698928472119032,0.5181527461355218,0.9742129209927343,0.0448113835992937,-0.19145074447733376,0.11066949403424609,0.5349647145485505,0.050799992689425116,31951.582813878893
1684965453984499692,63,1684965453984499692,camera_1,64,0,0.2292064386505371,-0.1071659265677084,0.5181278243077501,0.9741825942880047,0.04492847163250526,-0.19156528183784888,0.1106907774724062,0.5476773992995732,0.052011767709491806,31949.464973602902
1684965453994411468,64,1684965453994411468,camera_1,65,0,0.22924317886529966,-0.10728615224510654,0.5182747253085029,0.9743095743508702,0.04497384112413445,-0.1911691640097638,0.11023863966221331,0.49282192665850744,0.04680499202753116,31948.205803144607
1684965454004337072,65,1684965454004337072,camera_1,66,0,0.22912791041081126,-0.10718322297179175,0.5179651084678704,0.9740759318139885,0.04504632835045217,-0.19224125389968008,0.11040927344173569,0.611023465055041,0.058005881689507516,31953.55210492155
1684965454014825582,66,1684965454014825582,camera_1,67,0,0.2292550344447251,-0.1070656382997949,0.5181303359364083,0.9741800323027705,0.044897380963409644,-0.19169389630657474,0.11050312196496495,0.5762231424450874,0.05471918236958244,31948.254867895146
1684965454024585485,67,1684965454024585485,camera_1,68,0,0.22932339434822763,-0.1067223931439038,0.5180258685753765,0.9741695458842304,0.04470938105628369,-0.1918781939848121,0.11035182730885416,0.5818555693840608,0.0552225564655201,31960.225256925914
1684965454034509658,68,1684965454034509658,camera_1,69,0,0.22941808152507864,-0.1067407693498834,0.5182264543482406,0.974283359027542,0.04471274322698301,-0.1914533455748442,0.11008325659847991,0.5186959508573636,0.0492433345575405,31951.652849420556
1684965454044521570,69,1684965454044521570,camera_1,70,0,0.22927222481915338,-0.10702251184424641,0.5181480103663074,0.9741917876394831,0.044768116353362086,-0.19182757720188268,0.11021958663874543,0.5112142069847324,0.04854160003441836,31947.16106886276
1684965454054362773,70,1684965454054362773,camera_1,71,0,0.22920947843897801,-0.10719175540142244,0.5181547820465443,0.9741211346662807,0.0450305044920228,-0.19188202273954624,0.11064157451452061,0.5653851515962742,0.053706769954758454,31937.968657456706
1684965454064512729,71,1684965454064512729,camera_1,72,0,0.22918782771227703,-0.10726309155515582,0.5181576863238089,0.9741932241192729,0.04496137319214183,-0.19192618387012567,0.10995625014442739,0.5264038624009117,0.04998522265146359,31945.7984212176
1684965454074381589,72,1684965454074381589,camera_1,73,0,0.22922106445369086,-0.1070229610414479,0.5180268284180131,0.9741778078785406,0.04477188538618748,-0.19175608500660413,0.11046574482104132,0.5268639347050339,0.05001272466126157,31959.464450862833
1684965454084275484,73,1684965454084275484,camera_1,74,0,0.2294232772921314,-0.10689975037063676,0.5183295434264706,0.9744230778656514,0.04476904405067642,-0.19053985950230778,0.1104081516848292,0.5182012914447114,0.04920488425955203,31958.347597667023
1684965454094508647,74,1684965454094508647,camera_1,75,0,0.22932633724666054,-0.106717463121326,0.5180330310193344,0.9742231851857416,0.04465157347996841,-0.1917198274903346,0.11017681325663685,0.5173305399366654,0.04908861466912536,31966.43756525858
1684965454104378223,75,1684965454104378223,camera_1,76,0,0.22936395625048936,-0.10672819594056336,0.5181051575097304,0.9741738841780847,0.04465483392350882,-0.19183214559368938,0.11041565608902233,0.48577795032178983,0.0461184936754823,31950.49594808835
1684965454114488601,76,1684965454114488601,camera_1,77,0,0.22941632784118637,-0.10688737564030275,0.5183251650089913,0.9742930584300401,0.04490912800164436,-0.19108838736610922,0.11055059805803848,0.5597634435980581,0.0531712125760138,31942.2635424059
1684965454124500751,77,1684965454124500751,camera_1,78,0,0.22927118569439076,-0.10703832402196356,0.5181710459519057,0.9742480164911478,0.04487699011322004,-0.19115707965015824,0.11084145894504172,0.5963930487050675,0.056635887992170036,31954.691709595027
1684965454134408712,78,1684965454134408712,camera_1,79,0,0.22916002866703927,-0.10724665808015903,0.5180930334487972,0.9741630005135005,0.04506001064024247,-0.1918345130791789,0.11034293572000559,0.5793208525283262,0.055007618819347424,31950.804595997535
1684965454144379377,79,1684965454144379377,camera_1,80,0,0.22915277815451832,-0.10717484212094253,0.5180119092772526,0.9741162663175026,0.04500367111263832,-0.19183366309937033,0.11077912702269783,0.5807891736039892,0.0551459351111607,31954.030496065614
1684965454154531478,80,1684965454154531478,camera_1,81,0,0.22924994374860583,-0.10703680900172204,0.5180887137905529,0.9741365611541686,0.04477308154391422,-0.191798388414891,0.11075517862945929,0.586623951268848,0.05571143640377594,31946.34289297824
1684965454164334535,81,1684965454164334535,camera_1,82,0,0.2293370726818171,-0.10672214905109521,0.518049534713202,0.9742780400264671,0.044625748093712114,-0.19150457503326296,0.1100765237032481,0.5273237333167344,0.05003084177983584,31971.691887594643
1684965454174511432,82,1684965454174511432,camera_1,83,0,0.2293454768744606,-0.10672004777418145,0.5180704212702278,0.9742080470146325,0.044632137279900036,-0.191584882921691,0.11055263945128455,0.5277430166024715,0.05009302720686253,31960.083132166645
1684965454183999061,83,1684965454183999061,camera_1,84,0,0.22922064993578545,-0.10701501462553623,0.5180442940724758,0.974195171630093,0.0448232600820597,-0.19171964798961952,0.11035497044975492,0.5149181836168282,0.04887574776260014,31960.958639300894
1684965454194431066,84,1684965454194431066,camera_1,85,0,0.2291457960681291,-0.10717220387963608,0.517999746448226,0.9740402388170334,0.04496447574162201,-0.19241916443089113,0.11044760860360674,0.5441845664172433,0.051673974493241834,31943.92850944493
1684965454204394340,85,1684965454204394340,camera_1,86,0,0.22921100787083706,-0.1072692450884503,0.5181863967501764,0.9742256713772769,0.04504155877635664,-0.19168411242114167,0.1100581676106298,0.5081841979408637,0.048257963988297646,31946.802777162273
1684965454214430809,86,1684965454214430809,camera_1,87,0,0.22921668322686187,-0.10719328659601429,0.5181350132771739,0.9742540241372644,0.045065550527275976,-0.1912135612994049,0.11061449535761173,0.5736113117309287,0.05446421136848308,31958.3599397191
1684965454224510431,87,1684965454224510431,camera_1,88,0,0.2292450508240994,-0.10701393198563248,0.5180636748448237,0.9742141358560983,0.044826474577764924,-0.19155258812840817,0.11047629001914115,0.536803315684665,0.05095665390559822,31960.522296827272
1684965454234378814,88,1684965454234378814,camera_1,89,0,0.2294344728384354,-0.10688118796327056,0.5183392161497034,0.9744210384696507,0.04470282909714469,-0.19041958289475927,0.11066019749044774,0.5311765779042616,0.05044357188096818,31956.969115276694
1684965454244464874,89,1684965454244464874,camera_1,90,0,0.22935649232008612,-0.10673620377930505,0.5180990644227766,0.974210024565663,0.0447362074819007,-0.1916321206141573,0.11041118659278945,0.5128270695568062,0.04867943181874577,31957.110539478046
1684965454254316568,90,1684965454254316568,camera_1,91,0,0.22933642514220834,-0.10688263896145658,0.5181642382908049,0.9742386336231617,0.04482668300247713,-0.19132685918954692,0.11065119158750097,0.5312525338376872,0.05044339150575004,31953.451426810367
1684965454264511585,91,1684965454264511585,camera_1,92,0,0.22926932616798756,-0.10707207859353379,0.5181829899579822,0.9742832728231943,0.04487071136009066,-0.19115021410613414,0.11054555262942051,0.5752660057623871,0.054622099890861586,31957.2585188758
1684965454274397373,92,1684965454274397373,camera_1,93,0,0.22914691581215485,-0.10718840650164467,0.5180127280101522,0.9740568168306805,0.044976944097258484,-0.19230822783913482,0.11048953611417654,0.5680397921823896,0.05394056834615433,31944.811448608853
1684965454284342050,93,1684965454284342050,camera_1,94,0,0.2291927792170919,-0.10725763952808344,0.5181357447081147,0.9741887534855089,0.0450968562667036,-0.19162287029960384,0.11046819322932663,0.48444314749212936,0.04600551084093895,31948.340154124202
1684965454294484138,94,1684965454294484138,camera_1,95,0,0.229223612943275,-0.1071784549978214,0.5181514235691856,0.9741223418686972,0.04501417729496375,-0.1919147534070846,0.11058080457023532,0.510486809478607,0.04849148147296474,31937.529591351282
1684965454303044319,95,1684965454303044319,camera_1,96,0,0.22941594312715163,-0.10686086002562428,0.518278871444252,0.9743799819278992,0.044725597406842066,-0.1905116581149206,0.11085386721757509,0.5491141591919586,0.05214488143632746,31958.63841783045
1684965454313369750,96,1684965454313369750,camera_1,97,0,0.2294003516708872,-0.10673581636367455,0.5181787489229531,0.9742572001271963,0.04473152145315037,-0.1915166209753073,0.11019701846694158,0.5409970075124875,0.05135786332301629,31953.717403596274
1684965454324053049,97,1684965454324053049,camera_1,98,0,0.2293635778928379,-0.10690118803031766,0.5182282905450771,0.9742922303652429,0.044780601147461,-0.1909077216189917,0.11092154631557409,0.5009418654954061,0.04757449590371007,31953.167244703982
1684965454334608316,98,1684965454334608316,camera_1,99,0,0.22921058995623342,-0.10705355391761738,0.5180538627335135,0.974181745029649,0.04489849910332891,-0.19154478972068212,0.11074586204511654,0.572775264561642,0.05437893590553304,31958.89759867241
1684965454344391822,99,1684965454344391822,camera_1,100,0,0.22919680508663076,-0.10721455885300875,0.5181384700596189,0.9741254115090633,0.04491384008095206,-0.19194198094248272,0.11054730016312612,0.5604216786450706,0.05323251865730693,31939.19434750009
1684965454354405164,100,1684965454354405164,camera_1,101,0,0.22919439696759,-0.10716737424454599,0.518071278593415,0.974140960318782,0.04495655233384662,-0.191587479946604,0.11100691581683249,0.595169261447154,0.0565250054392458,31949.803128241216
1684965454364359378,101,1684965454364359378,camera_1,102,0,0.22922350087275992,-0.10697470614671438,0.5179798763496447,0.9740789039475704,0.04475218607031137,-0.19225115664601053,0.11048539946300362,0.5351677969447337,0.05080764019171022,31950.541644139666
1684965454374653100,102,1684965454374653100,camera_1,103,0,0.22947629378193712,-0.10688654350393488,0.5184175988996393,0.974438197045714,0.04492720259018695,-0.19048218320526455,0.11030994736230491,0.514763162995223,0.04888858766381385,31950.615186611867
1684965454384364843,103,1684965454384364843,camera_1,104,0,0.22936817541753804,-0.10671670959077091,0.5181004892001269,0.9741905531715359,0.04478432625277058,-0.19194766013419845,0.11001466267015686,0.5119620853220113,0.04859303354366805,31953.727036285436
1684965454394213438,104,1684965454394213438,camera_1,105,0,0.2293467118107726,-0.10674032704001542,0.5180913110024581,0.9742207386368986,0.04465250260610983,-0.19153830450289316,0.11051327670892681,0.5438319892273284,0.05162158166010729,31959.521270691297
1684965454404224872,105,1684965454404224872,camera_1,106,0,0.22934022732609996,-0.10690487020983583,0.5181866801172066,0.9742282179970069,0.04477116694279124,-0.1912205378334566,0.1109487619563229,0.5477980027208105,0.05202700969488381,31949.1494904696
1684965454414425849,106,1684965454414425849,camera_1,107,0,0.2291293057244031,-0.10719416571570306,0.5179872508398792,0.9740977502429494,0.04505013443889881,-0.19203138458225483,0.11058031332060922,0.5551871948409826,0.052709007799231086,31954.50297661964
1684965454424098968,107,1684965454424098968,camera_1,108,0,0.2292236557162427,-0.10727043538180339,0.5182081889791538,0.9742054971261084,0.04506474001313134,-0.19171889634048642,0.11016661637177938,0.5193143473588862,0.04932342220977732,31941.446154141573
1684965454434504032,108,1684965454434504032,camera_1,109,0,0.22927038534170016,-0.1071812670728837,0.5182284181807673,0.974248435803937,0.04489541677223729,-0.19134932055425627,0.11049807423594965,0.5590377126354724,0.05309937306290633,31944.82758178564
1684965454444475173,109,1684965454444475173,camera_1,110,0,0.22943229182882902,-0.10684018042072423,0.5182994916263806,0.97436028087018,0.04479067125074654,-0.19089371530163668,0.11034232320297262,0.5507095240755007,0.05229268748700569,31953.27313453459
1684965454454365730,110,1684965454454365730,camera_1,111,0,0.22937389226816532,-0.10671516031420929,0.5181080243637707,0.9741648031191189,0.044729715081284996,-0.1921313378587669,0.10994424935045917,0.5370816334616393,0.050982205605717854,31948.61887627306
1684965454464459657,111,1684965454464459657,camera_1,112,0,0.2293064401638548,-0.10691835662318398,0.5181185467232031,0.9742271175567252,0.04476564445078613,-0.1913798355110427,0.11068567682309524,0.5201011997414753,0.04938070273502357,31956.257363592515
1684965454474453210,112,1684965454474453210,camera_1,113,0,0.22925117188612254,-0.10710558588260213,0.5181556842302577,0.9741886576476566,0.04491803516177671,-0.19165893417012422,0.11047933010583603,0.5491146467975341,0.05214882395259382,31946.381513250402
1684965454484474658,113,1684965454484474658,camera_1,114,0,0.22922395220563976,-0.10724900759642299,0.5182012515582097,0.9742267763515623,0.04500437114399392,-0.19151748846253241,0.11035328010793578,0.521808393066749,0.04955856421012334,31945.604010850075
1684965454494615316,114,1684965454494615316,camera_1,115,0,0.22922154015280605,-0.10726567302442479,0.5181994391426594,0.9742222619285613,0.04511997411790679,-0.19155675301371436,0.11027775239475981,0.5038427850813605,0.04785062774515951,31945.364750581444
1684965454504506349,115,1684965454504506349,camera_1,116,0,0.2292141588979767,-0.10713435741760403,0.5180895907342974,0.9741516826433884,0.045085257235928905,-0.1919812625115284,0.11017719195688778,0.5288472002139315,0.05021140203351591,31949.054441402797
1684965454514458656,116,1684965454514458656,camera_1,117,0,0.22937870648580766,-0.10700486290858308,0.5182938434462566,0.9743241487204313,0.04482142921732618,-0.19070526721299685,0.11097294156839616,0.504633609962184,0.04793729848394587,31948.10518712874
1684965454524423122,117,1684965454524423122,camera_1,118,0,0.22938944608725137,-0.10672383187913424,0.5181449001984206,0.9742077032751278,0.04476824708601965,-0.19172255589515103,0.11026158212757703,0.5182744375197217,0.04920206440217174,31950.917594356353
1684965454534313917,118,1684965454534313917,camera_1,119,0,0.2292684533886782,-0.10672474875773341,0.517927349440749,0.9741553027695108,0.04475369273462155,-0.19187245397083447,0.1104695183291211,0.5998334442265332,0.056911795171991963,31970.92179891236
1684965454544008016,119,1684965454544008016,camera_1,120,0,0.22928888459453114,-0.10691038760885002,0.5180881962844738,0.9741936187644585,0.04474773912158898,-0.19155463173437623,0.1106853922756869,0.5696914688451216,0.05408818494083954,31955.553036162026
1684965454554489135,120,1684965454554489135,camera_1,121,0,0.22924176072136598,-0.10710394197189477,0.518140793862958,0.9742083051101318,0.04498331296361002,-0.19136734727216026,0.1107845576209913,0.5408074899460189,0.051358031499152836,31952.033362706432
1684965454564222097,121,1684965454564222097,camera_1,122,0,0.22920151304350092,-0.107241141495392,0.5181542567980317,0.9741674554529762,0.04505513530610674,-0.1918515940774392,0.1102758784538464,0.5196876268018968,0.049355072423343416,31943.177214541123
1684965454574541568,122,1684965454574541568,camera_1,123,0,0.22920621041891412,-0.10726168657330504,0.5181615521245678,0.9742286797770554,0.04501510314377146,-0.19159065438874037,0.1102049959834196,0.5492222897592001,0.05215275868965333,31950.026119478378
1684965454584373712,123,1684965454584373712,camera_1,124,0,0.22932944917637194,-0.10697421725850315,0.5181791941026563,0.9741920395072643,0.04485240224706368,-0.19150759027616668,0.11073831784870324,0.5507954839849845,0.0523159114103834,31943.3952133907
1684965454594337224,124,1684965454594337224,camera_1,125,0,0.2293765152759659,-0.10680370315069727,0.5181697079082516,0.9743050001388264,0.04473934272162368,-0.19106262542480085,0.1105587223293616,0.5798658632556908,0.05504772460996474,31961.549815317965
1684965454604693174,125,1684965454604693174,camera_1,126,0,0.2293178546548147,-0.10675293425736618,0.518028705487695,0.9741836667012771,0.04471078553884905,-0.19196240800180628,0.11007980333876953,0.5724040070199408,0.05432029015918772,31961.031110977157
1684965454614421129,126,1684965454614421129,camera_1,127,0,0.22929241542209156,-0.10692909122292579,0.5181016262105026,0.9741022740624592,0.044957274897813995,-0.19177688474759122,0.11101905051214017,0.5647356824483722,0.053639524026583646,31942.347841637784
1684965454624500751,127,1684965454624500751,camera_1,128,0,0.22928336412612954,-0.10714307240266253,0.5182462067764246,0.9742659867224468,0.04507080951197971,-0.19117584888684402,0.11057216669698773,0.5334089681273326,0.05066294736761718,31947.418117195502
1684965454634446382,128,1684965454634446382,camera_1,129,0,0.22921581331552557,-0.10725806484842723,0.5181812242837781,0.9741595912665756,0.0450966596023341,-0.19192289964159762,0.1102042768190544,0.5569220151519403,0.05289759432396185,31938.477202286715
1684965454644542217,129,1684965454644542217,camera_1,130,0,0.2292940862629527,-0.10715246719269433,0.518245117216707,0.9742461564054544,0.045117696343285704,-0.19107589527418056,0.1109000561363443,0.5051440743845887,0.047987506346886005,31944.277353089084
1684965454654493331,130,1684965454654493331,camera_1,131,0,0.2294018091266378,-0.10698468154360966,0.5183271440491777,0.9743587220379891,0.044919851638314426,-0.1906259978006154,0.11076559339347275,0.5633415627526119,0.05350912831598005,31949.754647678346
1684965454664577007,131,1684965454664577007,camera_1,132,0,0.22933768679720629,-0.10676846521174631,0.518056254112852,0.9742132380355376,0.04465749495915382,-0.19160007365370998,0.11047029807228363,0.5471134359249845,0.05192948385899773,31961.110548028155
1684965454674338102,132,1684965454674338102,camera_1,133,0,0.22943363156867444,-0.10674253068617078,0.5182380225393087,0.9743191206958409,0.0447659134608594,-0.19129819327715122,0.11001484121424822,0.5745490316185169,0.054541841878129375,31955.023783284007
1684965454684461355,133,1684965454684461355,camera_1,134,0,0.2293001284835045,-0.10676342004934403,0.5180020088762153,0.9741115914643057,0.04474068317907234,-0.19203788782984763,0.11057272847044289,0.5943043946172111,0.05641448237575532,31954.840499928905
1684965454694474697,134,1684965454694474697,camera_1,135,0,0.2292895966617265,-0.10716198575066539,0.5182635814500572,0.9742724528274888,0.044996271495463064,-0.19111429637348787,0.11065192693614452,0.5250434979097918,0.04987382733628496,31945.384997542722
1684965454704289197,135,1684965454704289197,camera_1,136,0,0.2291935426208813,-0.10724462349469027,0.5181349741772151,0.9741315174441426,0.045111097718081125,-0.19196349457577147,0.11037568724542425,0.5414142363588326,0.0514221768716618,31940.695690667388
1684965454714633226,136,1684965454714633226,camera_1,137,0,0.22920364841404095,-0.10724267148375675,0.5181352653374608,0.9741850385717584,0.045009167043363565,-0.19160391463548512,0.11056955006403002,0.5035945255076513,0.04782746262788776,31947.13097654166
1684965454724314451,137,1684965454724314451,camera_1,138,0,0.22930033223596114,-0.10692886382013957,0.5180952604969274,0.9742102967198991,0.044776334768387584,-0.19134365277816967,0.11089176773387067,0.5901623474201187,0.056036206312241356,31956.442037310335
1684965454734635114,138,1684965454734635114,camera_1,139,0,0.22933148522688065,-0.10676297813630889,0.5180485656554548,0.9742043942539538,0.04459581532311605,-0.19176331184519174,0.11028981685594243,0.5637634382001124,0.053506861644797975,31960.490498677238
1684965454744437456,139,1684965454744437456,camera_1,140,0,0.2293327439395317,-0.1067858853153654,0.5180799625854817,0.974245891357354,0.04472110160313974,-0.19153221410264823,0.11027410033935442,0.5513691018568352,0.052328172843389906,31963.777618733915
1684965454754528760,140,1684965454754528760,camera_1,141,0,0.22935319671432053,-0.10698157958405327,0.5182588467040411,0.974258423711974,0.04489577361122321,-0.19100405828410666,0.111006049641951,0.5074941028142348,0.04820970331634603,31944.806507880563
1684965454764192342,141,1684965454764192342,camera_1,142,0,0.22923991162883747,-0.10714877055767265,0.5181638928182338,0.9741993356249481,0.045022174835629356,-0.19134812790164848,0.11088080171749298,0.5313732657232322,0.050470326102882566,31947.834302426327
1684965454774913072,142,1684965454774913072,camera_1,143,0,0.22921555438734056,-0.10726233161495281,0.5181856762732465,0.9741874607519347,0.04496639479409431,-0.19174915147203594,0.11031354206385284,0.5538208809448406,0.05260308628398319,31941.221150316414
1684965454784510135,143,1684965454784510135,camera_1,144,0,0.22922600391807335,-0.10725475161779095,0.5181944800299836,0.9742524068491929,0.04498948222236415,-0.19133668117270494,0.11044667797508928,0.5553698999574408,0.052743321202401515,31949.600487402535
1684965454794669628,144,1684965454794669628,camera_1,145,0,0.22934033090332911,-0.10715403928442747,0.5183381555584136,0.9743597704787516,0.04493137517273944,-0.1906493137408011,0.11071155480726799,0.5571068389108405,0.05292282528531344,31947.915205929552
1684965454804150819,145,1684965454804150819,camera_1,146,0,0.2293629635048431,-0.10677158313255078,0.5181190046470399,0.9742454530238811,0.04469254845757467,-0.1915040550371263,0.11033843518465128,0.5810281114536338,0.0551524736648105,31958.641885223806
1684965454814503192,146,1684965454814503192,camera_1,147,0,0.22939737902885546,-0.10672780730837937,0.5181505399188977,0.9742108871012735,0.04479318812931301,-0.19177090208096173,0.11013917952125804,0.5301019964390434,0.050324566920828775,31950.239032114965
1684965454824535131,147,1684965454824535131,camera_1,148,0,0.22934601502960283,-0.10680109083467955,0.5181195101920718,0.9742484366275912,0.04474145050739258,-0.19135586983901415,0.11054916287943327,0.5781105918576941,0.05487905690135561,31959.955722599047
1684965454835081100,148,1684965454835081100,camera_1,149,0,0.22928601202074902,-0.10697750664736479,0.5181290613608428,0.9741996476037882,0.04481264619833435,-0.19132303266663636,0.11100617334454464,0.5210408651037142,0.04948195125983229,31951.762973427303
1684965454844409942,149,1684965454844409942,camera_1,150,0,0.22919753781957736,-0.10714929883281973,0.5180820969196587,0.9740375757210059,0.04503764396389947,-0.1921720019668803,0.11087079583807441,0.5488789907540195,0.0521427215665874,31934.731387797518
1684965454854514122,150,1684965454854514122,camera_1,151,0,0.22917064673126653,-0.10724804837545979,0.518093511160803,0.974146837169174,0.04514564010684607,-0.19198558596308393,0.11018777425399334,0.49888800736516714,0.047370341613721285,31947.80948737567
1684965454864410161,151,1684965454864410161,camera_1,152,0,0.2292950748823017,-0.10710788821309344,0.5182063373875321,0.974284899451809,0.045018389720045765,-0.1910991457733183,0.1105594671292376,0.5102659974945709,0.04845597365264179,31953.329273222946
1684965454874413490,152,1684965454874413490,camera_1,153,0,0.22934568326388335,-0.10674960484346868,0.518061580830251,0.9742017682070568,0.04465137676372019,-0.1918147606118719,0.11020102988066216,0.575165081594605,0.05458903833008708,31958.672491977228
1684965454884402751,153,1684965454884402751,camera_1,154,0,0.22936966550968643,-0.10672456780975408,0.5181031374786288,0.9742456759309539,0.04467055541786889,-0.19152961875949787,0.11030099521916997,0.5296629421063699,0.05027153604990764,31960.704469728164
1684965454894431114,154,1684965454894431114,camera_1,155,0,0.2293282564970426,-0.10681247616546577,0.5180976181916652,0.9742122268602996,0.04485077073701801,-0.19155340991283634,0.11048183810453471,0.5410298042697832,0.05135809211108291,31958.095938173472
1684965454904395103,155,1684965454904395103,camera_1,156,0,0.22929852023206782,-0.10701085095220968,0.5181793362178365,0.9741828173994418,0.04475543812102123,-0.19148095272603324,0.11090461570832781,0.5269675686140545,0.05005689693714287,31942.62081284192
1684965454914463281,156,1684965454914463281,camera_1,157,0,0.22913234599186644,-0.1072338493360549,0.518006508802497,0.9741444954652216,0.04501675930125124,-0.19195439620725607,0.11031547087117857,0.5286736643174663,0.05018590377826433,31957.391323051415
1684965454924399614,157,1684965454924399614,camera_1,158,0,0.22912347952217046,-0.10718780186227993,0.5179490966723321,0.9740605391653554,0.045047802532452295,-0.19203990565570148,0.11089380579475004,0.5711846448830329,0.054232793780793515,31953.43512191542
1684965454934129238,158,1684965454934129238,camera_1,159,0,0.22923165956897967,-0.107066855666599,0.5180592771440581,0.9741348712042944,0.0449596262431663,-0.1917015458209456,0.11086208568183858,0.5425251785200089,0.05151935640325795,31950.243229888732
1684965454943130970,159,1684965454943130970,camera_1,160,0,0.22932946475025942,-0.10689844106867569,0.5181304332590984,0.9742488037604502,0.04490873333936914,-0.19113375841865465,0.11086189802607849,0.5235609296360053,0.0497104078825624,31958.5958270845
1684965454953130483,160,1684965454953130483,camera_1,161,0,0.2293930265533127,-0.10676633922496898,0.5181661074517618,0.9742490748316498,0.04464897278829217,-0.19160348395234675,0.11015132480341529,0.5627741763019003,0.05342604873148623,31952.57144402853
1684965454962998867,161,1684965454962998867,camera_1,162,0,0.22939886973288143,-0.10673383162434591,0.5181656558204656,0.9741938859707381,0.04483456748097313,-0.19184939542310223,0.11013602304340293,0.5323227357002905,0.05053996771402502,31946.51229309849
1684965454973629951,162,1684965454973629951,camera_1,163,0,0.22928956842594492,-0.10700446921385466,0.5181581711969592,0.974205520319522,0.04476731997361121,-0.191399317616315,0.11084129400795896,0.5241652078111656,0.049781688239565754,31948.491701966395
1684965454984741687,163,1684965454984741687,camera_1,164,0,0.2292233330890984,-0.10717821100665692,0.5181488010719849,0.9740991689405286,0.045018308280745704,-0.19187524398185482,0.11085148504108956,0.5471282772487029,0.05198056206096438,31934.964254043065
1684965454994522094,164,1684965454994522094,camera_1,165,0,0.22920286604441367,-0.10726736519529641,0.5181663204804907,0.9742060690446561,0.04505895892765144,-0.1916253123685974,0.11032662832041991,0.5504027219722047,0.05227107346048327,31946.924683601603
1684965455004404544,165,1684965455004404544,camera_1,166,0,0.22927405120166092,-0.10708174268093083,0.5181506402369835,0.9742349237411857,0.04472707461486785,-0.19146447437465386,0.11048600459714232,0.5347377557191066,0.05077819499285739,31951.189192301495
1684965455014424324,166,1684965455014424324,camera_1,167,0,0.22940606629174115,-0.10691933566336095,0.5182856751019942,0.9743171911988565,0.044762643434932775,-0.19067088507429109,0.11111674163722846,0.5456187808304094,0.051831353510148476,31948.509834994107
1684965455024501323,167,1684965455024501323,camera_1,168,0,0.22934798872444867,-0.10671091513442714,0.5180436347536608,0.9741563604120056,0.044744119688094844,-0.1919379506025068,0.11035022582977308,0.4998445995734073,0.047444353461365246,31955.43980629593
1684965455034332990,168,1684965455034332990,camera_1,169,0,0.2294393481310378,-0.106881008903386,0.5183474690986892,0.9743740017790031,0.04477799108263722,-0.19083869267046552,0.11032148272934983,0.5382496181991883,0.05111758645028331,31949.23614155197
1684965455044536113,169,1684965455044536113,camera_1,170,0,0.22927179892799224,-0.10702208010851867,0.5181300038696941,0.9742137178709516,0.044802364600710645,-0.1916734321517743,0.11027998660410837,0.49421448342036456,0.04692258515087385,31952.135985478075
1684965455054604768,170,1684965455054604768,camera_1,171,0,0.22921456139855445,-0.10719073624021583,0.5181416051284475,0.9741512836304896,0.045024934773980146,-0.19194453763117403,0.11026933537127612,0.5985188360209577,0.056841479149355154,31942.632918889394
1684965455064613103,171,1684965455064613103,camera_1,172,0,0.22921714218965625,-0.10727562835547932,0.5181920186257993,0.9742257385124027,0.04504989976266654,-0.19165265160800812,0.11010893734369098,0.5309123947517946,0.05041855107216655,31945.85225430317
1684965455074335336,172,1684965455074335336,camera_1,173,0,0.22919562016724135,-0.10719902383272302,0.5180868315796299,0.9741612906452701,0.04490883201813675,-0.19175101116118987,0.11056457992399593,0.5673756456235424,0.05387904893077546,31949.27653923481
1684965455084349155,173,1684965455084349155,camera_1,174,0,0.22940658754695598,-0.10689239905048864,0.5182573943169292,0.9743324410821766,0.044709736132847434,-0.1907575012791885,0.11085535375207825,0.48294833407271653,0.045866553343750845,31952.993151910963
1684965455094655752,174,1684965455094655752,camera_1,175,0,0.229327980573847,-0.10672208064959417,0.5180140886167092,0.9741787775795874,0.04482933328499762,-0.19172591038699804,0.1104862682736657,0.5422770475852303,0.05146419865420078,31963.120034839358
1684965455104457378,175,1684965455104457378,camera_1,176,0,0.22939116876015003,-0.106740732443008,0.5181537224014101,0.9741620213696911,0.0446535933991345,-0.1917810986782521,0.11060932558887138,0.523390069429297,0.04970471550833551,31942.693469254074
1684965455114374399,176,1684965455114374399,camera_1,177,0,0.22942650758643943,-0.1068917285887007,0.5183244821546307,0.9743315741988373,0.044919849882891424,-0.19075720815181849,0.11077850939526984,0.5296952278586105,0.05031383173901206,31947.267282608307
1684965455124339103,177,1684965455124339103,camera_1,178,0,0.22923406584523806,-0.10702743604967746,0.5180597938364427,0.9741072198333142,0.04485777759311797,-0.19204162572785455,0.11055730661435388,0.5770940521615557,0.05479993690984305,31946.320925060205
1684965455134587049,178,1684965455134587049,camera_1,179,0,0.22916768411387253,-0.10717590536421165,0.5180337316090285,0.9741243698744242,0.04502767465226453,-0.19180911085509,0.11074062274136628,0.5801476793712936,0.05508774515551593,31952.35331237247
1684965455144418954,179,1684965455144418954,camera_1,180,0,0.22916648066894593,-0.10718277704711224,0.5180198901976735,0.9741010444767064,0.044997674237274715,-0.19169345547150185,0.11115747204763625,0.5635974893230014,0.053525825864112905,31950.331343473517
1684965455154340982,180,1684965455154340982,camera_1,181,0,0.2292465127458609,-0.10703226835341184,0.5180603039847924,0.9741939587319096,0.044991137894214474,-0.1913317064546797,0.11096894334170486,0.5270869409432635,0.05004552012032364,31959.022905857208
1684965455164347648,181,1684965455164347648,camera_1,182,0,0.2293444756450396,-0.10672364154382274,0.5180318749507864,0.9741325141054145,0.04473076639083459,-0.19235677859796316,0.10983566464572123,0.5283303217147477,0.0501414820083146,31952.072922246763
1684965455174261808,182,1684965455174261808,camera_1,183,0,0.22933552072070465,-0.10671666685358301,0.5180248984573009,0.9741540141789282,0.04475839785038745,-0.19197190763532532,0.11030607036696315,0.5561360610299744,0.05278314355217391,31957.57353948523
1684965455184671640,183,1684965455184671640,camera_1,184,0,0.22939898455547597,-0.10688473261933576,0.518259809225999,0.974268878907542,0.044772753523291825,-0.19109617713346713,0.1108052490595937,0.5159773831837811,0.049011123511529406,31944.95278984077
1684965455194374322,184,1684965455194374322,camera_1,185,0,0.22918813467856886,-0.10719243760688395,0.5180783641708032,0.9740786575921184,0.04498366581772565,-0.1918937623396474,0.11101361451763785,0.5268501504324377,0.050047312850618295,31939.920823885703
1684965455204357147,185,1684965455204357147,camera_1,186,0,0.22922159840957662,-0.10727788876783909,0.518196051320124,0.9742707445341564,0.04493963520631213,-0.19126920893058175,0.11042207771751827,0.5145300449221395,0.048863366695705956,31951.175133568926
1684965455214429616,186,1684965455214429616,camera_1,187,0,0.22920602523328543,-0.10719166419985685,0.5180932728061369,0.9742090519066603,0.045006198285257835,-0.1913401958065577,0.11081558901049317,0.5625782495480962,0.053420583687248946,31956.06637188804
1684965455224485874,187,1684965455224485874,camera_1,188,0,0.22921586574495217,-0.10699909053420104,0.5179664617912533,0.974127499915956,0.04469174960969199,-0.1920796112279911,0.11037972809722522,0.5540561499074101,0.05259047750486886,31957.86369472847
1684965455234369516,188,1684965455234369516,camera_1,189,0,0.22936130575106872,-0.10685555211517161,0.5181416864156031,0.9742381499870777,0.04484696893222125,-0.1913096079851479,0.11067705444182074,0.5178540873457678,0.049169273612576225,31954.47708433075
1684965455244434356,189,1684965455244434356,camera_1,190,0,0.22933641903468457,-0.10671304206497777,0.5180137992174142,0.9741868747605644,0.04471245211467999,-0.19198608419332272,0.11000942298844826,0.5510570936603472,0.052289334844146905,31962.51473735959
1684965455254312992,190,1684965455254312992,camera_1,191,0,0.2293737478749016,-0.10689383842753562,0.5182211900169583,0.9742796340733468,0.04483605212086197,-0.1910471157065332,0.11076968285742862,0.5557630920084193,0.052779587053584875,31951.766306608915
1684965455264255046,191,1684965455264255046,camera_1,192,0,0.22928064159995282,-0.10707144751306383,0.5181692059467708,0.9741530100511916,0.04493194724784548,-0.19155425016569935,0.11096847465914196,0.5455922727123834,0.0518313805326246,31939.881908602896
1684965455274409294,192,1684965455274409294,camera_1,193,0,0.22917617098075563,-0.10720106138877818,0.5180533985722723,0.9741450380686613,0.045010572528973905,-0.19168559679717315,0.1107796242426032,0.5444694242323749,0.05170250404806931,31952.048619054134
1684965455284349679,193,1684965455284349679,camera_1,194,0,0.22921406680910064,-0.1071753269733592,0.5181024262489907,0.974126399389081,0.045130300159346465,-0.19166509000844761,0.11093019107910113,0.5814840042730793,0.055231722547316044,31944.476282914162
1684965455294502735,194,1684965455294502735,camera_1,195,0,0.2293051082411859,-0.1070149254614847,0.5181503267115963,0.9742852667778423,0.04480216556726729,-0.1911120567551215,0.11062172780669714,0.5388096871902235,0.05115772369482759,31959.087004910332
1684965455304413795,195,1684965455304413795,camera_1,196,0,0.22936951774209363,-0.10672173266050723,0.5180794359962168,0.9741505075409695,0.04483987835746334,-0.19204053201570695,0.11018442734653405,0.5699138384661637,0.054100251838385946,31950.25886008377
1684965455314479589,196,1684965455314479589,camera_1,197,0,0.22937287790705088,-0.10675676240986652,0.5181234514449709,0.9742437945392499,0.04471213925409906,-0.1912975815764516,0.11070270406853965,0.5871711416402832,0.05574325464556861,31958.456650011452
1684965455324572086,197,1684965455324572086,camera_1,198,0,0.22935916528239542,-0.1069014054082595,0.5181853059202157,0.9742117577409871,0.044752822901916414,-0.19140678930440372,0.11077940661380078,0.5425011469633318,0.051525697141215625,31945.263974794198
1684965455334365606,198,1684965455334365606,camera_1,199,0,0.22928924755050406,-0.10709007795335605,0.5182019108848414,0.9741759710487624,0.04485510351525543,-0.19138122549332726,0.11109646100803038,0.5556085723219439,0.05278864995806634,31938.842421642483
1684965455344393014,199,1684965455344393014,camera_1,200,0,0.22919856646846914,-0.1072197409335188,0.5181152553061017,0.9741336247945827,0.04513407838549255,-0.19174034148219407,0.11073498752043624,0.5716289413394406,0.05429393611352913,31943.8284926127
1684965455354320287,200,1684965455354320287,camera_1,201,0,0.22916192968149324,-0.10724790940326986,0.5180618662086652,0.9741969875613135,0.04497881644903554,-0.1916392075423648,0.11041535051722005,0.5570548070245422,0.05288550020500972,31957.56609217544
1684965455364512205,201,1684965455364512205,camera_1,202,0,0.22925237984694447,-0.1069871909770869,0.5180243847825814,0.9741733387300768,0.04489607460512109,-0.19160992965208404,0.11070810020621664,0.5025445237988606,0.04770740166613837,31959.019438169315
1684965455374255657,202,1684965455374255657,camera_1,203,0,0.22944286646636583,-0.10687122163396286,0.5183143063685707,0.9743198882875912,0.04469189945367206,-0.19082688714645496,0.11085345530236149,0.5297978622256778,0.05032839468872231,31944.46268485311
1684965455384406089,203,1684965455384406089,camera_1,204,0,0.2293816443704037,-0.10672887116325344,0.5181019243214486,0.974223196674458,0.04482876750448535,-0.19186881556492605,0.10984490101566706,0.5583391377003863,0.052988501931067425,31957.07764695724
1684965455394487380,204,1684965455394487380,camera_1,205,0,0.2293039798308909,-0.10671994799136703,0.5179563250727209,0.9741493339810735,0.04481414469807618,-0.1922717862467283,0.10980131034146735,0.5456285203108564,0.05176420764472674,31964.494457370718
1684965455404501438,205,1684965455404501438,camera_1,206,0,0.22939460406104056,-0.10692468436527963,0.5182728255999448,0.9742868903532195,0.044798518525161146,-0.1909603538583309,0.11087060601487507,0.5167431846493855,0.049085484396236424,31945.720634394915
1684965455414258003,206,1684965455414258003,camera_1,207,0,0.22927886353708604,-0.10709156541402934,0.5181705469730412,0.9742215222560094,0.04485392397873869,-0.19143134296825182,0.11061008998398296,0.520444258407224,0.04942726133577918,31947.92963028619
1684965455424712657,207,1684965455424712657,camera_1,208,0,0.22920956042051593,-0.10726356704639067,0.5181568513540269,0.9741410073169346,0.04523739526274738,-0.19167419568001176,0.11074239767952766,0.5593804276431911,0.053138905638997175,31939.859995962594
1684965455434530019,208,1684965455434530019,camera_1,209,0,0.22927281405473227,-0.10697268750773714,0.5180444281633437,0.9740701850107045,0.04477682516003134,-0.19206056585675982,0.11088304489227074,0.4982820534496568,0.04732542649882842,31940.94216506367
1684965455444391489,209,1684965455444391489,camera_1,210,0,0.22938827742595716,-0.10682758319895275,0.5181801360652857,0.9742451495249955,0.044883627001155134,-0.19120670004509752,0.110778366625008,0.5833805917063728,0.05539843171980163,31951.76543937785
1684965455454473257,210,1684965455454473257,camera_1,211,0,0.22939954344446226,-0.1067283413978326,0.5181395852697722,0.9742312109361704,0.04492077948143668,-0.19161655451077644,0.11017607383657253,0.5517549905343913,0.052374502169856355,31954.8710939195
1684965455464303731,211,1684965455464303731,camera_1,212,0,0.2293067853352991,-0.10673704925467582,0.5179770487486886,0.9741379135999435,0.044674530095449645,-0.19206514414798753,0.11031995309694619,0.5498518792446703,0.0521818526392939,31960.141277116727
1684965455473729848,212,1684965455473729848,camera_1,213,0,0.22927536367195497,-0.10711733568271958,0.5181934066409599,0.9741898541902851,0.04496565448869689,-0.19150081466062416,0.1107233303935156,0.5458294746349566,0.05184867882927918,31941.881397172452
1684965455484119892,213,1684965455484119892,camera_1,214,0,0.22922606510926385,-0.10724722982691479,0.518169560986949,0.9742139086075243,0.04511001410422387,-0.19152467852614027,0.11041125132261513,0.530821232474409,0.050412218177776094,31947.15194397515
1684965455494633197,214,1684965455494633197,camera_1,215,0,0.2291705033260514,-0.10723919034426803,0.5180520555496692,0.9741331617920661,0.0451462645398461,-0.1918692340088097,0.1105106100605876,0.5381827846867964,0.05110295142038444,31950.16633328679
1684965455504546165,215,1684965455504546165,camera_1,216,0,0.2293163656744812,-0.10718279957864266,0.5183001146437437,0.9742874046745957,0.04511141682675532,-0.19105498382558903,0.1105757944566857,0.5517916771932506,0.05241904253253654,31942.578630581498
1684965455514447927,216,1684965455514447927,camera_1,217,0,0.2293208411078089,-0.10697215223216858,0.5181413845846004,0.9742053861692697,0.044883523274200886,-0.19143078354276372,0.11074109449288437,0.5230123406508937,0.04966821445683726,31949.310298916178
1684965455524405479,217,1684965455524405479,camera_1,218,0,0.22934514723233296,-0.10679118566979709,0.5180698042971863,0.9741628643737946,0.04473397213652674,-0.19174486363252802,0.11063224070078109,0.5600252730073406,0.05316992123980971,31952.26196260857
1684965455534400224,218,1684965455534400224,camera_1,219,0,0.22933947754161682,-0.10675749309663908,0.5180565841191704,0.9741522757718117,0.04478884646102079,-0.19197856985746367,0.11029746849667102,0.5925845090532675,0.056251471624351256,31953.36203801352
1684965455544444084,219,1684965455544444084,camera_1,220,0,0.22932411845746375,-0.10692551134453866,0.5181291097433931,0.9741589308063877,0.0448533382761301,-0.19137286649455434,0.11126087158251166,0.5367808620794676,0.05098793405704962,31945.530590046437
1684965455554728746,220,1684965455554728746,camera_1,221,0,0.22926539516068878,-0.10712188220927192,0.5181638744690023,0.9741947955387134,0.04513430644677755,-0.19155376483060435,0.11051945487593802,0.5478414885001257,0.05202842892509891,31946.52544342226
1684965455564347028,221,1684965455564347028,camera_1,222,0,0.22922468126453144,-0.10726692995503527,0.5181814589944074,0.9741816034117061,0.04510234486559615,-0.19162275035171,0.1105291979952281,0.5625103345955722,0.0534318343100656,31941.140761177867
1684965455574562549,222,1684965455574562549,camera_1,223,0,0.22924919433482463,-0.10714675811198214,0.5181360372260372,0.974203286161789,0.0449738989801553,-0.19142176217221687,0.11073849650856513,0.562086719670333,0.05338239354652849,31949.68587303908
1684965455584339857,223,1684965455584339857,camera_1,224,0,0.2293280466895558,-0.10678283992069497,0.5180390930014273,0.9741846350156012,0.044833685607775765,-0.1917062053923354,0.11046704643655,0.5780594722600654,0.05486665985807378,31959.96266725683
1684965455594711780,224,1684965455594711780,camera_1,225,0,0.22933882308106138,-0.10669901410964605,0.5179929303458239,0.974092478380893,0.04471092356447108,-0.19204509210965587,0.11074050511161491,0.5108125414117239,0.04849310166268037,31951.933660376475
1684965455604443550,225,1684965455604443550,camera_1,226,0,0.22928934343450014,-0.10673980717672794,0.5179460806934313,0.9741120785513502,0.044752419438044255,-0.19210557430081346,0.11044603975410043,0.5551476016989909,0.05268427009441417,31960.967134037157
1684965455614697694,226,1684965455614697694,camera_1,227,0,0.22935867144605057,-0.10695372465033944,0.518224290273651,0.9742651482418069,0.044718642499468074,-0.19108239260803084,0.11088364698892879,0.5884657957358286,0.055893985538142635,31947.985246756114
1684965455624402284,227,1684965455624402284,camera_1,228,0,0.22930760829371347,-0.10714525445523843,0.5182697479282118,0.9742460500341821,0.044919584082601105,-0.1912292073078463,0.11071700515753122,0.5286851840210147,0.05022735386569453,31939.891237888343
1684965455634385108,228,1684965455634385108,camera_1,229,0,0.22915965343687633,-0.10722430115745288,0.5180310629118792,0.9740948145485088,0.0451202154568039,-0.19207568751050624,0.11050062757380397,0.5551345057901926,0.052713634158987444,31947.560157052703
1684965455644391059,229,1684965455644391059,camera_1,230,0,0.2292752137653373,-0.10714242308642946,0.5181843491890084,0.9742245301917458,0.04492769705021226,-0.1912861570474939,0.11080466114942045,0.5472295108484104,0.05197854665176515,31946.647882458747
1684965455654297113,230,1684965455654297113,camera_1,231,0,0.2293584293914045,-0.10696084285577567,0.5181931164748999,0.9742737110743586,0.044839549426890744,-0.19097116830579441,0.11095117661616193,0.5435297895455733,0.05162018632283695,31952.4217135962
1684965455664432525,231,1684965455664432525,camera_1,232,0,0.22937575482283507,-0.1067832346105046,0.5181212714176646,0.9742070426001012,0.04469339820840991,-0.19167516832310275,0.11038010759760811,0.5735763098928146,0.05445530650879559,31951.689451119644
1684965455674623250,232,1684965455674623250,camera_1,233,0,0.22941432448027976,-0.10673345121269961,0.5181706909038137,0.9742414425953925,0.04467473295676868,-0.19157354333354668,0.11026040658150961,0.5263590052491054,0.04997199070734014,31950.8264887638
