%time,field.header.seq,field.header.stamp,field.header.frame_id,field.image_seq,field.transforms0.fiducial_id,field.transforms0.transform.translation.x,field.transforms0.transform.translation.y,field.transforms0.transform.translation.z,field.transforms0.transform.rotation.x,field.transforms0.transform.rotation.y,field.transforms0.transform.rotation.z,field.transforms0.transform.rotation.w,field.transforms0.image_error,field.transforms0.object_error,field.transforms0.fiducial_area
1682303258036013603,0,1682303258036013603,camera_2,1,0,-1.2407519809960932,0.3099960831549805,1.7442792525899495,0.9568257840248728,-0.002410605867431973,0.28214396303100253,-0.06980968507091141,0.28947675600647926,0.040452718117262206,13003.003772349794
1682303258045845031,1,1682303258045845031,camera_2,2,0,-1.2410415482440909,0.31035188178144196,1.7446749538407331,0.9569213852447717,-0.0023817258314111833,0.2819065886374227,-0.06945836973398171,0.2751600198680535,0.038454739156507725,13002.39247047133
1682303258055932998,2,1682303258055932998,camera_2,3,0,-1.2410242392166226,0.31035292035549944,1.7446548562366673,0.9569118745909024,-0.002332871738452234,0.2818563118663976,-0.06979427940346365,0.2701133925584145,0.03775775303037631,13002.058784519322
1682303258065775156,3,1682303258065775156,camera_2,4,0,-1.240293736512049,0.30993829553347424,1.7436406658041192,0.956734792665563,-0.002421275143144582,0.28248098085810686,-0.06969339555011922,0.2986296481685713,0.041709145992066515,13006.460745901803
1682303258076062440,4,1682303258076062440,camera_2,5,0,-1.2411307382361678,0.3097298269186437,1.7447903828963198,0.9569065722926482,-0.0026113447984026637,0.2817108220814081,-0.07044150412715476,0.2779882772010751,0.038875465552942114,13001.404179469917
1682303258085893154,5,1682303258085893154,camera_2,6,0,-1.2419022271062894,0.3093679097631727,1.745877846803492,0.9570127517539136,-0.0024963505393214413,0.28149296153394193,-0.06987183854198933,0.2896688776672818,0.040522676567214484,12993.6497294379
1682303258095788002,6,1682303258095788002,camera_2,7,0,-1.2399000894286023,0.3083408163261294,1.7430372939970742,0.9567142223366262,-0.0025297818315152447,0.2824620326605752,-0.07004782000866293,0.304988999851048,0.04255885033054023,13017.646419835042
1682303258106157302,7,1682303258106157302,camera_2,8,0,-1.2408071224207642,0.30821975129857865,1.7443498178034615,0.956866184736182,-0.0026454704328424355,0.28179159135873244,-0.07066544441327194,0.29379249690100556,0.04105329711779889,13009.336844248457
1682303258115381956,8,1682303258115381956,camera_2,9,0,-1.2412806837893067,0.30819067154934776,1.7450103704012485,0.957036822015891,-0.002797921000786947,0.2812356518915143,-0.0705634540605261,0.29209275858011097,0.040824491176844065,13011.005146737214
1682303258125982284,9,1682303258125982284,camera_2,10,0,-1.2409702137707685,0.3082033727478061,1.7445649073199792,0.9569342886066269,-0.0027803231345209403,0.2815942142868415,-0.07052471603894044,0.2831209165160544,0.039561585679664085,13010.578540978018
1682303258135884284,10,1682303258135884284,camera_2,11,0,-1.2399959293482354,0.30829305341786845,1.743202057300887,0.956729157281134,-0.0025770096734009755,0.28238877749800756,-0.0701374149256684,0.30373983725439757,0.042391907919604455,13016.659143250898
1682303258145876169,11,1682303258145876169,camera_2,12,0,-1.2418984261109522,0.30929270336109543,1.7458980849251498,0.9570439257836992,-0.002468207155951083,0.2813953901996301,-0.06983886058891936,0.2776715558138676,0.038839135022523764,12995.772053400986
1682303258155900001,12,1682303258155900001,camera_2,13,0,-1.2405026304381008,0.3094945260099925,1.74391765012449,0.9567746046923431,-0.002751952298606536,0.28216819871661486,-0.07039808383314111,0.27148435270646587,0.03794012651835202,13006.087024460541
1682303258165947914,13,1682303258165947914,camera_2,14,0,-1.24107162471745,0.3100966199377607,1.74470465906665,0.956933276594204,-0.002457474571385421,0.2818042416691845,-0.06970677400846777,0.3196008689701557,0.04467007506029281,13003.456448044632
1682303258175907611,14,1682303258175907611,camera_2,15,0,-1.2417930626498526,0.31062538386782995,1.7457335968939074,0.9570561254164761,-0.0022694690730107533,0.2814068952142006,-0.0696317574015847,0.2746199269895442,0.03841684508912426,12995.171629073327
1682303258185363531,15,1682303258185363531,camera_2,16,0,-1.2418409151178578,0.31072248379808426,1.745798407012728,0.957037755320164,-0.0024998490367679946,0.28144355678193855,-0.06972811479214776,0.2809982870239764,0.03931991068614133,12992.845130420754
1682303258196041107,16,1682303258196041107,camera_2,17,0,-1.240825854938825,0.3102620153784409,1.744376108443915,0.9568484158734779,-0.0024571730288035954,0.2821603325639679,-0.06943067094961307,0.2898553574923426,0.04050216760480049,13002.192863088569
1682303258205693960,17,1682303258205693960,camera_2,18,0,-1.2410122489627038,0.3099131706388787,1.7446355516694714,0.9568541849108134,-0.0025236125466488353,0.28196151905259403,-0.07015270466582653,0.286425215890631,0.040047951073097283,12999.880622815808
1682303258215592622,18,1682303258215592622,camera_2,19,0,-1.2408671197692087,0.3093663864494837,1.7444260823378142,0.9568716858323466,-0.002543196251358575,0.28188733963101686,-0.0702113720200502,0.29265999875497073,0.04090237515053253,13005.393962599337
1682303258225939989,19,1682303258225939989,camera_2,20,0,-1.2411744957032431,0.3089128579203801,1.7448641540348884,0.9568937149692289,-0.0025134655060943417,0.28191624544261495,-0.06979492316119529,0.27381669159512967,0.03826676437083644,13001.706071206134
1682303258235704421,20,1682303258235704421,camera_2,21,0,-1.2403629184587868,0.3082679132974356,1.7437154469494152,0.9567935681192888,-0.002647345216608733,0.2820992568511532,-0.07042065643609893,0.3038555821403861,0.042432727936984514,13013.53876630496
1682303258245756864,21,1682303258245756864,camera_2,22,0,-1.241323300923465,0.30826817861062206,1.7450566786941086,0.9569825428083006,-0.002863867932401491,0.2813983120815508,-0.0706484322421868,0.2909227383788675,0.040673447187058065,13006.461342853729
1682303258255534172,22,1682303258255534172,camera_2,23,0,-1.241214332595465,0.30825805589193045,1.7448961540478385,0.9569643604143027,-0.002830085233031559,0.2814799059663334,-0.07057100007512104,0.2850424377247691,0.0398440220969041,13007.506414925916
1682303258265630960,23,1682303258265630960,camera_2,24,0,-1.2402263830484357,0.30827393827948296,1.7435132354407032,0.9567905531700871,-0.002590078795631606,0.2821461489032067,-0.07027573916652016,0.3147405158961192,0.0439389354868596,13016.187683978122
1682303258275998353,24,1682303258275998353,camera_2,25,0,-1.2414812533718813,0.3090671864577989,1.7452972047241702,0.9569805877575985,-0.0025039839327274656,0.2816386534749878,-0.0697248419745912,0.2832643425790593,0.039596761297373724,13000.765711228365
1682303258285911083,25,1682303258285911083,camera_2,26,0,-1.2408747584805662,0.3094536499333831,1.7444359558495106,0.9568831492762234,-0.00280695650369085,0.2817888389304627,-0.07044011556368274,0.2907340725651011,0.04064255024327417,13005.811795426533
1682303258295850753,26,1682303258295850753,camera_2,27,0,-1.240808936353612,0.30998275689137794,1.744360944667154,0.9568410847892448,-0.0024453592612299056,0.2820658615494234,-0.06991429342992951,0.2934754882589914,0.041016626482591426,13002.862107506024
1682303258305830955,27,1682303258305830955,camera_2,28,0,-1.2414481392971464,0.3105418469450073,1.7452508031057477,0.9569680289503394,-0.00244311628012794,0.2816893886148444,-0.06969441219738906,0.2734716942650266,0.038247241550953395,12996.643416443841
1682303258315910100,28,1682303258315910100,camera_2,29,0,-1.2419262777737206,0.3108472747893902,1.745931475018967,0.9570096857870254,-0.0025005415504634905,0.28149077701711694,-0.06992246460239364,0.2766881665447727,0.03873182673448215,12988.89244114677
1682303258325870275,29,1682303258325870275,camera_2,30,0,-1.2418487653401917,0.3107305412440793,1.745819769489324,0.9570014546268869,-0.0024398914281211713,0.2815570381221599,-0.06977031643699382,0.2916440950357355,0.04081521126019899,12990.214284366928
1682303258335764646,30,1682303258335764646,camera_2,31,0,-1.240670757058076,0.31011487691068834,1.7441607662189818,0.9568406702525936,-0.0023290347206254025,0.28211824442971656,-0.069712290937342,0.2844579564407468,0.03974329901932889,13005.269768017817
1682303258345765352,31,1682303258345765352,camera_2,32,0,-1.2410442898155598,0.30970976304773173,1.7446586512084494,0.9568948749694487,-0.002648058536415657,0.28178759135831466,-0.07029181602199848,0.28051625948864967,0.03922105699725255,13002.481362043643
1682303258355763673,32,1682303258355763673,camera_2,33,0,-1.2420040314532121,0.30938041370248176,1.7460217857739524,0.9570333166233149,-0.0025208416253788635,0.281380232988276,-0.07004313466672532,0.28220797289395705,0.03948789629139804,12992.86795359105
1682303258365763664,33,1682303258365763664,camera_2,34,0,-1.2399016838947963,0.3083493206252493,1.743060901664777,0.9567296658155386,-0.0025984765484048373,0.2824057790869032,-0.07006119044402838,0.3110211899620481,0.04340061423712741,13018.523820594415
1682303258375795125,34,1682303258375795125,camera_2,35,0,-1.2407447021327151,0.3082356280737254,1.7442508838489397,0.9568820961711635,-0.0027846648053619716,0.2816883897277792,-0.07085584493584822,0.3002426296588965,0.04195563657517012,13011.720038784202
1682303258385841608,35,1682303258385841608,camera_2,36,0,-1.2412547495585673,0.3082615735404489,1.7449547551008677,0.9569391790452516,-0.002840619663115421,0.2815596075862898,-0.07059409227395835,0.282151871942915,0.039445885769359534,13005.007231454365
1682303258395787715,36,1682303258395787715,camera_2,37,0,-1.2404681496880101,0.3082119897199565,1.7438617142741821,0.9568044160102323,-0.002724070673342812,0.28201643220927536,-0.07060184775370018,0.29785981244640425,0.0416058291044337,13012.265112291094
1682303258405864000,37,1682303258405864000,camera_2,38,0,-1.2402664377733112,0.30854217435085507,1.7435749347619667,0.956733254548815,-0.00247125501404197,0.28246413062447345,-0.06978099633602512,0.2783406655071303,0.03885556584272294,13010.715683625544
1682303258415719747,38,1682303258415719747,camera_2,39,0,-1.2416446643626926,0.30940657579018244,1.7455263160823131,0.9570047261733661,-0.002637094047726279,0.28149389764798616,-0.06997274757910683,0.2816334076342173,0.03938886198326964,12998.163147232957
1682303258426212072,39,1682303258426212072,camera_2,40,0,-1.2411137320538095,0.3098370923724716,1.744775491408994,0.9568602221515882,-0.0026052659739780786,0.28185962939695347,-0.07047607515625595,0.28634119557682425,0.04005027511981826,12998.409891191404
1682303258435650110,40,1682303258435650110,camera_2,41,0,-1.2409142904558765,0.3102834328748022,1.744500458202908,0.9568614430502299,-0.0023695187846776195,0.28204021483031433,-0.0697415328411353,0.27662770269671455,0.03866500527756132,13001.223250721589
1682303258444669246,41,1682303258444669246,camera_2,42,0,-1.2421956194495916,0.3109235093800586,1.7462972935354333,0.9570888206526128,-0.0026765038440009887,0.28120474970095954,-0.06998367277147396,0.28339311690069735,0.03968221325775701,12988.562302969627
1682303258454472541,42,1682303258454472541,camera_2,43,0,-1.2417067859057451,0.3108496963981772,1.7456275622428885,0.9569856243821893,-0.0025640791433708576,0.2815000259857939,-0.07021164856329246,0.2792691863141954,0.039090920270988226,12991.780857131816
1682303258465891122,43,1682303258465891122,camera_2,44,0,-1.2418947206439797,0.31071064013929367,1.7458791257556698,0.9570233073096407,-0.0025472850829013297,0.28145444820857773,-0.06988057089369272,0.27407033514464274,0.03835951268444957,12990.774531498315
1682303258475920677,44,1682303258475920677,camera_2,45,0,-1.2408229999560567,0.3099954296951423,1.7443698180727878,0.9568703227648471,-0.0024593752054323215,0.2820436746228048,-0.06960246037865168,0.3034425709047355,0.04239844299719525,13004.526147581175
1682303258485770463,45,1682303258485770463,camera_2,46,0,-1.2403482906772163,0.3093393719531392,1.743685182153428,0.9567618750215996,-0.002597288499826112,0.2822639253840272,-0.07019291292147804,0.27389452361967415,0.03826022064461843,13008.80339934956
1682303258495735645,46,1682303258495735645,camera_2,47,0,-1.2417055443122298,0.30913171064091916,1.7456220940484908,0.9569852975087729,-0.002463794059354783,0.281615999267284,-0.06975312915968618,0.277622107998468,0.03882222179989669,12996.29386772891
1682303258506018400,47,1682303258506018400,camera_2,48,0,-1.2403457620479716,0.30830919768655657,1.7436902315096727,0.9567720713219057,-0.002624646812396645,0.2822186612841817,-0.07023490578384044,0.30768850358435884,0.04296413748627749,13012.42291431711
1682303258515662908,48,1682303258515662908,camera_2,49,0,-1.2411170171797534,0.3082575914680886,1.7447494207436414,0.9569523505499183,-0.002892506438032272,0.2814970734636171,-0.07066278946455093,0.29030719108413905,0.040578147412680246,13008.789691821206
1682303258526180982,49,1682303258526180982,camera_2,50,0,-1.2411416844883085,0.3082556617856068,1.7448082066859232,0.9569875538030882,-0.002727380661688374,0.28137646976113484,-0.07067294762119838,0.29534981481265277,0.041279898948973326,13010.433405647058
1682303258535732269,50,1682303258535732269,camera_2,51,0,-1.2403290640393465,0.3082839488004775,1.743645820168563,0.956801641229193,-0.002641602875107782,0.2821185914600782,-0.07023347939518974,0.3062409262638539,0.042757075753495855,13014.813200953648
1682303258545747518,51,1682303258545747518,camera_2,52,0,-1.24174141259108,0.3091328957306303,1.745658307706436,0.9569988837819141,-0.0025224732280975013,0.2815103041554417,-0.06999087242844448,0.2752406317740679,0.03849637111961814,12996.532645461386
1682303258556004762,52,1682303258556004762,camera_2,53,0,-1.2406014694446557,0.3094010435139254,1.7440367621392903,0.9568372798412139,-0.002744597202372615,0.28197874725928,-0.07030557009476705,0.2763573148404248,0.0386162408022556,13008.533022292428
1682303258565737247,53,1682303258565737247,camera_2,54,0,-1.2406018549891948,0.3099218593749162,1.744052107323336,0.9568313634041716,-0.002544938234276329,0.2821251890590704,-0.06980431930676927,0.31222090107621625,0.04362072055597692,13006.677639501868
1682303258575712442,54,1682303258575712442,camera_2,55,0,-1.2419621314280553,0.3107306339126524,1.7459761111389613,0.9570484262017117,-0.002479366352212796,0.2813750643942979,-0.06985868438800433,0.26822093344526365,0.03754113775191124,12990.990820134528
1682303258586080789,55,1682303258586080789,camera_2,56,0,-1.2418211636059775,0.31094455427920165,1.7457899155029124,0.9570022134149159,-0.0026971732721979068,0.2814421878333396,-0.07021241829530527,0.2713942733244039,0.03799600961440645,12990.304546649104
1682303258595949888,56,1682303258595949888,camera_2,57,0,-1.2417577415769205,0.3108973049858145,1.7456914040512719,0.9569842810153942,-0.0026438008907161965,0.2815548122408261,-0.07000702757818324,0.2929415198159404,0.041003743239796824,12990.628705500621
1682303258605698585,57,1682303258605698585,camera_2,58,0,-1.2415327394142062,0.310574784607934,1.7453744111562741,0.9569479718651639,-0.002371501922919588,0.2817594008181767,-0.06968927587772168,0.2631822652183473,0.03681452227152352,12993.496657436946
1682303258615916013,58,1682303258615916013,camera_2,59,0,-1.2407298273138527,0.30987415371357624,1.7442527922869042,0.9567997351059112,-0.002479746578912858,0.2821451006220016,-0.07015881949664789,0.3048338529188186,0.04260954907956081,13002.067322462099
1682303258625433444,59,1682303258625433444,camera_2,60,0,-1.2410047231188561,0.30939486595327587,1.744613380883433,0.9568968197617217,-0.002733433412799877,0.2817948477648657,-0.07023295839459819,0.28717363358009607,0.04014390243834031,13004.228909729973
1682303258635842800,60,1682303258635842800,camera_2,61,0,-1.2409157686393493,0.3088103338898324,1.7444870621958333,0.9568180794051613,-0.0023828377402198837,0.28223637544903263,-0.06954216980447979,0.27410770184360445,0.03829075015968885,13002.294282422867
1682303258645952939,61,1682303258645952939,camera_2,62,0,-1.2403573142486728,0.3082245181905691,1.7436951224909238,0.9568291833157763,-0.0025689382662726205,0.2820082774526581,-0.07030395408249551,0.29946628864854574,0.04181027417436159,13016.154071996927
1682303258655742406,62,1682303258655742406,camera_2,63,0,-1.2409377449660615,0.30816583883171844,1.7444877175674585,0.9569202757193638,-0.0027982684714926757,0.2816342206439132,-0.07055438592344045,0.2880055254790932,0.040243474917028114,13010.600603102244
1682303258665792703,63,1682303258665792703,camera_2,64,0,-1.240982841060137,0.30822683779798105,1.7445650601058207,0.9569108437201904,-0.0027406795394039974,0.28167367505125623,-0.07052706309988543,0.30938290467020124,0.04323478165613599,13008.853747410005
1682303258675781011,64,1682303258675781011,camera_2,65,0,-1.2404568757084677,0.30838308828189254,1.7438506422737718,0.9568393766374714,-0.0025775023609517418,0.28203523380602047,-0.07005633939607332,0.3049346881452948,0.04257498808717741,13014.277611307565
1682303258685831308,65,1682303258685831308,camera_2,66,0,-1.242096394295224,0.3093158291968849,1.746144330251414,0.9570998579020492,-0.002477021411921676,0.2812495005987335,-0.06965949168465987,0.29036307433852926,0.04061543902512383,12995.538404953435
1682303258695818185,66,1682303258695818185,camera_2,67,0,-1.2407313831707643,0.30956836932551623,1.744240296967218,0.9568442961160155,-0.002758377693285372,0.28194893429199325,-0.07032910346618408,0.2751605019439012,0.038459317005948554,13005.831326599466
1682303258706022977,67,1682303258706022977,camera_2,68,0,-1.2405550712607036,0.31005940686561523,1.7439915044249537,0.9568056006225926,-0.002411132085452939,0.2822305406544185,-0.06973629601019267,0.29633311147335917,0.04139965374029039,13005.53960530576
1682303258715965509,68,1682303258715965509,camera_2,69,0,-1.242015180409766,0.31085704454542934,1.7460683526750742,0.9570242190532575,-0.002465803152282151,0.2814456815818503,-0.0699063107254595,0.2698119679116644,0.037772448144101585,12987.94104401814
1682303258725722551,69,1682303258725722551,camera_2,70,0,-1.2415451466528258,0.3109239208946468,1.7453822084060782,0.9569267623550014,-0.002716530424548962,0.28169140251126706,-0.07024062715026602,0.28224754036637023,0.039507330588673735,12991.143757351205
1682303258736018180,70,1682303258736018180,camera_2,71,0,-1.2418608925212062,0.3109501703406487,1.7458434245700243,0.9570413225103224,-0.002754955629159146,0.2813033024674041,-0.0702336760258699,0.2838269113563001,0.039736075478325916,12992.088326614581
1682303258745907545,71,1682303258745907545,camera_2,72,0,-1.2412763099435324,0.31047956789322195,1.7450252041000534,0.956863591565815,-0.0023402238079810443,0.2820754358378577,-0.06957038870942477,0.2798260553390719,0.03913193038519247,12993.372402742973
1682303258755609512,72,1682303258755609512,camera_2,73,0,-1.2407574081366202,0.30984384584137725,1.7442848292238464,0.9568578447055573,-0.0024890199180764103,0.28190678556323573,-0.07032378017916023,0.29624818154843524,0.04140888241676585,13005.384749325462
1682303258765962839,73,1682303258765962839,camera_2,74,0,-1.2415507502929022,0.30946274213716035,1.7454060422434712,0.9569336663414874,-0.002569027994108848,0.2817318098943162,-0.06998961073671893,0.29027650255011395,0.040600219065317265,12995.313710956376
1682303258775741100,74,1682303258775741100,camera_2,75,0,-1.2406247173532532,0.30866723685188807,1.7440766356115245,0.9568541559294357,-0.002475756064582597,0.2820960597879608,-0.06961183781931804,0.28584459505509585,0.03990964864311181,13010.942693171095
1682303258785984992,75,1682303258785984992,camera_2,76,0,-1.240664572313576,0.30828473283739516,1.7441537067859019,0.9568120047361055,-0.0026473585413473457,0.2820566376864703,-0.0703408289873789,0.30413969070650637,0.04248790882901863,13008.52597968443
1682303258795770883,76,1682303258795770883,camera_2,77,0,-1.24094977136628,0.3081649107425955,1.744541445614798,0.9568609340078431,-0.0028660862246431998,0.28176542173608693,-0.07083209465543341,0.2856619337690063,0.03993183295100896,13006.332425619235
1682303258805779933,77,1682303258805779933,camera_2,78,0,-1.2411698982449793,0.30829243244823173,1.744852131791103,0.9569399443184721,-0.002809970732534609,0.2815224700927779,-0.07073291924629589,0.2808905537822284,0.03926855900837245,13006.616463615326
1682303258815688371,78,1682303258815688371,camera_2,79,0,-1.2399522229972113,0.3082924542971041,1.7431547690396956,0.9566960113663069,-0.002517822016211403,0.2825266531510295,-0.07003636674879606,0.30298487562686205,0.042284126213726625,13015.320561820412
1682303258825947999,79,1682303258825947999,camera_2,80,0,-1.2418144505788187,0.30925969405685627,1.7457821258973616,0.9569960725591945,-0.002595488830369007,0.28154724862986397,-0.06987794596982831,0.29471075703622773,0.04122448082469965,12994.490006794691
1682303258835742473,80,1682303258835742473,camera_2,81,0,-1.2409353714703255,0.30963021185794143,1.7445153510149256,0.9569061574264991,-0.0027115673374235403,0.2817054650501677,-0.0704647730621162,0.27665100467856973,0.038677175242352195,13005.593602434737
1682303258845781803,81,1682303258845781803,camera_2,82,0,-1.2405905221975246,0.3101179767321247,1.7440568987157672,0.9567981376231085,-0.0023345222631417,0.2822648830402127,-0.06970229299706933,0.2939003029023297,0.041062373280602756,13004.065383526962
1682303258856097698,82,1682303258856097698,camera_2,83,0,-1.2422260494298492,0.3109602367835426,1.74635136631757,0.9571187390655544,-0.0026746083618334323,0.28107980762890744,-0.070076440712769,0.2711918096756562,0.03797559405097975,12989.675434273435
1682303258865730047,83,1682303258865730047,camera_2,84,0,-1.241446323589977,0.31094756811470753,1.745236976820111,0.9569478098758305,-0.002732262896808775,0.28162412323799635,-0.07022305265184711,0.2815548761864193,0.03940230465580265,12994.448247890694
1682303258875684261,84,1682303258875684261,camera_2,85,0,-1.241684193886563,0.31095152575128754,1.745575534639952,0.9570125387455657,-0.002639887259365886,0.2814273557773454,-0.07013326670843537,0.28689147118711844,0.040153268225308396,12993.877923394786
1682303258886059045,85,1682303258886059045,camera_2,86,0,-1.2418928836025867,0.3107099459112022,1.7458851609180264,0.9569849411735245,-0.002433074623018434,0.2816067430775867,-0.06979645240424914,0.28030666266568005,0.0392330095199495,12988.310180869652
1682303258895803451,86,1682303258895803451,camera_2,87,0,-1.240997745414421,0.30993689836761484,1.744598634583652,0.9568964776124792,-0.0025382339283195068,0.2818184443397695,-0.07015021690107287,0.2821091113728471,0.03943932694103969,13002.923312505713
1682303258905963182,87,1682303258905963182,camera_2,88,0,-1.241152167331493,0.3094099707602423,1.7448249876407438,0.9569282926672872,-0.0026300357788667955,0.2817128057270191,-0.07013715630165945,0.285268030827865,0.03987963039677998,13003.25318448432
1682303258915876388,88,1682303258915876388,camera_2,89,0,-1.2407519886853795,0.30872938739124745,1.7442748875862688,0.9567985961534599,-0.002432050246821013,0.2822369175697788,-0.06980582992183003,0.2884079306968488,0.04028738270497826,13004.514308193233
1682303258925344944,89,1682303258925344944,camera_2,90,0,-1.2406175967710582,0.3082590292701895,1.7440854991919326,0.9568346080506068,-0.002748532329022119,0.2819109720450064,-0.07061290425494138,0.3151609554188326,0.04403075678860548,13011.044943601355
1682303258936766624,90,1682303258936766624,camera_2,91,0,-1.2411479679631308,0.3081968456272978,1.7448062504449882,0.9569916444934619,-0.002901652861154606,0.2813200676881726,-0.07083496520995022,0.2936640437692404,0.04104916717005926,13010.83970537782
1682303258946278810,91,1682303258946278810,camera_2,92,0,-1.2412006524021233,0.3082421994501818,1.7448754568784348,0.9569760256247895,-0.0028865814693277395,0.2814402040462996,-0.07056887113437796,0.2992629700456746,0.041829866798038295,13008.656488923125
1682303258956716775,92,1682303258956716775,camera_2,93,0,-1.2401273885788462,0.30826631606881705,1.7433834337380278,0.9567800653658084,-0.0025099219361060833,0.2822237449465541,-0.07010966123735497,0.2992509377654642,0.04176585206567604,13017.43608921185
1682303258966279268,93,1682303258966279268,camera_2,94,0,-1.2419274490978014,0.3092279296394064,1.7459298287242593,0.957052062917364,-0.0024331248899851334,0.2813800097165954,-0.06979053589689872,0.2825391665683128,0.03951837642969117,12995.876621237028
1682303258976082801,94,1682303258976082801,camera_2,95,0,-1.240571494137895,0.3094751267414726,1.7440318067041976,0.9567372042431843,-0.002699790640352192,0.28228097597388263,-0.0704562541628927,0.27354773599654436,0.03823747609419868,13002.191582132129
1682303258986237287,95,1682303258986237287,camera_2,96,0,-1.2401540048120248,0.30995550680486234,1.74344883015235,0.956707314810659,-0.002426872624109592,0.28251767500340325,-0.06992129423656625,0.29684633610304445,0.041461292993649174,13007.402071443154
1682303258995954751,96,1682303258995954751,camera_2,97,0,-1.241994309776968,0.31088493027160574,1.7460126207438955,0.9570315050236071,-0.002496933752535205,0.28141211736463245,-0.069940574164353,0.269161255157087,0.037680377487315356,12988.929597840173
1682303259005738973,97,1682303259005738973,camera_2,98,0,-1.241294171424367,0.31094358293799507,1.7450185202941106,0.9569134723610958,-0.0026208700217359255,0.2817267679189827,-0.07028346670507354,0.2945584376575425,0.04121664895345583,12995.39859070769
1682303259015849113,98,1682303259015849113,camera_2,99,0,-1.2411586068477756,0.31090587446413764,1.7448533084227955,0.9568921106245841,-0.0027010034549491482,0.28176873464450314,-0.07040293588765084,0.28036237659398466,0.039228524304338944,12996.616027389888
1682303259025794982,99,1682303259025794982,camera_2,100,0,-1.241996838776974,0.3108367594912826,1.7460182997068092,0.9570660501632324,-0.0026444537659754425,0.28130386875701796,-0.06989789633145878,0.28825700457673514,0.04034989547070875,12991.275234552337
1682303259035476922,100,1682303259035476922,camera_2,101,0,-1.2408721229635462,0.3100595058642799,1.7444457426387834,0.9568890157249582,-0.0024152418554125137,0.2819248742071317,-0.06982795639995425,0.3049492736463435,0.04261725910384795,13004.5518251399
1682303259045734643,101,1682303259045734643,camera_2,102,0,-1.2409786326854375,0.3095063641086983,1.7445788600960206,0.9568651168342697,-0.002728323364370778,0.2819054138307391,-0.07022137915392071,0.27036978356773034,0.03779773572419924,13002.353568898281
1682303259055764198,102,1682303259055764198,camera_2,103,0,-1.2413381244478914,0.3090004673339563,1.7450847899642434,0.9569560137383866,-0.0023950224052143765,0.2817202249074601,-0.06973640739029852,0.28763639187673107,0.040200202066893634,13002.214387405204
1682303259065780878,103,1682303259065780878,camera_2,104,0,-1.2402670908116837,0.30825182718758953,1.743575267640974,0.9568217947202997,-0.002647908366270783,0.2820049932711658,-0.07041466821364756,0.3062759307795204,0.04276043978438532,13017.470142290927
1682303259075842618,104,1682303259075842618,camera_2,105,0,-1.241056433318427,0.3081703746882275,1.74467436401842,0.9569736641979916,-0.002866380095785132,0.28137890484494976,-0.07084561951788358,0.3010215373360552,0.042073487249275954,13011.582564930895
1682303259085736513,105,1682303259085736513,camera_2,106,0,-1.2412700822680194,0.3082031467237615,1.7449766108792775,0.9569816180610135,-0.0028870496744080555,0.28136208137545776,-0.07080414395762859,0.285733325232286,0.03994799209637232,13007.704167113638
1682303259095781087,106,1682303259095781087,camera_2,107,0,-1.2407317961747069,0.3082964742097223,1.7442379668644408,0.9568332747686061,-0.002619198857888933,0.2819539477353573,-0.07046414300461883,0.2939772211248055,0.04107312499787059,13008.5567996588
1682303259105906009,107,1682303259105906009,camera_2,108,0,-1.2406316223076332,0.30872104532576783,1.744086688677485,0.9569020823460245,-0.0025598611182036496,0.2819449061063867,-0.06956235931564356,0.3032757652690634,0.0423386219733041,13013.893345844926
1682303259115581274,108,1682303259115581274,camera_2,109,0,-1.2408623260997154,0.30937354374650905,1.7444086101315663,0.956824901493897,-0.0027625873256802596,0.28204006498113476,-0.07022732899590899,0.2812429304467514,0.03931376446640889,13002.44913479546
1682303259126040935,109,1682303259126040935,camera_2,110,0,-1.2407423384669045,0.30993347347370215,1.7442573855284607,0.9568623703630775,-0.0025372401945738254,0.2819831944143226,-0.06995316049502003,0.3010785044170916,0.04207358400664203,13005.838700276097
1682303259135973215,110,1682303259135973215,camera_2,111,0,-1.2417467420113322,0.31072385825417675,1.7456869575691436,0.9569749792499664,-0.002477996925680891,0.28160626675197287,-0.06993324779230176,0.2779748709872365,0.03890347400049745,12990.529444641666
1682303259145790576,111,1682303259145790576,camera_2,112,0,-1.2409983968567289,0.31086537662922836,1.74460208050803,0.9568631980400668,-0.002707971949436138,0.2818857283749712,-0.07032725832114156,0.2895410825149156,0.04050312154246186,12998.214369258603
1682303259155964612,112,1682303259155964612,camera_2,113,0,-1.2404322616346177,0.3108033792470863,1.743800299283412,0.9567544244136377,-0.002771365827223991,0.2822435139293305,-0.07036966492178684,0.2932569981785491,0.0410004936477802,13002.780066929523
1682303259165777921,113,1682303259165777921,camera_2,114,0,-1.2419993536605158,0.3110174077357585,1.746041350570441,0.9570296597029894,-0.002622870135104198,0.2813576480530738,-0.07017994644538686,0.28253106336342176,0.03956263068054214,12988.29484190327
1682303259175805330,114,1682303259175805330,camera_2,115,0,-1.2407786474817655,0.310277976843486,1.7443095243648412,0.9568098182571588,-0.0023792725796512935,0.2822611226075869,-0.06955551317472422,0.26890429836930707,0.03757827325851797,13000.560131801994
1682303259185981988,115,1682303259185981988,camera_2,116,0,-1.2409703484209629,0.30976507763126504,1.744596581495045,0.9568883643877542,-0.0026619905200934257,0.2817816759300915,-0.07040354405730168,0.2833367111743428,0.03961639795329211,13003.216430059638
1682303259195986509,116,1682303259195986509,camera_2,117,0,-1.2418684484117333,0.3093435805541722,1.7458290386963342,0.9569909051038643,-0.002616504483155209,0.2815841894914609,-0.06979903782440824,0.3029760664794594,0.042383578654609476,12992.973978271466
1682303259205927133,117,1682303259205927133,camera_2,118,0,-1.2398807378944368,0.30831233031038396,1.743022575807695,0.9566663140488542,-0.002621986942967983,0.28260286262133766,-0.07013066937421644,0.304829966975376,0.042543820882763136,13014.96996780229
1682303259215757608,118,1682303259215757608,camera_2,119,0,-1.2408591975889216,0.30820631787889247,1.744418116696274,0.9568707355548541,-0.0027933984278344023,0.2817591174641406,-0.07072759072500916,0.28511784481815994,0.03984653082883195,13008.641038103488
1682303259225868225,119,1682303259225868225,camera_2,120,0,-1.2409421728795853,0.30807727567260795,1.744545657515272,0.9569101773329947,-0.002839632117618727,0.2815860667144461,-0.07088114021558053,0.3058744322624989,0.042751232346400846,13009.923190484751
1682303259235611200,120,1682303259235611200,camera_2,121,0,-1.240924343182819,0.3081862426029616,1.7445095466645604,0.9569584672203364,-0.0028534943774112895,0.2814703572763219,-0.07068795908697735,0.2935461314045824,0.04101823534905558,13013.089554415083
1682303259245742082,121,1682303259245742082,camera_2,122,0,-1.239943670394105,0.30830708458348416,1.7431385889627304,0.9566944613859586,-0.0025804201172812723,0.28249794477662266,-0.07017093545360036,0.2973686108016409,0.04150462982902806,13015.346158433937
1682303259255985260,122,1682303259255985260,camera_2,123,0,-1.2418305907640685,0.3093340780761522,1.7457911215273065,0.9569906614035859,-0.0024406331579792163,0.28160054553902025,-0.0697427419036693,0.28586332022678107,0.039983969143197205,12993.671237388391
1682303259265945672,123,1682303259265945672,camera_2,124,0,-1.2410582069106917,0.3097498745297263,1.74469673973786,0.9568910395282489,-0.0025464138729109653,0.28177569774348393,-0.07039538627003776,0.28962359233992174,0.040498639704152184,13001.748804747127
1682303259275774717,124,1682303259275774717,camera_2,125,0,-1.2407713557834117,0.3102497198692269,1.7443128723201726,0.956876490409548,-0.00233885447457729,0.28199289819910944,-0.0697274495913885,0.2836470651673153,0.03963513151063643,13005.119554624192
1682303259285948991,125,1682303259285948991,camera_2,126,0,-1.2417618995626398,0.31094346130589173,1.7456855951523533,0.9569831290061477,-0.0026459625545105477,0.28154734500934037,-0.0700527101399697,0.27446764294290915,0.03841999641564358,12990.315835021902
1682303259295792102,126,1682303259295792102,camera_2,127,0,-1.2401187047111266,0.31076041457261205,1.7433599908551989,0.9567509567303185,-0.0028305650293135825,0.28225798792897466,-0.07035639947809971,0.2992949215695262,0.041824662298833304,13009.063001915818
1682303259305866241,127,1682303259305866241,camera_2,128,0,-1.240863406496915,0.3108987585203071,1.7444204721845735,0.9569081817441389,-0.002720101068563216,0.2817229435307791,-0.07036700824716217,0.2977368464344181,0.04163794575120996,13003.799864450004
1682303259315747737,128,1682303259315747737,camera_2,129,0,-1.242130263705344,0.31092226789785465,1.7462273852671208,0.9570182692138093,-0.002643650490255446,0.28140717970859663,-0.07013588747241857,0.29116922040702775,0.040779226876267956,12985.161442807177
1682303259325792789,129,1682303259325792789,camera_2,130,0,-1.24055524081696,0.31002454264246565,1.743990765754792,0.9568066222588283,-0.002291797852207975,0.28223820501140534,-0.06969527169181895,0.28644861007342115,0.04001573338545446,13005.666006772313
1682303259335714578,130,1682303259335714578,camera_2,131,0,-1.2406975637105153,0.30943758637334123,1.7441721805306467,0.9567726273754347,-0.002653284640569629,0.2822212134583902,-0.07021599717868884,0.26765721722040325,0.0374099065584538,13002.212589497678
1682303259345623016,131,1682303259345623016,camera_2,132,0,-1.2412205288057148,0.30894123328972006,1.7449201456151548,0.956935940233627,-0.0024313688931589996,0.28177742236382525,-0.0697795025812606,0.2844070449937135,0.03974428909152809,13003.498221105434
1682303259355933427,132,1682303259355933427,camera_2,133,0,-1.2409274172067692,0.30835610915847644,1.7444959490588368,0.956929207573604,-0.0027789392528373663,0.2816221408169209,-0.07048218917483737,0.2988217727979645,0.0417543836991934,13010.819822856694
1682303259365759372,133,1682303259365759372,camera_2,134,0,-1.24128022204152,0.3081829080279529,1.7449886193507702,0.9569962647774262,-0.002883701516494014,0.2813116588895911,-0.07080666663813888,0.2918518472579308,0.040802359881294444,13008.487608873049
1682303259376126766,134,1682303259376126766,camera_2,135,0,-1.2411342853191103,0.30810964294827936,1.7447841371559827,0.9570013436730189,-0.00289492900205004,0.28133310521433263,-0.07065218683502039,0.2805283722700551,0.039204767455558724,13011.974556479607
1682303259385772228,135,1682303259385772228,camera_2,136,0,-1.2410439315359252,0.30830377184139923,1.7446765695529483,0.9569159714459747,-0.002758904280293583,0.28162229601489897,-0.07066183146561592,0.2876237775199115,0.040202493436935396,13007.595859469846
1682303259395851612,136,1682303259395851612,camera_2,137,0,-1.2403690818100515,0.3085625986259631,1.7437319785196488,0.9567890379343288,-0.002504029826704749,0.2822605066713211,-0.06983890818861625,0.29985361063154414,0.041861878384424546,13012.178324187644
1682303259405683279,137,1682303259405683279,camera_2,138,0,-1.2413617246536652,0.3094154461708509,1.7451246732278354,0.9569991847713875,-0.002553609955012517,0.28151970764038375,-0.06994779219653938,0.2842512920615263,0.03973709483357619,13003.536204460077
1682303259415942668,138,1682303259415942668,camera_2,139,0,-1.2409643331441462,0.30993530047189566,1.7445726797714882,0.95687186954092,-0.0025850911117408326,0.2819143167908128,-0.07009893418289513,0.2897114018560387,0.04050223203102097,13001.915449468182
1682303259425679922,139,1682303259425679922,camera_2,140,0,-1.2417831748433514,0.310720327606001,1.7457334972757304,0.9570027323424806,-0.002460885623899434,0.2815367655260254,-0.06983383125761004,0.28013187024043873,0.03920168727456159,12991.633851032697
1682303259435838699,140,1682303259435838699,camera_2,141,0,-1.2409020844949876,0.3108778239282679,1.7444652641405458,0.9568519002905572,-0.002764369162015258,0.2819446470809643,-0.07024254519787937,0.28284196165623143,0.03955973054303808,12999.40741512365
1682303259445520877,141,1682303259445520877,camera_2,142,0,-1.2399572791530822,0.31078850639264927,1.7431291451586142,0.9567149842571667,-0.0027791194428537086,0.2823736355218512,-0.07038355884085544,0.29240665445104247,0.04085659660001614,13009.89939602674
1682303259455698966,142,1682303259455698966,camera_2,143,0,-1.2406841480659856,0.3108473442583631,1.7441758528922011,0.9568151329915359,-0.002673604300402838,0.28204284095276094,-0.07035260468333729,0.2789539998047985,0.03900891234587635,13001.369763472117
1682303259464920997,143,1682303259464920997,camera_2,144,0,-1.241850251444112,0.31078815691625555,1.7458322164977294,0.957021403499059,-0.0025206621975539267,0.28139113756938716,-0.07016200684261768,0.2787601239979267,0.039022112430589055,12991.284058114055
1682303259474288940,144,1682303259474288940,camera_2,145,0,-1.2405662238701352,0.3098983985227273,1.7440133412187728,0.9568021030962093,-0.002507308240390791,0.2821696073236941,-0.070026863551433,0.28406068368349224,0.03969256657404905,13005.463612220017
1682303259485541343,145,1682303259485541343,camera_2,146,0,-1.2408398562972054,0.3093437511147949,1.7443885070855005,0.956899495062831,-0.002653220296879113,0.2817765961656781,-0.07027280145148371,0.2809153730631806,0.03925851473035732,13007.84295384795
1682303259496113061,146,1682303259496113061,camera_2,147,0,-1.240517985455884,0.308623551932381,1.7439211254185638,0.9568341496570412,-0.002579530252828893,0.2821429384359362,-0.06969302952589568,0.3069575832923875,0.04285531591299462,13012.066828145178
1682303259505906343,147,1682303259505906343,camera_2,148,0,-1.240850293446194,0.3082618726004137,1.7444022906841918,0.9568914879757984,-0.002762934429692027,0.2816879171540571,-0.07073163197755891,0.28763881215127185,0.040196602764928896,13010.067828834053
1682303259515749692,148,1682303259515749692,camera_2,149,0,-1.2410557993248412,0.30805692205914836,1.7446852420668508,0.9569976719469226,-0.0028908864269958368,0.2813628346817389,-0.0705836661253364,0.29401690658414736,0.04108296287779863,13013.422815879341
1682303259525855064,149,1682303259525855064,camera_2,150,0,-1.2413066109584179,0.30812770126821376,1.7450343095754446,0.9570290396218453,-0.0029179968592740395,0.28125819992186135,-0.07057427003896095,0.2791552120470442,0.039018790646279104,13010.181757800281
1682303259535649061,150,1682303259535649061,camera_2,151,0,-1.2410306801226099,0.308305684515967,1.7446354976574288,0.9569437162503728,-0.0028109667235685656,0.28152954094421445,-0.07065366211842673,0.3015377827687189,0.04214340433735057,13009.801019193601
1682303259545765161,151,1682303259545765161,camera_2,152,0,-1.240883836330212,0.3087846591687993,1.7444711125240984,0.9568244396322045,-0.0024261635366734573,0.2821719844546669,-0.0697142499201301,0.28134263935498893,0.039304043582595496,13003.313712869305
1682303259555947542,152,1682303259555947542,camera_2,153,0,-1.2407342480764303,0.30935586280724237,1.7442507179706004,0.9568073378897235,-0.0026570522764012418,0.2821452497251239,-0.07004795708033508,0.2672147242119536,0.03734176505242571,13003.811497681774
1682303259565849065,153,1682303259565849065,camera_2,154,0,-1.2407128907326341,0.30995500818910526,1.7442196762200264,0.956814785426268,-0.0024757163541076674,0.2821574239996878,-0.06990368588335791,0.2927176321973093,0.04090713364337593,13003.183609286554
1682303259575710535,154,1682303259575710535,camera_2,155,0,-1.242014624511207,0.31088004275445674,1.7460514118061612,0.9570645903001822,-0.002662408696166382,0.28129455655710006,-0.06995465692020347,0.26900536083849147,0.03765840657201766,12990.639462251918
1682303259585953950,155,1682303259585953950,camera_2,156,0,-1.2403508530127465,0.3108119569086517,1.7436735466957098,0.9567824313675745,-0.0027185177792508333,0.28216171156827513,-0.0703189676566573,0.29792262852424756,0.0416424810070989,13006.302406938976
1682303259595648050,156,1682303259595648050,camera_2,157,0,-1.2397237465147153,0.3107659379288598,1.7428124153687152,0.956617466946563,-0.0027991325738503754,0.28268500604153607,-0.07045831497326789,0.2915944790584035,0.04074140073143878,13008.284550369943
1682303259606167554,157,1682303259606167554,camera_2,158,0,-1.2405197999830826,0.31082162340226555,1.7439267128552918,0.9568186022742989,-0.0027023111850251877,0.2820176655170752,-0.07040522844516206,0.2941183227230795,0.0411199303460042,13005.133874822637
1682303259615655660,158,1682303259615655660,camera_2,159,0,-1.242034315055783,0.31083703358943054,1.7460907057253847,0.957064922142607,-0.002483976533566413,0.2812999750273327,-0.06993488910671422,0.2698966828174889,0.03778182112532391,12990.284355344018
1682303259626007080,159,1682303259626007080,camera_2,160,0,-1.240778068148186,0.30993766523677985,1.744311158849169,0.956818137589784,-0.0024992153465989834,0.2821593684121919,-0.06984909676654258,0.2871066587977111,0.040124883725913045,13002.154580285765
1682303259635701179,160,1682303259635701179,camera_2,161,0,-1.241085151746938,0.3093751157887852,1.7447440701664914,0.9568910528292678,-0.0027183078912663833,0.28188243141206054,-0.06996012206056333,0.2929958724998869,0.04095576036012057,13002.1922497435
1682303259645485639,161,1682303259645485639,camera_2,162,0,-1.2404229650844218,0.30857138518124155,1.7438044232129806,0.9568412004858191,-0.0024915036356717027,0.28208393251577185,-0.06983813055149377,0.29803405195707455,0.041605134588857305,13014.536760610532
1682303259656004905,162,1682303259656004905,camera_2,163,0,-1.2409797410418058,0.3082407115377971,1.7445678064645052,0.9569325359746534,-0.0027797365975239957,0.2815836885273411,-0.07059051645160555,0.30258977675111964,0.042285232629947565,13010.27946852753
1682303259665639877,163,1682303259665639877,camera_2,164,0,-1.2408396560022834,0.3079699972185176,1.7443706681771496,0.9568834311570781,-0.002828091413868426,0.28175545123144263,-0.07056887966645355,0.2784073197399266,0.038898343779452185,13010.60399668967
1682303259675987482,164,1682303259675987482,camera_2,165,0,-1.240967981321968,0.30800825931302606,1.7445728889242114,0.9569226093857198,-0.0029258944536322893,0.2815914258983806,-0.07068824264747489,0.29029093828285113,0.04056775415927996,13010.372602314685
1682303259685606002,165,1682303259685606002,camera_2,166,0,-1.2409432947805525,0.3082562651083749,1.7445478894889654,0.9568826443505705,-0.002736684018648964,0.28174829294881193,-0.07061171943574483,0.2898320620879531,0.04050646450449647,13007.536199245596
1682303259695881366,166,1682303259695881366,camera_2,167,0,-1.2404046867617842,0.3086059517946266,1.7437812980860983,0.9567722141739848,-0.002564673102305841,0.2823349951085717,-0.0697660603268639,0.292050740274135,0.04077591366299198,13010.191086677603
1682303259705658435,167,1682303259705658435,camera_2,168,0,-1.2411141187854038,0.3094169438431479,1.744781331438117,0.956877832443483,-0.002665436134024009,0.2818751187500143,-0.07017212165912114,0.2768202743609436,0.03870330753210284,13000.602395314494
1682303259715668678,168,1682303259715668678,camera_2,169,0,-1.240945488936402,0.3099951337485968,1.7445455719993375,0.9568775571285466,-0.002450063030242563,0.28187518740656936,-0.07018344946897634,0.2902586116688326,0.04057904081531718,13002.461328350702
1682303259725813865,169,1682303259725813865,camera_2,170,0,-1.242296470866636,0.3109219645910686,1.746445548138617,0.9571812369511301,-0.0025666907005795162,0.2808882124021158,-0.06999502740263758,0.2843167206738144,0.03980711852792379,12992.509580359787
1682303259735713481,170,1682303259735713481,camera_2,171,0,-1.2405496234429223,0.31087949527751746,1.7439612327675564,0.9568217790979374,-0.0028190305038334586,0.28206390267428305,-0.07017186700543905,0.28836799768032506,0.04031288458865789,13004.624102113765
1682303259746127605,171,1682303259746127605,camera_2,172,0,-1.240360447808104,0.31098912672757606,1.7437084523225124,0.9568131356894924,-0.002772920045750434,0.28203477995074255,-0.0704082181609284,0.29303930822061375,0.04096326614082611,13007.532814210523
1682303259755837440,172,1682303259755837440,camera_2,173,0,-1.2400032172716808,0.3107745977021203,1.7432008256498055,0.9567051619987097,-0.0027118763008789487,0.2824390764652548,-0.07025700546853192,0.3023303903173655,0.04224304992866305,13008.30931317829
1682303259765855312,173,1682303259765855312,camera_2,174,0,-1.2421859084966467,0.310968481799749,1.746302869919056,0.9571582812825716,-0.002635320930350171,0.28097467964217115,-0.06995933858868962,0.28871090384200215,0.040418826583379155,12993.057775892092
1682303259775704383,174,1682303259775704383,camera_2,175,0,-1.2404837742758577,0.3099856411122577,1.7438983655495142,0.9568221422237498,-0.002379681719426559,0.2821113522425197,-0.06999221528974288,0.3010156844393351,0.04205336095742041,13008.254570624566
1682303259785997152,175,1682303259785997152,camera_2,176,0,-1.2408157271060798,0.30942907165535344,1.744360780253651,0.9568299129613076,-0.002715652276610501,0.28205886638967204,-0.070085225162957,0.2775989915826358,0.03879773712296023,13003.548929517625
1682303259795708656,176,1682303259795708656,camera_2,177,0,-1.240991966594603,0.30881674455533487,1.744590145233584,0.9569535556674504,-0.0024054590039539556,0.2817411642830743,-0.06968516636144192,0.2877480639144778,0.04019038572858251,13009.682603270514
1682303259805822134,177,1682303259805822134,camera_2,178,0,-1.2408516401035008,0.30825825740884794,1.7443723135710507,0.9568640635622219,-0.0026952952892514144,0.28181996889741706,-0.07057906472286928,0.2888936896924861,0.040369595010932784,13008.391621355435
1682303259815747499,178,1682303259815747499,camera_2,179,0,-1.2410376148597242,0.3080108437038085,1.744660177294816,0.9569364728538509,-0.0029132609181278745,0.28157503794207733,-0.07056626560029926,0.27941493259277195,0.03904689242053809,13009.89203911927
1682303259825976610,179,1682303259825976610,camera_2,180,0,-1.2411957353311065,0.3079888885020566,1.74489383043552,0.9569872077864622,-0.0028668911719381216,0.28140869047167255,-0.07054370273169021,0.293187580362428,0.0409747349252745,13010.018962867565
1682303259835702896,180,1682303259835702896,camera_2,181,0,-1.240887575618569,0.30812081260664276,1.7444625072271,0.9568803173198437,-0.002837502368504066,0.28173788875582867,-0.0706807537140933,0.2966950769186952,0.04146320923323621,13008.917563880563
1682303259845971345,181,1682303259845971345,camera_2,182,0,-1.2399257487335977,0.3083170246626662,1.7431156026401937,0.9567000513359304,-0.0026494994961510933,0.28257174546557906,-0.06979398678098357,0.3059919667430222,0.04269630213739304,13016.08190841903
1682303259855786561,182,1682303259855786561,camera_2,183,0,-1.2420593864365492,0.30946169371407706,1.74611926520452,0.9570933945617245,-0.002474487066115167,0.2811968146386447,-0.06996043479821024,0.27875791920814663,0.039001042831834434,12995.343452888314
1682303259865773677,183,1682303259865773677,camera_2,184,0,-1.2410690573114005,0.30986144191880766,1.7447102300184174,0.9569034617742441,-0.0026230118667241284,0.2817775662270435,-0.0702160083198899,0.29443394189001987,0.041167938294096595,13002.098986036613
1682303259875772237,184,1682303259875772237,camera_2,185,0,-1.2416314961301291,0.31062735166101607,1.7455035185342869,0.9569447723085014,-0.002494309993289329,0.28173605789883804,-0.06982316842360171,0.27322076150448993,0.03823003482404294,12991.237496598853
1682303259886043310,185,1682303259886043310,camera_2,186,0,-1.2407692183238388,0.31087122525286787,1.7442564545331973,0.9568186046208585,-0.00271309601508056,0.2820637936538694,-0.07021974986421792,0.2971838896628469,0.041559327387850314,13000.099209910024
1682303259895622968,186,1682303259895622968,camera_2,187,0,-1.2401031158786753,0.31095555737912506,1.7433681463072002,0.9567274036467752,-0.002727023385811126,0.2822801660914106,-0.07059140376957862,0.28518861398333684,0.03986367718360899,13007.14340688102
1682303259905983924,187,1682303259905983924,camera_2,188,0,-1.2399550632290306,0.3108705097270612,1.743134761699182,0.956697619134346,-0.00272968933470982,0.2824309167548992,-0.0703917012139704,0.2926366751198657,0.04089175317298411,13008.523485142738
1682303259915819883,188,1682303259915819883,camera_2,189,0,-1.241271380619873,0.31092581408623654,1.7450033033441468,0.9568932762784582,-0.0028200515804640263,0.2817924368892333,-0.0702874642748576,0.2958883627434261,0.04140605036641649,12994.45507403417
1682303259925415277,189,1682303259925415277,camera_2,190,0,-1.2410466214111282,0.3103694575341696,1.7446763337850661,0.956898335949006,-0.0024524153582404142,0.28192938128457845,-0.06968058757953188,0.2715262906276621,0.03795608469687358,13000.757555248683
1682303259936330080,190,1682303259936330080,camera_2,191,0,-1.2412463546819685,0.30978296519900805,1.7449710751906877,0.9569011009541507,-0.0026747591266412245,0.2817132786612075,-0.07050359765502474,0.26563575537875295,0.03715810104396627,12998.476043912586
1682303259946750879,191,1682303259946750879,camera_2,192,0,-1.241736208939662,0.3092152045341832,1.745626459510646,0.956979554005352,-0.002423720622285576,0.2816524798924593,-0.0696860055139541,0.29119833844015375,0.040721548107157786,12995.309635834303
1682303259955873250,192,1682303259955873250,camera_2,193,0,-1.2406893139566453,0.3083645117371762,1.744176283610036,0.9568939626039598,-0.0026495968333558576,0.2818084060127476,-0.0702206968725529,0.3118117315461859,0.04354923294064314,13013.268617711732
1682303259966037988,193,1682303259966037988,camera_2,194,0,-1.2411431054921938,0.30810379396194904,1.744789173551387,0.9569487609081065,-0.002829738886787427,0.28149198703702005,-0.07073417001861566,0.2680675140582025,0.03747025442553353,13008.391923656212
1682303259975903272,194,1682303259975903272,camera_2,195,0,-1.2409068910145498,0.3078494157168513,1.7444737908925192,0.9568943606036868,-0.0027689668123216838,0.2817809607951646,-0.07032073379173043,0.3018400520668365,0.04216620666850539,13010.240531594729
1682303259986034393,195,1682303259986034393,camera_2,196,0,-1.2408504692341469,0.30792891784735854,1.7444100064285128,0.9568969312090714,-0.0028936369045997456,0.2817445700703703,-0.07042646621823587,0.3108983138226904,0.0434338540981947,13011.275113664102
1682303259995918035,196,1682303259995918035,camera_2,197,0,-1.240718005353308,0.3082527139550449,1.7442086183424819,0.9568813266398697,-0.0026612404222017033,0.28184358365430273,-0.07025125536414513,0.2961699024308473,0.04136695084467641,13012.124569156913
1682303260005764961,197,1682303260005764961,camera_2,198,0,-1.2411998936236837,0.3089326010950146,1.744887030337792,0.956887137757149,-0.0025197098062517565,0.28192796913391455,-0.0698375033735462,0.280664014746435,0.03922741721849056,13000.733489210483
1682303260015742778,198,1682303260015742778,camera_2,199,0,-1.240787158721918,0.309471333009562,1.7442851699875876,0.9568630936499869,-0.0027086133887730783,0.28188751863240685,-0.07032147796620315,0.2739057132275775,0.038282731431406716,13006.301675878467
1682303260025900602,199,1682303260025900602,camera_2,200,0,-1.2408277446557177,0.3101278020848866,1.7443854530824259,0.9568634242623647,-0.002372070780667102,0.28206183647328953,-0.06962672615044392,0.3069846833823249,0.04289672374549034,13003.55904989969
1682303260035771131,200,1682303260035771131,camera_2,201,0,-1.2417497089930918,0.31092750949512016,1.7456598376457595,0.957033493383024,-0.002619771254306014,0.28130342544589626,-0.07034495130473525,0.2901825600420125,0.04062105656297253,12993.962500012938
1682303260045768022,201,1682303260045768022,camera_2,202,0,-1.2397867222143204,0.31082340634819616,1.742902210960704,0.9566644099556953,-0.0027790643964147404,0.2825281138289147,-0.07045103563098193,0.3006292078644037,0.042002996215101396,13009.944785646161
1682303260055968046,202,1682303260055968046,camera_2,203,0,-1.2402443018265465,0.3110538405299995,1.7435401429537003,0.9567111437006534,-0.002714473401672836,0.28234276698484406,-0.07056189541446231,0.29347237304318696,0.04103218052250275,13003.129247652605
1682303260065814495,203,1682303260065814495,camera_2,204,0,-1.2399567324937353,0.31082667433560796,1.743141805291439,0.9567269385633775,-0.002728903034102815,0.28231916345552993,-0.0704415222801688,0.29396031965734437,0.04107445273277074,13010.48819479346
1682303260075866699,204,1682303260075866699,camera_2,205,0,-1.2419852142866428,0.3109512509394002,1.7460278352018144,0.9570063518337618,-0.00255960224375209,0.28140109817673625,-0.07032576292593525,0.2627819833578542,0.03680093768498941,12987.125725300282
1682303260085841894,205,1682303260085841894,camera_2,206,0,-1.2405058807259528,0.30998420971559104,1.743937139269658,0.9568450217834643,-0.0024267006547176754,0.28210141246866255,-0.06971734716209355,0.29103090503485873,0.04065021057900503,13009.249000121608
1682303260095646142,206,1682303260095646142,camera_2,207,0,-1.2409130978575014,0.30940204985699693,1.7444871183517845,0.9568412354818961,-0.002646881521634465,0.2819741283765913,-0.07027399964390041,0.2855048955534585,0.03991146088845418,13002.40916476468
1682303260105880260,207,1682303260105880260,camera_2,208,0,-1.2406572718728908,0.30867868940565385,1.74411655421601,0.9568169773533963,-0.0025121410748286223,0.2821770172255505,-0.06979320844625057,0.2948023463250138,0.04117167306479258,13007.967580064429
1682303260115680694,208,1682303260115680694,camera_2,209,0,-1.2408311465921293,0.3082095055108604,1.7443566404192015,0.9569040997455902,-0.002758453058037344,0.28162446704072575,-0.0708138008500828,0.2950464138411917,0.04123038085851314,13011.519608933248
1682303260125875949,209,1682303260125875949,camera_2,210,0,-1.2407402178034326,0.30783895366544695,1.744232843248504,0.9568815520197299,-0.002810559624620246,0.2817958169679642,-0.07043375396971958,0.2982821215991862,0.04166342892073961,13012.831235206691
1682303260135624647,210,1682303260135624647,camera_2,211,0,-1.2410502219361774,0.30784413876717903,1.7446892053619831,0.9569397235030024,-0.0027992371870961185,0.28163331748149406,-0.0702937005537193,0.29902457195566967,0.04177675166571339,13010.205921294639
1682303260145642042,211,1682303260145642042,camera_2,212,0,-1.2412089693653443,0.3080838380302867,1.7449217064501452,0.956974936426647,-0.00281282737191592,0.28148171949085193,-0.07042088217186801,0.29675259976647794,0.04147307533909591,13008.60229962366
1682303260155904769,212,1682303260155904769,camera_2,213,0,-1.2404345985005687,0.30830898953607216,1.7438459682553593,0.9567853316949716,-0.0025999687941797296,0.28214468191829206,-0.07035231112648817,0.30367139575537294,0.04241136001891853,13011.277771410998
1682303260165879487,213,1682303260165879487,camera_2,214,0,-1.242112365946787,0.30931258307666726,1.7461904219044184,0.9570638539774262,-0.0024931780775736246,0.28136024066180726,-0.06970637307792656,0.2844485904206522,0.039794682307133504,12992.752141255414
1682303260175861835,214,1682303260175861835,camera_2,215,0,-1.2412721426552433,0.3097907680447047,1.7449725868489578,0.9569513214825722,-0.0027132892312600534,0.2816026724277471,-0.07026194742431509,0.2733896675053984,0.03823273878686676,13001.396269087214
1682303260185817718,215,1682303260185817718,camera_2,216,0,-1.2412190528151634,0.31044259993905415,1.7449253425905937,0.9568955863006624,-0.0023220008037072677,0.2819682750620956,-0.06956534402334043,0.2741049976320937,0.03832410222350285,12996.781992011474
1682303260195740461,216,1682303260195740461,camera_2,217,0,-1.2405163278705464,0.3108020551389652,1.7439285138655756,0.956814772165109,-0.0026812411918067575,0.2820214541997649,-0.0704428994530467,0.2891464492422528,0.04042568723121558,13004.950716200285
1682303260205722570,217,1682303260205722570,camera_2,218,0,-1.2402433340745294,0.3110447259097225,1.7435308568083747,0.9567748849432208,-0.002764024693016848,0.28211463296396333,-0.07060816933606905,0.2980105513706803,0.04166109238102899,13007.382581388109
1682303260215818405,218,1682303260215818405,camera_2,219,0,-1.2402864766330124,0.3111065719937231,1.7436378802746468,0.9567179314839744,-0.00269279625227392,0.28231792192940924,-0.07057010261314084,0.2933199249673635,0.04101446881630137,13002.346872601665
1682303260225765228,219,1682303260225765228,camera_2,220,0,-1.2402427344359668,0.3108939136494625,1.7435477485779634,0.9567624323924189,-0.002691087641049117,0.2821906606923883,-0.07047579036693231,0.2755765332840383,0.03852010250788439,13006.797499265758
1682303260235705852,220,1682303260235705852,camera_2,221,0,-1.2423284327212492,0.3109694086181015,1.7464968840743225,0.9571186080033882,-0.0026252566546953525,0.28111861154160006,-0.06992427680052553,0.2738688206882216,0.03835220795713334,12987.562002263501
1682303260245846986,221,1682303260245846986,camera_2,222,0,-1.2408802939719412,0.3099685839517007,1.7444529820319932,0.9568714683119308,-0.0024128836958061312,0.28194873956826433,-0.0699719899581758,0.28664450329961255,0.04006386869449294,13003.453010970727
1682303260255882024,222,1682303260255882024,camera_2,223,0,-1.2417485287983385,0.3094986042709416,1.74566997092178,0.9570328624492745,-0.00261128189190427,0.2814073502318889,-0.06993700475782638,0.2779133323347196,0.03887144786447274,12997.754747792154
1682303260265288114,223,1682303260265288114,camera_2,224,0,-1.239984090753842,0.3084088064827815,1.7431753433501298,0.956700780583934,-0.0024772581381625864,0.2825294339692042,-0.06996140767058043,0.295882192440331,0.04129317635687942,13014.768711068433
1682303260275745391,224,1682303260275745391,camera_2,225,0,-1.2412351626399991,0.30820728390738517,1.744923083922182,0.957009262328717,-0.0029025820484329056,0.2812939320887052,-0.07070057004418029,0.30285260477103293,0.04233346064978065,13010.235256247921
1682303260285697937,225,1682303260285697937,camera_2,226,0,-1.2406057414251273,0.3077468776543029,1.7440458142560045,0.9568366071974695,-0.0027136314874737478,0.28204086327748545,-0.07006635977897188,0.2867594469571486,0.0400382035423679,13012.812207527691
1682303260295619726,226,1682303260295619726,camera_2,227,0,-1.24077087539007,0.30773343884726173,1.7442991577032856,0.9568505109408452,-0.0026571142999339352,0.28196298436284867,-0.07019198604567764,0.30753464915324,0.04295167780494054,13010.30876388587
1682303260305978059,227,1682303260305978059,camera_2,228,0,-1.2412824175607038,0.3080859792545725,1.7450215329947183,0.9570052948782284,-0.0027820309412000766,0.28128051658593817,-0.07081240617310873,0.2867915435344912,0.04009233588308337,13009.109216933142
1682303260315653562,228,1682303260315653562,camera_2,229,0,-1.2403738634575276,0.3082798013283997,1.7437348031379147,0.9567971971745426,-0.0026413819013166324,0.2820979134293336,-0.07037694096369242,0.30249511485453695,0.04224200269475093,13013.491476398885
1682303260325815916,229,1682303260325815916,camera_2,230,0,-1.241819720291677,0.30927540990271646,1.7457693730573807,0.9569812014853277,-0.002580236304938784,0.28167006061389843,-0.06958663189199496,0.28688209352549165,0.0401230040793639,12993.452382917749
1682303260335661649,230,1682303260335661649,camera_2,231,0,-1.2407142084406304,0.30969966938101984,1.7442019315562443,0.9567769590369741,-0.0025841511742203315,0.2821695005892743,-0.07036722074850385,0.27583030686946586,0.03855988796470661,13001.49478848651
1682303260345863103,231,1682303260345863103,camera_2,232,0,-1.2418144819001025,0.31066513382868793,1.7457637903831242,0.9570091352321501,-0.002411776973484139,0.2815416137692474,-0.0697281731457987,0.27260383719112724,0.0381452240137975,12991.572585944086
