%time,field.header.seq,field.header.stamp,field.header.frame_id,field.image_seq,field.transforms0.fiducial_id,field.transforms0.transform.translation.x,field.transforms0.transform.translation.y,field.transforms0.transform.translation.z,field.transforms0.transform.rotation.x,field.transforms0.transform.rotation.y,field.transforms0.transform.rotation.z,field.transforms0.transform.rotation.w,field.transforms0.image_error,field.transforms0.object_error,field.transforms0.fiducial_area
1682302586783529758,0,1682302586783529758,camera_1,1,0,0.6636709078198845,0.486490694377437,1.812658896198259,-0.9800750064939819,-0.044421447225089956,0.15678669612960636,0.11356781493456936,0.19009459781227633,0.017863147390990288,20547.501300032705
1682302586793756008,1,1682302586793756008,camera_1,2,0,0.6635608222761986,0.4845770089734268,1.8122303216501128,-0.9800542269851812,-0.04462485639736875,0.15646103097226524,0.11411520559105712,0.2308271384681575,0.021672927503355695,20568.540611287353
1682302586803454637,2,1682302586803454637,camera_1,3,0,0.663292183453725,0.48291977359946475,1.8114036458288776,-0.9799567415742958,-0.044536013396466706,0.15729658727360105,0.11383809461650791,0.22564432205399498,0.021163826039595626,20586.726248843595
1682302586813419580,3,1682302586813419580,camera_1,4,0,0.6636718526570019,0.4822779798884665,1.8123912445178576,-0.9800841287204602,-0.04449720412660509,0.15639517015883314,0.11399846580617362,0.19515233585843816,0.01831918966603212,20582.993515534567
1682302586823480129,4,1682302586823480129,camera_1,5,0,0.6634768556357498,0.4820031766392727,1.811844844267945,-0.9800330847658364,-0.04451774591616512,0.156939424008184,0.11368087022398445,0.21294670714996755,0.019978766981965726,20590.94878800027
1682302586833449840,5,1682302586833449840,camera_1,6,0,0.6634121847737855,0.4825398848177762,1.8116786050547211,-0.9800620524587276,-0.04455755076131776,0.15696100346454137,0.11338536674519828,0.21050929941702634,0.019749001550679858,20593.446586897244
1682302586843489646,6,1682302586843489646,camera_1,7,0,0.6636408343058061,0.4839708418484874,1.8123974177768276,-0.980088086688902,-0.04463653274696943,0.1566914742943862,0.11350200067958259,0.22212425887119025,0.02085885675309627,20571.907404307494
1682302586853509902,7,1682302586853509902,camera_1,8,0,0.6638038234167329,0.4858328778896248,1.8129880433068222,-0.9800993450550881,-0.044595480742380504,0.15644361305868051,0.11376252833463682,0.20904516492737457,0.019647862652640243,20548.43864985555
1682302586863467454,8,1682302586863467454,camera_1,9,0,0.6638058510138748,0.48788655024183897,1.8131233896167283,-0.9801049396948165,-0.044566692574114164,0.1564404153305106,0.11373000285782857,0.20308871392626315,0.01909731701088582,20532.05624071217
1682302586873439073,9,1682302586873439073,camera_1,10,0,0.6636687038874428,0.4896995985699307,1.8128743725566914,-0.9801199812754512,-0.0445079824201909,0.15614208342151836,0.1140329408122109,0.2330571231432259,0.021916046711541487,20525.98323270328
1682302586883343458,10,1682302586883343458,camera_1,11,0,0.6636481561112899,0.49127028425777935,1.8129112610199456,-0.9801180246735365,-0.044366322953378536,0.1562716942696327,0.11392736575441476,0.2111108811222948,0.019858636026033487,20513.39297497936
1682302586893602848,11,1682302586893602848,camera_1,12,0,0.6635043817452603,0.4922020393903563,1.812567838013663,-0.9801379254438268,-0.04433232371401084,0.15627968442173482,0.11375830702779713,0.21562469186028466,0.020279778175677304,20515.43914010329
1682302586903369426,12,1682302586903369426,camera_1,13,0,0.6636825018277454,0.49273594709150226,1.8131043817862835,-0.9801991662436541,-0.044461718848062576,0.15573479078532929,0.1139272793994955,0.20585458062123507,0.019372292123264773,20507.440617196025
1682302586913352251,13,1682302586913352251,camera_1,14,0,0.663586448600751,0.49233159846809477,1.812792360472839,-0.9801584858186808,-0.04437280343275156,0.15603816340412927,0.11389683294374672,0.21932963113067672,0.02063304952642982,20512.124755929224
1682302586923729419,14,1682302586923729419,camera_1,15,0,0.6636797249654827,0.4913452282996208,1.8129999446899352,-0.9801273284935011,-0.0444401843472096,0.15599659743256733,0.11419523433506373,0.2061256244778633,0.01939081883942249,20512.474204320453
1682302586933599710,15,1682302586933599710,camera_1,16,0,0.6635470556680434,0.48967390524669385,1.8125384756454073,-0.9800589840209494,-0.04447561224446032,0.15656617411871507,0.11398833658376181,0.20879255729960278,0.01962763713014518,20526.98434960585
1682302586943981170,16,1682302586943981170,camera_1,17,0,0.6638003174974455,0.4880029987741228,1.813106605078458,-0.9800723892262526,-0.04439758724363588,0.1565578671298091,0.11391488209647391,0.2192321924958378,0.02061572548882805,20527.687900887922
1682302586953960418,17,1682302586953960418,camera_1,18,0,0.6636681729095838,0.4859265315881431,1.8126123152888962,-0.980070732578541,-0.044528474837821096,0.1563056900428586,0.11422392626680779,0.2287015145411715,0.021486429850258178,20552.7876724588
1682302586963478326,18,1682302586963478326,camera_1,19,0,0.6636289154622311,0.48405962550719667,1.8123828719087547,-0.9801185101782413,-0.04447394003681746,0.15633879323482186,0.1137890873215262,0.24869698978727683,0.02335340147521168,20574.17411267152
1682302586973946332,19,1682302586973946332,camera_1,20,0,0.6635404339469448,0.48267128277065596,1.8120639719327112,-0.980111074298525,-0.04457467158915817,0.15657450346303364,0.11348923101076344,0.21425695635844022,0.020108330495351084,20589.672793240512
1682302586984102964,20,1682302586984102964,camera_1,21,0,0.6635387875943011,0.48205664007315013,1.8120393626337747,-0.9801076124294651,-0.044544177180794085,0.1560359013030569,0.11427021414893036,0.20366963773267344,0.019109805546691973,20594.740268939302
1682302586993723630,21,1682302586993723630,camera_1,22,0,0.6637664133994602,0.48232766755223316,1.812646223404868,-0.9801455185567911,-0.04467534407755492,0.1557891421140464,0.1142305531981733,0.2004695224459283,0.018822130447712835,20584.421298096422
1682302587003764152,22,1682302587003764152,camera_1,23,0,0.6635617064917223,0.48300534380551485,1.8121277923036936,-0.9800505408886134,-0.04454340686211587,0.1561965357217598,0.11454023065095215,0.21123245253693312,0.01982437602885835,20580.99990426049
1682302587013501405,23,1682302587013501405,camera_1,24,0,0.6637893986963614,0.48466137031099765,1.8128758870901147,-0.9800647830936334,-0.04463633684938528,0.15651959486264747,0.11393961030445209,0.2091093774070032,0.01964748208967505,20555.640782231345
1682302587023497104,24,1682302587023497104,camera_1,25,0,0.6636462839627673,0.4864447022178181,1.8125870921250895,-0.9800151955722007,-0.044585458258136625,0.15661519066810722,0.11425425773898121,0.2169470686931163,0.020383529390586727,20544.647004881175
1682302587033673763,25,1682302587033673763,camera_1,26,0,0.6637550194285892,0.48851761201927224,1.8130348277491897,-0.9801012281182037,-0.04442628766428245,0.15619441423416233,0.11415424901249309,0.23950180021347478,0.022521205335793232,20528.815390494186
1682302587043129682,26,1682302587043129682,camera_1,27,0,0.6635393125408784,0.4901195651757943,1.8125424158608587,-0.9800995875455748,-0.04449945347904838,0.15610039084764402,0.11426839068733335,0.22115974413463846,0.020790832510905587,20528.07958480424
1682302587053496837,27,1682302587053496837,camera_1,28,0,0.6634453762555387,0.4914808805207601,1.812365949488402,-0.9800569286836049,-0.04444376067588568,0.15656774924608163,0.11401626450756938,0.21266331907827407,0.01999427441079693,20517.478908125326
1682302587063449621,28,1682302587063449621,camera_1,29,0,0.6636160428951221,0.49249670555235137,1.8128532235478008,-0.9801480767502367,-0.04430526197707199,0.15596162167777206,0.11411732544883137,0.2217331024003215,0.020860789447042345,20508.383249871433
1682302587073524713,29,1682302587073524713,camera_1,30,0,0.6634866839333975,0.4925518708922267,1.8125540961287387,-0.9801769789901305,-0.04437402633088114,0.15601702538125595,0.11376609088894812,0.21033728180918843,0.01978288448994641,20517.34333663992
1682302587083431482,30,1682302587083431482,camera_1,31,0,0.663592142748094,0.4921031322565516,1.8128883604213615,-0.9801318658792277,-0.04443185345769845,0.1562834898384282,0.1137664567890685,0.20037265948485583,0.018850688318978275,20509.90186980902
1682302587093423128,31,1682302587093423128,camera_1,32,0,0.6634601410059582,0.4907679782900496,1.8124532960286341,-0.9800734803868492,-0.04447915091438237,0.15661639905533137,0.11379315323553117,0.20139326679054648,0.018934015691431244,20522.78315575607
1682302587103418350,32,1682302587103418350,camera_1,33,0,0.663706228191685,0.4892605801470139,1.8129898535742184,-0.9800818422071196,-0.04448380418986722,0.15626288088818785,0.11420457870514875,0.2124919969937764,0.019982449654113797,20523.25559293852
1682302587113578319,33,1682302587113578319,camera_1,34,0,0.6638800310858548,0.4873361047208355,1.813268628110511,-0.9801243198102311,-0.044430396704520536,0.15648372506421307,0.11355659978723653,0.23796363861765712,0.022379329987525915,20533.744060279805
1682302587123594760,34,1682302587123594760,camera_1,35,0,0.663699905404781,0.48523739708331537,1.8126484481518108,-0.9800778081214518,-0.04460319511432536,0.15633265603985544,0.1140970887839316,0.21437378512928262,0.02013880222948522,20557.642795423977
1682302587133583545,35,1682302587133583545,camera_1,36,0,0.6636545209581853,0.4835754277631919,1.8124043747713159,-0.9800602842425795,-0.04451534595434087,0.15630861294738996,0.11431465673037149,0.21730471245246008,0.020402938858925804,20571.941191199825
1682302587143578052,36,1682302587143578052,camera_1,37,0,0.6636249614964811,0.4824740555870373,1.8122748575890688,-0.9801063316540459,-0.04469628126139406,0.1560593417411325,0.11418976726649425,0.22087259875843301,0.02073106174420661,20587.26147307897
1682302587153363943,37,1682302587153363943,camera_1,38,0,0.6635391437812269,0.482016714250097,1.8120259363704747,-0.9800674055565557,-0.044552403529826166,0.1570661016686603,0.1131954222217809,0.20828829886158928,0.019546432091985668,20590.22755872878
1682302587163308382,38,1682302587163308382,camera_1,39,0,0.6635808835279478,0.48239883337762984,1.812137776771194,-0.9800949336344605,-0.044581208515158746,0.15621236491265927,0.1141233278509906,0.20041574456263334,0.018808171340839928,20588.9492302601
1682302587173214435,39,1682302587173214435,camera_1,40,0,0.6636519473506467,0.48356994525000335,1.8124456028112046,-0.9800780043923062,-0.044567824043720686,0.15626701709590102,0.11419909690690147,0.2036664547631517,0.01912301574231226,20573.248550693148
1682302587183201313,40,1682302587183201313,camera_1,41,0,0.6636794767930833,0.48518371792519405,1.8126174796515209,-0.9800822904189543,-0.04457409208363609,0.15648710173184735,0.11385798748275197,0.21990148344775662,0.020657938822922994,20558.85540732649
1682302587193355083,41,1682302587193355083,camera_1,42,0,0.6637442406429687,0.4871219976501051,1.8129187684526318,-0.9800620158104523,-0.04458282760165476,0.15668504384039098,0.11375681819270844,0.20171260775532573,0.01896162799897265,20537.45562338049
1682302587203217267,42,1682302587203217267,camera_1,43,0,0.6636275986492227,0.489005542333445,1.8127095630906924,-0.980078002456556,-0.04459713178492328,0.15600183088713515,0.11454969968178465,0.21468870958779007,0.020181319699259518,20530.96657324036
1682302587213573694,43,1682302587213573694,camera_1,44,0,0.6636369833087359,0.4907559141751756,1.8128534850982283,-0.9800955321251367,-0.04451235916505613,0.15609141869858462,0.11431039672124996,0.20149679417954758,0.018950283053556467,20516.980106481806
1682302587223497390,44,1682302587223497390,camera_1,45,0,0.6636885316683382,0.4920845193314702,1.8130732354599912,-0.9801697287576348,-0.0443945000584791,0.15588147405403988,0.11400612807424898,0.20721888885600492,0.019497923783600303,20509.558527798734
1682302587233563423,45,1682302587233563423,camera_1,46,0,0.6636175181954629,0.49265992162979627,1.8129320820400887,-0.98019610738229,-0.04439788258888524,0.1557338518953428,0.11397976341469208,0.21711379307089373,0.020427936937962028,20511.015533212114
1682302587243570089,46,1682302587243570089,camera_1,47,0,0.6637130959829027,0.4926317200468609,1.813156079227043,-0.9802497920398705,-0.0444329934894324,0.15560577503909553,0.11367892095653039,0.2065486881765537,0.019438689117676117,20511.6188241837
1682302587253461360,47,1682302587253461360,camera_1,48,0,0.6636489594934318,0.4918255205514017,1.8129945292521068,-0.9801059451278918,-0.044440723230550996,0.15613879054816526,0.11418422189542515,0.21590558910975233,0.020312657280508722,20507.292577123735
1682302587263492107,48,1682302587263492107,camera_1,49,0,0.6637345229963977,0.49039215060262975,1.8131063090833355,-0.9801323590316545,-0.04463575419778097,0.15577476561179096,0.11437845349903449,0.21205146791180596,0.019946442120706388,20518.530960356355
1682302587273505210,49,1682302587273505210,camera_1,50,0,0.6637789379280246,0.48858109008822115,1.8131248723991054,-0.9801317516302539,-0.04450885407382623,0.15610626405022232,0.11398046183240004,0.21710550464922562,0.02041699506991288,20529.942359173903
1682302587283446311,50,1682302587283446311,camera_1,51,0,0.6638285315743809,0.48661752125923824,1.8130902543085536,-0.9801053626688734,-0.0445832828866561,0.1567050844535286,0.1133548651852979,0.20745108422124758,0.019503825394205004,20541.1247810775
1682302587293493747,51,1682302587293493747,camera_1,52,0,0.6635991401031687,0.4846182566264061,1.8123545197184754,-0.9800843187807275,-0.044640674235730655,0.15665258348795755,0.11358655893390383,0.1938252129475586,0.01820181871576773,20568.427876920905
1682302587303493738,52,1682302587303493738,camera_1,53,0,0.6635251185390137,0.4830909693827142,1.8120482672049028,-0.9800244751397688,-0.044689408809594156,0.15662566973510728,0.11411960588478641,0.21927868283819407,0.02057963228650978,20579.72715374478
1682302587313585042,53,1682302587313585042,camera_1,54,0,0.6635978456119926,0.482244816630403,1.8122460401871727,-0.9800870849332872,-0.0445952839079916,0.15619359568184743,0.11421088944628975,0.20653797424165532,0.01938408285224023,20587.433273352915
1682302587323577404,54,1682302587323577404,camera_1,55,0,0.663532104075911,0.48204663255894636,1.812001422739621,-0.9800555406447383,-0.044493873447412347,0.15656488722735015,0.11401258072985788,0.19990260928170756,0.018756882099438304,20589.88783330983
1682302587333452939,55,1682302587333452939,camera_1,56,0,0.6635756443521335,0.4826746540207607,1.8121266950069432,-0.980094473560537,-0.044433915517312655,0.1565098494769675,0.11377661035815463,0.24396915477700531,0.022898374700236205,20586.135110676983
1682302587343497037,56,1682302587343497037,camera_1,57,0,0.6635399340834509,0.48391522019121586,1.8121560826026366,-0.9801090758425515,-0.044586383142281596,0.15637302604271958,0.11377930662291988,0.21873405430233106,0.02053381522339352,20579.641400463417
1682302587353421926,57,1682302587353421926,camera_1,58,0,0.6637595769357588,0.4858030140285934,1.8128345836343884,-0.9801065904173242,-0.04436439809312561,0.15671131267123087,0.11342149744745121,0.23252829030388966,0.021853070653215362,20551.054897010334
1682302587363529443,58,1682302587363529443,camera_1,59,0,0.6636704516450108,0.4877901826810757,1.8127710184554124,-0.9800545462719976,-0.044507394423608494,0.156799146820619,0.1136934726777936,0.22334853617940098,0.02099522114866863,20534.807560924444
1682302587372954368,59,1682302587372954368,camera_1,60,0,0.6637276598684029,0.4897509496263237,1.8130553858890488,-0.9801343778772692,-0.04453016496990234,0.15620882587474527,0.11380891190818648,0.22652505902806297,0.02130634818551667,20523.34406008292
1682302587383432865,60,1682302587383432865,camera_1,61,0,0.6635363611197117,0.49118377356358095,1.8126327255796812,-0.9800558879530149,-0.044471686465868396,0.1565668775911341,0.11401551838619069,0.19290987873682752,0.018140762464634485,20514.383233993787
1682302587393803358,61,1682302587393803358,camera_1,62,0,0.663517940067618,0.4922250682378583,1.8126531968948771,-0.9801204482899581,-0.04434849983152289,0.15646090449787223,0.1136534327255115,0.20418531575705856,0.01920577574874303,20512.07400705654
1682302587403571605,62,1682302587403571605,camera_1,63,0,0.663574508776215,0.4926601945593513,1.8128019591999032,-0.9801245134841814,-0.04444075774467578,0.15608954490582064,0.11409211668458841,0.19646981323603543,0.018483108079137212,20506.917866351672
1682302587413776397,63,1682302587413776397,camera_1,64,0,0.663778873892055,0.49247135168554507,1.8133276854404743,-0.9802403867874908,-0.04444950311800821,0.15578480328439456,0.11350824132597155,0.2048968755407259,0.019286642868830063,20508.272425816394
1682302587423650503,64,1682302587423650503,camera_1,65,0,0.6635251670222442,0.4912402762246252,1.8126050284696995,-0.9800970309544998,-0.0442444156614264,0.15661350337863117,0.1136857605701996,0.20331988687394187,0.019120276501403063,20517.299063743325
1682302587433575153,65,1682302587433575153,camera_1,66,0,0.663544810751013,0.4896813394762704,1.8125427011724018,-0.9801016287715424,-0.04445292032778108,0.1562959367490691,0.11400138292772036,0.21428318443940952,0.020143518966101833,20530.987374123415
1682302587443588495,66,1682302587443588495,camera_1,67,0,0.6637895104823005,0.488003974655397,1.8130805028769788,-0.9801142711682024,-0.04440231530461646,0.15620902199839584,0.11403153640251286,0.21771800675196573,0.02047196684090466,20532.487558367087
1682302587453388452,67,1682302587453388452,camera_1,68,0,0.6638935443230832,0.48610401186646696,1.813300403962369,-0.9801435750487275,-0.044467472045909416,0.1562635249018726,0.11367905262530915,0.20839144178899005,0.019593477727892133,20544.130761937595
1682302587463504076,68,1682302587463504076,camera_1,69,0,0.6634831546658648,0.48395797544175717,1.8119997018437919,-0.9800375126569649,-0.04467143888815879,0.156599464081616,0.11405062113886688,0.22205413499614224,0.020842013273036166,20576.172279211693
1682302587473818540,69,1682302587473818540,camera_1,70,0,0.6635974718384485,0.48272043770708495,1.8122194488212795,-0.9801152051177602,-0.04449057245115068,0.1568773635022316,0.11306753062010576,0.21131804765900597,0.019837199484738353,20585.75317325641
1682302587483802318,70,1682302587483802318,camera_1,71,0,0.6636650151552909,0.48218063038749914,1.8124215973419358,-0.9801227310060522,-0.04460258767055865,0.1559757622794102,0.11419983765174557,0.21491211728425696,0.020173338784669117,20587.702478440016
1682302587493727207,71,1682302587493727207,camera_1,72,0,0.663822936288871,0.48237519070952856,1.8128070312784474,-0.9801191678368838,-0.04465723879196073,0.15629097280157656,0.11377732499469789,0.2225410994142294,0.02090020599488138,20577.571631033326
1682302587503624439,72,1682302587503624439,camera_1,73,0,0.6636941767561657,0.48310265547831815,1.8125069260311866,-0.9800717910762631,-0.044544316289774934,0.15638250031670695,0.11410346978745832,0.20698642532806844,0.019434983627592235,20574.170910117675
1682302587513673305,73,1682302587513673305,camera_1,74,0,0.6636322908175457,0.4845458674937882,1.8124336956177034,-0.9800628308143189,-0.04466814067068494,0.1565475367830181,0.1139055468026791,0.21859579009469599,0.020529100507537614,20565.44112922286
1682302587523484945,74,1682302587523484945,camera_1,75,0,0.6637668046686471,0.4865292570986891,1.8129251495725243,-0.9800692572153988,-0.04449062786820974,0.1567382931749265,0.11365712712258719,0.22462305263616147,0.021114106456270838,20541.42037227377
1682302587533507347,75,1682302587533507347,camera_1,76,0,0.6636669164294389,0.48844419963577956,1.8128112032597457,-0.9800640305350758,-0.04460907007283896,0.15607104497018157,0.11457030959412667,0.20544817962218076,0.01931263840855584,20531.670967429178
1682302587543367624,76,1682302587543367624,camera_1,77,0,0.6634614857210823,0.49008885016472786,1.812382430156564,-0.9800171576956802,-0.044636070452722644,0.15660439437031462,0.11423246255126747,0.2248442218406126,0.02113414514583171,20524.31446731626
1682302587553792238,77,1682302587553792238,camera_1,78,0,0.663571042855915,0.49160563131520657,1.8127334230457728,-0.9801142060088996,-0.044559453856112596,0.1560433717447604,0.11419747977129764,0.2100368750980124,0.01975418675863694,20515.372868789942
1682302587563734769,78,1682302587563734769,camera_1,79,0,0.6636779383187694,0.49255014574314815,1.8130452735652782,-0.980206225114428,-0.04440476843911987,0.15572437110797613,0.11390299833550037,0.21053983474848792,0.019811605400581224,20510.191647757776
1682302587573771238,79,1682302587573771238,camera_1,80,0,0.6636110826947075,0.49263563963121637,1.8128437854119825,-0.9801413829418845,-0.04440936139435218,0.1559989816808344,0.11408328440160964,0.19502641027793288,0.01834812484090001,20507.467219549348
1682302587583412170,80,1682302587583412170,camera_1,81,0,0.6635809369895562,0.49205994437991873,1.81277982907195,-0.980128832789137,-0.04443912965326445,0.15618348275746075,0.11392697048905706,0.1974489408894442,0.01857319006140463,20511.93167961506
1682302587593603610,81,1682302587593603610,camera_1,82,0,0.663662071283243,0.4909154622040792,1.8129596696669315,-0.9801254045299577,-0.0443060958314915,0.15641053148332218,0.1136965562726608,0.2141751754679717,0.020147285196360797,20515.298792474438
1682302587603595495,82,1682302587603595495,camera_1,83,0,0.6636962579149682,0.4892392155364201,1.812922800491711,-0.9800899869682478,-0.04451211028984611,0.15614779381717245,0.1142810394079183,0.22565683082211763,0.02121891443284228,20525.525595526207
1682302587613628625,83,1682302587613628625,camera_1,84,0,0.6638615575592507,0.4873173508387696,1.8132249928982305,-0.9800680989826758,-0.04448984524608512,0.15636641746936608,0.1141784503059113,0.19994137826142833,0.018800823420024263,20530.184705770807
1682302587623496770,84,1682302587623496770,camera_1,85,0,0.6636486844124521,0.4852074739064209,1.8125892823454055,-0.980042762605122,-0.04455099488822874,0.1570955536968053,0.1133683347698279,0.21022903232369572,0.019750322648770156,20555.131709378555
1682302587633595943,85,1682302587633595943,camera_1,86,0,0.6636961718640682,0.4836297334911125,1.8125798165667317,-0.9801174150637147,-0.04452335912556403,0.15630215286991672,0.11382952248528141,0.21146206895355135,0.01985879614997001,20573.43036377686
1682302587643486499,86,1682302587643486499,camera_1,87,0,0.6635832298844678,0.4824414299446823,1.812139454932209,-0.9800723697450648,-0.04458348615699761,0.15649120921306386,0.11393403470172925,0.21556451555807143,0.020231049258063703,20586.1464402352
1682302587653773784,87,1682302587653773784,camera_1,88,0,0.6636767585390615,0.4821059600963667,1.8123829073911504,-0.9801356660475906,-0.04460426546841654,0.15634032284040728,0.1135880235659822,0.21548043558141217,0.020227595169118772,20589.34568014776
1682302587663528680,88,1682302587663528680,camera_1,89,0,0.6636250272215598,0.4824333010873681,1.8122771231729264,-0.9800744389400229,-0.04458672625747946,0.15667989479871228,0.1136553058326117,0.1865676940069534,0.017512428031428794,20583.492971908876
1682302587673626899,89,1682302587673626899,camera_1,90,0,0.6636682858193952,0.4835707853682222,1.8124496251551165,-0.9800681016004594,-0.04469968364447217,0.15623983652783777,0.11426971597545078,0.2154570798156783,0.02023016797475559,20572.624986828538
1682302587683447122,90,1682302587683447122,camera_1,91,0,0.6635651179767853,0.48509549287117704,1.8123311994154434,-0.980029786959964,-0.04461591049592994,0.15646335033384096,0.11432522558095579,0.1983831389225088,0.018629291370040484,20561.07346147789
1682302587693746328,91,1682302587693746328,camera_1,92,0,0.6637205716507915,0.48711183775355105,1.8128351516068493,-0.9800838314264043,-0.044621002832993424,0.15621897663178536,0.11419404898170196,0.2288030901690945,0.021505150922029342,20541.770613190725
1682302587703979969,92,1682302587703979969,camera_1,93,0,0.6637965891954543,0.4891236742649458,1.8131739153869388,-0.9800626476299811,-0.04456109723070398,0.15612020236923824,0.11453382795617872,0.21404345118207857,0.020131154980295544,20518.858232230064
1682302587713597774,93,1682302587713597774,camera_1,94,0,0.6636573470259988,0.4907952988747533,1.81292769104597,-0.9801078103867537,-0.04460430882123679,0.15592344683165216,0.1143984894200962,0.21899294696049765,0.020597320683689413,20516.822953733383
1682302587723648786,94,1682302587723648786,camera_1,95,0,0.6635183726937557,0.4919616149495215,1.8126330059998603,-0.9801142452868671,-0.044438986666590054,0.15625626534656617,0.11395271909763786,0.20067223330261186,0.0188731846975292,20514.353672047622
1682302587733668327,95,1682302587733668327,camera_1,96,0,0.6636589305171344,0.49264941695849584,1.8129683360021678,-0.980182084716504,-0.04449600383892782,0.1556795003425429,0.11413623270579144,0.196367573866155,0.018476254525932007,20509.17066211206
1682302587743630409,96,1682302587743630409,camera_1,97,0,0.6636168885438165,0.4925517330811472,1.8128828834402269,-0.9801873400354032,-0.044390552772880364,0.15585313480440927,0.11389494119791929,0.20276443118928,0.019076737425716493,20511.67229234916
1682302587753802299,97,1682302587753802299,camera_1,98,0,0.6636154853476232,0.49176567955857464,1.812855952022646,-0.9801077661553509,-0.044541477242795745,0.15575356238907737,0.11465448674216551,0.1911560342996381,0.017979975035449652,20511.364745473496
1682302587763413667,98,1682302587763413667,camera_1,99,0,0.6635937891455774,0.4902963737458701,1.8127105237240058,-0.9800647713359611,-0.044658818628700754,0.15595242356075156,0.1147060394678807,0.2286864632042125,0.021501871397243483,20520.978358926368
1682302587773877143,99,1682302587773877143,camera_1,100,0,0.6637388490852627,0.48857440340456537,1.8130159676497808,-0.98009279493104,-0.044555243065493605,0.15616702542313837,0.11421385121834504,0.22497429134091362,0.021154388086354378,20528.73646792316
1682302587783484697,100,1682302587783484697,camera_1,101,0,0.663791606843928,0.4866267314074663,1.8130379057817247,-0.9801064468955891,-0.04449469248634279,0.15647699014650668,0.11369488400512821,0.22189384704688564,0.020859656587232576,20542.35423263198
1682302587793672084,101,1682302587793672084,camera_1,102,0,0.6635353482617674,0.48455154352444463,1.8121762507963701,-0.9800553241402112,-0.04466542820210607,0.15655295503821254,0.1139637372884526,0.20490264013642445,0.019237585126427665,20570.144515832646
1682302587803765773,102,1682302587803765773,camera_1,103,0,0.6636230627559245,0.4831368877986521,1.8122964281937055,-0.9800772642390263,-0.04477127858581009,0.15649918004631974,0.11380727296779945,0.22348260699072853,0.020980261967235497,20579.422640933895
1682302587813836812,103,1682302587813836812,camera_1,104,0,0.6639290602036976,0.48246808582570516,1.8130885616165595,-0.9802439598621476,-0.04460481142597029,0.15561760558350646,0.11364572488169694,0.207044105802197,0.01944991189768837,20583.01995351771
1682302587823688745,104,1682302587823688745,camera_1,105,0,0.6635634046006541,0.4820505494029633,1.8120823814993348,-0.9800864919762433,-0.04458299867238908,0.15675003685531014,0.11345594043917684,0.2039629340870306,0.01914084271523833,20591.0056885624
1682302587833786725,105,1682302587833786725,camera_1,106,0,0.663608164346386,0.48268145984514405,1.8121759346361046,-0.9801116172055802,-0.04453647350046742,0.15692288015441747,0.1130173881791953,0.22019942122278735,0.020670352453725883,20586.35876954696
1682302587843563079,106,1682302587843563079,camera_1,107,0,0.6635910169487764,0.48393612146517406,1.8122915064316703,-0.9801111453735719,-0.04463452721615909,0.15625746209314934,0.11390130479894907,0.2167293776292354,0.02034818499335559,20577.173707383103
1682302587853644609,107,1682302587853644609,camera_1,108,0,0.6636902144240855,0.48575515296603444,1.8126856551781096,-0.9800891445261966,-0.04446970845604732,0.15644975153987445,0.11389112807788834,0.2069380689645186,0.01944308504086495,20553.912413443424
1682302587863688468,108,1682302587863688468,camera_1,109,0,0.6637322545099867,0.48783745279212826,1.8129607540266366,-0.9800666890730885,-0.04453026175028703,0.15659975669227685,0.11385454299976246,0.19828402798157185,0.01864200226701132,20532.160187416594
1682302587873969554,109,1682302587873969554,camera_1,110,0,0.6637398402046002,0.48976916171275653,1.8131111523938308,-0.9801519118154411,-0.04436292714417218,0.15591918832212728,0.11411996833466932,0.2135530358646065,0.02008635682239464,20523.454550304454
1682302587883566141,110,1682302587883566141,camera_1,111,0,0.6635736703308965,0.4912093957652274,1.8127177456534094,-0.9801369596957765,-0.044452828478180634,0.15624169714162497,0.11377178188335652,0.2164725040202029,0.02035886502206181,20519.95087095839
1682302587893617391,111,1682302587893617391,camera_1,112,0,0.6634502230765092,0.4921599210644058,1.8124293174396773,-0.9801256704603363,-0.044475477597785494,0.15628435690377687,0.1138015895508405,0.20536952058319002,0.019311968642407966,20518.129187059116
1682302587903755664,112,1682302587903755664,camera_1,113,0,0.6635804416048854,0.49264337492521443,1.8127893068687897,-0.9801785164354523,-0.04442591536465043,0.15572886968527933,0.11412682904976398,0.19851010263664648,0.018674356497179107,20512.398779485484
1682302587913817405,113,1682302587913817405,camera_1,114,0,0.6634976257906968,0.4922393386531796,1.812562898036771,-0.9801779997749563,-0.044322403803650746,0.1562111661826818,0.11351072565215366,0.21415416669333354,0.020141785863260375,20519.036446062615
1682302587923793554,114,1682302587923793554,camera_1,115,0,0.663463820998465,0.4912194473054496,1.8124528964414728,-0.9800973897008969,-0.04447831789041313,0.15639583034713006,0.11389086964791936,0.2101561479503289,0.019759150787476504,20521.83873362397
1682302587933737516,115,1682302587933737516,camera_1,116,0,0.6635977601121235,0.48974597142986914,1.8126906275790466,-0.9800694322813814,-0.04449411407472461,0.15645969562019107,0.11403747351986256,0.22422417369671166,0.021081844817332735,20524.497787663833
1682302587943872928,116,1682302587943872928,camera_1,117,0,0.6639387151879502,0.48811297130371534,1.813528235890647,-0.9801162611337945,-0.044577063439492665,0.15606240121697337,0.11414695354066902,0.19979606720153242,0.01879512224771181,20523.753468746312
1682302587954163312,117,1682302587954163312,camera_1,118,0,0.6636674450786406,0.48589965351990194,1.8126146133692056,-0.9800539051599773,-0.04447633070815205,0.15673941146997902,0.11379347907267011,0.22921975946519524,0.02153668205016038,20550.666487843268
1682302587963679313,118,1682302587963679313,camera_1,119,0,0.6635759179512248,0.4840303725273292,1.8122754046086464,-0.9801246967888736,-0.044490429903343315,0.15606170198815245,0.1141092702811449,0.22718706785235554,0.0213294237303422,20577.866317298016
1682302587974185705,119,1682302587974185705,camera_1,120,0,0.663903994910009,0.48293483127814035,1.8130652526351674,-0.980206459092727,-0.04453872462889734,0.15650031389640057,0.11277965823524061,0.22509120777249333,0.021149861990809097,20575.59255233827
1682302587983715534,120,1682302587983715534,camera_1,121,0,0.6636881238691676,0.48216950452425233,1.8124513078625548,-0.9801500164656913,-0.044571570426464764,0.1562293258666666,0.11362974113879924,0.21538183611119166,0.020219602913913375,20589.005938960014
1682302587993897676,121,1682302587993897676,camera_1,122,0,0.6635858381164708,0.48220570150492975,1.8121415331648496,-0.9800885417633262,-0.044600886967276085,0.15610254273941776,0.1143206339041966,0.22064424370182678,0.020705660829484773,20589.775543898337
1682302588003592967,122,1682302588003592967,camera_1,123,0,0.6636522535578846,0.4830819100393025,1.8124295902971552,-0.9800633288848128,-0.044743246217234744,0.15669737846481244,0.11366549553588524,0.21076489583356306,0.019789172342186075,20575.693754153213
1682302588013484239,123,1682302588013484239,camera_1,124,0,0.6634815676657397,0.48445515520468985,1.8120696262387865,-0.9800387723321554,-0.044601212432810025,0.15677417395407586,0.11382703965324815,0.21272961318027228,0.01997045256448935,20571.178369803354
1682302588023429632,124,1682302588023429632,camera_1,125,0,0.6636461194240776,0.4864556114868177,1.812606828768342,-0.9800460874157987,-0.04458416645448648,0.15658688000789794,0.11402836336603131,0.2205726882093586,0.020724948252105146,20547.109628628023
1682302588033321142,125,1682302588033321142,camera_1,126,0,0.6637965990103641,0.48850117225603773,1.8130961739237055,-0.980093313015236,-0.04454953047338575,0.1563447287289893,0.11396825398363489,0.2168851824826561,0.020396095126588198,20527.072965588417
1682302588043675184,126,1682302588043675184,camera_1,127,0,0.6635769899237395,0.4901441970173371,1.8126403858655995,-0.9800848922480593,-0.04446593639240139,0.1563887438917625,0.11401291712702408,0.21475860592909157,0.020192122889395286,20524.04662779998
1682302588053781270,127,1682302588053781270,camera_1,128,0,0.6634667485708712,0.49151113201487046,1.8124267369836686,-0.9800601758851203,-0.04451410899387067,0.15625359117050774,0.11439126273815174,0.21344535949174315,0.020068068348722094,20516.90859158466
1682302588063845634,128,1682302588063845634,camera_1,129,0,0.6636882533086559,0.4925477405449406,1.8130662879516137,-0.9801839646742764,-0.04447016138230047,0.15543495648569836,0.11446298285619792,0.19610812648897993,0.018452512716470585,20508.318969360313
1682302588073754072,129,1682302588073754072,camera_1,130,0,0.6636683271700407,0.4926958923661773,1.8130653460489443,-0.9801835440895836,-0.044432623226538244,0.15582670653066674,0.11394735372529412,0.1947219081921503,0.01832369845156735,20506.92975169607
1682302588083548307,130,1682302588083548307,camera_1,131,0,0.6636020893850129,0.49210055032983013,1.8129190956351562,-0.980154489880076,-0.044439653947071375,0.1559742263342443,0.11399269206588043,0.1868633165722713,0.017579385739987508,20511.770380962644
1682302588093717813,131,1682302588093717813,camera_1,132,0,0.6633827610643144,0.49070243671770924,1.8121827137617061,-0.9799697558644352,-0.04451888737231629,0.15713034443177817,0.1139622793598005,0.21583237242884934,0.020286328842816302,20518.648453944126
1682302588103743076,132,1682302588103743076,camera_1,133,0,0.6637433221559124,0.4892840778537693,1.8130854864387307,-0.9800554882396806,-0.044498112768236016,0.15634939821733165,0.1143067085014037,0.21256950596580285,0.019991723635775085,20518.68177978381
1682302588113717794,133,1682302588113717794,camera_1,134,0,0.6637820845842979,0.48724204347434275,1.8130542956511035,-0.9801340549544937,-0.04448131958750825,0.15629624332119615,0.11371073322205423,0.19440025551011786,0.018276659231055484,20540.558688885652
1682302588123700380,134,1682302588123700380,camera_1,135,0,0.6636705411508863,0.48519253881356844,1.8126007078030164,-0.9800650596687949,-0.04456797827381024,0.15670219958373377,0.11371277313743763,0.19839568837778643,0.018637573770458556,20557.400317176478
1682302588133723497,135,1682302588133723497,camera_1,136,0,0.6637448914682764,0.4836646654325917,1.8126903066588598,-0.9800856045605572,-0.044628488147644765,0.15621741086814536,0.11417804657847332,0.23891205800464377,0.02243897657359029,20568.374620624236
1682302588143671512,136,1682302588143671512,camera_1,137,0,0.6637743985534372,0.48257385217781235,1.8126712509537755,-0.9801095064896491,-0.04452078834552434,0.1564351412541943,0.11371587960566305,0.19619847333524376,0.0184242604858577,20577.477352014976
1682302588153956174,137,1682302588153956174,camera_1,138,0,0.6633982282033352,0.4818980481917935,1.8116345800028837,-0.9800089516333974,-0.04457134660994092,0.15705973524820252,0.11370175611462754,0.20540171285392717,0.019266264091982163,20593.97074103169
1682302588163797616,138,1682302588163797616,camera_1,139,0,0.6638453582930072,0.482609482961972,1.8129015371607342,-0.9801548683274659,-0.0446998060555637,0.15606855318405874,0.11375837612939911,0.19341321248793975,0.018166352204957024,20577.922048329496
1682302588174142122,139,1682302588174142122,camera_1,140,0,0.6637072869710718,0.4836049264936042,1.8126238836773663,-0.9801271130196167,-0.044440069737677675,0.15625827909251022,0.11383880155987582,0.2187290106085129,0.020542123104216284,20573.347279927697
1682302588183531761,140,1682302588183531761,camera_1,141,0,0.6635037910596695,0.48504792583317846,1.8121632270606027,-0.9800395494831001,-0.04454368870860703,0.15679212801878317,0.11381814370536217,0.21666851051850244,0.02034440707922078,20565.011956337377
1682302588193875312,141,1682302588193875312,camera_1,142,0,0.6638179033161358,0.4871671628780226,1.813070873887144,-0.9800923774884198,-0.04450954144119857,0.15629823374405585,0.11405566377115817,0.21733990451321006,0.02043343687910833,20536.59788365953
1682302588204120397,142,1682302588204120397,camera_1,143,0,0.6635531140416157,0.48894321602236684,1.812496901959082,-0.9800276038905632,-0.04443622531279772,0.15683678003945542,0.11390145705532985,0.22698643332114443,0.021335169184798938,20529.554898117778
1682302588213856220,143,1682302588213856220,camera_1,144,0,0.6634727133317928,0.4906534530665725,1.8124524118295966,-0.9800531276237591,-0.04441846920466968,0.15681249393946323,0.11372206634109049,0.21940217626979575,0.020627566572641087,20521.079352189205
1682302588223801612,144,1682302588223801612,camera_1,145,0,0.6635903710443462,0.4920256999375282,1.8128253691161698,-0.9801402000393734,-0.04442093870018408,0.15607520213407666,0.11398464699501748,0.20166960451751947,0.018970800013533046,20512.38248830486
1682302588233743906,145,1682302588233743906,camera_1,146,0,0.6636455547736875,0.49267206686901915,1.8129893373327743,-0.9802028586400467,-0.044371385958005154,0.15589274622489532,0.11371450081896653,0.19126667210366577,0.017997532964224894,20510.052583325654
1682302588243749380,146,1682302588243749380,camera_1,147,0,0.6635795231397578,0.4925259327407699,1.812804619762582,-0.9801640503070903,-0.044418582664850735,0.15578241201507495,0.11418083948899287,0.20299888326553628,0.01909649092356924,20511.628876470608
1682302588253856182,147,1682302588253856182,camera_1,148,0,0.6635244367007305,0.49169041089263577,1.8126325266939498,-0.9800848459291891,-0.04454786808558221,0.1561369601462894,0.11432598963168271,0.1953293097903952,0.01836887388398477,20514.19259130198
1682302588263774394,148,1682302588263774394,camera_1,149,0,0.6634865766550125,0.4902035197242846,1.8124235549694687,-0.9799752316424605,-0.04455495662356864,0.1565483788269412,0.1146996351094225,0.2135970402159728,0.02007738265749797,20518.419085014848
1682302588273546218,149,1682302588273546218,camera_1,150,0,0.6637992780441924,0.4885858996221578,1.8131532462697573,-0.9800828434518947,-0.044604893239443395,0.15617467977260394,0.11426938727529627,0.2017951849848032,0.01897730399591714,20525.03283234511
1682302588283678293,150,1682302588283678293,camera_1,151,0,0.6637544509121032,0.48658676600283124,1.8128782493531543,-0.9800896413879859,-0.04461760899484068,0.1565375534814428,0.11370821501367803,0.21178756636800244,0.01990618593094119,20544.559259159367
1682302588293699979,151,1682302588293699979,camera_1,152,0,0.663599562515276,0.4846315194165266,1.8123940554812688,-0.9800707083939016,-0.0445201925900973,0.15652471581188432,0.11392704832490635,0.2087204559938982,0.019600814485328966,20566.11626327737
1682302588303801536,152,1682302588303801536,camera_1,153,0,0.6634288969765787,0.48302111211623644,1.811831215476392,-0.9799915222345641,-0.0445276169444624,0.15706597295144056,0.11386038739810503,0.19976036989828572,0.01874401567760852,20580.853653125225
1682302588313936471,153,1682302588313936471,camera_1,154,0,0.6635975810162987,0.4822103002477772,1.8121668911454274,-0.9801168671888605,-0.044520634319988844,0.15634867851107856,0.11377139578768901,0.20391502097481862,0.019137451038220697,20591.142643067993
1682302588323688745,154,1682302588323688745,camera_1,155,0,0.6636630088788027,0.48214058397745674,1.8123519846223417,-0.9801394304100833,-0.044611288186525926,0.15613661264511913,0.11383271987194295,0.20458275004057214,0.019203087641593387,20590.50508322531
1682302588333739042,155,1682302588333739042,camera_1,156,0,0.6634743379102458,0.4825804171869643,1.8118668694952818,-0.9800794570995908,-0.044525845215875284,0.1564570385368315,0.11394253802451394,0.2133722133585252,0.02001985545262062,20591.446951721206
1682302588343767404,156,1682302588343767404,camera_1,157,0,0.6635595404712066,0.483904799307374,1.8121811153465024,-0.9800184523288081,-0.044477970665417844,0.1570119789332514,0.113722388701602,0.23400662292260677,0.0219698042524166,20569.525114275635
1682302588353851556,157,1682302588353851556,camera_1,158,0,0.663711662407791,0.48575516220810766,1.8126872203848259,-0.980037096203869,-0.044498381738483854,0.1567389679401628,0.11393015411205772,0.21228330465964973,0.019945971494937834,20548.626687329146
1682302588363868951,158,1682302588363868951,camera_1,159,0,0.6638358375385093,0.4879168588301747,1.8132192384922043,-0.9800798734046592,-0.04449964467857786,0.15639758771451123,0.11403077623023254,0.2209688579896465,0.020780475483724747,20527.394170276817
1682302588373642683,159,1682302588373642683,camera_1,160,0,0.6636708956711458,0.4896895942219212,1.8128574895395593,-0.9800487121164575,-0.044561851901760985,0.1562875841311815,0.11442444791388541,0.23565079463878646,0.022159110744108902,20519.82182485063
1682302588383396863,160,1682302588383396863,camera_1,161,0,0.6634707303875212,0.4911223910206617,1.812452230855708,-0.9800442398970908,-0.044392462251136716,0.15673562038617492,0.11391462786655697,0.19507009640801698,0.018340712606829686,20516.957947038925
1682302588393279552,161,1682302588393279552,camera_1,162,0,0.6635871647507422,0.492259244938036,1.812810106511357,-0.9801626393920976,-0.044514989267112746,0.15632756124920338,0.11340771430701758,0.18917469191364944,0.01779691283783744,20513.171598552024
1682302588403400421,162,1682302588403400421,camera_1,163,0,0.6636412619807411,0.49269806918656983,1.8129639977737286,-0.9801839610684008,-0.044355893802091824,0.15582871400700316,0.1139709131322594,0.20297101989854127,0.019098166433301242,20508.552218524732
1682302588413690328,163,1682302588413690328,camera_1,164,0,0.6635000634517841,0.49225550982019745,1.8125743040604338,-0.9801750968287893,-0.04445282659572265,0.1559748780513269,0.11380932818182316,0.21919975505443293,0.020615770173616096,20519.15911453461
1682302588423676490,164,1682302588423676490,camera_1,165,0,0.6635755010848883,0.49127261865481986,1.8127382955317242,-0.9800864343202027,-0.04436034926490198,0.15637859725458583,0.1140547017675944,0.2122228750376962,0.019959502745894,20514.01849016
1682302588433968544,165,1682302588433968544,camera_1,166,0,0.663612933186859,0.48974935852351376,1.812722896551513,-0.9800688990203781,-0.04448107511401013,0.1564426064730877,0.11407058345424627,0.21685919893207029,0.020389916049828784,20523.714457336468
1682302588443837881,166,1682302588443837881,camera_1,167,0,0.6636760237230273,0.4879040305414669,1.8128077125446038,-0.9800695038883751,-0.044550046207817724,0.15654951761673114,0.113891656695495,0.21781069051939994,0.020475025008598324,20535.118253010318
1682302588453917026,167,1682302588453917026,camera_1,168,0,0.6636199724528982,0.4858521103326407,1.8124640755076682,-0.9800367088890779,-0.0444796849233764,0.156582577750072,0.11415560960427901,0.23346456867875529,0.021930934582041706,20552.69281136792
1682302588463892459,168,1682302588463892459,camera_1,169,0,0.663612827474267,0.4840342860073378,1.8124252533615677,-0.9800757758220452,-0.044568801011104046,0.15671516160839377,0.11360217315396673,0.20711327530443668,0.019449318927479316,20570.049915978452
1682302588473575592,169,1682302588473575592,camera_1,170,0,0.6637736907407429,0.48282031904935474,1.8126499521671957,-0.9801159362412578,-0.04463180893881341,0.1566237062289583,0.11335681630972569,0.20886397949652746,0.01961522338741261,20576.799502622103
1682302588483528137,170,1682302588483528137,camera_1,171,0,0.6637013357013857,0.48217447458143065,1.81248135066888,-0.9801167555985763,-0.044565021664445835,0.1562199685311159,0.11393167106255117,0.19729296764126047,0.01852127519085678,20585.3817614176
1682302588493462800,171,1682302588493462800,camera_1,172,0,0.6637668237024026,0.48232275350579545,1.8126566089241258,-0.9801353269321099,-0.044619208467235924,0.1561167379501685,0.11389219142347702,0.19864843221148476,0.018652405469587376,20582.686941720305
1682302588503507852,172,1682302588503507852,camera_1,173,0,0.6635505058279706,0.4829959159352859,1.8120870815295058,-0.9800694107380983,-0.044604375675043904,0.1565398205563726,0.11388452215422187,0.21549168991623446,0.020225102880916432,20583.287295954775
1682302588513919830,173,1682302588513919830,camera_1,174,0,0.6636212958738462,0.48453599284662885,1.8123957762120773,-0.9800541291676084,-0.04462585811099917,0.1566776217440656,0.11381809844660688,0.20562816329766065,0.019310705005539736,20565.15843686007
1682302588523756980,174,1682302588523756980,camera_1,175,0,0.663666090489497,0.48645010661287263,1.8126137473418067,-0.9800850345742713,-0.04448661627280244,0.15632898094805445,0.11408556303007251,0.21469087165314704,0.020172156738069692,20550.20051580749
1682302588533761978,175,1682302588533761978,camera_1,176,0,0.6637974582732293,0.4885135507994043,1.81313148248477,-0.9801130753962878,-0.04445922920745281,0.1565010685074142,0.11361844890486669,0.22763469483470544,0.021408870036381096,20527.634042507038
1682302588543835878,176,1682302588543835878,camera_1,177,0,0.6634060522506444,0.49001590357720587,1.8122070000669621,-0.98000785663713,-0.04441511256081513,0.156937203343788,0.11394126957489661,0.19835277821402997,0.018641221035745607,20526.311314514838
1682302588553843021,177,1682302588553843021,camera_1,178,0,0.663475826225115,0.49151654540487144,1.8124732040595848,-0.9800879063657796,-0.04448350185841843,0.15651245162030206,0.11381022074382237,0.2118472825968638,0.019920073132715866,20518.191208818585
1682302588563776493,178,1682302588563776493,camera_1,179,0,0.6638324641382494,0.49267895366370124,1.8134655113185638,-0.9802780675806332,-0.04451249000469473,0.1551843207472944,0.11397971331847774,0.207161947095301,0.019501806933036478,20508.199631052325
1682302588573964118,179,1682302588573964118,camera_1,180,0,0.6636989905881863,0.4927184993505175,1.813145908738149,-0.9802109083322951,-0.04441763992344502,0.15581704885889014,0.11373080380844264,0.18838574329856783,0.0177292664002563,20507.57761802408
1682302588583769083,180,1682302588583769083,camera_1,181,0,0.6635238375309771,0.49205180791006037,1.8126790658614214,-0.9801416756352433,-0.044455005726181406,0.15589832099278175,0.11420053266274366,0.21238993998849764,0.01997560844091791,20515.82654816447
1682302588593856811,181,1682302588593856811,camera_1,182,0,0.6635783035098397,0.490852008467086,1.8127066794538393,-0.9800964086024139,-0.044418836718924035,0.1563956122362116,0.11392282151723848,0.2245161102619022,0.021113958803886196,20518.60925316415
1682302588603918790,182,1682302588603918790,camera_1,183,0,0.6635721955705766,0.4891668463760299,1.8126245563441934,-0.9800473114584486,-0.044514122303791245,0.1565437016121967,0.11410446837938187,0.21906297432724386,0.020592830076662835,20528.091701384503
1682302588613804817,183,1682302588613804817,camera_1,184,0,0.6637395029330168,0.48720680303081404,1.8129033698796118,-0.9801072607670581,-0.044600744409736645,0.1561796434834035,0.11405459197765025,0.20357926184078678,0.019135856553997025,20541.932830316364
1682302588623737573,184,1682302588623737573,camera_1,185,0,0.6636100212396892,0.4851483890506668,1.8124091507988807,-0.9800185255244772,-0.04444113896021689,0.15673443300454445,0.11411832590558119,0.21497712843120098,0.02019070047427117,20556.77761855093
1682302588633826494,185,1682302588633826494,camera_1,186,0,0.663682100992193,0.4836185471902461,1.8125314987001606,-0.9801250656399962,-0.04464174015656978,0.15616898687049044,0.11390003634692523,0.21311458450509235,0.02001253162447845,20575.813964092056
1682302588643916845,186,1682302588643916845,camera_1,187,0,0.6635689156260296,0.48242570364285026,1.8121154724438853,-0.9800657997093356,-0.044674103359420375,0.15678411248379387,0.11355172742764143,0.19592114276019856,0.01838771258276932,20586.23829228209
1682302588653926610,187,1682302588653926610,camera_1,188,0,0.6636687500169675,0.48210052188181396,1.8123551927001544,-0.9801328253901308,-0.04443900063977143,0.1568813530603583,0.1129294508835021,0.20931015437236056,0.0196498520330387,20588.345132733808
1682302588663859128,188,1682302588663859128,camera_1,189,0,0.6636982967309227,0.4825035153758313,1.8124906897061275,-0.9801278012451557,-0.04473190831506945,0.15613834483833575,0.11388312814448742,0.21141292160609734,0.01984824170330438,20584.653851445768
1682302588673901319,189,1682302588673901319,camera_1,190,0,0.6638096130227064,0.4836965413951097,1.8129317659180915,-0.9801093656225591,-0.04464264007309045,0.1563234168652863,0.11382291265738759,0.21219646150711924,0.019935166695736993,20565.605355301872
1682302588683647632,190,1682302588683647632,camera_1,191,0,0.6637047632801151,0.48516481955663665,1.8126561756442465,-0.9800589183094947,-0.0446413769242662,0.15642066339440075,0.11412379318785586,0.20930691104149446,0.019662760504039884,20556.289349160048
1682302588693912982,191,1682302588693912982,camera_1,192,0,0.6638498388290596,0.48720819139446475,1.813220621135439,-0.9800955004479417,-0.04457807857859936,0.15625719449517442,0.11405829246677544,0.19949328998336568,0.018758009009226667,20534.234564170478
1682302588703663587,192,1682302588703663587,camera_1,193,0,0.6636920384652257,0.4890442566291083,1.8128950852336672,-0.9801302792705007,-0.04454389294611567,0.15625820825086584,0.1137710403071211,0.20879084093030542,0.01963253895241824,20531.155446318782
1682302588714019536,193,1682302588714019536,camera_1,194,0,0.6635368156612523,0.4907006199920629,1.8125983175998872,-0.9800808940867732,-0.044365353583929006,0.15660336147233855,0.11379166763435856,0.2203722721314989,0.020721774405563307,20520.170805532485
1682302588723859310,194,1682302588723859310,camera_1,195,0,0.663589645336254,0.4920179802745684,1.812814660003371,-0.9801549569466153,-0.044457083417656626,0.1561230017554619,0.11377801382445675,0.19057364255422726,0.01792695312013829,20514.151436119926
1682302588733945608,195,1682302588733945608,camera_1,196,0,0.6635825836468855,0.49261774829955685,1.8128013913617065,-0.9802169921180631,-0.04436762123826834,0.15557436912366712,0.1140297251616767,0.21490656991954893,0.020217172478071747,20515.774202128996
1682302588743828058,196,1682302588743828058,camera_1,197,0,0.6637365650497221,0.49266749482742206,1.8132611933632286,-0.9802120613668376,-0.04441648564034572,0.15572258797724542,0.11385063086344832,0.21073224942665547,0.019834555803344568,20505.72898956645
1682302588753866434,197,1682302588753866434,camera_1,198,0,0.6635986267533686,0.4917447353561902,1.812765000867531,-0.9801332789953991,-0.04458436842754271,0.1556355881514448,0.11457989875365598,0.2222243863507174,0.020900694021659047,20515.732852421235
1682302588763853311,198,1682302588763853311,camera_1,199,0,0.6637098765402925,0.49037129553437836,1.8130578508577466,-0.9801108040564444,-0.044392623333349895,0.15596736733560598,0.11439531061985879,0.2195916617056355,0.02065507198401312,20516.571310886655
1682302588773945093,199,1682302588773945093,camera_1,200,0,0.6636180078445985,0.48847592256386474,1.8127154038599125,-0.9800389542475917,-0.04434237129937829,0.15692941925831486,0.11371261863172055,0.21140206384006888,0.0198733787701417,20529.231467002304
1682302588783858537,200,1682302588783858537,camera_1,201,0,0.6637765918795622,0.4866002308113056,1.8129283377868175,-0.9800937018302919,-0.044547638874104595,0.1565981689647479,0.11361715090700708,0.21534506097668782,0.020242064776757707,20543.38734593894
1682302588794032812,201,1682302588794032812,camera_1,202,0,0.6635877105919198,0.4845944738141955,1.8122986400073577,-0.9800125122112865,-0.04459800353076287,0.15685090117207154,0.1139486234752417,0.22872447752160951,0.021478160057788444,20562.569334063446
1682302588803831100,202,1682302588803831100,camera_1,203,0,0.6635439345159984,0.4830834234822329,1.8120940274047612,-0.980006510632124,-0.044636676128006786,0.1567504970418697,0.11412312622785642,0.2088456476922147,0.01960146390203327,20576.853908837773
1682302588814011573,203,1682302588814011573,camera_1,204,0,0.6636571925658123,0.4822692238221291,1.8123666451315434,-0.9801133485306573,-0.0446350568426699,0.15638760985946415,0.1137033474226605,0.1918534807045944,0.01800921526047754,20586.91000680579
1682302588823858261,204,1682302588823858261,camera_1,205,0,0.6636013970384582,0.48209407554729733,1.8121862698669127,-0.9801319718899101,-0.04440305289217617,0.15640634661629532,0.11360784000760933,0.21193914266768843,0.019891087773002282,20592.380701873568
1682302588833813190,205,1682302588833813190,camera_1,206,0,0.6636805965116261,0.48272598587806465,1.8123870449659436,-0.980128542025648,-0.04459318780398598,0.15656374838690784,0.11334584861915821,0.22109352529514578,0.020757796433780756,20583.918075258727
1682302588843821048,206,1682302588843821048,camera_1,207,0,0.6633847791327152,0.48381398126623226,1.8117623564772072,-0.9800205214554345,-0.04442374877019007,0.1570832977916348,0.11362722220632598,0.20370948378695175,0.019116226211993187,20579.16114404891
1682302588853847503,207,1682302588853847503,camera_1,208,0,0.6637136123469214,0.48576256423010916,1.8127003181612795,-0.9800425620560986,-0.044583367251628404,0.15673034304342326,0.11386175605757853,0.21521517209475857,0.02022189656766955,20549.132214265177
1682302588863829135,208,1682302588863829135,camera_1,209,0,0.6638098933424446,0.4879110416739064,1.8131314197038875,-0.9800907491696319,-0.044554428177331594,0.15613690972574631,0.11427288279900391,0.2171504955040291,0.020418672402662638,20530.6604026499
1682302588874003171,209,1682302588874003171,camera_1,210,0,0.6636287746937071,0.4896778472684872,1.812795202963117,-0.9801055443332924,-0.044539484465202006,0.15615091445717072,0.1141325904590975,0.22443161794217303,0.021102672836906766,20526.735353096512
1682302588884048938,210,1682302588884048938,camera_1,211,0,0.6635529637888241,0.4911763442197405,1.8126336034118702,-0.9800739956276319,-0.044403772449025936,0.15656410537473323,0.11389007417239366,0.2184740870143287,0.020545611485690916,20515.481093666036
1682302588893957614,211,1682302588893957614,camera_1,212,0,0.6636067107798234,0.492291296985703,1.8129143961275986,-0.9801763317308031,-0.04438058633274755,0.15611515640284315,0.11363441473789554,0.20370800868840888,0.019165836961665107,20511.909369558092
1682302588903969526,212,1682302588903969526,camera_1,213,0,0.6635968007985409,0.49266224568291667,1.8128382052096588,-0.9801714682823568,-0.04445565681415186,0.15583764524285687,0.11402725844109692,0.19747916114283726,0.018578640205747357,20510.648740979614
1682302588914106369,213,1682302588914106369,camera_1,214,0,0.6635447998899048,0.4922857416865437,1.8127174721054597,-0.980188215411321,-0.044544610712419566,0.15598399880320438,0.11364784266589033,0.2054634158848785,0.019326783437964935,20517.747726644622
1682302588923908233,214,1682302588923908233,camera_1,215,0,0.6636796584728143,0.4913576282714639,1.8130271348759888,-0.980139801293908,-0.044306397706558524,0.15600496345093692,0.11412871864907079,0.21324294700752944,0.020061193652554637,20512.53569351812
1682302588933829545,215,1682302588933829545,camera_1,216,0,0.6636805565995545,0.48978387196803774,1.8128707590182542,-0.9800869219107272,-0.04452327966685062,0.15630936965507922,0.11408191804705609,0.2304848151979968,0.021674653090809737,20522.146674203457
1682302588945336580,216,1682302588945336580,camera_1,217,0,0.6637361146846703,0.4879539423958126,1.8129546138204193,-0.9801113075661404,-0.04455572427372814,0.1560992408009084,0.11414744516113437,0.22019565681694075,0.020701427195535194,20536.040644926026
1682302588955231666,217,1682302588955231666,camera_1,218,0,0.6638636934913066,0.48603414087892594,1.8131410973417397,-0.9801036511397941,-0.044509424027926674,0.1565122191648475,0.11366472384711887,0.22980779956560585,0.0216042992441507,20543.695395057555
1682302588964978933,218,1682302588964978933,camera_1,219,0,0.6636867651267785,0.4840689455130847,1.8125359863770307,-0.9801408422650418,-0.04448163119351543,0.15663965584682873,0.1131783195957845,0.2229208315256983,0.020937670184581016,20572.641345373944
1682302588973915815,219,1682302588973915815,camera_1,220,0,0.6635945398592253,0.48271306619558363,1.8121967510268095,-0.9801152829369044,-0.04458546765547309,0.15687685225794396,0.11303017939070144,0.21861461165826768,0.020521798173543066,20586.56855478185
1682302588984286308,220,1682302588984286308,camera_1,221,0,0.6635809850004699,0.48206993296080614,1.8121432329213893,-0.9801283635486551,-0.04461875787793959,0.15650336566689074,0.11342069453058704,0.19508320337627083,0.018308275366986274,20593.93987241992
1682302588993828535,221,1682302588993828535,camera_1,222,0,0.6637292986418342,0.48229496487544404,1.8125363716031437,-0.9801552102906809,-0.04468608779901555,0.1563485791420485,0.11337565478317,0.21266573370667174,0.019967442810211417,20587.024916289844
1682302589003972053,222,1682302589003972053,camera_1,223,0,0.6634743433833006,0.4829529872638404,1.8119014105235087,-0.9799980122108809,-0.04471491058547164,0.1568844451883067,0.11398133045377418,0.21091437328141183,0.01979156093105228,20581.145287066698
1682302589014211654,223,1682302589014211654,camera_1,224,0,0.6634878728174455,0.4844618040142379,1.8120683315030721,-0.980009419204881,-0.04456517255102726,0.1568210510865059,0.11402912610965854,0.22185193316545337,0.02082672319815153,20568.194791474503
1682302589024057149,224,1682302589024057149,camera_1,225,0,0.6637569782759136,0.48652542456394676,1.8129144299671078,-0.980068343371701,-0.0445763408367332,0.156527228309434,0.1139219862714102,0.2023577238433063,0.019019742541267367,20542.366089013045
1682302589033919811,225,1682302589033919811,camera_1,226,0,0.6636195524182428,0.48836832231546373,1.8126299744448835,-0.9800523797824081,-0.044500135072625825,0.15669806939717923,0.11385423096465716,0.24135689588729292,0.022686899139740563,20533.36600355303
1682302589043848037,226,1682302589043848037,camera_1,227,0,0.6635799793632617,0.49013000748939006,1.8126658175386734,-0.9800557612070357,-0.04447127103110052,0.1564750108566403,0.11414281385698578,0.2055626127985306,0.019327690876890586,20520.990452022757
1682302589054067134,227,1682302589054067134,camera_1,228,0,0.6634997658880688,0.49153396813995953,1.8125258519464735,-0.9800879310919176,-0.04447443275805275,0.1561916540555309,0.114253399784039,0.21128221275284886,0.01986692558199742,20517.215303699137
1682302589063919782,228,1682302589063919782,camera_1,229,0,0.6637239932912959,0.49259919736626145,1.8131698123754718,-0.980200848067132,-0.044467360784394255,0.15564948426862765,0.11402714291016872,0.20063603098969907,0.01888179397216729,20507.164245516884
1682302589073891639,229,1682302589073891639,camera_1,230,0,0.663536199617021,0.49260857394942914,1.8127208317664911,-0.9801608763555735,-0.04431068771337335,0.1558936478286277,0.11409815941953663,0.20935796812409535,0.019693594138000176,20512.05878933729
1682302589084012508,230,1682302589084012508,camera_1,231,0,0.6636067459080818,0.4920827576098344,1.8128543361080711,-0.9801557061837253,-0.0443420335564141,0.1561492646142008,0.11378041508101971,0.1843685848871246,0.017344295838039474,20512.364539955277
1682302589093940258,231,1682302589093940258,camera_1,232,0,0.6635493127184301,0.49082623782191265,1.8126211379708361,-0.9800771980688713,-0.04456876044341399,0.15622023198704182,0.11426963960704038,0.22149092936888337,0.02082644187689721,20519.595672477386
1682302589104092836,232,1682302589104092836,camera_1,233,0,0.6637326268938136,0.4892599298267043,1.8130470448279896,-0.980083222787447,-0.044405076248613624,0.15645741033025862,0.11395676533964706,0.20962260372471064,0.01971457315371793,20521.610592608573
