%time,field.header.seq,field.header.stamp,field.header.frame_id,field.image_seq,field.transforms0.fiducial_id,field.transforms0.transform.translation.x,field.transforms0.transform.translation.y,field.transforms0.transform.translation.z,field.transforms0.transform.rotation.x,field.transforms0.transform.rotation.y,field.transforms0.transform.rotation.z,field.transforms0.transform.rotation.w,field.transforms0.image_error,field.transforms0.object_error,field.transforms0.fiducial_area
1684722600499970197,4,1684722600499970197,camera_2,7,0,2.2070926807569657,-0.5524387547270662,5.705284533884434,-0.980159778689263,0.03027316212906614,0.19073690911798544,-0.04460689850953094,0.012186389474663883,0.006415752908870553,7051.509055059868
1684722600506742238,5,1684722600506742238,camera_2,8,0,2.2039586862985256,-0.5508817973749393,5.697042462918951,-0.9799218950782208,0.030179703725303434,0.19216488241817686,-0.043759833118624226,0.00644991995068267,0.003386771187948584,7064.781024451366
1684722600513316392,6,1684722600513316392,camera_2,9,0,2.207652557667903,-0.5504780805741051,5.706714607302347,-0.9804160152469567,0.030432693560264273,0.18943224385708068,-0.04442649206518635,0.008299516106490046,0.004368265630121923,7055.410971057834
1684722600519865512,7,1684722600519865512,camera_2,10,0,2.205536581192107,-0.5494858934523443,5.701209431142579,-0.9800778945784181,0.030341424796249097,0.19090265478448232,-0.045638743369046074,0.005461998982354999,0.0028728998052959974,7059.233024674933
1684722600526481628,8,1684722600526481628,camera_2,11,0,2.2047965251305612,-0.5489251997761123,5.699350852819936,-0.980007334968135,0.030410373990793993,0.1919127995633496,-0.042782121571416906,0.005616366455797106,0.0029496038003711447,7061.597863738654
1684722600533382415,9,1684722600533382415,camera_2,12,0,2.206231846662642,-0.5489587664588617,5.70306035511985,-0.9803442759933323,0.029809333984813762,0.1903314408390578,-0.042549345031612895,0.00970281136687845,0.0050977041983016076,7061.604960278379
1684722600540074348,10,1684722600540074348,camera_2,13,0,2.2055806762933226,-0.5488374230201033,5.701299433339723,-0.9801441755911006,0.030127948943179526,0.19133617446493525,-0.0424284113353624,0.005518247256986797,0.0028986967780159608,7060.413307894956
1684722600546645402,11,1684722600546645402,camera_2,14,0,2.204776945361911,-0.5487785732856526,5.699382225474655,-0.9800844259260392,0.03020709575851041,0.19163412427515014,-0.042407686052871194,0.0057712404523044825,0.0030299664244179177,7063.557497364702
1684722600553352355,12,1684722600553352355,camera_2,15,0,2.2057261209264176,-0.5496787236799442,5.701935786198177,-0.9800133123411444,0.030828980125224986,0.19128322966436637,-0.04510219138519133,0.012621007859706879,0.00663992451125281,7056.032515976343
1684722600559830427,13,1684722600559830427,camera_2,16,0,2.2061152484080173,-0.5503623937343358,5.702982926315111,-0.9801372898706675,0.030315207817336126,0.19112400913625752,-0.04339924321527698,0.007034869224298745,0.003699000911169111,7056.468867611838
1684722600566503524,14,1684722600566503524,camera_2,17,0,2.206095989487819,-0.5509902087463674,5.703034902054523,-0.9802081554485176,0.030241179482019227,0.19110107648047536,-0.04192638338510475,0.010750130983069539,0.005648733835519896,7058.26014682837
1684722600573293209,15,1684722600573293209,camera_2,18,0,2.207764317218123,-0.5530811294075028,5.707458459166287,-0.9804306813018497,0.03016805959540512,0.18986792024241655,-0.04237617496964725,0.0075045854900963604,0.003948030740885106,7053.8446414403115
1684722600580058097,16,1684722600580058097,camera_2,19,0,2.2058937303890653,-0.5535745427001378,5.702583175894941,-0.980162119350548,0.030407964562362607,0.19097184084656071,-0.043443428560509124,0.009985897049773484,0.005250139552474742,7058.446561781686
1684722600586663484,17,1684722600586663484,camera_2,20,0,2.2056132691221966,-0.5546281634475155,5.701988574608997,-0.9800873234703711,0.02992207738677876,0.1916585698591763,-0.04243230204784014,0.011180631699971855,0.005876139011250328,7057.328846849037
1684722600593322515,18,1684722600593322515,camera_2,21,0,2.204568909026974,-0.5568800936234533,5.6994695333007765,-0.9799848176589713,0.030102290298827154,0.19215279700177892,-0.04243715213196393,0.006764670135453343,0.003553205700403587,7060.86667528539
1684722600600064039,19,1684722600600064039,camera_2,22,0,2.2063990447027435,-0.5588515163010975,5.704269962283622,-0.9801426810877395,0.030333746083907362,0.19090087902228775,-0.044238478129031866,0.003921724972315133,0.0020640004003290757,7053.920319951839
1684722600606955766,20,1684722600606955766,camera_2,23,0,2.20472407897849,-0.559730532779223,5.699975779228015,-0.9798404845157358,0.03021757129981037,0.19215721586299023,-0.045553569349649096,0.007257869467139244,0.0038189569383680027,7055.7888216087595
1684722600613337993,21,1684722600613337993,camera_2,24,0,2.206302626633042,-0.5634627685353182,5.704247887599002,-0.9799932532467948,0.030252042264985977,0.19166492412606995,-0.04430117819323877,0.0058583522331900895,0.003084850855446229,7049.629462517562
1684722600619921207,22,1684722600619921207,camera_2,25,0,2.206143136842233,-0.5650212095789664,5.703864906495643,-0.9801522374501882,0.02987352954149412,0.19090218256352554,-0.044334189364483405,0.013221070519648492,0.006958730057001157,7054.809560142456
1684722600626667976,23,1684722600626667976,camera_2,26,0,2.2061121123545444,-0.566964661693419,5.703896199573507,-0.9800212954287919,0.03015812000375442,0.1911478233053197,-0.04594842706284833,0.011232563992962241,0.005917868892042937,7051.247728140092
1684722600633298873,24,1684722600633298873,camera_2,27,0,2.205841195951746,-0.5705085869389103,5.7033538310899115,-0.9800502547805449,0.030165245321238442,0.1909225801939213,-0.046261479131067075,0.00729305628919974,0.003842152976141253,7053.310400593558
1684722600639779567,25,1684722600639779567,camera_2,28,0,2.2053733731336482,-0.5723433441272036,5.702277671083264,-0.9799940147011243,0.030378950198304177,0.19151233665306963,-0.044853934548743174,0.009495676262304187,0.0049991348216977495,7054.411036092322
1684722600646596670,26,1684722600646596670,camera_2,29,0,2.2066951283237004,-0.5745321318919192,5.705790739184011,-0.9801850502424638,0.030181626947007024,0.1905515820523549,-0.044904690772293865,0.014905021758750081,0.007853551259904846,7050.988032061607
1684722600653264284,27,1684722600653264284,camera_2,30,0,2.2066581171851336,-0.5785385361928099,5.705817929994463,-0.9799294401009873,0.030461465346136887,0.19160658929505744,-0.04579635892783276,0.009950561274308711,0.005248784162485598,7043.512522426203
1684722600659916639,28,1684722600659916639,camera_2,31,0,2.2062649576431967,-0.5804927667581931,5.7049199166341396,-0.9799796444012119,0.030371718731201165,0.19154184142860164,-0.04504640099639097,0.005088615347631276,0.0026824195047891164,7046.914136839798
1684722600666585922,29,1684722600666585922,camera_2,32,0,2.2076468338449167,-0.582872362613673,5.7085210830217985,-0.9800402354604412,0.03019193019572411,0.19109439537256093,-0.04574403006836206,0.008341262466274202,0.0044033913762617765,7039.419637667481
1684722600673175334,30,1684722600673175334,camera_2,33,0,2.205808899179072,-0.5864813902519562,5.704008484661712,-0.9797732087311909,0.03060418049323963,0.1923760421021373,-0.045818140665461186,0.002814440114889294,0.0014846409745149852,7042.772989911489
1684722600679922580,31,1684722600679922580,camera_2,34,0,2.2068938934386804,-0.5885583733032721,5.706848962917728,-0.9799464852664358,0.030372614545630294,0.19159342118988065,-0.04554504645270179,0.008001477923244238,0.0042231433746447705,7040.328283403534
1684722600686712741,32,1684722600686712741,camera_2,35,0,2.2063135191656706,-0.5904607275896878,5.705514050602142,-0.9798494107472961,0.030218605026614342,0.1921562509340466,-0.045364561007397386,0.007672741368878633,0.0040487820732847185,7040.4310714332405
1684722600693360328,33,1684722600693360328,camera_2,36,0,2.2054935211944264,-0.5939803139249812,5.703463568987634,-0.9798614868152674,0.030197728544073998,0.19197821453516473,-0.045868605721584826,0.0032380829798057675,0.0017079559291816994,7045.228106698954
1684722600699934244,34,1684722600699934244,camera_2,37,0,2.2064645010596413,-0.5961889261896411,5.705955204503932,-0.9798595492978526,0.030406487000582787,0.1919684227241877,-0.04581303171456851,0.0019476470188237727,0.0010282640011830236,7038.865631311666
1684722600706594705,35,1684722600706594705,camera_2,38,0,2.2053761796889875,-0.5974864663393096,5.703208009619564,-0.9797808579512395,0.030166464397774765,0.19245401596700973,-0.04561695470152682,0.008250555489212275,0.004352653361204707,7042.889248186955
1684722600713452816,36,1684722600713452816,camera_2,39,0,2.2058890087395553,-0.6010814594130578,5.704629786751563,-0.9800218593829579,0.03038431898392527,0.19058723079243692,-0.04806720035870019,0.004328001814428717,0.0022853530801532243,7045.799186928429
1684722600720047473,37,1684722600720047473,camera_2,40,0,2.2026902822181604,-0.6017479329104662,5.696414929729595,-0.979656006916397,0.030219652277991445,0.19260748945127976,-0.047573477233568445,0.006090854294598103,0.003209654441403317,7055.085957862439
1684722600726737737,38,1684722600726737737,camera_2,41,0,2.204314547515752,-0.6037025226041625,5.700629860093625,-0.9797671425936508,0.03003395754864318,0.19194229645366626,-0.048088070453408405,0.0022761140135116875,0.0012011532115149687,7047.358366658681
1684722600733361244,39,1684722600733361244,camera_2,42,0,2.2048518387360443,-0.6064463251518963,5.70214009729858,-0.9799541433684023,0.030085864225625716,0.1909771355192188,-0.04808795460166983,0.00345599401043728,0.0018241020716458268,7048.521003120113
1684722600740164518,40,1684722600740164518,camera_2,43,0,2.2045579966908306,-0.6074919161879475,5.701349539536089,-0.9799704130233925,0.030053625093438268,0.19116444787510337,-0.047020453912224806,0.0029232714441604912,0.0015419139711644865,7050.693189437734
1684722600746599435,41,1684722600746599435,camera_2,44,0,2.2044972109889924,-0.6085558022162418,5.701234654100022,-0.9798911780057623,0.03022133892785334,0.19107577933116934,-0.048887590377044245,0.003566808649338782,0.0018830433971305704,7048.476684621998
1684722600753304243,42,1684722600753304243,camera_2,45,0,2.2031966847090807,-0.6100922825308929,5.697877112506283,-0.9798525655357698,0.03044920853408398,0.19134859675022403,-0.04845110973278237,0.00471227103844285,0.002484933479232942,7055.41831843788
1684722600760440826,43,1684722600760440826,camera_2,46,0,2.2031205468690676,-0.6108102656496875,5.697576280406556,-0.9797331059181942,0.03063843661707396,0.19186859266986045,-0.048690558801858616,0.0038805779186077416,0.002047024662963821,7052.627695094097
1684722600766826868,44,1684722600766826868,camera_2,47,0,2.2035957643093154,-0.6115398056633672,5.698814660849969,-0.9797460636711264,0.030249468495548597,0.19198885949581201,-0.04819645429040931,0.0040651714080013335,0.0021449473167156627,7049.467125232099
1684722600773405075,45,1684722600773405075,camera_2,48,0,2.2025866079696472,-0.6121850240229116,5.696249795470949,-0.9796579476729229,0.030544288825261546,0.19208392340648742,-0.04940767501316253,0.0022383570903912187,0.0011808190221359268,7053.214211092332
1684722600779910326,46,1684722600779910326,camera_2,49,0,2.2035231034670146,-0.6126108903149745,5.698713695348623,-0.9797602284524136,0.030358639662476497,0.1916484942441253,-0.04918437144742037,0.005796180397737771,0.003059336539571821,7049.904662925755
1684722600786625862,47,1684722600786625862,camera_2,50,0,2.2042203776374114,-0.6129135862870084,5.700447639162052,-0.9799104427644472,0.030600509736224513,0.19103148587222876,-0.048436601558294934,0.002784400712698698,0.0014695751208470642,7050.179879348263
1684722600793247938,48,1684722600793247938,camera_2,51,0,2.202614986007967,-0.6123402914467616,5.696245085679128,-0.9796232970858991,0.03047569256619626,0.19237006691617003,-0.04902229415104172,0.0024274627212435007,0.0012805303790412274,7052.117755861249
1684722600799991369,49,1684722600799991369,camera_2,52,0,2.2028701590250845,-0.6121622723429092,5.696803836977418,-0.9797014195114557,0.030340503594300596,0.19207313420941519,-0.048708249443547944,0.003838410892058164,0.002024581185722212,7052.9333006385705
1684722600806581735,50,1684722600806581735,camera_2,53,0,2.2029528040360176,-0.6118158288400368,5.69706937073595,-0.9797458321351252,0.030134011538914093,0.19202707643037847,-0.048121177043222996,0.0029769043903797865,0.0015697594908490435,7053.521863245867
1684722600813461065,51,1684722600813461065,camera_2,54,0,2.204093575532518,-0.6109440686228049,5.699876597147205,-0.9800131001909659,0.03061125360460348,0.19044209025500228,-0.04867324589702359,0.0021448001498356466,0.0011314721615468982,7054.987094076351
1684722600820083379,52,1684722600820083379,camera_2,55,0,2.2025549943811553,-0.6098125136407839,5.69582323623282,-0.9797277223924149,0.03020927405603558,0.19230148115711074,-0.04734057542489305,0.003129516146145761,0.0016489872296028267,7056.627531972248
1684722600826812267,53,1684722600826812267,camera_2,56,0,2.2051584768310017,-0.6095335275840567,5.702548472565307,-0.9800867426999931,0.030434914495670862,0.1901034609601176,-0.0486247559823582,0.007169188000261784,0.00378457293201775,7050.767575931971
1684722600833736419,54,1684722600833736419,camera_2,57,0,2.205238748145161,-0.6074642031227104,5.702561815347037,-0.9801347434574268,0.030103060071323896,0.18969272153357244,-0.049460710055285094,0.008373222080990672,0.004420605830311186,7052.228902817469
1684722600840100288,55,1684722600840100288,camera_2,58,0,2.2027901589941807,-0.6056279296916712,5.696192147391766,-0.9797514171658505,0.030107985122564254,0.19190305480243516,-0.04851687696936993,0.0038290059892460704,0.002018188227958581,7057.213114917973
1684722600846523761,56,1684722600846523761,camera_2,59,0,2.20518580141615,-0.6050179936471816,5.702279813499256,-0.980052822818517,0.030276293081153153,0.19016356723715733,-0.04916938334329464,0.007675054483115673,0.004051607920163185,7051.266040819461
1684722600853464603,57,1684722600853464603,camera_2,60,0,2.2038328809161456,-0.6018531973301438,5.698602041620888,-0.9798664877854275,0.03022315292090376,0.19113885685329515,-0.04913414844470065,0.0034217509091831744,0.0018046016007467885,7055.489185499959
1684722600860053539,58,1684722600860053539,camera_2,61,0,2.2039610849269238,-0.6001820751339988,5.698845985127705,-0.979858130330697,0.030166322584464788,0.19136524477512953,-0.04844977294802953,0.0050884627853520215,0.0026830535253308738,7054.962355093799
1684722600866737604,59,1684722600866737604,camera_2,62,0,2.204379371421942,-0.5986218412717194,5.699897159534263,-0.979849252330866,0.030354744438185834,0.19135735378929,-0.048542716729660505,0.0049484510673210025,0.0026101349551510586,7052.612206846477
1684722600873554468,60,1684722600873554468,camera_2,63,0,2.204873955343203,-0.595257780200052,5.700884789547278,-0.9798912281345995,0.03020533521071526,0.1912304094854498,-0.048288189422488755,0.0034342878498136997,0.0018114738582902913,7051.8333288922395
1684722600880284786,61,1684722600880284786,camera_2,64,0,2.2062971717775484,-0.5938929857592045,5.704508481631643,-0.9800235259445049,0.029794408170437842,0.19070798120353305,-0.04792335278699078,0.0020172325894236565,0.0010647883194655008,7046.641977556514
1684722600886677742,62,1684722600886677742,camera_2,65,0,2.2046168947742193,-0.5914667139839292,5.700120919014286,-0.9797599975264359,0.02984172374824389,0.1923833064166287,-0.04656696450207238,0.002679715515114367,0.0014124516330958111,7050.253611614464
1684722600893592596,63,1684722600893592596,camera_2,66,0,2.2063123443345924,-0.5880833739269472,5.704415394256679,-0.9799105252777441,0.03036736798378286,0.19112268662088125,-0.048221406765561886,0.0027927191113121808,0.0014743149798962859,7045.018090624362
1684722600899764537,64,1684722600899764537,camera_2,67,0,2.206646412703637,-0.5859975134961398,5.70510403873105,-0.979854086474848,0.029969736438466687,0.19171418892966083,-0.04725943164483314,0.006044394162017852,0.003190851018535881,7041.5883293224015
1684722600906875133,65,1684722600906875133,camera_2,68,0,2.205038563974845,-0.5837294089539778,5.700881241349326,-0.9796484188196412,0.03002343248385423,0.19304604718147933,-0.046052064814406046,0.0047584353014826775,0.0025082971142436363,7046.32470254088
1684722600913468837,66,1684722600913468837,camera_2,69,0,2.206097773523074,-0.5797816644626963,5.7035183650773345,-0.979836734246539,0.030693937595867384,0.1919488501702576,-0.04618977521329075,0.005048777908086777,0.002662230022070809,7046.31111484603
1684722600919839382,67,1684722600919839382,camera_2,70,0,2.206586077852432,-0.5780066241439584,5.7046495077639126,-0.9798650395712574,0.030384552934270448,0.19201452712596906,-0.04551598116698268,0.00820156914414838,0.00432483107817155,7044.189119456105
1684722600926736593,68,1684722600926736593,camera_2,71,0,2.2057121567756117,-0.5755837887688475,5.702308571569542,-0.9797573688974367,0.030178736583467636,0.19277540862843245,-0.044748003056435864,0.010030877776443958,0.0052847056054785195,7046.8140147386575
1684722600933414697,69,1684722600933414697,camera_2,72,0,2.2073815836458164,-0.5721401910679808,5.706460674056541,-0.9800167290389478,0.030429835010004125,0.19137437359171702,-0.044911970313533216,0.006307945237495005,0.0033257055517080356,7044.509836473038
1684722600939902305,70,1684722600939902305,camera_2,73,0,2.2068131173580348,-0.569961815170748,5.704763357372609,-0.9798362301099306,0.030102472962692584,0.19224538019582413,-0.045348837679179174,0.015206866431981325,0.008017313640850883,7043.246691629292
1684722600946673393,71,1684722600946673393,camera_2,74,0,2.2063987513141172,-0.5681281082211938,5.703783287885152,-0.9798687295089509,0.030230674205129177,0.1917905751159137,-0.04647315961202724,0.012112362775951624,0.006385302818105474,7046.887830793856
1684722600953194856,72,1684722600953194856,camera_2,75,0,2.20627335062821,-0.5645260323516906,5.70339519971498,-0.980049884109977,0.03012104108916133,0.19118589829604823,-0.04519844944750781,0.009463699359912425,0.004983160351249086,7053.036859050624
1684722600960112333,73,1684722600960112333,camera_2,76,0,2.207383909512774,-0.5629646450283182,5.70619843420493,-0.9801749786723071,0.0299804348224486,0.19046285003188287,-0.04562989667237857,0.012828608741983771,0.00676023639836797,7049.644411025103
1684722600966533899,74,1684722600966533899,camera_2,77,0,2.2073457783636403,-0.561295518724964,5.706109837037657,-0.9801475664049631,0.030004702025161187,0.1907670153205416,-0.044926738057664825,0.0077000794117338955,0.004056548793361807,7049.078680089905
1684722600973236083,75,1684722600973236083,camera_2,78,0,2.206263595301783,-0.5580103707124159,5.703199908946092,-0.98006938838562,0.03022920404257991,0.19091547351002197,-0.045841805667239104,0.010229818348307163,0.005386189537263134,7054.231603694612
1684722600979839801,76,1684722600979839801,camera_2,79,0,2.2063431309727397,-0.5567429572792104,5.703375272734512,-0.9800212028224307,0.029935133556886127,0.19134956694776128,-0.045251221268734564,0.009859803947620094,0.005191032457888494,7052.088505193589
1684722600986565828,77,1684722600986565828,camera_2,80,0,2.2058350957679367,-0.555336126275458,5.701967900475972,-0.9801070251198793,0.030133009745028427,0.19091937521194038,-0.04507785712573871,0.006046996044460685,0.0031810594253604374,7058.160829788537
1684722600993234872,78,1684722600993234872,camera_2,81,0,2.2059709025366026,-0.5531338833670105,5.702302698585771,-0.980105711572187,0.03025233798371105,0.1909337609922316,-0.04496542119738103,0.009321987628936768,0.004904033925613381,7057.327998221381
1684722600999933242,79,1684722600999933242,camera_2,82,0,2.206712748375968,-0.5522815984543132,5.704227079111026,-0.9801615401772715,0.03031516092059018,0.19061228084391763,-0.04506999630749058,0.011707872850820422,0.006162561707849991,7054.21813817136
1684722601006824254,80,1684722601006824254,camera_2,83,0,2.204738229036521,-0.551030656628066,5.699175906127558,-0.9800284800527332,0.02998868887833907,0.1917738394390192,-0.04321633177058006,0.0061515006818808615,0.0032309711828045684,7062.412920503648
1684722601013291120,81,1684722601013291120,camera_2,84,0,2.206987337296799,-0.5502639566081223,5.704992880537572,-0.9802167520893846,0.030360424865243634,0.19055430868989098,-0.04407288242284131,0.009019222110509872,0.004745983152480017,7053.807457468238
1684722601019972324,82,1684722601019972324,camera_2,85,0,2.2045943958450325,-0.5491869147479993,5.698749936656728,-0.9798897636810731,0.030483630163854074,0.19204309691278298,-0.04479116266889684,0.007690541737247258,0.0040422688965988255,7059.913590960905
1684722601026675462,83,1684722601026675462,camera_2,86,0,2.20393655527777,-0.5487043799569723,5.697139698161627,-0.9800246524857018,0.03040787166392577,0.19172699662970566,-0.04321805900896729,0.004764651472214609,0.0025006416747120554,7067.615285951879
1684722601033357381,84,1684722601033357381,camera_2,87,0,2.2057015954343946,-0.5488280262493721,5.7016780409001235,-0.9801098711049524,0.030087358015000554,0.191489377013484,-0.04255831224683039,0.013606669672299176,0.0071494756683730025,7058.484013855459
1684722601039910793,85,1684722601039910793,camera_2,88,0,2.2058379258050165,-0.5489204753980699,5.702128288616781,-0.9801359705521397,0.030316631646938746,0.19147483505484048,-0.04185413499429431,0.00657233811216429,0.0034527286614530546,7058.295791714685
1684722601046689033,86,1684722601046689033,camera_2,89,0,2.20557167690778,-0.5490073109785026,5.70133458606597,-0.9800821632976346,0.030003903539794218,0.1916823889364394,-0.04238609123076721,0.007499159430153668,0.003939875376914437,7058.450518247442
1684722601053303003,87,1684722601053303003,camera_2,90,0,2.206864053143846,-0.5500474452153968,5.7049043688565595,-0.9802704641196806,0.030639334907711962,0.19014127812206758,-0.044467321541844504,0.009445125760976225,0.004969909701189522,7055.915230010871
1684722601060168504,88,1684722601060168504,camera_2,91,0,2.2061303535513637,-0.5503911290122073,5.7030408003251605,-0.9801863819416828,0.030105128701705418,0.19089317367755404,-0.0434526653410176,0.009112094179727137,0.004790857440037305,7057.575031647693
1684722601066792249,89,1684722601066792249,camera_2,92,0,2.2057476922707626,-0.5509693148175323,5.702143761562098,-0.98011913897087,0.030331979289293334,0.19118651986084192,-0.043521937903709854,0.008147645567078143,0.004283280314424982,7058.116848452716
1684722601073370456,90,1684722601073370456,camera_2,93,0,2.206426582013384,-0.5527598632578437,5.703996034267278,-0.9801174628762518,0.030034624412243263,0.191677100040875,-0.041564042408731613,0.011893056624103338,0.0062522236639943555,7053.161459857132
1684722601079951763,91,1684722601079951763,camera_2,94,0,2.2061516773364875,-0.5536805119413993,5.703337480383097,-0.9801772133391953,0.030224699679467365,0.1911212498147583,-0.04256484287696278,0.009393889689818025,0.004938426286694691,7056.812575292541
1684722601087034940,92,1684722601087034940,camera_2,95,0,2.2067853007906155,-0.5549999012042048,5.705074510728934,-0.9803847088534854,0.029699319572535274,0.19034322874926723,-0.04163205895099993,0.009396831796038896,0.0049388863921758525,7058.065077222418
1684722601093444824,93,1684722601093444824,camera_2,96,0,2.2049495526104406,-0.5570228430164056,5.7003580563643474,-0.9799203524105541,0.030220387306792825,0.19224996936348226,-0.04339101753062575,0.008828622987493873,0.0046411918835473215,7056.936544772701
1684722601099958181,94,1684722601099958181,camera_2,97,0,2.205477070545529,-0.5586298727557183,5.701897027576625,-0.9799583508324676,0.030120480434343247,0.19190641543814738,-0.044117060257862335,0.010008989716880023,0.005265613157420719,7054.268238462508
1684722601106727361,95,1684722601106727361,camera_2,98,0,2.2065342047710206,-0.5602962834834255,5.70469578076577,-0.9799788547016186,0.03041747413854456,0.19126614329826946,-0.046189652873138226,0.011072083143517375,0.005834936688400467,7048.354267094981
1684722601113905906,96,1684722601113905906,camera_2,99,0,2.2050014055714735,-0.5631960946712516,5.700838979961945,-0.9798460835773005,0.030041311513398193,0.1924428675874655,-0.044327359672034605,0.01280909968772903,0.006739589153727794,7053.591765938794
1684722601120194673,97,1684722601120194673,camera_2,100,0,2.2059141574943166,-0.5650543080449522,5.703220011042335,-0.9800504466524603,0.029892246741141337,0.1915109383141745,-0.04394469373091991,0.009120865783188492,0.004800079033721021,7053.441370273704
1684722601126727581,98,1684722601126727581,camera_2,101,0,2.2055864273829466,-0.5668800466396032,5.702563637802363,-0.979906336919513,0.029874171887355305,0.1917706599504754,-0.04599041966742514,0.006507294077891856,0.0034277771815644296,7050.974558203948
1684722601133673429,99,1684722601133673429,camera_2,102,0,2.206310928479615,-0.5707203309168577,5.704674855842695,-0.980056439254627,0.030264763340632696,0.1909491597872794,-0.045954742432191435,0.00648784643271938,0.0034190786515745095,7050.338793761568
1684722601139918565,100,1684722601139918565,camera_2,103,0,2.206216565072146,-0.5726370956617509,5.704477612784438,-0.9800599460876541,0.03022128294198544,0.19118592161724293,-0.04491235361646582,0.009268581925425678,0.004882641801207027,7050.749419962287
1684722601146902084,101,1684722601146902084,camera_2,104,0,2.206533130352747,-0.5746082520217636,5.705388699490743,-0.9801808523369208,0.030204742422178694,0.19047804698555115,-0.04529110137595929,0.008743767684791237,0.00460714445664732,7051.884851700625
1684722601153455972,102,1684722601153455972,camera_2,105,0,2.2059672978004086,-0.5784488738347919,5.70402919528188,-0.9798819291227144,0.03055253036233263,0.19165785041185668,-0.04653188415176116,0.008200972166378051,0.004324881620607294,7046.631001171654
1684722601159859418,103,1684722601159859418,camera_2,106,0,2.205976496888522,-0.5804880410350666,5.7041785624659225,-0.9798602915703121,0.030416681638232513,0.19196858084839477,-0.045789719904306754,0.007525100198108703,0.00396807184593832,7045.341443889076
1684722601166449069,104,1684722601166449069,camera_2,107,0,2.2055591039244677,-0.5824707577284267,5.703183416699281,-0.9799019000289352,0.03064373032401032,0.19185752393524233,-0.04520971821356401,0.008341080858372152,0.004395749297829486,7048.995672547955
1684722601173077821,105,1684722601173077821,camera_2,108,0,2.205255345564065,-0.5864230193516606,5.7025184039943,-0.9795841923359402,0.03050530051997111,0.19347131143206409,-0.04531101873150974,0.009177060099318624,0.004839990064551785,7040.87069834885
1684722601180267572,106,1684722601180267572,camera_2,109,0,2.204899910263574,-0.5881835349382795,5.701712406229764,-0.9795965049249002,0.030679898338478555,0.19341654379991488,-0.04516051329819302,0.004577896441332996,0.0024136341689690974,7043.145348350054
1684722601186617851,107,1684722601186617851,camera_2,110,0,2.2069327018194396,-0.590705707373421,5.7070520347177975,-0.979954801388379,0.03026810981639318,0.19153397302214975,-0.045685511295770004,0.006458121468313038,0.00340917659150091,7039.695236461002
1684722601193223953,108,1684722601193223953,camera_2,111,0,2.204451517699816,-0.5937941672719863,5.700730482701311,-0.9797518536385215,0.030208382925576472,0.19288204435030382,-0.04438778953890798,0.0072436638292856514,0.0038161152543053187,7048.815001956185
1684722601199995756,109,1684722601199995756,camera_2,112,0,2.205160996485648,-0.5959090562524267,5.702631890330436,-0.979673205103661,0.030263533135042955,0.19293307363636664,-0.04584058094449391,0.007569535227958113,0.003993728200063894,7041.55570106115
1684722601206566572,110,1684722601206566572,camera_2,113,0,2.205906871758905,-0.5977467585310308,5.704605318639516,-0.9797836156523316,0.030575878770510517,0.19230518474095745,-0.04591185095812898,0.004770247091073543,0.0025180426380958312,7039.874991857449
1684722601213219642,111,1684722601213219642,camera_2,114,0,2.2054750648789962,-0.6011112538941765,5.703637582637837,-0.9799752723492338,0.030714463914940402,0.19087450329549216,-0.047665619498357834,0.0032992507913149893,0.001741469094966146,7047.221806702671
1684722601219963312,112,1684722601219963312,camera_2,115,0,2.203049056320901,-0.6018839702947109,5.697326222491867,-0.9796734297652022,0.030263976604478,0.19260558072925957,-0.047192721940079084,0.0030063754529692233,0.001584449000762662,7053.373522413426
1684722601226553201,113,1684722601226553201,camera_2,116,0,2.204572004328881,-0.603836742352653,5.701239919662109,-0.9797977823277043,0.029974367279454083,0.19185871593945636,-0.047833839172409603,0.0038753789849579334,0.002045228447568966,7046.659306697081
1684722601233388662,114,1684722601233388662,camera_2,117,0,2.2027483697208807,-0.6059196458202255,5.696561144578969,-0.9796110333227643,0.03016897964539901,0.19277973067959314,-0.04783337222656495,0.003945092728827149,0.0020798521468051463,7052.405972242588
1684722601240026950,115,1684722601240026950,camera_2,118,0,2.203895273074523,-0.6073654967618444,5.699573191803689,-0.9798379054764665,0.02992971317392195,0.1918809505412827,-0.04694243368415883,0.004808988713193684,0.0025357987633181684,7051.104664131768
1684722601246812343,116,1684722601246812343,camera_2,119,0,2.203100124020868,-0.6082014966468592,5.697546369235084,-0.9796274829564279,0.030206307538121747,0.19275590030335743,-0.04756823015005197,0.004559359105769545,0.0024044293592404235,7049.98776943632
1684722601253317832,117,1684722601253317832,camera_2,120,0,2.2025022919735466,-0.6099170538920136,5.696056293389107,-0.9796881902321207,0.030168070043541648,0.19220929576625967,-0.04854404279207152,0.005372234503738582,0.0028324733538654173,7054.888136424588
1684722601260014295,118,1684722601260014295,camera_2,121,0,2.2041071735213076,-0.6111095876003275,5.700218442295234,-0.9800696663216406,0.030307609302506568,0.19022237703345005,-0.04858338450847939,0.0071260418044403195,0.0037590965055298528,7055.564511793435
1684722601266857624,119,1684722601266857624,camera_2,122,0,2.20450581871992,-0.611826145131927,5.701233046721398,-0.9800313011775711,0.030055455888453337,0.19041040886600763,-0.04877698718672528,0.0047765428316779435,0.002521097165332495,7051.539401079757
1684722601273526430,120,1684722601273526430,camera_2,123,0,2.203153396931578,-0.6123360555341549,5.697723145514056,-0.9797411577632681,0.030440040304371755,0.1917519603645441,-0.04911062438325651,0.004370776703581214,0.0023062111287013225,7051.912840171717
1684722601280084371,121,1684722601280084371,camera_2,124,0,2.2026355301217633,-0.6123921579262339,5.696404968378294,-0.9796789903018069,0.03059853157742593,0.19197963991859612,-0.04936216854295747,0.0031085110385902226,0.0016398477476873732,7053.451753635893
1684722601286943674,122,1684722601286943674,camera_2,125,0,2.203619313771949,-0.6127241875704882,5.698909077841829,-0.979819106857575,0.030447728073260825,0.19125997557595645,-0.049467923290608715,0.006622249027714133,0.0034954599590521973,7051.142584715739
1684722601293296337,123,1684722601293296337,camera_2,126,0,2.202065796464305,-0.6121662487462705,5.694790106888208,-0.9795479303692999,0.03031251409399994,0.1927431873308254,-0.04916367903317071,0.004816548665985465,0.0025401801033490498,7053.374005083928
1684722601299911260,124,1684722601299911260,camera_2,127,0,2.2012116607452623,-0.6116635100591146,5.692575180912384,-0.9795458582984802,0.030284660564856937,0.1928212802140151,-0.04891528106219559,0.010360941116232425,0.005459508071041503,7058.864178779539
1684722601306776285,125,1684722601306776285,camera_2,128,0,2.2039908217530835,-0.6120601135751071,5.69969075657879,-0.9798561171998741,0.030376734438758702,0.1915047577029953,-0.047803466066185414,0.0018663332448340952,0.0009846437855263246,7050.46458921186
1684722601313169717,126,1684722601313169717,camera_2,129,0,2.205153990970666,-0.6111217390594421,5.702551309098915,-0.980074472942114,0.0304817600080885,0.190264301343808,-0.04821188057107351,0.00675905984826386,0.003567919642247737,7050.071722586636
1684722601319914579,127,1684722601319914579,camera_2,130,0,2.201887523965196,-0.6095794235848877,5.694053262955569,-0.9797344153170372,0.03001370175014203,0.1922809915022501,-0.04740963464896672,0.003345958422869444,0.0017619570297199279,7061.021806513192
1684722601326775789,128,1684722601326775789,camera_2,131,0,2.2042779892992597,-0.6092400283129689,5.70024897849515,-0.9800674712326254,0.030511179884740044,0.19026789443917402,-0.04832130047309629,0.004948054673150182,0.0026097671572961586,7055.990478067422
1684722601333155632,129,1684722601333155632,camera_2,132,0,2.2057825212160584,-0.607532839470576,5.703973454181071,-0.9801768808678905,0.030319986219730706,0.18965760070603108,-0.04862072749517722,0.007441556837875396,0.003929027654106552,7050.231169773028
1684722601339703798,130,1684722601339703798,camera_2,133,0,2.2043632933193837,-0.6059672523234403,5.700179394958096,-0.9798958589014335,0.030197344015203346,0.1911660299701221,-0.0484538451282418,0.002347546978853643,0.001238571933013832,7051.610216177067
1684722601346487760,131,1684722601346487760,camera_2,134,0,2.205140154709382,-0.6049489731780454,5.702117652321325,-0.9800184215660139,0.030430208973293692,0.19027496024885174,-0.04932884830804678,0.00578565348405391,0.003054459025255502,7050.803006974048
1684722601353255271,132,1684722601353255271,camera_2,135,0,2.2032806017707647,-0.6016255712745199,5.697133709585439,-0.9797683860160472,0.02990449208971635,0.19197398753660977,-0.04801686397152201,0.002094420196954161,0.001103837813109809,7056.0485332852695
1684722601359967470,133,1684722601359967470,camera_2,136,0,2.203966969521908,-0.6001270735005946,5.698780117540603,-0.9798157339957317,0.03010439466261331,0.1916021273474562,-0.04840947874468372,0.0023508945014327765,0.0012396623243005798,7053.825211780844
1684722601366662502,134,1684722601366662502,camera_2,137,0,2.2046304193457513,-0.5985937601159348,5.700497075021685,-0.9798622033140445,0.030233602341058208,0.19128632517489183,-0.04863675160940052,0.0029158180695958436,0.0015383067629099634,7051.390660517849
1684722601373259305,135,1684722601373259305,camera_2,138,0,2.2047155028979883,-0.5951090027324512,5.7005181819678645,-0.9799037884657245,0.02995967632553906,0.19121489317768192,-0.04824777478845351,0.004486861056648195,0.0023662548589447026,7052.9189301112165
1684722601379866600,136,1684722601379866600,camera_2,139,0,2.204980061332151,-0.5934067954129093,5.701075581445706,-0.9798759951765599,0.03032260127571828,0.19147896821428756,-0.047532921856457,0.0017047918518073857,0.0008989926534086952,7051.354459189108
1684722601386930227,137,1684722601386930227,camera_2,140,0,2.2063644477792055,-0.5918175638059409,5.704642061151217,-0.9800706543731305,0.03005977036437756,0.19057670243977978,-0.04731218795875306,0.00190413452219218,0.0010047060248586136,7048.267132530222
1684722601393622159,138,1684722601393622159,camera_2,141,0,2.2049383604158646,-0.5875780460668567,5.700743132903861,-0.9798004401173183,0.030058305496675583,0.1918620074315263,-0.04771337255867786,0.002888385730329901,0.0015230177777315027,7050.611763129478
1684722601399935960,139,1684722601399935960,camera_2,142,0,2.2075303685816614,-0.5861332481722917,5.707359492513033,-0.980151316956673,0.030243906043088645,0.19032558843150132,-0.04652818934322609,0.001769373950082809,0.0009338154541945531,7044.852363952199
1684722601406895160,140,1684722601406895160,camera_2,143,0,2.2058038442782024,-0.5838135307419066,5.70281898500394,-0.9798882316752631,0.030202356682159537,0.19165235381722648,-0.04665025564223842,0.0027355931815691292,0.0014424007324185674,7048.639513472563
1684722601413540363,141,1684722601413540363,camera_2,144,0,2.2063548270952924,-0.5797059690871795,5.704147931307793,-0.9797766992975389,0.030244968262330436,0.19229661769912731,-0.04631276530187463,0.004484338336624205,0.0023655926876490286,7042.620204532519
1684722601420224666,142,1684722601420224666,camera_2,145,0,2.207689954592295,-0.578173753285644,5.707527632049511,-0.9800706741160291,0.030114733613178346,0.1908656396486546,-0.04609646579369564,0.006670438044238836,0.003519862819153116,7042.8230817897675
1684722601426742792,143,1684722601426742792,camera_2,146,0,2.2064764696399797,-0.5757091537467488,5.704270617461106,-0.9798877073272823,0.030062814858991073,0.1921215067805991,-0.044784314486086406,0.010599992296192795,0.005586619458523927,7045.642164551653
1684722601433631896,144,1684722601433631896,camera_2,147,0,2.2064506733664677,-0.5718126564648418,5.704058087432401,-0.9798457882109671,0.030306126775114385,0.19234667629378893,-0.04457046245947764,0.007088616548571736,0.003735291707767879,7045.382069765594
1684722601440236806,145,1684722601440236806,camera_2,148,0,2.206867938160848,-0.569873673387798,5.705030156238137,-0.9799987743495943,0.03036787544131258,0.19125608141110376,-0.045840001502434426,0.00740481010871008,0.0039032929523123918,7047.590435598742
1684722601446676969,146,1684722601446676969,camera_2,149,0,2.204917777664137,-0.5676731609680461,5.699990739706543,-0.9797257650566117,0.030174114011319086,0.1926179349941451,-0.04610075104008743,0.01132341066841036,0.0059627810481881725,7052.067207400689
1684722601453274726,147,1684722601453274726,camera_2,150,0,2.2054281175087422,-0.5641740984720357,5.7010775679578884,-0.9797744997333726,0.03015571383389702,0.19268789735623562,-0.04476535276103991,0.00788976764306426,0.004153236638442762,7050.762265438676
1684722601460270881,148,1684722601460270881,camera_2,151,0,2.207482949949102,-0.56294810605878,5.7064383226878155,-0.9802599354781903,0.029953179340189148,0.1902969910566645,-0.04450079930168055,0.009276367723941803,0.004885663516544236,7051.417447247546
1684722601466814279,149,1684722601466814279,camera_2,152,0,2.206470265757961,-0.5609820162702346,5.7038158306554125,-0.9801003035972741,0.029914016851169997,0.19086769482066154,-0.04558584822294899,0.013220302877016366,0.006961675194662729,7053.331720265095
1684722601473413944,150,1684722601473413944,camera_2,153,0,2.2071132950261587,-0.5581677388496975,5.705358865703794,-0.9800911544974916,0.03012519045145764,0.19068687024891098,-0.04639309529135377,0.007980090857017785,0.004205428849377175,7049.460857208351
1684722601479872941,151,1684722601479872941,camera_2,154,0,2.206251789437258,-0.5566778011003217,5.703176297551623,-0.9800262163503097,0.02993931553424813,0.19125166368884378,-0.04555275828845069,0.010217664123047143,0.005379576561226142,7052.75928399945
1684722601486415863,152,1684722601486415863,camera_2,155,0,2.204341212774284,-0.5548864680938448,5.698138142549053,-0.9798487710109506,0.03010092910472342,0.19235438336337277,-0.04461066258484621,0.007918773218989372,0.004162123740238834,7060.1071467977
1684722601493335485,153,1684722601493335485,camera_2,156,0,2.2046701989510167,-0.5527261757056489,5.698955322892297,-0.9799758364922974,0.030093885817012857,0.19181189948941224,-0.0441578208465776,0.007480299391318113,0.003930660135088119,7061.649163577938
1684722601500056982,154,1684722601500056982,camera_2,157,0,2.2069189947080554,-0.5523321841606729,5.704825843087501,-0.9800604968218307,0.030652766912551678,0.19104342760548365,-0.045213263747483905,0.009426821547094733,0.004964399030822997,7050.150632494593
1684722601506659030,155,1684722601506659030,camera_2,158,0,2.2040986570031373,-0.5508419035905495,5.697441614423278,-0.9797991192859357,0.03010312942380152,0.19280912518480317,-0.04372789373923418,0.004128411179408431,0.002168690266585341,7060.178954594301
1684722601513499975,156,1684722601513499975,camera_2,159,0,2.205500355541396,-0.5498594007830967,5.7010787118506805,-0.9800397483122473,0.03056050336054853,0.19145732885543013,-0.04395723592266247,0.004525807686150074,0.002379172762856714,7058.507201997568
1684722601519983530,157,1684722601519983530,camera_2,160,0,2.203932585780969,-0.5490248252995366,5.696962645422527,-0.9797519714952326,0.03057384294041567,0.19271254733001406,-0.04486857007568645,0.008641865570098162,0.004541157826645334,7060.415754185287
1684722601526661634,158,1684722601526661634,camera_2,161,0,2.2047181224318186,-0.5488532220357367,5.6991028185375,-0.9799957862885645,0.030240113770672736,0.19201931203442507,-0.042689321634589356,0.006343588756863028,0.003331232234136835,7061.702379386641
1684722601533267974,159,1684722601533267974,camera_2,162,0,2.206504757708603,-0.5490318644712128,5.703711133520665,-0.9803097379069001,0.029913638770103664,0.19044650226272167,-0.04275654050939391,0.008534959575627,0.0044858761250777665,7059.086422146995
1684722601539907932,160,1684722601539907932,camera_2,163,0,2.20651141434847,-0.5490568248365951,5.703694119731697,-0.9804200714213277,0.02996183660031282,0.18994241924735333,-0.042434057927540146,0.010565012809820473,0.005550693756825914,7062.322071639354
1684722601546564579,161,1684722601546564579,camera_2,164,0,2.2058017551383817,-0.5490500451552944,5.701972201524291,-0.9801187491096092,0.030020086918762717,0.19155074776892858,-0.04212295163410938,0.013630372530315071,0.0071614236736767456,7057.932096292496
1684722601553409576,162,1684722601553409576,camera_2,165,0,2.2052975217455977,-0.5496402644413362,5.700759113441581,-0.9800504895436277,0.03062289131379679,0.19138243143644068,-0.0440004705697013,0.00982811563881114,0.005165903506710259,7059.725853058742
1684722601559947490,163,1684722601559947490,camera_2,166,0,2.206582234629638,-0.5505130825586,5.704199637834229,-0.9802926706177277,0.030280608227075973,0.19054364055172526,-0.04245569153666554,0.010657167178578675,0.005602019164274914,7057.843644181032
1684722601566730499,164,1684722601566730499,camera_2,167,0,2.206112415943261,-0.5510775741756269,5.7030485894115595,-0.980119929079814,0.030388694204434567,0.19121689167603462,-0.0433307306987224,0.012769000139087439,0.0067145152363311195,7055.9219334928775
1684722601573410749,165,1684722601573410749,camera_2,168,0,2.2054629019242844,-0.5525854923446785,5.7014798005177925,-0.9801481243911305,0.029889954309526637,0.1912901274881299,-0.04271219977358449,0.014088122290559113,0.007402213856855617,7060.238451452928
1684722601579923629,166,1684722601579923629,camera_2,169,0,2.206779277786092,-0.5539159046304649,5.704964654144747,-0.9803876482757721,0.030159897507867628,0.18996726133171365,-0.042928770221664365,0.007339365780353546,0.003859028608576243,7058.852492789738
1684722601586737394,167,1684722601586737394,camera_2,170,0,2.205431173044832,-0.5546956080672815,5.701552075692689,-0.9800981651653423,0.030014840676399333,0.19165820636436692,-0.04211683644213568,0.010348647891078144,0.005437281489323396,7058.789838612547
1684722601593168973,168,1684722601593168973,camera_2,171,0,2.2038180416571316,-0.5567940663418325,5.697500589626922,-0.9797999032350365,0.03008845690604853,0.1928884022768608,-0.04336932843273164,0.007118698267731816,0.0037396085674499683,7060.42428393476
1684722601600025177,169,1684722601600025177,camera_2,172,0,2.2056629705380013,-0.5587565770151962,5.702366304041551,-0.9799631056842335,0.0303264801636091,0.19176022083598812,-0.04450431219029505,0.005593274312559515,0.0029434003025357665,7053.444829040438
1684722601606507301,170,1684722601606507301,camera_2,173,0,2.2056113621271707,-0.5601559851060595,5.702242994562832,-0.9799634366075608,0.03041184680193725,0.19169117207599023,-0.04473563495165452,0.006917845923453569,0.003640745310056821,7053.853392797058
1684722601613226890,171,1684722601613226890,camera_2,174,0,2.2055046434878878,-0.5634195294284757,5.702258874639397,-0.9799482983664778,0.03031183526322521,0.19164497050368293,-0.045329134695713265,0.011227862734813243,0.005911128929084258,7053.373896226986
1684722601619688272,172,1684722601619688272,camera_2,175,0,2.2061557589990914,-0.5651871818557849,5.7039907954805225,-0.9801620358227013,0.030034296108494982,0.19098318582832213,-0.04365486593759706,0.010480129451025277,0.005514770396694802,7054.92026497796
1684722601626692533,173,1684722601626692533,camera_2,176,0,2.207157435046892,-0.567377310862573,5.7066071975802934,-0.9801984487328695,0.030208973399575144,0.1904213015035738,-0.0451458410211312,0.008815138193313032,0.004645232777517064,7049.675030747423
1684722601633527517,174,1684722601633527517,camera_2,177,0,2.207270314078326,-0.5710409816968208,5.707120917840231,-0.9802440500065953,0.030316492036218886,0.1900671879102576,-0.0455738611176662,0.004943885433021933,0.0026060525664578023,7049.7309968820755
1684722601639910459,175,1684722601639910459,camera_2,178,0,2.2060582370045316,-0.5727033001259171,5.703993411687388,-0.9800360859850995,0.030336204842250223,0.1910823852465481,-0.04578762814631976,0.010116456658579409,0.005330451602071456,7051.354917171648
1684722601646900177,176,1684722601646900177,camera_2,179,0,2.2062095944582,-0.5746065857997147,5.70443977393908,-0.9800591964199572,0.030305129460844477,0.19125419769868762,-0.04458029277226374,0.006392495473846793,0.0033672908301604788,7050.736608877076
1684722601653655529,177,1684722601653655529,camera_2,180,0,2.2067234471054085,-0.5787605876407121,5.705967329460479,-0.9800246187823439,0.030197155471022852,0.19111328715928155,-0.045995541666061804,0.01389382779598236,0.007328097147513005,7045.6357379909605
1684722601659949541,178,1684722601659949541,camera_2,181,0,2.2076509524669015,-0.5809982508697277,5.708510405261862,-0.9801562188651796,0.030283242579247353,0.1905808552873012,-0.04533927035982478,0.012343727750703694,0.006512989654540642,7043.0780781945205
1684722601666750192,179,1684722601666750192,camera_2,182,0,2.205728742945942,-0.5826384065785358,5.703509157479499,-0.9797162760218566,0.03037528796044496,0.19283326010851537,-0.04526250296997376,0.007341898279264569,0.0038715537609154155,7042.528092758734
1684722601673313140,180,1684722601673313140,camera_2,183,0,2.2065513358567137,-0.5868503658531323,5.7058478922346,-0.9798427936215159,0.03036730769022309,0.1920329891179003,-0.04592665350398571,0.005480950057972223,0.002892784178299109,7039.982141824441
1684722601680164575,181,1684722601680164575,camera_2,184,0,2.2065049448077034,-0.5887181330638295,5.70577596041929,-0.9798008416718913,0.030699133484000957,0.1922744962072624,-0.04558938440720888,0.0062199237872846425,0.0032829038558778926,7039.001100933179
1684722601686513900,182,1684722601686513900,camera_2,185,0,2.2064069554349697,-0.5906275986990819,5.705677171057881,-0.9798347106963522,0.03066282387375082,0.19214459624424107,-0.04543330365294513,0.005393229192122817,0.0028462595398140896,7039.95639231289
1684722601693410873,183,1684722601693410873,camera_2,186,0,2.20438645109985,-0.5939173430103949,5.700632139455953,-0.9795851319040533,0.030360429967727403,0.19337102603649245,-0.04581331612410906,0.005276581738144159,0.002782364397525498,7044.347436891868
1684722601699962377,184,1684722601699962377,camera_2,187,0,2.2054286263149434,-0.5960641906642885,5.7032994384226745,-0.9797478099517345,0.030319098182525164,0.19252156948904642,-0.04593937811565116,0.003051055013202131,0.0016098645596951103,7042.0839243384535
1684722601706608295,185,1684722601706608295,camera_2,188,0,2.2052050508282286,-0.5976866570320937,5.702679022265852,-0.9797609461739953,0.030233009048761073,0.1925080624906014,-0.045772255703752256,0.0021610200637951493,0.0011399693171910755,7043.594395622145
1684722601713356971,186,1684722601713356971,camera_2,189,0,2.204682165263531,-0.6009439484912311,5.701497895929568,-0.9796981843110981,0.030487574564463278,0.19241025528218195,-0.04733148124620251,0.003429581644013524,0.0018100030731388423,7044.251830605787
1684722601719847679,187,1684722601719847679,camera_2,190,0,2.203621844409281,-0.6021125939149348,5.698799865751137,-0.9797424342519501,0.03012792007735875,0.19203967734812827,-0.04814388104320669,0.0029435562901198864,0.0015524170980727114,7051.546416359026
1684722601726615905,188,1684722601726615905,camera_2,191,0,2.205659564974168,-0.6041917883314653,5.704141680551352,-0.9800417789012827,0.029872937993659573,0.19056370678312495,-0.048074867037896124,0.002987628395203501,0.00157745958765218,7046.464679779721
1684722601733288526,189,1684722601733288526,camera_2,192,0,2.2035387555161896,-0.6061875981649046,5.698688579889751,-0.9797514071544816,0.030253907450207156,0.19180325399897477,-0.04882000633154738,0.0032528385054320097,0.0017161614208131752,7051.247401434467
1684722601739850997,190,1684722601739850997,camera_2,193,0,2.2059528545805387,-0.6080108949689504,5.70498866207462,-0.9803168538006516,0.02989265638156715,0.18946186790625877,-0.0467920490929463,0.006740294687915593,0.0035563753260352713,7051.568779295541
1684722601746633768,191,1684722601746633768,camera_2,194,0,2.204556403768118,-0.6086783063386727,5.701381347144372,-0.9799134791481272,0.030110774208605456,0.19116933092051466,-0.04813731998952551,0.0025793907698243856,0.0013613728128154525,7048.674613930983
1684722601753229379,192,1684722601753229379,camera_2,195,0,2.202485256214941,-0.6099985141110843,5.69605776393877,-0.9797305079028169,0.03027464251906494,0.19195478479206424,-0.04863063335248162,0.004225293931085616,0.0022275768216042705,7056.196839419431
1684722601760048389,193,1684722601760048389,camera_2,196,0,2.203654579712614,-0.6110227658678027,5.699038758883538,-0.9798884492951474,0.030596128168009787,0.19109611327946546,-0.04862899719878808,0.003953379869926721,0.002085610969468194,7053.489876233274
1684722601766595602,194,1684722601766595602,camera_2,197,0,2.203772466624916,-0.6116385676917706,5.699333419236489,-0.9798523179746653,0.03008808972957127,0.1916016454119413,-0.04767547893348736,0.001762146595865488,0.00092950593304613,7051.155260281872
1684722601773266792,195,1684722601773266792,camera_2,198,0,2.2023738948899068,-0.6121236980947574,5.695668111237628,-0.9795769802627073,0.03042340010264995,0.19272444588007387,-0.04858646340091188,0.003049126418773085,0.0016080685702669557,7052.243779712357
1684722601780139923,196,1684722601780139923,camera_2,199,0,2.2031381773343224,-0.612519306434274,5.69765700840263,-0.9796677904865566,0.03058063600172509,0.19225728969631597,-0.048507520484405105,0.0036249994882382452,0.0019126201431978306,7050.057966225551
1684722601786989927,197,1684722601786989927,camera_2,200,0,2.2038294401144225,-0.61282142175681,5.699530417616522,-0.9798988309956193,0.0304684980026734,0.190831015565871,-0.04953256646872001,0.0031499997712671757,0.0016627124500669722,7051.940861321056
1684722601793508529,198,1684722601793508529,camera_2,201,0,2.202988975896799,-0.6124351663510232,5.697200780020519,-0.9797412039824245,0.030413182876790647,0.1917926734487026,-0.048967151619953436,0.006522200652398169,0.0034406528196376917,7053.121224663223
1684722601800177574,199,1684722601800177574,camera_2,202,0,2.201663966738759,-0.6117993551432211,5.693804348390204,-0.9796179591850237,0.030024884996095427,0.19252395674238051,-0.04880252455968529,0.0046937280567362905,0.0024737368198164225,7057.696193858748
1684722601806710481,200,1684722601806710481,camera_2,203,0,2.204362177051568,-0.6120890160839485,5.700608723998715,-0.9799266992854783,0.030258886180080276,0.19129957673742898,-0.04724971719163521,0.004804490425158292,0.0025346335145838435,7050.17757454817
1684722601813306570,201,1684722601813306570,camera_2,204,0,2.2030058110624426,-0.6105038243460676,5.696935108952272,-0.9797406054053248,0.030401440050648598,0.19200754631353636,-0.04813731111632353,0.0056772230309434235,0.0029934673303033616,7054.2102592827305
1684722601819873571,202,1684722601819873571,camera_2,205,0,2.2022244470303955,-0.6096489001337716,5.694948945038619,-0.9796106861413962,0.03035440583660559,0.19267530368036354,-0.0481429225906494,0.0028542348300106823,0.0015043711798526215,7055.496201605998
1684722601826547384,203,1684722601826547384,camera_2,206,0,2.2039943316929853,-0.6091070364710732,5.699451630925838,-0.9799052495745055,0.030409276511969095,0.19130967922392814,-0.047556118361179844,0.004533540282864124,0.0023908120953754735,7053.213399505941
1684722601833174705,204,1684722601833174705,camera_2,207,0,2.204340898839792,-0.6071268358873166,5.700179357508898,-0.9798833089097903,0.030445838919180655,0.19107336894252003,-0.04891543205843758,0.002635324723087251,0.0013907543253423114,7051.1871531917695
1684722601839876413,205,1684722601839876413,camera_2,208,0,2.204283458948164,-0.6058552599886423,5.699987511614587,-0.9798712983770733,0.030160360501953407,0.19127288384789867,-0.04855177829625939,0.005775755795184523,0.003047426723710824,7051.364712503037
1684722601846741437,206,1684722601846741437,camera_2,209,0,2.2040296122989753,-0.6045877283759936,5.699290129601988,-0.9798414873148622,0.030365883860195675,0.19102682735732915,-0.04997323347334123,0.006457873212639242,0.0034083334169181913,7052.6063434239495
1684722601853160619,207,1684722601853160619,camera_2,210,0,2.2045276860122103,-0.6018010668200588,5.70036975060285,-0.9797998352523402,0.029903717091221665,0.19208137778138523,-0.04693394137743185,0.003694919985719025,0.0019486362635152152,7049.044381794982
1684722601860001325,208,1684722601860001325,camera_2,211,0,2.2040731992414506,-0.6000913936483746,5.6991146875175955,-0.9798499061103224,0.03020333869982402,0.19132794646010082,-0.048739478150024794,0.003564740880392492,0.0018800185882695648,7054.10236729984
1684722601866666078,209,1684722601866666078,camera_2,212,0,2.2052917185634304,-0.5986361847721804,5.702227981607182,-0.9800140810310399,0.03020409554088602,0.19057316431036145,-0.048394035150825625,0.007337959250435233,0.003871818890443224,7051.520472910255
1684722601873587131,210,1684722601873587131,camera_2,213,0,2.2068037238058715,-0.5955536029587333,5.705958350168807,-0.9801434984502035,0.030149664178569718,0.18964812148996868,-0.04942985141634,0.00361834978684783,0.0019114702361641457,7046.585248379037
1684722601879950523,211,1684722601879950523,camera_2,214,0,2.2043486594500057,-0.5930952472908552,5.699375034321614,-0.9796446367155929,0.030160813214273236,0.1926313054163157,-0.047748207026377616,0.004954312928020954,0.00261280863229213,7048.712971114785
1684722601886758089,212,1684722601886758089,camera_2,215,0,2.2074115351388177,-0.5920521377267397,5.707329246475182,-0.980074022365844,0.02985975640569842,0.19071133657522427,-0.046824050793572915,0.0023919460945762694,0.0012630552730293362,7041.565936092987
1684722601893253326,213,1684722601893253326,camera_2,216,0,2.2062697960295963,-0.5878382235968072,5.704137028943506,0.9800026066878325,-0.03008952935026033,-0.19084346408022865,0.047626498153779645,0.001141424581874162,0.000602241426092061,7048.096919249978
1684722601899949550,214,1684722601899949550,camera_2,217,0,2.205289215016194,-0.5854677559385837,5.701564759423555,0.9797387435874392,-0.03016622925518781,-0.1924026590875325,0.04672482961206608,0.0010556982597336173,0.0005566549923193922,7047.172586936504
1684722601906643390,215,1684722601906643390,camera_2,218,0,2.205737183689037,-0.5835994472803696,5.702621682382807,-0.9798565502735942,0.0299938003614912,0.19195655610615522,-0.04619733102324178,0.0033698719926178455,0.0017765558299858983,7048.031110476939
1684722601913534164,216,1684722601913534164,camera_2,219,0,2.205092508067001,-0.5792738329072364,5.700918355461688,-0.9795298313321253,0.030300099225101348,0.193674066859744,-0.04575553893699205,0.0050931322039105,0.002684825851002844,7043.513804038521
1684722601920012474,217,1684722601920012474,camera_2,220,0,2.2069665628022745,-0.577918609477296,5.705668047626368,-0.9798666064815553,0.030271952935935632,0.19198489497402493,-0.04568197094673246,0.005657870147842914,0.0029846850186198374,7041.648381548004
1684722601926400423,218,1684722601926400423,camera_2,221,0,2.207063889710971,-0.5757834950912792,5.705747304122957,-0.9799037920942003,0.030156658147147526,0.19189390836033238,-0.04534161601662097,0.004911956668365747,0.002590517914399671,7042.549792536762
1684722601933227777,219,1684722601933227777,camera_2,222,0,2.206285528421666,-0.5716880800124101,5.703573806089228,-0.9798161599472722,0.030249967693939214,0.1924550541051909,-0.0447915651665025,0.005698024877347052,0.0030024771658130047,7045.665860707408
1684722601939940929,220,1684722601939940929,camera_2,223,0,2.206821499697084,-0.569754057875043,5.704885040223281,-0.9799684096784003,0.03024591899141872,0.19139327099910516,-0.04599691547283192,0.009470961755141616,0.004992855721025613,7046.966299449091
1684722601946626186,221,1684722601946626186,camera_2,224,0,2.205710958499296,-0.5677725622087674,5.701931305701988,-0.9797713634502669,0.030290367033664608,0.19259684933751078,-0.04513338734279775,0.007216042140498757,0.0038006543567412686,7048.617486309263
1684722601953404903,222,1684722601953404903,camera_2,225,0,2.206232703435408,-0.5642427732218065,5.703295317843121,-0.9799974400375455,0.030471037177173536,0.19129921116473758,-0.04561957059151091,0.00874313386157155,0.004604833015606027,7052.106127980862
1684722601959926366,223,1684722601959926366,camera_2,226,0,2.206880049320483,-0.5626932802777725,5.70492921769628,-0.9801013884432465,0.029923403606720567,0.19079922458667875,-0.045842275088965045,0.012324754847213626,0.00649349515559831,7050.625221132066
1684722601966506481,224,1684722601966506481,camera_2,227,0,2.206594674350931,-0.5609027619585316,5.704158045834436,-0.9800919358947368,0.029886508143191163,0.19129430124859267,-0.04396685268388954,0.009916220558807254,0.005219402081705518,7052.125844704922
1684722601973096609,225,1684722601973096609,camera_2,228,0,2.205700462057677,-0.5577718360681123,5.701715652999233,-0.9798875693947007,0.030213751663291925,0.1915566777293408,-0.047048058126475445,0.005655422864947468,0.0029787596298759163,7052.6964181440435
1684722601979791641,226,1684722601979791641,camera_2,229,0,2.2056245733372197,-0.5564146968287496,5.701495708914346,-0.9799783255112142,0.029968844847505102,0.19142238939015846,-0.04584559637419187,0.008932789438404143,0.004701362252171502,7055.557820827234
1684722601986480712,227,1684722601986480712,camera_2,230,0,2.2052522286868035,-0.5550685544112355,5.700464091985735,-0.9800079775736363,0.029921699403036944,0.19161710391027395,-0.04440654552996236,0.007807811605744064,0.004105219623313863,7058.775091845078
1684722601993065357,228,1684722601993065357,camera_2,231,0,2.2062107740581083,-0.5530628931197431,5.703029459943311,-0.9801240337969019,0.030115313940044366,0.19104283124153112,-0.04418803991128977,0.008036853512749076,0.004227603891116836,7055.912319563561
1684722601999862432,229,1684722601999862432,camera_2,232,0,2.206008106589721,-0.5520452831681152,5.702496252862513,-0.9800193231862057,0.030309718646125843,0.19118141965259122,-0.04575054007182855,0.00951298704603687,0.005007168573758587,7054.463421709834
1684722602006646871,230,1684722602006646871,camera_2,233,0,2.204905329141276,-0.5509580390154117,5.699597159053039,-0.9801161055974636,0.03008766017075675,0.1911033648932196,-0.044120926785363876,0.009126762219239026,0.004794916530306471,7064.065699273957
1684722602013425827,231,1684722602013425827,camera_2,234,0,2.2065788958677404,-0.5500791278199704,5.703900665792257,-0.9801492722063575,0.030346006181524623,0.19084038362011618,-0.044344921714956846,0.008094792603515089,0.004259037765838859,7054.549770093057
1684722602019845962,232,1684722602019845962,camera_2,235,0,2.204405407953106,-0.5491566763150848,5.69833049087697,-0.9798953475475677,0.03063353787180145,0.1921089138998183,-0.04428159225141906,0.003826911619398743,0.002010751932100342,7061.229765470138
1684722602026695013,233,1684722602026695013,camera_2,236,0,2.204978952120291,-0.5489046057658636,5.699804018277394,-0.9800258508090147,0.03013506576544872,0.19186923842474862,-0.04274815672851991,0.008701715676579624,0.004570463610040996,7060.760650059908
1684722602033279418,234,1684722602033279418,camera_2,237,0,2.205101732926318,-0.5486745652764894,5.700061565916861,-0.980131312548459,0.030053609953201398,0.1913869482838098,-0.04254910947865005,0.006109196750912815,0.003207968625619953,7063.052145421738
1684722602039885997,235,1684722602039885997,camera_2,238,0,2.205162129858553,-0.5487564997236272,5.7003507006077205,-0.9800065497296446,0.02988847204090699,0.1922530599158082,-0.04162454419049298,0.009776519378647208,0.005134100145266683,7058.539937320626
