%time,field.header.seq,field.header.stamp,field.header.frame_id,field.image_seq,field.transforms0.fiducial_id,field.transforms0.transform.translation.x,field.transforms0.transform.translation.y,field.transforms0.transform.translation.z,field.transforms0.transform.rotation.x,field.transforms0.transform.rotation.y,field.transforms0.transform.rotation.z,field.transforms0.transform.rotation.w,field.transforms0.image_error,field.transforms0.object_error,field.transforms0.fiducial_area
1681938038412827968,0,1681938038412827968,camera_2,1,0,-1.23051412549772,0.31720152827399495,1.749096733663797,0.9572523292278653,-0.0036593596758836694,0.2803884045623978,-0.07097133126511299,0.08734857273520902,0.012186783833726378,13061.18474156642
1681938038422871351,1,1681938038422871351,camera_2,2,0,-1.230785998314583,0.31725782946781045,1.7494611593779494,0.9572640337027127,-0.0034809982623308245,0.2804208760397322,-0.07069359738631678,0.09656872070627287,0.013475497921666009,13056.314521520868
1681938038432775735,2,1681938038432775735,camera_2,3,0,-1.230352619777591,0.31715283851513415,1.7488394094645219,0.957129889077733,-0.0035952034094548753,0.2808501888672209,-0.0707998683596066,0.10430907807312906,0.01455214050997828,13056.767263724003
1681938038442817449,3,1681938038442817449,camera_2,4,0,-1.2310145526951932,0.317322747583211,1.7497960813678881,0.9572879195196258,-0.0036040141407600074,0.28031585886412047,-0.07078043156925594,0.09675441146828234,0.013506841154664172,13052.976961054834
1681938038452800750,4,1681938038452800750,camera_2,5,0,-1.23042875007273,0.31717665064690737,1.7489465378917266,0.9572158696833926,-0.0036684313123800457,0.2805263839398563,-0.07091734168453435,0.09675685648107901,0.013498307992187748,13060.777943700552
1681938038463155031,5,1681938038463155031,camera_2,6,0,-1.2306779581714977,0.31724888548560515,1.7493259729298887,0.9572619962353753,-0.003493278690436371,0.28040141548986736,-0.07079769599876826,0.10124360542977229,0.014126760743475329,13058.317795113197
1681938038473089456,6,1681938038473089456,camera_2,7,0,-1.2308311915972212,0.3172615918283228,1.7495344206672125,0.9572548418505211,-0.0035892425451181605,0.2804025413257648,-0.07088511768868626,0.10342424974078313,0.014435854847555378,13054.7631675757
1681938038483281612,7,1681938038483281612,camera_2,8,0,-1.230865957545894,0.31728889464493815,1.7495945747500006,0.9572647383678641,-0.003555826399821849,0.28034860631426234,-0.07096644075737445,0.10457212111214176,0.014597385096868,13054.558000566434
1681938038493148565,8,1681938038493148565,camera_2,9,0,-1.2306385432017752,0.3172285410129988,1.7492409433145428,0.9572645623562345,-0.0035345588310364035,0.28037294537770746,-0.07087366260484945,0.10318902746075764,0.014397826983223436,13059.50721919979
1681938038503193616,9,1681938038503193616,camera_2,10,0,-1.2308091588777383,0.3172749507614851,1.7495359083216928,0.957239708612694,-0.0036495061232673376,0.28043324262791036,-0.07096490533592477,0.0974147075903602,0.013598250542634456,13054.049340519818
1681938038513132810,10,1681938038513132810,camera_2,11,0,-1.2307402503791254,0.31725212000280945,1.749412832939482,0.9572445182083371,-0.0035836771942115413,0.2804897874836905,-0.0706793373993449,0.10395261913072318,0.014505969991833971,13055.938829527011
1681938038523165225,11,1681938038523165225,camera_2,12,0,-1.2307692584763894,0.3172543942658302,1.7494547249523498,0.957220860471145,-0.003531401600612607,0.28048797170990886,-0.0710088107749823,0.09562491561518982,0.013348100286682037,13053.752330462443
1681938038532816886,12,1681938038532816886,camera_2,13,0,-1.2307755211948088,0.31728170869882694,1.7494730785781258,0.9572449358949231,-0.0034922932590818936,0.2803851750444299,-0.07109212478623636,0.09599256073124705,0.01339945957371451,13055.093784286872
1681938038542886972,13,1681938038542886972,camera_2,14,0,-1.230974586791369,0.3173217528787288,1.7497581836924854,0.9573076377110599,-0.0035368773493492213,0.2802336356531644,-0.07084269000606422,0.10634131648112088,0.014843985130649075,13055.036841086341
1681938038553015232,14,1681938038553015232,camera_2,15,0,-1.2308333575937995,0.31727334209914076,1.7495260165788293,0.9572257952006239,-0.003550297424184026,0.2805655124570711,-0.07063402586879909,0.1003877863404341,0.01401066035903199,13052.8250843999
1681938038562940597,15,1681938038562940597,camera_2,16,0,-1.2310631402133072,0.3173308393165169,1.7498891864192458,0.9573147593938905,-0.0034528115819649017,0.28024283279261775,-0.07071410189747124,0.10069371201097965,0.014055865932524773,13053.588155621668
1681938038572815656,16,1681938038572815656,camera_2,17,0,-1.2306861968192122,0.31724610058536273,1.7493508130005144,0.9572360319450828,-0.0036092234132929254,0.28048473210547276,-0.07081290636675404,0.09888532757759094,0.013799398296218604,13056.418655522866
1681938038582793235,17,1681938038582793235,camera_2,18,0,-1.2309529675099904,0.3172936435891779,1.749709863518193,0.9572847397336338,-0.0035959067942212507,0.28033487238569926,-0.07074853957453756,0.10869906540028751,0.015172571001305663,13054.13743137685
1681938038592829704,18,1681938038592829704,camera_2,19,0,-1.2307861676372231,0.3172610546111526,1.7494920153471765,0.9572929873251883,-0.003492070194671377,0.28032543057774895,-0.07067952203553964,0.10411792085506022,0.014527986440047885,13058.054830428446
1681938038602818250,19,1681938038602818250,camera_2,20,0,-1.2305032894290973,0.3172043595074535,1.7490706784841257,0.9571787707347619,-0.0035175427047461198,0.28065698777454556,-0.07090897659203177,0.08688202314078808,0.01212300127756883,13056.577314886727
1681938038612794399,20,1681938038612794399,camera_2,21,0,-1.2312483152458387,0.31738041773257497,1.7501279903440017,0.9573478653604353,-0.0034792145158533626,0.28007826013627596,-0.07091634476767024,0.10568251891527325,0.01475740664068183,13051.929435164435
1681938038622790575,21,1681938038622790575,camera_2,22,0,-1.2310324891453126,0.3173334176667417,1.7498454854087493,0.9572971596569689,-0.003637672888704325,0.2802421281061339,-0.07094550784369588,0.09006379544734955,0.012574482813588809,13053.06743733515
1681938038632846117,22,1681938038632846117,camera_2,23,0,-1.2309097453975926,0.3172938439134764,1.749649005455754,0.9572587418711063,-0.003488465260893581,0.28038738384920014,-0.0708974378921517,0.09930628264555708,0.013862583014192577,13053.250113108663
1681938038642764568,23,1681938038642764568,camera_2,24,0,-1.2311155298860295,0.31734113614376447,1.7499508185987511,0.9572895142305713,-0.0035107913310634515,0.28025453089921504,-0.07100604339693592,0.09274091525003314,0.012950351868196437,13050.853970696913
1681938038652756452,24,1681938038652756452,camera_2,25,0,-1.2311905535537888,0.3173628982390731,1.7500457778140255,0.957373448997129,-0.0036042458336811227,0.27999588140132897,-0.07089002021162799,0.10549104592064396,0.014728337342377374,13054.903074566977
1681938038662873506,25,1681938038662873506,camera_2,26,0,-1.230719447626777,0.3172498179947932,1.7493924539787615,0.957270486734128,-0.0035776180586400983,0.2803488134406459,-0.07088694293912154,0.10253561323042959,0.014308804489181388,13058.009478886612
1681938038672793626,26,1681938038672793626,camera_2,27,0,-1.2305872672584144,0.3172105086042836,1.7492005370125694,0.9572013184339155,-0.003512007971814544,0.2806017975312778,-0.0708232519063864,0.0988939282251522,0.013799396458642976,13056.271542252043
1681938038683198451,27,1681938038683198451,camera_2,28,0,-1.2306679435477887,0.3172354389346767,1.749337703878888,0.9571985481630831,-0.003592800395232855,0.28058200959740115,-0.07093494956711979,0.09971833205781877,0.01391776719747441,13054.316930891247
1681938038692782402,28,1681938038692782402,camera_2,29,0,-1.2308396949842395,0.31727033977110064,1.7495672165161604,0.9572613165094559,-0.003621439743274436,0.2803726411499998,-0.07091430873485834,0.1055464562959969,0.01473264315811782,13054.87299890188
1681938038702809810,29,1681938038702809810,camera_2,30,0,-1.23069979184159,0.317246267768462,1.7493836545942827,0.9572090551641218,-0.0035763435426226513,0.2805471800007863,-0.07093175785415576,0.1000952540198341,0.013970637611466595,13054.315991576299
1681938038712871313,30,1681938038712871313,camera_2,31,0,-1.2307665104453973,0.3172574304434007,1.7494643177233369,0.9572381115323662,-0.0035193048239000094,0.28048178789268935,-0.0708009815188074,0.09697168006096035,0.013533656946456899,13054.81228298484
1681938038722814559,31,1681938038722814559,camera_2,32,0,-1.2305946916281476,0.31722233107583037,1.749217773177777,0.9572281131639404,-0.003582070768580635,0.2805327153945985,-0.07073120761689695,0.08630950923543423,0.012042180896458065,13057.7485218693
1681938038732872009,32,1681938038732872009,camera_2,33,0,-1.2305886555069678,0.31721983584036956,1.7492135655392929,0.9571887050066937,-0.0035944694869829725,0.2806950425422756,-0.07061979813696545,0.0998900086269714,0.013937305228886384,13055.40004972951
1681938038742732763,33,1681938038742732763,camera_2,34,0,-1.2304884847981226,0.3171778986001079,1.749065708258753,0.957163804590967,-0.0035302942114799687,0.2806901269048093,-0.0709791579401133,0.10041955474298447,0.014012964303666225,13055.926651995862
1681938038752816438,34,1681938038752816438,camera_2,35,0,-1.2306160399677686,0.31722744473033726,1.7492374899560672,0.9572359030150673,-0.0036072373946635277,0.2805069088150869,-0.07072685433632432,0.09645325859310105,0.013457570855627148,13057.971176829888
1681938038762778520,35,1681938038762778520,camera_2,36,0,-1.2308908438604567,0.3172974379827777,1.7496370052489654,0.9572481583584637,-0.0035006478941872385,0.28047615475112153,-0.0706882974733142,0.0934228440746665,0.013039608188402402,13052.814224309057
1681938038772865295,36,1681938038772865295,camera_2,37,0,-1.2307920996693316,0.31726839064665185,1.749493091904795,0.9572799430380039,-0.0035630669410282477,0.28031562811251304,-0.07089121135244741,0.09090647572884336,0.012687045524864214,13057.066942892965
1681938038783118963,37,1681938038783118963,camera_2,38,0,-1.2307668534059222,0.3172611481733374,1.7494565746952715,0.9572425811647396,-0.0035719287967490836,0.28044348699963983,-0.07088958124591371,0.09701924241380766,0.01354102574825174,13055.173747210292
1681938038793105840,38,1681938038793105840,camera_2,39,0,-1.2308997252769605,0.3172928222153268,1.7496554558958333,0.9572655020174256,-0.0035737021641047105,0.28035739997012205,-0.07092048774621883,0.09862208075355738,0.013767189220732895,13053.827281662034
1681938038802855014,39,1681938038802855014,camera_2,40,0,-1.2310204524159236,0.31733270233083544,1.7498201610361122,0.9572438092208632,-0.0034544869930288368,0.2804501604334664,-0.07085240815095617,0.08935465785907581,0.012475763795612113,13049.777995585462
1681938038812879562,40,1681938038812879562,camera_2,41,0,-1.2308118574643354,0.3172764113719224,1.7495360482416757,0.9572612599244189,-0.003546425090033872,0.2803726747778989,-0.07091873063501208,0.10072078043594956,0.014058305299645787,13055.356926411854
1681938038822799921,41,1681938038822799921,camera_2,42,0,-1.2309822587131616,0.31731850001566025,1.7497718893992629,0.9573204465885418,-0.0035494640702834297,0.28021146309139755,-0.0707566237217919,0.09643742581829427,0.013460487869149943,13055.640519189412
1681938038833110570,42,1681938038833110570,camera_2,43,0,-1.2306289478707946,0.31723592882546725,1.7492754569343358,0.957168463012479,-0.003601985305175089,0.2806790347897111,-0.07095659620998078,0.10325362149160355,0.014411828165432178,13053.132602096532
1681938038843149900,43,1681938038843149900,camera_2,44,0,-1.230654983768769,0.3172477193586606,1.7493043071207126,0.9571967129464705,-0.0035753522480883944,0.28051505306277036,-0.07122481720556174,0.09202918672235683,0.01284685178396081,13054.429538063003
1681938038853150606,44,1681938038853150606,camera_2,45,0,-1.2310191290917052,0.3173169752187758,1.749814939508003,0.9572679457649316,-0.0036571026372724746,0.28032857530826966,-0.07099715118879293,0.11176824988797307,0.015606298926082165,13051.602630556328
1681938038863194942,45,1681938038863194942,camera_2,46,0,-1.230879710622567,0.3173001363596812,1.7496282678710402,0.9572870869382242,-0.003629783943253563,0.2802843517719111,-0.07091501957733391,0.08751480659702793,0.0122156425132798,13055.61857954808
1681938038873329162,46,1681938038873329162,camera_2,47,0,-1.230716487972685,0.3172428738116918,1.749373144117982,0.9571824590943913,-0.0035002672158622045,0.2807042756802136,-0.07067246809245017,0.09995599609101191,0.013949691306376421,13052.372697719376
1681938038883100986,47,1681938038883100986,camera_2,48,0,-1.2308014839495582,0.3172674611793966,1.7495379684452195,0.9572389105445518,-0.003647807136045859,0.2804714855253453,-0.07082448340640414,0.09781427995767444,0.013652780372187144,13054.029152514184
1681938038893107652,48,1681938038893107652,camera_2,49,0,-1.2306054227969714,0.3172188111967106,1.7492338326850965,0.9571946511107045,-0.003550204856610525,0.28060646972983694,-0.07089291273668247,0.11173692723968998,0.015593160450110805,13055.49300412088
1681938038903238058,49,1681938038903238058,camera_2,50,0,-1.2306352494339674,0.3172234572747489,1.7492700408749922,0.9571861138294537,-0.003573989087067833,0.2806705039217758,-0.07075336262235318,0.10907482967013493,0.015221390887600753,13054.301986294333
1681938038913278102,50,1681938038913278102,camera_2,51,0,-1.2307566985132536,0.3172595162894874,1.7494327155572702,0.9573190865169601,-0.003544466462620227,0.28015299088890827,-0.0710063732620388,0.0970895008649677,0.0135486701599528,13060.465115279898
1681938038923209428,51,1681938038923209428,camera_2,52,0,-1.230710080669879,0.31724744619317163,1.7493757577036746,0.9572449816828509,-0.0036143787569902835,0.2804301467168045,-0.07090778604350141,0.10402579611400142,0.014517842542746821,13056.575975683285
1681938038933229923,52,1681938038933229923,camera_2,53,0,-1.230972425699934,0.31731194876583163,1.7497532884450784,0.9573175044773857,-0.003473989182184938,0.2801960027853364,-0.07086132262011952,0.09739560133311898,0.01359478822953847,13055.682333207225
1681938038943227052,53,1681938038943227052,camera_2,54,0,-1.2306574654018116,0.31722714845185035,1.7492987448445403,0.9572125891005447,-0.0034926183018895163,0.28059423898975283,-0.07070172508921199,0.10526090511120856,0.014687671284681788,13055.62657692376
1681938038953166484,54,1681938038953166484,camera_2,55,0,-1.2307172682446805,0.3172403355635826,1.7493804894625034,0.9572751901641711,-0.0036262081749178316,0.2803385329842261,-0.07086161044369696,0.10531274467939511,0.014695884870232245,13058.479727745054
1681938038963091373,55,1681938038963091373,camera_2,56,0,-1.2309353657088271,0.31730190876092024,1.7496975532956889,0.9572833979238724,-0.0035876363525002434,0.28028917795540703,-0.07094787978375101,0.0979502855334431,0.013673822646921387,13054.256720368288
1681938038973240375,56,1681938038973240375,camera_2,57,0,-1.2309082976222718,0.3172917695944599,1.7496473394607677,0.9573371632988326,-0.0035639781066699886,0.2801265130678933,-0.07086600386238046,0.11346414085710421,0.015835585263667788,13058.452669970697
1681938038983151912,57,1681938038983151912,camera_2,58,0,-1.2306350230537988,0.31722751949248107,1.7492685924375397,0.9572421353912902,-0.0035685481328404938,0.28051030543404193,-0.07063092977617401,0.08959910948760808,0.012500486280160475,13057.929076565662
1681938038993146896,58,1681938038993146896,camera_2,59,0,-1.2303797753625436,0.31716976742096525,1.7489156375404624,0.9571567169338822,-0.0034713970044678967,0.2807483333630233,-0.07084731431094879,0.08934156276518479,0.012463931555466939,13057.633256545061
1681938039003274679,59,1681938039003274679,camera_2,60,0,-1.2308972989989178,0.31730300530286526,1.7496406073000486,0.9572708053705156,-0.00356380260950636,0.28035463230879465,-0.07086031780373056,0.10602255869889632,0.014799338386192717,13054.301301161056
1681938039013286590,60,1681938039013286590,camera_2,61,0,-1.2307488913721185,0.31725681189797683,1.749437017092774,0.9572473191035417,-0.0036334534522048274,0.2804620908690115,-0.0707487361758152,0.08624843071447685,0.012036269269891443,13055.791793911487
1681938039023133993,61,1681938039023133993,camera_2,62,0,-1.2306950106208323,0.3172332487363329,1.7493519845177055,0.957232295741611,-0.003648984153645429,0.28044565121268134,-0.0710158687885088,0.09408042632276192,0.013130934588404976,13056.083592951762
1681938039032973051,62,1681938039032973051,camera_2,63,0,-1.2307013244949776,0.31723511078209676,1.7493457965683175,0.9571988830324916,-0.0036050258840360032,0.280593277268133,-0.07088522315443985,0.09804544097278267,0.013684334978895134,13053.82350464142
1681938039042932033,63,1681938039042932033,camera_2,64,0,-1.2308898859637798,0.3172908363904463,1.749650039911405,0.9573027971200729,-0.00347396038104569,0.2802357273337594,-0.07090291496881053,0.10060735332081094,0.0140422806464235,13056.403197330192
1681938039052809238,64,1681938039052809238,camera_2,65,0,-1.2308463467870068,0.3172683040204399,1.7495494007688899,0.9572833681410475,-0.003709091936149372,0.28038560375013905,-0.07055996688782447,0.10290512355277316,0.014359883158975104,13056.345908564981
1681938039062831640,65,1681938039062831640,camera_2,66,0,-1.2308769788878913,0.31729577472575177,1.749609745096003,0.9573251210648145,-0.0036298428417794065,0.2801507518174969,-0.07092949369108528,0.10237221309216693,0.014288102470789047,13058.276724982075
1681938039072844505,66,1681938039072844505,camera_2,67,0,-1.230772315846063,0.3172556121984847,1.7494482912420115,0.9572383724029324,-0.0035457697164479724,0.28046979213865825,-0.07084364201677248,0.10541247460059822,0.014712212860351417,13054.850294626085
1681938039082796335,67,1681938039082796335,camera_2,68,0,-1.2309645154879236,0.3173052182304327,1.7497342733956913,0.9572711124748774,-0.003527202647119759,0.2803744831712643,-0.07077941260736104,0.10342157358536497,0.01443681838482531,13052.935813744547
1681938039092881917,68,1681938039092881917,camera_2,69,0,-1.230714143646666,0.3172455143386097,1.7494005577988903,0.9572195632375945,-0.003517856523302039,0.28051777284737917,-0.07090917823142805,0.10480223858030513,0.014627082312972722,13054.73693649703
1681938039102832555,69,1681938039102832555,camera_2,70,0,-1.230512671072387,0.31720412224996164,1.7490778913941687,0.9571498889758834,-0.0035538352808176135,0.2807373640530594,-0.070978818761592,0.09532984072575346,0.013303700184639475,13054.586221635105
1681938039113280773,70,1681938039113280773,camera_2,71,0,-1.2310524497610584,0.31732685373253855,1.7498403826343516,0.957317535772936,-0.0036266667172965036,0.28020402948478634,-0.07082149991806139,0.10420174576574937,0.01454664372167787,13054.19790630648
1681938039123171091,71,1681938039123171091,camera_2,72,0,-1.2304342357292755,0.31716434391776577,1.7489850929668547,0.9571654548455525,-0.0035392562051758383,0.2807592386209667,-0.07068249885789209,0.09751644876087084,0.01360390726307264,13057.167407025121
1681938039132922172,72,1681938039132922172,camera_2,73,0,-1.2306206364759946,0.31723036975199376,1.7492605931429166,0.957200070893376,-0.003475229174621669,0.2805777139819216,-0.07093725030320064,0.09545274713309482,0.013320951764529711,13055.409743000753
1681938039142832040,73,1681938039142832040,camera_2,74,0,-1.230817043926987,0.3172812613859052,1.7495484595279591,0.9572044288750438,-0.003589885315451993,0.28059424971318603,-0.07080721074380497,0.09711381897795945,0.013556182759321661,13051.508287084049
1681938039152851104,74,1681938039152851104,camera_2,75,0,-1.2310700421337664,0.3173355832494956,1.7498760074361677,0.9573082993829377,-0.0035228681060396586,0.28024602421542183,-0.0707854168900935,0.10010338027495891,0.013974612124421778,13053.14748503175
1681938039162836551,75,1681938039162836551,camera_2,76,0,-1.2306422530788015,0.3172305163992692,1.7492821980506004,0.9571705892261424,-0.0035383258821281463,0.2806989522748297,-0.07085225163849122,0.09705317730549723,0.013545258268751083,13053.06941507198
1681938039172844648,76,1681938039172844648,camera_2,77,0,-1.230802499248398,0.31725902012176177,1.7495109012152024,0.957262832512869,-0.0035543514197579036,0.28037646511176423,-0.0708821126015278,0.09797592647373676,0.013674417670777695,13055.7673776797
1681938039182778596,77,1681938039182778596,camera_2,78,0,-1.2303967384751986,0.3171631291650985,1.748926583225989,0.9572052490259843,-0.0036182088824250457,0.2805601295545267,-0.07092977869649598,0.09605554008157924,0.01340032589983914,13060.577774280686
1681938039192818403,78,1681938039192818403,camera_2,79,0,-1.2310414317186607,0.3173279183028678,1.749832206145478,0.9573280366897462,-0.0036858197190517564,0.28014090302368433,-0.07092615422980116,0.10316438425797969,0.01440244830096445,13055.068934833867
1681938039202875137,79,1681938039202875137,camera_2,80,0,-1.230943747600421,0.31729440513301255,1.7496895064392528,0.9573496825650873,-0.0035444356338190427,0.2801123384255486,-0.07075379940565184,0.10808064555749297,0.01508323205734489,13058.58078159927
1681938039213010072,80,1681938039213010072,camera_2,81,0,-1.2309547497125717,0.3173301138135431,1.749722693734774,0.9572886191469203,-0.003622065457115462,0.28024932546851433,-0.07103306179554517,0.08999060589121655,0.012563726306298635,13054.131428671766
1681938039223007678,81,1681938039223007678,camera_2,82,0,-1.2308167907227678,0.3172802349757076,1.7495105706070242,0.9572704176273386,-0.0035742998693211285,0.28036821508606186,-0.07081126948078789,0.0994759828899987,0.013883222912783297,13056.003348844595
1681938039232821702,82,1681938039232821702,camera_2,83,0,-1.2308869779083766,0.3172806055455526,1.7496111163424726,0.9572670480792292,-0.0035903621347896097,0.2803399625376248,-0.07096769240874917,0.09400971891591325,0.013123203689676307,13054.366736583183
1681938039242833852,83,1681938039242833852,camera_2,84,0,-1.2312064829378961,0.3173700583252629,1.750085276047826,0.9573400871396508,-0.0034834106659701585,0.28010956720113295,-0.07089748774090725,0.0980066672200337,0.013684813639546734,13052.204222519187
1681938039252835988,84,1681938039252835988,camera_2,85,0,-1.2307282572782976,0.3172502127773312,1.749389742507243,0.9572156271550396,-0.0035331050572569756,0.280547249349702,-0.07084490935243497,0.10777221532771365,0.015041351283225906,13054.326689394193
1681938039262788534,85,1681938039262788534,camera_2,86,0,-1.2306781263246147,0.3172344178925099,1.7493281515882764,0.9572177863754174,-0.003564359804654494,0.2804939432961348,-0.07102501362135409,0.08913793676765636,0.012441110609161702,13055.426523525033
1681938039272798299,86,1681938039272798299,camera_2,87,0,-1.230927602468262,0.31730056506932747,1.7496880967012072,0.9572830678520902,-0.003579039687252788,0.2803045068300558,-0.07089218524891745,0.10202479205327109,0.014241831289893826,13054.461033048343
1681938039283207893,87,1681938039283207893,camera_2,88,0,-1.2310053380381207,0.31731771292271355,1.7498135188732844,0.957288251588945,-0.0035840289482693736,0.28029859082805386,-0.07084531096753008,0.10087801568442956,0.014083008669616894,13053.064920826817
1681938039293067216,88,1681938039293067216,camera_2,89,0,-1.2305598347834803,0.3172184658790958,1.7491868232788854,0.9571953504611886,-0.003490119583353513,0.2806266036240229,-0.07080670490300836,0.09802489291178063,0.013677746427719413,13056.292158596678
1681938039303244590,89,1681938039303244590,camera_2,90,0,-1.2305779060065622,0.31720405746335484,1.749179635161045,0.9571890715965599,-0.0036169705049020873,0.2805723188933607,-0.07109973706902613,0.09928274346748367,0.01385671891452436,13055.758399135433
1681938039313127517,90,1681938039313127517,camera_2,91,0,-1.2309467143914756,0.3173165945415252,1.7497332010926998,0.9572882785763269,-0.003603768964946241,0.28026029458269536,-0.07099529442182054,0.1036207873839885,0.014466151222921286,13054.277049012479
1681938039323251724,91,1681938039323251724,camera_2,92,0,-1.2305981893689264,0.317222489661303,1.749214207894582,0.9571977223657836,-0.0035900409127684963,0.28061582912576055,-0.07081234601439937,0.1022511204937473,0.014268382573541192,13055.857824868057
1681938039332778215,92,1681938039332778215,camera_2,93,0,-1.2306221655648322,0.31723948288101145,1.7492576200986794,0.9572015351760421,-0.0035619417123097406,0.28058056945004156,-0.07090188766850226,0.08483646565582603,0.011839339445947684,13055.421313598283
1681938039342803239,93,1681938039342803239,camera_2,94,0,-1.2307762579765593,0.31727437869353947,1.7494986712841216,0.9572742579654275,-0.0035683518336951992,0.28034463598192844,-0.07085299554776248,0.10640053596580401,0.014849253074090235,13056.9055049764
1681938039352783203,94,1681938039352783203,camera_2,95,0,-1.2305237410759997,0.3172061331527211,1.7491389789208434,0.9571958429693651,-0.003621747800611031,0.28060915132242475,-0.07086258066952061,0.09306444879621267,0.012985667324090905,13057.10110956477
1681938039363147497,95,1681938039363147497,camera_2,96,0,-1.2309220973081356,0.31730777861229326,1.7496851856074218,0.9572948766458476,-0.003567011082292587,0.2802788191363375,-0.07083487222470519,0.09051019471371546,0.0126334903591603,13055.24068416073
1681938039372777938,96,1681938039372777938,camera_2,97,0,-1.2308888573007537,0.3173117354315593,1.7496227226097467,0.9572545646729061,-0.0035151703051713827,0.28040721865667945,-0.07087406941777591,0.09118492534616962,0.012728533769742782,13053.341857178142
1681938039382815122,97,1681938039382815122,camera_2,98,0,-1.2309043963081256,0.31728022953022195,1.7496382215983202,0.9572969350539641,-0.0034874161022423263,0.2802625274174638,-0.07087546677653558,0.10545882472069934,0.014719486830205193,13055.946944783209
1681938039392832994,98,1681938039392832994,camera_2,99,0,-1.2306537706714322,0.31723411686994285,1.749290923501037,0.957142662803144,-0.003540827201007185,0.28075809597925155,-0.07099490916217334,0.10468642140040174,0.01461334706499381,13051.081064057067
1681938039402842521,99,1681938039402842521,camera_2,100,0,-1.2309546304769778,0.31730415547246227,1.7497012423876095,0.9572623845790682,-0.00356283691680816,0.2803824250296427,-0.07086415876589053,0.10932211863109842,0.015261530721952424,13052.679556122057
1681938039412724971,100,1681938039412724971,camera_2,101,0,-1.230834679016998,0.3172664049484538,1.7495503378845103,0.957265299269317,-0.0037013615405835816,0.28036586484152337,-0.07088320371735235,0.10311698314035311,0.014393080178702408,13055.333178676894
1681938039422810316,101,1681938039422810316,camera_2,102,0,-1.2309478702161107,0.31731679807483376,1.7497352694644408,0.957231355258166,-0.0036619044735662705,0.28048862278619124,-0.07085799498819459,0.0987660477985628,0.013789512673730667,13050.48139133281
1681938039433166503,102,1681938039433166503,camera_2,103,0,-1.2308649242043581,0.3172858257015916,1.7495996107336171,0.9572501106956735,-0.0035880261411758148,0.28043728591024103,-0.07081158318261865,0.09337890276219696,0.01303407266098354,13053.591838612458
1681938039442959547,103,1681938039442959547,camera_2,104,0,-1.2307059274931063,0.3172442578691522,1.7493773028772497,0.9572292002860157,-0.003617606539477268,0.2805118915804614,-0.07079724376465582,0.0967419373919256,0.013500815600945047,13055.565128196962
1681938039452827215,104,1681938039452827215,camera_2,105,0,-1.2310464052557786,0.317329089751715,1.7498508115598919,0.957295192171524,-0.003578230696233683,0.2803335112002805,-0.07061326935138873,0.10762350988807157,0.01502303005436486,13052.735312229954
1681938039462789773,105,1681938039462789773,camera_2,106,0,-1.2305654363485972,0.3172105759638161,1.7491697306296092,0.9571858393781362,-0.0036112564595519874,0.2806227540159056,-0.07094432781614743,0.10136013093870133,0.014145046544042457,13055.78878802923
1681938039472772598,106,1681938039472772598,camera_2,107,0,-1.2309500493039691,0.3173033624726379,1.7497292821834323,0.9572888674423464,-0.0036008892291367607,0.2802775248917565,-0.07091943956532785,0.09964499255875126,0.013910237516488866,13054.342986629814
1681938039482870340,107,1681938039482870340,camera_2,108,0,-1.2308237289174981,0.31728558872236334,1.749536209052784,0.9571925157563916,-0.003375743328364164,0.2806590579352669,-0.07072188724729812,0.09955981746315956,0.013896688883273016,13050.613778375558
1681938039492797136,108,1681938039492797136,camera_2,109,0,-1.2305864788102079,0.3172133714565297,1.749191794271443,0.9572594840507461,-0.0035822594661477016,0.28041619597849404,-0.07076866993922827,0.10145407455274835,0.014154015579509816,13060.18300423399
1681938039502737998,109,1681938039502737998,camera_2,110,0,-1.2307465499076589,0.317253513486651,1.7494138401060377,0.9572774317568318,-0.003587601959861655,0.2803588830127688,-0.07075269943298826,0.1053087311447598,0.014694723474768315,13058.0128817386
1681938039512729644,110,1681938039512729644,camera_2,111,0,-1.2308270857699102,0.3172894540646681,1.7495581451817306,0.9573157877928866,-0.0035170471490250845,0.2802193896494742,-0.07078987559187185,0.09364470595028251,0.013067803006265644,13058.561587576287
1681938039522892475,111,1681938039522892475,camera_2,112,0,-1.230842526066534,0.3172874741508191,1.7495727022523488,0.9572840403951371,-0.003485074689397641,0.2803227127462489,-0.07081170085342482,0.10818167228717357,0.01509822703254023,13056.22325136745
1681938039532757997,112,1681938039532757997,camera_2,113,0,-1.2307541718679147,0.31726546880430356,1.7494558738015384,0.9572532197203086,-0.0035981959651611942,0.2804160567015494,-0.07085309777880272,0.10325312265194952,0.014410223206885835,13056.100976885762
1681938039542888879,113,1681938039542888879,camera_2,114,0,-1.230658597590025,0.31722502877270725,1.7492991744957322,0.9572451241292418,-0.003570455208348756,0.28042099144994176,-0.07094428613094658,0.09700556111056358,0.013537082938318337,13057.666064290104
1681938039552810907,114,1681938039552810907,camera_2,115,0,-1.2308305109572253,0.3172832666304716,1.7495530936998167,0.9572413173774605,-0.003756857704594651,0.28049809124867414,-0.07068074088110451,0.09577895060647279,0.013368064734575568,13053.753081682607
1681938039562867879,115,1681938039562867879,camera_2,116,0,-1.2308712816157312,0.3172847718149848,1.7496058029416703,0.9572957750782936,-0.003517446139560295,0.2803228968343133,-0.07065054918628406,0.09813012025551872,0.013694034523886761,13056.442750275835
1681938039572902679,116,1681938039572902679,camera_2,117,0,-1.2307477858244789,0.3172560360660636,1.7494446039845073,0.9572679475654651,-0.003542112439562655,0.28041890279130527,-0.07064537465813378,0.09904172155074775,0.01381970008509119,13057.140891234387
1681938039582873582,117,1681938039582873582,camera_2,118,0,-1.2307134211104138,0.31724644063806445,1.7493845292395112,0.9572333283284616,-0.0036624453623387257,0.2804626812479264,-0.07093395560947961,0.10352636745665222,0.014449078826639365,13055.751708117547
1681938039592785120,118,1681938039592785120,camera_2,119,0,-1.230799891274877,0.3172773998328642,1.7495193362455637,0.9572861251746764,-0.003656971257508304,0.2803033909638114,-0.07085132407700036,0.09322061768034473,0.013010049013684567,13057.22335837083
1681938039602780818,119,1681938039602780818,camera_2,120,0,-1.2310492271405522,0.3173316570221611,1.749866490221887,0.9572371640508894,-0.0035831404851016523,0.28043891402770466,-0.07098019697800495,0.09761808981420472,0.013631946825420198,13048.820605802352
1681938039612815856,120,1681938039612815856,camera_2,121,0,-1.2304849361603698,0.31718608758461,1.7490405875730373,0.9570869169464499,-0.003519612643030005,0.28098532670107595,-0.07084837270870654,0.10503001045435667,0.014657969970195337,13051.020975711988
1681938039622807264,121,1681938039622807264,camera_2,122,0,-1.23067167498465,0.3172462204792295,1.7493471974652663,0.9572455391968915,-0.0035652025024922518,0.2804336213369408,-0.07088900508977557,0.09548149374313653,0.013324461256673427,13057.184493206914
1681938039632844209,122,1681938039632844209,camera_2,123,0,-1.2308906690729902,0.31729551761741026,1.7496370926402096,0.9573128140802727,-0.003601637810354569,0.2802246409892832,-0.0708050477382796,0.09362711996072903,0.013067120388999886,13057.09212549148
1681938039642768144,123,1681938039642768144,camera_2,124,0,-1.2307844548889273,0.31727266164223367,1.749481123943149,0.9572215864618336,-0.003496830744724688,0.2805069124355603,-0.07092586736940223,0.09552997420541942,0.013334452795907822,13053.37342964812
1681938039652777671,124,1681938039652777671,camera_2,125,0,-1.2307977521438482,0.3172814566939135,1.7494934500852437,0.9572851160328788,-0.0035189988453946893,0.28032155603852893,-0.07080005995182446,0.09377408103318885,0.013086294933992135,13057.284460174615
1681938039662768602,125,1681938039662768602,camera_2,126,0,-1.2305478680955377,0.3172119915334437,1.749151254219238,0.9571674868129435,-0.0035705920591969412,0.2807563868630745,-0.07066473162852899,0.10616846091579646,0.014813654753647416,13054.857615883933
1681938039673107862,126,1681938039673107862,camera_2,127,0,-1.2308227225394632,0.31727413434142,1.7495453490323405,0.9572522548867715,-0.0036696981653624224,0.2804000915449326,-0.07092561237775917,0.09361823683138937,0.013067830777732756,13054.58907890506
1681938039682909488,127,1681938039682909488,camera_2,128,0,-1.2308354342340375,0.31727271555309366,1.7495530601135438,0.9572662190143705,-0.0035618098043705038,0.2803964798720471,-0.07075672067170408,0.094134162645787,0.013137710714035158,13055.283172841187
1681938039693102598,128,1681938039693102598,camera_2,129,0,-1.230874609098496,0.3172888417311529,1.7496310717880845,0.9572523872477763,-0.003477561307607584,0.28041708736741844,-0.07086628809355562,0.09982288588071242,0.013934056936451247,13053.397922832984
1681938039703152418,129,1681938039703152418,camera_2,130,0,-1.2306536959155647,0.3172283466882616,1.749276392962056,0.957201115605557,-0.0036480802666280852,0.2806035659837865,-0.07081210737598558,0.1008753317873925,0.0140775801619915,13055.01138655841
1681938039712892055,130,1681938039712892055,camera_2,131,0,-1.2304735469109347,0.3171957635148444,1.7490521733919049,0.9572318064614647,-0.0036380643366130056,0.2804585083349866,-0.07097223604282174,0.10345885396236554,0.014434584050717488,13060.60406783316
1681938039722948551,131,1681938039722948551,camera_2,132,0,-1.2307701580923367,0.3172501967718955,1.7494533162542045,0.9572689822965159,-0.003613116585712738,0.2803709723128381,-0.07081778594311425,0.10387525224359706,0.014496334286554894,13056.925858599832
1681938039732885599,132,1681938039732885599,camera_2,133,0,-1.2307043155437598,0.3172452247632435,1.7493792102649917,0.9572396123936537,-0.0035447614509942268,0.2804404168194882,-0.07094315854833978,0.10030353424372151,0.013998627450162917,13056.243763005827
1681938039742946624,133,1681938039742946624,camera_2,134,0,-1.2308225162884052,0.3172784221302465,1.7495425082021465,0.9572839255023169,-0.003553436395352677,0.2803760796999692,-0.07059825066342224,0.10202418576227501,0.014236467653323676,13056.68761762953
1681938039753089904,134,1681938039753089904,camera_2,135,0,-1.2311131413965604,0.3173375985089426,1.7499468524777206,0.957340057474315,-0.0034998807739960516,0.2801278913612245,-0.07082464028258131,0.10600593627896161,0.014798777327123383,13054.28058429365
1681938039762742042,135,1681938039762742042,camera_2,136,0,-1.230681839446986,0.3172440889907012,1.7492963198309512,0.9572390782061753,-0.003602951025246467,0.28044229214993693,-0.07094002165626362,0.09164930769475177,0.012790201132465642,13056.907619755715
1681938039773142337,136,1681938039773142337,camera_2,137,0,-1.2307144213989194,0.31724628347989026,1.7493787410344876,0.9572656830457165,-0.0035765963190238057,0.2804217320756919,-0.07066308938517733,0.10721618833485991,0.014959831270805154,13057.814512955021
1681938039782894134,137,1681938039782894134,camera_2,138,0,-1.230572102680242,0.3172150736043306,1.7492047909390809,0.9572046092483864,-0.0035357295781640653,0.28059288288436357,-0.07081291354432498,0.10401134088169783,0.014513183669510984,13056.688953658098
1681938039793102025,138,1681938039793102025,camera_2,139,0,-1.2309847232647608,0.317316790247709,1.7497712844980249,0.9572983860359557,-0.00353392494667487,0.2803189924259835,-0.0706298375526032,0.09862712543690577,0.013765695871722288,13054.210295994533
1681938039803317308,139,1681938039803317308,camera_2,140,0,-1.2310039339513752,0.3173211291633451,1.74982023563572,0.9573214823557465,-0.00355500380000171,0.2802296428942777,-0.0706702809639505,0.09818197489948943,0.013703745997208014,13055.182735893171
1681938039813348531,140,1681938039813348531,camera_2,141,0,-1.2307973086249058,0.31726839244749727,1.7495186845135688,0.9572438034671394,-0.0036296465006912674,0.28047875433253144,-0.07073043728209459,0.10245828295592219,0.014299609592795881,13054.554452743385
1681938039823391675,141,1681938039823391675,camera_2,142,0,-1.230602649061056,0.3172221143803623,1.749225259051284,0.9572896003720132,-0.003596912856469072,0.2803418959935444,-0.07065482706962807,0.0966261574649252,0.013478881722856276,13061.67632251768
1681938039833260536,142,1681938039833260536,camera_2,143,0,-1.230918688588207,0.31730431982295354,1.7496542670629776,0.9572727262456314,-0.003634769466977488,0.280339335027735,-0.07089127783716204,0.09771595126949251,0.013640662007133122,13054.009299990725
1681938039843155145,143,1681938039843155145,camera_2,144,0,-1.2306062115502838,0.31722523837751687,1.7492187854102415,0.9572063528041334,-0.0035458752903149014,0.28057902945882585,-0.07084372341836553,0.09831230831332505,0.01371876291521841,13056.221409942722
1681938039853118896,144,1681938039853118896,camera_2,145,0,-1.2309281165740864,0.317310513188613,1.7496645532241963,0.9572631806008038,-0.0035551533238005807,0.28036769366379627,-0.07091206033194054,0.09980984043795615,0.013933431797040938,13053.214127018113
1681938039863126754,145,1681938039863126754,camera_2,146,0,-1.2303040644765708,0.3171254216586996,1.748781727016471,0.9571398574928249,-0.0035432396526199816,0.28078743699178405,-0.07091652754445849,0.10975920711643994,0.015311897548852236,13058.445524893934
1681938039872803688,146,1681938039872803688,camera_2,147,0,-1.2309233061193154,0.3173018308014164,1.7496720663604675,0.9572640611925688,-0.0036171981040769023,0.28040801414845823,-0.07073739200948866,0.1000831148121506,0.013970088628448946,13053.312118052972
1681938039882767677,147,1681938039882767677,camera_2,148,0,-1.2306437905471181,0.3172254297945274,1.7492746391385605,0.9572247419449587,-0.0035815535530883923,0.28050396051835164,-0.07089071882886239,0.09428190701873973,0.013156950348529208,13056.648360692663
1681938039892801046,148,1681938039892801046,camera_2,149,0,-1.2306771064553816,0.3172246188242108,1.7493256222961764,0.9572074555616067,-0.003555199943748317,0.2805412114463245,-0.07097799835768448,0.1038230104604736,0.014490671294966456,13054.834323280491
1681938039902789354,149,1681938039902789354,camera_2,150,0,-1.2308815926460466,0.3172945139437661,1.7496330139412217,0.9572391471656555,-0.0035286460536959542,0.28039473385363844,-0.07113056317606163,0.10108416952425614,0.014113315934789924,13052.496547367193
1681938039912891864,150,1681938039912891864,camera_2,151,0,-1.2310591471548389,0.31734005100049456,1.749861138107191,0.957357475616979,-0.0036577613572211353,0.28009761927886356,-0.0707008368865014,0.09785345243290067,0.013658192422839594,13056.553799881603
1681938039922965526,151,1681938039922965526,camera_2,152,0,-1.2311282089224624,0.31734861413674575,1.7499825700256055,0.9574179957109062,-0.0036232382108147493,0.2798522239980738,-0.07085468479296556,0.10923042823560536,0.015246986262816795,13058.995860978492
1681938039932984113,152,1681938039932984113,camera_2,153,0,-1.2308197413315747,0.3172747483136319,1.7495528941303697,0.9572242921936257,-0.0035839863113652044,0.2805567969156462,-0.07068729150961547,0.09639602829702199,0.013454189346420148,13052.75751451309
1681938039942835092,153,1681938039942835092,camera_2,154,0,-1.2305690629261177,0.31720936758689905,1.7491548015426928,0.9572117121238948,-0.003614960176258503,0.28053930913248415,-0.07092507502452647,0.0992526620393619,0.013849741407443847,13057.50371569185
1681938039952760934,154,1681938039952760934,camera_2,155,0,-1.2307146950473808,0.31724835431384063,1.7493689600598636,0.9572332381511808,-0.0035426489513671277,0.2805140038802519,-0.07073804523792213,0.10063037584768608,0.014042592833008693,13055.749894983364
1681938039962805032,155,1681938039962805032,camera_2,156,0,-1.230944872261568,0.3173210008936193,1.7497331443175652,0.9572410149247199,-0.003496862129389612,0.28044662359434824,-0.07090206355015426,0.09479396912502125,0.013234344725648772,13051.159016286485
1681938039972837924,156,1681938039972837924,camera_2,157,0,-1.2307637253090467,0.3172636691345395,1.7494453647638748,0.9572620557510931,-0.003568044364297806,0.2803648298482551,-0.07093791555130803,0.09977610351052135,0.013925461784610781,13056.523560792215
1681938039982847929,157,1681938039982847929,camera_2,158,0,-1.2305183304927922,0.3172091368647532,1.7491211558637052,0.9571710700249411,-0.003511608007977259,0.2806895933529766,-0.0708841554922421,0.09403214242774993,0.013121229140408731,13055.647529609501
1681938039992886781,158,1681938039992886781,camera_2,159,0,-1.2308176213621063,0.3172777233126332,1.7495244295722014,0.9572584906681599,-0.0035641368063028633,0.28038873412273674,-0.07089172553684706,0.09662794310133904,0.013486949415172231,13055.133161497308
1681938040002889394,159,1681938040002889394,camera_2,160,0,-1.2307812888189167,0.3172706391901783,1.7494850857537485,0.9572519963642224,-0.0034037944818124037,0.2804257611939699,-0.07084082226103049,0.08985117962583901,0.012539725531001928,13055.344157547459
1681938040012819766,160,1681938040012819766,camera_2,161,0,-1.2307658511826802,0.31726327086217937,1.7494627270822871,0.957216178500375,-0.003390607732298484,0.2805458068000013,-0.07085013537940843,0.11291187291499227,0.015759439487193674,13053.389359105378
1681938040023155689,161,1681938040023155689,camera_2,162,0,-1.2304671987770972,0.3171880205185815,1.7490226706045853,0.957219747005495,-0.0035415983821155345,0.28055160063167206,-0.07077155082830161,0.0992031809873879,0.01383876584826847,13060.045341785531
1681938040032816648,162,1681938040032816648,camera_2,163,0,-1.2307599079179143,0.3172643970650343,1.749465211343593,0.9572407642082108,-0.0034920091004312158,0.2804506842332861,-0.0708896249362676,0.09766867995494977,0.0136314875206167,13055.07275069063
1681938040042803049,163,1681938040042803049,camera_2,164,0,-1.2310363036921639,0.3173388457075357,1.7498575587903613,0.9573024218637558,-0.003503961329151932,0.2802306455496415,-0.07092658629613363,0.09685426368378103,0.013521973240079851,13053.268224752745
1681938040052784919,164,1681938040052784919,camera_2,165,0,-1.2307282850127048,0.31724713196079257,1.7494035705451978,0.957220554329538,-0.0036054479987828996,0.2805309871799013,-0.07083908769634313,0.09848682151641697,0.013745483832371747,13054.544294882802
1681938040062850236,165,1681938040062850236,camera_2,166,0,-1.230900895991257,0.31729702313288255,1.749653349650178,0.9572534454293157,-0.003595612546112394,0.28040467210953596,-0.0708952229932751,0.09033321891911328,0.012610328214712602,13053.009219455067
1681938040072775840,166,1681938040072775840,camera_2,167,0,-1.2308260285370847,0.31726408582883603,1.7495395048881857,0.9572190760573606,-0.0034486174150411106,0.2805426245326583,-0.07082078289701173,0.10766242968384176,0.015027781934780587,13052.420190598814
1681938040082937002,167,1681938040082937002,camera_2,168,0,-1.2306112930490773,0.3172353954064208,1.7492418173796236,0.9572433551622134,-0.003684741567081347,0.2804604947885743,-0.07080602050899677,0.09209613600978628,0.012850380980953074,13058.416929069439
1681938040092822074,168,1681938040092822074,camera_2,169,0,-1.2307162189083545,0.31725622420831345,1.7493852846513192,0.9572252841020301,-0.0034935696983657448,0.2804762965376166,-0.07099716562718035,0.0960674787638709,0.01340848985040381,13055.064661177112
1681938040102829217,169,1681938040102829217,camera_2,170,0,-1.2311118086274953,0.31735593979298554,1.7499648239109216,0.9573043736392709,-0.003563887905140871,0.2802405468017499,-0.070858103575942,0.10410988592775539,0.014536206838614247,13051.840011279566
1681938040113241434,170,1681938040113241434,camera_2,171,0,-1.2308285711551743,0.3172637289055923,1.7495257918105929,0.9573000269244335,-0.0035192521028298957,0.2802788437409854,-0.0707675283327887,0.1013770685531199,0.014147000488312838,13057.733847964093
1681938040122979879,171,1681938040122979879,camera_2,172,0,-1.2306734837815236,0.3172510972999944,1.7493399469383717,0.9571759066512375,-0.0034539221729764434,0.2807340477575953,-0.07064523039555212,0.09480225131846964,0.01322957903680643,13052.653923106845
1681938040133052825,172,1681938040133052825,camera_2,173,0,-1.2308526115164975,0.31729267855499377,1.7495736503074146,0.9572817414274293,-0.0035686904452575797,0.28032709892860996,-0.07082125093814541,0.092218883568421,0.012870879490166822,13055.883867808618
1681938040142906188,173,1681938040142906188,camera_2,174,0,-1.2306144017015894,0.31722671763701166,1.7492482138116296,0.9571630428793974,-0.0034972681494818726,0.2806993312834608,-0.07095466072332068,0.0950839298311621,0.01327094759631963,13053.09508136614
1681938040152925014,174,1681938040152925014,camera_2,175,0,-1.230847778245421,0.317286246034676,1.7495784810477208,0.9572590018447062,-0.003570780954477286,0.2804295934170862,-0.0707226699621801,0.101791862398386,0.014206829715944717,13054.528717573265
1681938040162809848,175,1681938040162809848,camera_2,176,0,-1.2309722496279905,0.31731756578395526,1.7497292289686444,0.9572690327363881,-0.003527579667512972,0.2803416692582545,-0.07093732179272652,0.09866696200333536,0.013774864072343865,13052.602278991835
1681938040172801971,176,1681938040172801971,camera_2,177,0,-1.2309499407112676,0.3173211260333087,1.7497356983492558,0.9572816656893851,-0.0036102905836799784,0.28032017763884065,-0.07084755708834715,0.09974307107040659,0.01392381008806128,13053.725574068265
1681938040182811498,177,1681938040182811498,camera_2,178,0,-1.2306081300654863,0.3172126452457737,1.7492389137244286,0.9572061019699061,-0.003567150552741707,0.2805686217949719,-0.07088725028227555,0.09563895990140736,0.013346234391474785,13056.118964773606
1681938040192814826,178,1681938040192814826,camera_2,179,0,-1.2308859624361816,0.317299196890899,1.7496264613942945,0.9572745712237845,-0.0036224295568027783,0.2803135794736785,-0.07096879916610734,0.10030541411833838,0.014002135654882912,13054.744975559184
1681938040202749013,179,1681938040202749013,camera_2,180,0,-1.2309777173158363,0.3173169739640378,1.7497573556306594,0.957248462373402,-0.0034351943461249142,0.28041470020052295,-0.07093078763846342,0.09135990223148838,0.012755239549349916,13051.042552332161
1681938040212821006,180,1681938040212821006,camera_2,181,0,-1.230950468064716,0.317305988410695,1.7497228715040827,0.9572870066252775,-0.0035502564188093833,0.280331688820026,-0.07073278496630012,0.09748717519687489,0.01360730118058515,13054.15067733964
1681938040222768783,181,1681938040222768783,camera_2,182,0,-1.2308470468100035,0.3172907915924809,1.7495566831378901,0.957256381454941,-0.0035375191978627672,0.2804519268859461,-0.07067123055159814,0.09837163239717484,0.0137289306176712,13054.397453873415
1681938040232757091,182,1681938040232757091,camera_2,183,0,-1.231032855118758,0.3173386121424839,1.7498406042194794,0.9572662189229715,-0.0034389555308157547,0.2804147231824863,-0.07069047118434288,0.0927670611999929,0.012950267284006277,13050.97071274533
1681938040242798566,183,1681938040242798566,camera_2,184,0,-1.2306982368662551,0.31724753799033084,1.7493563687056064,0.9571903630811681,-0.00351923902075031,0.28061770030350697,-0.0709078984149679,0.09604971815133467,0.013406070656877775,13053.227118695857
1681938040252829551,184,1681938040252829551,camera_2,185,0,-1.2309131229673402,0.3172924028782008,1.749672418645596,0.9572759234112105,-0.0035921134501633784,0.28032663391270174,-0.07090050421082678,0.10769579198677093,0.015033596707151799,13054.290903615536
1681938040262823820,185,1681938040262823820,camera_2,186,0,-1.2306869248919186,0.3172514222922672,1.7493613374953605,0.9571784719789437,-0.00358332871577866,0.280730691532174,-0.07061735882371045,0.10012552078114823,0.01397283316867909,13052.575452311665
1681938040272766351,186,1681938040272766351,camera_2,187,0,-1.2305764828164676,0.3172109226721656,1.7492066003976736,0.9571769750945776,-0.0035343331512349297,0.2807073070353634,-0.07073298109739838,0.08843000355409458,0.012339260792766149,13054.776605899217
1681938040282891273,187,1681938040282891273,camera_2,188,0,-1.2304916956250394,0.31719193156324843,1.7490649590389604,0.9571818548307949,-0.003574694986679703,0.2806480521599138,-0.0708998530130889,0.10413512500235811,0.014530181548331942,13057.089582241835
1681938040293209075,188,1681938040293209075,camera_2,189,0,-1.231196211628155,0.3173886753026143,1.7500655267450385,0.9572762852073999,-0.003426561718891973,0.2803323065987148,-0.07088138212077619,0.0960364360944368,0.013411465885944532,13048.252553787781
1681938040303109407,189,1681938040303109407,camera_2,190,0,-1.2309222166404101,0.3173107059417289,1.7496871256098667,0.9572550429016573,-0.003492340342284349,0.28039145920019076,-0.07093106516800521,0.10783138737315312,0.015053748321404367,13052.612608531024
1681938040313117980,190,1681938040313117980,camera_2,191,0,-1.230916670615727,0.3173021708131397,1.7496825942335088,0.9572695571716067,-0.0035411514806313496,0.2803419584878735,-0.07092842497793578,0.10052956896834075,0.014033783120915654,13053.667153285121
1681938040322779178,191,1681938040322779178,camera_2,192,0,-1.230850637824977,0.3172681334076603,1.7495734912536909,0.9573077287195466,-0.003545098489381225,0.2802781460213667,-0.07066474137325504,0.1035139852319844,0.014444560997780645,13057.74105075631
1681938040332823038,192,1681938040332823038,camera_2,193,0,-1.2307044449241682,0.3172608402176042,1.7493783041958177,0.9572506818363352,-0.0035928867678019834,0.2804190302607513,-0.07087588275404269,0.10054508363828063,0.014031477717438186,13056.96348989522
1681938040342794179,193,1681938040342794179,camera_2,194,0,-1.2306153181766513,0.31723135556925935,1.7492212575499866,0.957197221998601,-0.0036046060539210423,0.28056625125899715,-0.07101453138499383,0.09995203476864845,0.013949900213534617,13055.476843215523
1681938040352822780,194,1681938040352822780,camera_2,195,0,-1.230591392229764,0.31721492723492895,1.749206405393751,0.9571933773189446,-0.003497689782166228,0.2806313710014833,-0.07081411012480675,0.09893614007160068,0.013805561294912057,13055.653962653598
1681938040362761497,195,1681938040362761497,camera_2,196,0,-1.2307620798069698,0.317261159771118,1.7494380092312118,0.9571948630220772,-0.003496646014927226,0.2806621196672327,-0.07067207549442044,0.09922406985424459,0.013848088447785125,13052.21778684366
1681938040372815847,196,1681938040372815847,camera_2,197,0,-1.2307050318511659,0.31725346700011675,1.7493635776164855,0.9572505214641743,-0.003412065581474189,0.2804857632509472,-0.07062247219240966,0.09731328079942614,0.013577477919820918,13056.976420629766
1681938040382998228,197,1681938040382998228,camera_2,198,0,-1.230639653710404,0.3172197473878179,1.7492819209705406,0.957201676174491,-0.003510860474694224,0.28058965047928747,-0.07086658614173026,0.09906735271215439,0.013825122275862092,13055.198764622444
1681938040393082618,198,1681938040393082618,camera_2,199,0,-1.2306159680765407,0.3172315463887221,1.7492444738597968,0.957232815771393,-0.0036042340517169922,0.2804427669284066,-0.07102253434516909,0.09643371275160462,0.013457713609754993,13057.705021965787
1681938040403121709,199,1681938040403121709,camera_2,200,0,-1.2306633936956954,0.31723162812278977,1.7493218535513806,0.9571985582418655,-0.003583329554829047,0.280628510394182,-0.07075110601918592,0.10526910237967968,0.014690500442199437,13054.477816896047
1681938040413089990,200,1681938040413089990,camera_2,201,0,-1.2308065131228578,0.3172786533868529,1.7495127008438929,0.9572951134381393,-0.0035904278941751204,0.2803002317008896,-0.07074570462879358,0.0983573377598077,0.013725453548550409,13057.781036127122
1681938040423065662,201,1681938040423065662,camera_2,202,0,-1.23064835909299,0.3172371871568454,1.7492962369191922,0.9572102992279954,-0.00341143810406769,0.28059947802959223,-0.07071589687923083,0.10046322655398399,0.014018106452188891,13055.535261225888
1681938040433032512,202,1681938040433032512,camera_2,203,0,-1.2310025007007064,0.317317787927716,1.7498011726493874,0.9572684472901645,-0.00351287439241942,0.2803226832496995,-0.07102093206843556,0.09593041404150426,0.013394217521385683,13051.85732984054
1681938040443280458,203,1681938040443280458,camera_2,204,0,-1.230790701040171,0.3172632375452042,1.7494815735967781,0.9573329462746665,-0.0034731927685938066,0.2800839260697368,-0.07109543773281787,0.09516288159647956,0.013280638684718647,13060.611511544324
1681938040453115701,204,1681938040453115701,camera_2,205,0,-1.2308988400241545,0.3173129449350264,1.7496557287491539,0.957297362775384,-0.0036809632822809393,0.2802802799224386,-0.07078964909652301,0.0960294718388468,0.013403365055430601,13055.868986194484
1681938040463092803,205,1681938040463092803,camera_2,206,0,-1.23060576196528,0.3172150128261366,1.7492217738076623,0.9572130994728607,-0.003664547858479992,0.2805001738942772,-0.07105846699607639,0.10384963295655325,0.014493689081010988,13056.712279586116
1681938040472853660,206,1681938040472853660,camera_2,207,0,-1.2307955327943263,0.31727773170618945,1.7495139797275037,0.9572258805696083,-0.003630515891871607,0.28049664862804313,-0.07090178439597411,0.10058437270345166,0.014040419552288465,13053.365816850217
1681938040482813835,207,1681938040482813835,camera_2,208,0,-1.2304083280957407,0.31717774925389336,1.7489467170069393,0.9571793587278672,-0.0035424107975408153,0.2806552236697799,-0.07090678372283182,0.0968902216409333,0.013517569802892707,13058.603621160844
1681938040492770671,208,1681938040492770671,camera_2,209,0,-1.230748928117253,0.3172587442240133,1.7494353082045961,0.9572541128133017,-0.0035656002333099247,0.280409596854933,-0.07086824386598423,0.09768284537130967,0.013632653745465264,13056.277482318459
1681938040502882242,209,1681938040502882242,camera_2,210,0,-1.2307479122509677,0.3172637943507389,1.7494302667289963,0.9572792567294676,-0.0035982994994276695,0.2803366967994571,-0.07081534652714792,0.10273969429545105,0.014336955100530542,13058.009060183078
1681938040512951612,210,1681938040512951612,camera_2,211,0,-1.2307826512350355,0.31726902572206367,1.7494757804248486,0.9572787834648304,-0.003645196825192294,0.2802841523939529,-0.07102701728922042,0.10040432313689962,0.014014035644016059,13057.226762420032
1681938040522902250,211,1681938040522902250,camera_2,212,0,-1.2308378603175445,0.3172915251589999,1.7495624437113426,0.9572691841480212,-0.003545907634199435,0.2804239930117892,-0.07060821314093615,0.09581366187194361,0.01337081830859829,13055.34057274042
1681938040532797336,212,1681938040532797336,camera_2,213,0,-1.2307352755383756,0.31725156142332955,1.7494269127907187,0.9573000027595343,-0.0035706684771085293,0.28027401792898043,-0.07078439034962247,0.10244024480925873,0.014293786860493771,13059.542939119741
1681938040542794942,213,1681938040542794942,camera_2,214,0,-1.2310854486893414,0.3173445352506572,1.749902403431536,0.9573032614997173,-0.0035435384597988333,0.28026579469906365,-0.07077424092768454,0.1041102415183559,0.01453458220475843,13052.470773716228
1681938040552809000,214,1681938040552809000,camera_2,215,0,-1.2305676554592797,0.3172258853952347,1.7491777278635672,0.9571873573485177,-0.003533529030665457,0.2806851860177511,-0.07068029042760741,0.0974953721743077,0.013603216913859932,13055.690836961377
1681938040562741279,215,1681938040562741279,camera_2,216,0,-1.2307399793627103,0.31726156923913107,1.7494194646923347,0.9572245151833692,-0.003505176557143936,0.280461440432807,-0.07106561545235701,0.09961789037333801,0.01390531163069281,13054.51428050269
1681938040572808027,216,1681938040572808027,camera_2,217,0,-1.2308137618166288,0.31728283236188604,1.7495280060081424,0.9572941783228264,-0.0036179211216804228,0.2802977234464878,-0.07076689216503981,0.10157244425499812,0.014174741846776208,13057.505682342915
1681938040582749128,217,1681938040582749128,camera_2,218,0,-1.2309499541060318,0.31730624790307105,1.7497259606783395,0.9573179895948776,-0.003532351540251966,0.2802028730374913,-0.07082470778021958,0.09421649348223582,0.013150375187449933,13056.187316166235
1681938040592798471,218,1681938040592798471,camera_2,219,0,-1.230947807313603,0.3173147957229893,1.7497278752773466,0.9572948636998486,-0.003678764070576821,0.28025438226548444,-0.07092596033747539,0.10486617014976218,0.01463928306525509,13054.754638696326
1681938040603000402,219,1681938040603000402,camera_2,220,0,-1.2308927989697915,0.317301436669448,1.7496538241155937,0.9572776406649042,-0.0035778218084004903,0.28034557294059087,-0.07080309037572957,0.09609127312432975,0.013412333203700786,13054.701690224003
1681938040612770557,220,1681938040612770557,camera_2,221,0,-1.2309223312084931,0.3173053052306548,1.7496643095839266,0.957227268788369,-0.0035582151141093665,0.2804808873781227,-0.07094904374790575,0.09744867362314835,0.013605447949331434,13050.903439743914
1681938040622827291,221,1681938040622827291,camera_2,222,0,-1.2305808625887336,0.3172127783238007,1.7491928744325083,0.9571677757274883,-0.0035365160021828537,0.2807158326889589,-0.07082346674092857,0.10628716001519933,0.014832371509794082,13054.229666854255
1681938040632814168,222,1681938040632814168,camera_2,223,0,-1.231051420761564,0.3173494123810843,1.7498751030541477,0.9573224840989883,-0.00358949023310301,0.2801475715637013,-0.07097968121490551,0.09508373035350814,0.01327521214087309,13054.216944486832
1681938040642746686,223,1681938040642746686,camera_2,224,0,-1.2309215070835895,0.3172936238114387,1.749670947781922,0.9572677148445605,-0.0034650200284390242,0.2803615302073942,-0.0708796736183521,0.09577684319810942,0.013369544122643249,13053.58321921714
1681938040652757167,224,1681938040652757167,camera_2,225,0,-1.2308180633327208,0.3172883185656629,1.7495422552256537,0.9572732073037185,-0.0036768263620921312,0.28030919777875235,-0.07100169833875421,0.10874639952089638,0.015179511808432163,13056.065101149496
1681938040662784099,225,1681938040662784099,camera_2,226,0,-1.2307809804997818,0.31725729882961146,1.7494975564896034,0.9572268626558982,-0.0035281830340895613,0.280528987720418,-0.0707656158242243,0.09676315804244949,0.013505033355133207,13053.727837987943
1681938040672779321,226,1681938040672779321,camera_2,227,0,-1.2308308204426102,0.31728031250400335,1.749538327397688,0.9572528605313596,-0.0034830056857922897,0.28048502258618074,-0.07059023856562485,0.1020673835882917,0.014243476371934603,13054.544829075452
1681938040682744979,227,1681938040682744979,camera_2,228,0,-1.2307603770064728,0.31726643500528906,1.7494453364446307,0.9572663866426222,-0.003700049442111476,0.28033197208996674,-0.07100253560580813,0.10447081789607182,0.01458151052012718,13056.937032817861
1681938040692855834,228,1681938040692855834,camera_2,229,0,-1.2307115073723054,0.3172296239587022,1.7493846470366747,0.9572419029868684,-0.003552347217075255,0.2804353389458609,-0.0709319439015182,0.10110731050372124,0.014110696315679527,13056.307312555846
1681938040702756404,229,1681938040702756404,camera_2,230,0,-1.2309049779849126,0.31731471925333915,1.7496576005001072,0.9572545531087105,-0.0034801313464450302,0.28043408598003167,-0.07076957438757621,0.08514096110593528,0.011884325195641142,13052.870778823506
1681938040712813854,230,1681938040712813854,camera_2,231,0,-1.2305862125130207,0.3172239408196411,1.7492220080082195,0.9571602825756255,-0.0035917311796654135,0.2806667674586121,-0.07111581097910234,0.09726059535751119,0.013576116168425379,13053.456674228419
