%time,field.header.seq,field.header.stamp,field.header.frame_id,field.image_seq,field.transforms0.fiducial_id,field.transforms0.transform.translation.x,field.transforms0.transform.translation.y,field.transforms0.transform.translation.z,field.transforms0.transform.rotation.x,field.transforms0.transform.rotation.y,field.transforms0.transform.rotation.z,field.transforms0.transform.rotation.w,field.transforms0.image_error,field.transforms0.object_error,field.transforms0.fiducial_area
1684316109784710645,11,1684316109784710645,camera_1,22,0,0.9176553659346699,0.7751130558629592,6.671835053309275,0.9944629938149302,-0.06354667466196184,-0.05056061702372,-0.06669931092772635,0.037866079903324135,0.024372082466641905,5502.001689899247
1684316109798222064,12,1684316109798222064,camera_1,24,0,0.9174220040448775,0.7766725316695099,6.6686886778658625,0.9942886854503504,-0.0634195579150187,-0.05120226870113064,-0.0688933765984437,0.03487061146006454,0.02242182881982468,5503.763017388175
1684316109811424016,13,1684316109811424016,camera_1,26,0,0.9173881963428765,0.7775755388856349,6.668278774736917,0.9943462411237473,-0.06376565846363501,-0.0536282336785765,-0.06582937122812128,0.038413482208852656,0.024699615425943372,5505.11927246733
1684316109824865818,14,1684316109824865818,camera_1,28,0,0.9181614639282416,0.7793817607212723,6.673046583250526,0.9943995114976243,-0.06432251022269653,-0.05065542811303103,-0.06683003676957519,0.04418139056360815,0.028445940096157456,5500.388904299938
1684316109837570667,15,1684316109837570667,camera_1,30,0,0.9183424649463876,0.7802755004035886,6.673734659141706,0.9942539275409692,-0.0641227537412247,-0.04421668365847139,-0.07343217896975654,0.03068185833399184,0.019756003506704766,5498.9025062358705
1684316109851222038,16,1684316109851222038,camera_1,32,0,0.9179647793720997,0.7801263246404706,6.670724230584208,0.9943039402841881,-0.06397219853271563,-0.05039170598711289,-0.06875978561584441,0.0302348533004988,0.019451389012891552,5502.222507707252
1684316109864992856,17,1684316109864992856,camera_1,34,0,0.9188329799448911,0.7808422367712906,6.677003489764223,0.9944083189342283,-0.06490626540078566,-0.0456867653514529,-0.06965623746547174,0.044425675019738264,0.028632679294007184,5496.902780554144
1684316109878087282,18,1684316109878087282,camera_1,36,0,0.9171068038739281,0.7790369178071361,6.66455175648211,0.9940855800129895,-0.06392535464657696,-0.05710945751013207,-0.06667772121515535,0.028030336441588588,0.018005011868219446,5505.291883506754
1684316109891638517,19,1684316109891638517,camera_1,38,0,0.9188116092897075,0.7797675555459427,6.677716174096787,0.9945803322520455,-0.06410853778142121,-0.05031048673115652,-0.06456712016044185,0.037766205219668336,0.02435053678237726,5495.949763162176
1684316109898216009,20,1684316109898216009,camera_1,39,0,0.9186463186440762,0.7792563500994357,6.676390590408645,0.994348167781099,-0.06437190299886332,-0.04719151528748302,-0.07000671553178067,0.03337924544757698,0.021510978663555846,5495.259867569781
1684316109911413669,21,1684316109911413669,camera_1,41,0,0.9185333986918186,0.7783169110436751,6.676063232636556,0.9943687186278034,-0.06407026306928269,-0.05142767259830685,-0.06694062515285314,0.049708548656781204,0.0320347021302917,5493.92907671642
1684316109918224573,22,1684316109918224573,camera_1,42,0,0.9174396330216306,0.7763885416511477,6.6686094385780015,0.9940894604292091,-0.06398801883995706,-0.05369882206197659,-0.0693405697817481,0.04254960409889463,0.02736007395085869,5499.695063849913
1684316109931318044,23,1684316109931318044,camera_1,44,0,0.9179120217093609,0.7756176583413843,6.672874759757274,0.9943971857750383,-0.0637140208990814,-0.054164189954140796,-0.0646606602979527,0.039823693470680155,0.025644399949201407,5497.723058999632
1684316109938107728,24,1684316109938107728,camera_1,45,0,0.9183994816086514,0.7747438301319124,6.676874948431092,0.9945672547999918,-0.06381791841781813,-0.048069407544001096,-0.06672766313002294,0.03224381282052491,0.020784565831028785,5496.782143125894
1684316109944844484,25,1684316109944844484,camera_1,46,0,0.918425698387648,0.7740767055509274,6.677336168000253,0.9945244219264285,-0.06350590257428596,-0.05068234075241438,-0.06572271194940806,0.0412904002587311,0.026621896605628546,5493.60254414042
1684316109958025455,26,1684316109958025455,camera_1,48,0,0.9185697759067214,0.7718303369296735,6.679529065839128,0.9946849590836635,-0.0637601785358311,-0.04537294997927264,-0.06691612074820376,0.05003434130048845,0.0322783787715193,5495.029062489806
1684316109978171110,27,1684316109978171110,camera_1,50,0,0.9181393795419013,0.7677901751351737,6.6784045480492695,0.9943781734881882,-0.06294575068549578,-0.046246403299656,-0.07149231247329738,0.05937087908387184,0.03829182900363802,5489.045138426825
1684316109984689474,28,1684316109984689474,camera_1,51,0,0.9173362090654313,0.7661609847308943,6.673299899274807,0.9945295393687468,-0.06301131710063378,-0.04925807255816521,-0.06718788230095127,0.06657485746836755,0.04287455710541714,5498.9285575796375
1684316109991347312,29,1684316109991347312,camera_1,52,0,0.9173471872018004,0.765091104745603,6.6738048288069685,0.9942975553838062,-0.0629006188558906,-0.04313499811378038,-0.07453358600696036,0.03481469316466246,0.022423936734433065,5495.8848146829405
1684316109998184919,30,1684316109998184919,camera_1,53,0,0.9167466801510138,0.7624656943940639,6.670548690473007,0.9942480642419869,-0.06255166989772236,-0.04717325805258608,-0.07302574250750639,0.05173626386385877,0.033291497390527044,5497.833204477791
1684316110004759073,31,1684316110004759073,camera_1,54,0,0.9168634885297753,0.7614889906358067,6.671956765821197,0.9939147965243926,-0.0634078824513124,-0.035496218043603395,-0.08278185910884726,0.0467443505913252,0.030103492224639487,5494.457494439441
1684316110017907142,32,1684316110017907142,camera_1,56,0,0.916850528256204,0.7579616124084925,6.674127033711275,0.9941908549475897,-0.06363226102823197,-0.04538821957797569,-0.07399587028042222,0.08794380413019098,0.056656019873422815,5491.933044957697
1684316110024657249,33,1684316110024657249,camera_1,57,0,0.9169190435486825,0.7567556060207913,6.6754628617826,0.9943591354557316,-0.06307479695144082,-0.04804432694485287,-0.07045014104798177,0.06435855661402456,0.0414796298378207,5490.84241052327
1684316110031363487,34,1684316110031363487,camera_1,58,0,0.9166145726887109,0.7552527792872061,6.673660143170598,0.9940995223158504,-0.06326483499615203,-0.04689448577901191,-0.07459629741367721,0.08141200215322897,0.052444769781640914,5489.373012774857
1684316110038222074,35,1684316110038222074,camera_1,59,0,0.9173262598273701,0.7532096507965526,6.679982489610838,0.9946391450506417,-0.06347833675349941,-0.04274100357568071,-0.06954623289065853,0.09446506082895212,0.060970049616056746,5490.311414922822
1684316110044690608,36,1684316110044690608,camera_1,60,0,0.9172382437196979,0.7519919946162461,6.68041097763198,0.9946218420506505,-0.06260554788176337,-0.04912859875921434,-0.06628964831820462,0.06037850696884561,0.03897992453561157,5485.313079540618
1684316110058143138,37,1684316110058143138,camera_1,62,0,0.9163908226423542,0.7473128391483645,6.676658899560139,0.9945186682728403,-0.06313392395211244,-0.05155918544098002,-0.0654856969107606,0.06306241848506033,0.040674658978477995,5488.1463171348405
1684316110071344852,38,1684316110071344852,camera_1,64,0,0.9164852505552304,0.7446559926853757,6.679266614908267,0.99446206436683,-0.06357883343285853,-0.04725663457690129,-0.06906334022507873,0.052616165616200306,0.033957629577465044,5484.643899480634
1684316110084692716,39,1684316110084692716,camera_1,66,0,0.9152736270628016,0.7394207142357809,6.672414043128046,0.993964747130268,-0.06297975813062101,-0.04996750485306853,-0.07463832786732155,0.041964836258557625,0.027031570605742468,5483.838899587748
1684316110098135948,40,1684316110098135948,camera_1,68,0,0.9151149140430253,0.7348998542009345,6.673963042967196,0.9942360181985562,-0.06336482294181651,-0.04836153727504358,-0.07169937965301366,0.05206174065824598,0.033553760623158346,5486.270150562284
1684316110111268520,41,1684316110111268520,camera_1,70,0,0.9147144479110774,0.7317617525553108,6.672144709890354,0.9939199895484425,-0.06288667081140549,-0.04898949987688013,-0.07594965379838776,0.06753801928425673,0.04350579855945038,5481.901122412646
1684316110124729633,42,1684316110124729633,camera_1,72,0,0.9150022789417757,0.7276406606528298,6.676938925958276,0.9943716292920184,-0.06314278716492162,-0.04786027799880347,-0.07033807701422985,0.06413803086616099,0.04138171046294451,5481.806313146022
1684316110138158798,43,1684316110138158798,camera_1,74,0,0.9139611402695051,0.722478396898707,6.673035389460836,0.9944014424504116,-0.06552523518813692,0.06668095048095236,0.04925307755904017,0.05509883555714623,0.03551184751670995,5482.280035150589
1684316110151361942,44,1684316110151361942,camera_1,76,0,0.9181932788924947,0.7230205951234125,6.704370474255122,0.9947492650703599,-0.06267427849859986,-0.02671225064096422,-0.07636943185825987,0.09831859582118341,0.06366261716884813,5481.549068390215
1684316110164433240,45,1684316110164433240,camera_1,78,0,0.9137093483157189,0.7153170135025461,6.6742317546700765,0.994031190493399,-0.06263146465907751,-0.04278584309002231,-0.07841341461772242,0.049267484097072156,0.03176675726153273,5478.666497321741
1684316110178226947,46,1684316110178226947,camera_1,80,0,0.9132234687130545,0.7108904893911536,6.673875126043911,0.9945696509039649,-0.06545683677359697,0.06660542998875753,0.0459383142526246,0.03792445361614227,0.02445521477655013,5480.129782218717
1684316110190924882,47,1684316110190924882,camera_1,82,0,0.9135817159243127,0.7085045547799739,6.6765569632644555,0.9940745016912395,-0.062205568692253285,-0.04799425871392322,-0.07511926145462444,0.06907217350817518,0.044576211565361706,5470.881169507427
1684316110197452545,48,1684316110197452545,camera_1,83,0,0.9129016478253824,0.70549053366179,6.6738910668885945,0.9940651941785735,-0.0658213541191327,0.07014174256723503,0.050814122193249295,0.05907401431613834,0.03809759636456696,5466.137915450323
1684316110204717159,49,1684316110204717159,camera_1,84,0,0.9129926990453368,0.7043039075844779,6.675256098878397,0.9943297058439906,-0.0665049842243976,0.06739283707750932,0.048412071430172364,0.05670056045346428,0.036581985457650595,5470.220069222184
1684316110211585521,50,1684316110211585521,camera_1,85,0,0.9127715208226125,0.7029940438682583,6.6744968354182745,0.9941480314004184,-0.06567177485865533,0.07071931036371522,0.04853543850906849,0.07383071817821474,0.0476258410976138,5466.464307217303
1684316110218414545,51,1684316110218414545,camera_1,86,0,0.9120639346223897,0.7001375710921068,6.670566180800056,0.9940785357357427,-0.06620274620587807,0.07166827610469836,0.04784056212527721,0.05721869276749203,0.036869615378140895,5471.429280115406
1684316110224885225,52,1684316110224885225,camera_1,87,0,0.9127768928099755,0.6995130232142438,6.675334729802624,0.993860405342308,-0.06250298649643778,-0.04879958141630657,-0.07715874691467399,0.07362507403013296,0.047504818432059254,5466.638611803617
1684316110231400489,53,1684316110231400489,camera_1,88,0,0.911681072239757,0.697517384370012,6.668967963608585,0.9942318866938138,-0.06614623477343513,0.06935356010970038,0.048142650598687796,0.06319075865394552,0.040698150606955384,5475.505142744891
1684316110244811773,54,1684316110244811773,camera_1,90,0,0.9120439606149231,0.6948534860771891,6.673515201569142,0.9946203859478149,-0.06613371723923561,0.05828551157558452,0.05440053714360862,0.04209491240180796,0.027153568321656586,5470.161450222891
1684316110251584053,55,1684316110251584053,camera_1,91,0,0.91145678780686,0.6933708142401056,6.66869241049279,0.9934551829041922,-0.06265270043429165,-0.0463782683789987,-0.08348948982509435,0.06507554231575341,0.041907496778410845,5470.529788424902
1684316110258131027,56,1684316110258131027,camera_1,92,0,0.911135806804043,0.6913367733782727,6.668233885939914,0.9943249284511837,-0.06560072989805173,0.06317882317646156,0.05498106218898278,0.05383911739409086,0.0346736387587167,5471.063277865907
1684316110264759302,57,1684316110264759302,camera_1,93,0,0.9110727739949066,0.6903290956580379,6.668409907371974,0.9945295371703642,-0.0662783360801876,0.059563730437081436,0.05450086126440338,0.05976654570986283,0.038496783725492235,5475.026374481243
1684316110271338939,58,1684316110271338939,camera_1,94,0,0.9112674836717665,0.6897126844520403,6.670138877972938,0.9944428364845039,-0.06570201660683272,0.06440217979868958,0.05117664717063022,0.052657471260317834,0.03393231615533943,5471.453556915105
1684316110277842998,59,1684316110277842998,camera_1,95,0,0.9118485401666081,0.6885116005792825,6.675321075348218,0.9948703248384192,-0.06615560084668543,0.057585238252518635,0.05040251549192021,0.06847161828773098,0.044197912741330656,5470.769026207912
1684316110284785747,60,1684316110284785747,camera_1,96,0,0.9115089937621069,0.6875877363899507,6.673012088296307,0.9945363753377193,-0.06568478837811105,0.06023362850632691,0.054358225714199175,0.052090018027229235,0.03360162477205847,5465.391320427472
1684316110291457653,61,1684316110291457653,camera_1,97,0,0.9107605726962734,0.6862903188679831,6.66796734393665,0.9941884984054921,-0.0666755646090027,0.0650621949688589,0.053949138159362135,0.058000868288218044,0.037355222904845914,5468.352801994477
1684316110298131704,62,1684316110298131704,camera_1,98,0,0.9109874096546551,0.6853101810950596,6.670108852264364,0.9943476337041476,-0.06569648761657651,0.06448808920739973,0.05289651417802582,0.09079958984511904,0.05851398673589742,5466.6283968804655
1684316110304846048,63,1684316110304846048,camera_1,99,0,0.9114153191175296,0.6850373026923298,6.673890988716098,0.9944014924177319,-0.0655316168041282,0.06653580225451697,0.049439519564536814,0.05356894920987543,0.03456206776620899,5462.848619731898
1684316110311436891,64,1684316110311436891,camera_1,100,0,0.9113485877450923,0.6846865323691618,6.673928730963209,0.994805617562458,-0.0654952109985922,0.05913175815545762,0.05075032787944325,0.05510828445039806,0.03555641876063016,5469.199602734327
1684316110318136692,65,1684316110318136692,camera_1,101,0,0.9116199965902417,0.6839155571004178,6.676058199670172,0.9944756964490944,-0.06567740914365021,0.0633273413170549,0.05190582763023579,0.08632535647484474,0.055732409596642836,5459.33395825411
1684316110324876070,66,1684316110324876070,camera_1,102,0,0.9119001173768839,0.683743129895004,6.678576655093693,0.9946515370929006,-0.0657581710372495,0.06217015515698668,0.04979010452210719,0.06397469189323601,0.041335723734099966,5458.954717780287
1684316110337957859,67,1684316110337957859,camera_1,104,0,0.9115904133108841,0.6827226581154539,6.676645773204967,0.9944248231374978,-0.0659183996918024,0.06485392631286797,0.050675476828866674,0.06488353273380199,0.04189804960039793,5457.281041375712
1684316110344856977,68,1684316110344856977,camera_1,105,0,0.9109962551139998,0.682135861321228,6.672403571378364,0.9945207526447477,-0.06549944641650557,0.06325414802932192,0.05135375190909439,0.06747944998278399,0.04351905153616225,5465.030609789597
1684316110351401805,69,1684316110351401805,camera_1,106,0,0.9113742775963256,0.6822675167547696,6.67553373315627,0.9945786999433559,-0.06533630845414132,0.06412298126396909,0.04932159456455231,0.06693117905888357,0.043207037286933786,5461.830522767415
1684316110364657402,70,1684316110364657402,camera_1,108,0,0.911124370431503,0.681889068138125,6.673415937475498,0.9945982647458653,-0.06557600980330763,0.06364651216492966,0.049226011335771785,0.08426607647925266,0.05436020644392793,5465.910262345802
1684316110378100633,71,1684316110378100633,camera_1,110,0,0.9101689408308546,0.6815127561484094,6.666471968497166,0.9940468299246146,-0.06501771573472655,0.06795227833444907,0.05500985754044626,0.045684330551011954,0.029411539788528323,5463.390641779988
1684316110391366958,72,1684316110391366958,camera_1,112,0,0.911957008189518,0.6832369446324911,6.679213966050768,0.9947510794000572,-0.06552078673351512,0.05652622721708456,0.05460862729317463,0.07645756687998073,0.049420408690503966,5456.305332505259
1684316110398051738,73,1684316110398051738,camera_1,113,0,0.9164276627813981,0.687107129447876,6.71122781525956,0.9957037801106852,-0.06539280168181165,0.034138283118498314,0.055967324281381334,0.18447857283535996,0.11966069669976742,5469.186944470828
1684316110404760122,74,1684316110404760122,camera_1,114,0,0.9112898353414369,0.6836676538886989,6.6738857653486185,0.9943811828576876,-0.06550708407761495,0.0651728909742558,0.05164667846291947,0.09443272756834631,0.060928776430052435,5460.55260356344
1684316110417992353,75,1684316110417992353,camera_1,116,0,0.9107972963892051,0.6846430936708091,6.669368853350864,0.9943805490430044,-0.06561880960377918,0.06507476371029025,0.05164078464901521,0.06603116249971208,0.042541903700717296,5468.809782495111
1684316110424750566,76,1684316110424750566,camera_1,117,0,0.9110859520375344,0.6854540496616324,6.6710973563489135,0.994392526568003,-0.06568936422957182,0.06543266513867255,0.050862332483559806,0.08696230803980143,0.05605640544796359,5467.007553738862
1684316110431227445,77,1684316110431227445,camera_1,118,0,0.9110218807625297,0.6859086310511397,6.670461753348439,0.994236301904141,-0.0660440914659411,0.06584619007391605,0.052883203488120194,0.08061202521639643,0.05195436434101845,5464.710248001269
1684316110438139438,78,1684316110438139438,camera_1,119,0,0.9107785068032785,0.6871402214400459,6.668262788074302,0.9943415597606774,-0.06562769232861738,0.0654037444948383,0.05196362899545763,0.06962904295141925,0.04484267302572995,5471.030517509731
1684316110451255798,79,1684316110451255798,camera_1,121,0,0.9207466342560306,0.6960259440787526,6.740130989387189,0.9970662614855821,-0.06516028406128924,0.0224230803836011,0.03331985975852298,0.2683231661103491,0.1747770225338951,5472.486188362471
1684316110457961559,80,1684316110457961559,camera_1,122,0,0.9113102131804524,0.6905371157722868,6.670764549972512,0.9943705769192906,-0.06611386521515084,0.06474613452998526,0.05161444223214246,0.0838479191515944,0.054039777503979695,5469.741386857262
1684316110471216440,81,1684316110471216440,camera_1,124,0,0.9116192223516708,0.6926131541986962,6.671616178756336,0.994164760997414,-0.06652530241533686,0.061922169915113574,0.05810728872100749,0.05767711441149004,0.037186871227595425,5462.324442467421
1684316110478027105,82,1684316110478027105,camera_1,125,0,0.9112732520965652,0.6943488273690996,6.668376957735909,0.9941136607068098,-0.06600196333945589,0.06861783882568898,0.051704570652260654,0.041588241983845364,0.026781046776962088,5470.759658401832
1684316110484708070,83,1684316110484708070,camera_1,126,0,0.9113905269670497,0.6953223095615702,6.6674441511682385,0.9936198007606684,-0.06267491039824027,-0.05073441125544918,-0.0788515482249098,0.05971839031553827,0.03844272918333487,5473.749579571447
1684316110491448640,84,1684316110491448640,camera_1,127,0,0.9130529881652942,0.6977693472387893,6.679691782086737,0.9945067821190189,-0.06628809189833611,0.06240546653498659,0.05164984935411567,0.048793478581501404,0.03152682958277577,5460.86384599455
1684316110497984409,85,1684316110497984409,camera_1,128,0,0.9131989935466824,0.7000770224271887,6.680345368995484,0.9946030701561656,-0.0661531408543532,0.0663202853919592,0.04461069979907319,0.06038317461570841,0.039022362699329,5466.228730941917
1684316110504614114,86,1684316110504614114,camera_1,129,0,0.9128812444365781,0.7010488974011619,6.677464583826217,0.9943735222664803,-0.06547944903334393,0.06898632135763084,0.046632900780297144,0.05417341802967712,0.03497867891642578,5465.497355253987
1684316110511304140,87,1684316110511304140,camera_1,130,0,0.9122525986342309,0.7016130041543983,6.6721196620855965,0.994250698655119,-0.06587273068448105,0.07026003408324182,0.04679593130390287,0.05038301126114675,0.0324780066733843,5472.903779929737
1684316110524772405,88,1684316110524772405,camera_1,132,0,0.9135411700132161,0.7063507650360008,6.679223488637934,0.9946243697214622,-0.06643199478077502,0.06290374089284245,0.04850023306456531,0.0779325869953027,0.05033873634743273,5469.77811155218
1684316110531385183,89,1684316110531385183,camera_1,133,0,0.9133586380045142,0.7075744570265435,6.677395370680978,0.9947657240047693,-0.06605696712776009,0.058716549770633994,0.05128350828660143,0.04877182723430451,0.031487694327735016,5474.079678170616
1684316110538147211,90,1684316110538147211,camera_1,134,0,0.9130068365322722,0.7098860993918008,6.6728535268327756,0.9943510542992875,-0.06663474150742653,0.06761130830624018,0.04748160725220547,0.07958369806146948,0.0513038132520401,5477.968826809374
1684316110544574975,91,1684316110544574975,camera_1,135,0,0.9137101156121186,0.7118083394035656,6.677559254481415,0.9946327084760556,-0.06585451549694078,0.060587722805736655,0.051943102174055296,0.04274005562547245,0.02759060960862669,5472.861583099262
1684316110551229238,92,1684316110551229238,camera_1,136,0,0.9131467633780013,0.7126844607826197,6.671826585124961,0.994156496731735,-0.06314174439292855,-0.04832571076207687,-0.07301099780472645,0.06498413588269614,0.0418745352018141,5482.368545224889
1684316110558033704,93,1684316110558033704,camera_1,137,0,0.9146549185418941,0.7166040537844691,6.681443350217564,0.9943424255786321,-0.06274273610555671,-0.045092115187617555,-0.07289163812329635,0.06029391383708571,0.03896014549244663,5471.690859776398
1684316110564695596,94,1684316110564695596,camera_1,138,0,0.9132653295390151,0.7170721525075756,6.671269715210833,0.9942029440959037,-0.06570819513687562,0.06790693422273258,0.05129899928225723,0.047362744855490746,0.03051188475328102,5478.319057891173
1684316110578171730,95,1684316110578171730,camera_1,140,0,0.9137286118710758,0.7216907086969203,6.672056567679838,0.9944212648567671,-0.06570051937469357,0.06722106549060247,0.047865625545597694,0.03849665729285334,0.024804218614415632,5484.861905225204
1684316110584748983,96,1684316110584748983,camera_1,141,0,0.9145871105139847,0.7238121577091865,6.6767083995303596,0.9942784358235195,-0.06261222328119774,-0.041300613487596345,-0.07605498588303872,0.0579981477385445,0.03741826801497934,5481.82348494767
1684316110591317415,97,1684316110591317415,camera_1,142,0,0.9143093704803662,0.7279710538362877,6.671545153316747,0.994016939157646,-0.0626292785307761,-0.04481710068481372,-0.0774553137272498,0.06779158263816498,0.043665137466117665,5485.248929089634
1684316110597991943,98,1684316110597991943,camera_1,143,0,0.9143093704803662,0.7279710538362877,6.671545153316747,0.994016939157646,-0.0626292785307761,-0.04481710068481372,-0.0774553137272498,0.06779158263816498,0.043665137466117665,5485.248929089634
1684316110604582071,99,1684316110604582071,camera_1,144,0,0.9146880161706998,0.7297759814057869,6.674576496150066,0.9943249200124114,-0.06598799451860173,0.06695519218620055,0.049805022447882416,0.05629256211977918,0.036291941891306356,5481.891232571565
1684316110617961168,100,1684316110617961168,camera_1,146,0,0.9146817695784403,0.7341772209446882,6.671472670627971,0.994216839800054,-0.06352195074912895,-0.04547460473524575,-0.07368783858406953,0.05815599831112195,0.03745394570647367,5491.376410788159
1684316110624593257,101,1684316110624593257,camera_1,147,0,0.9149448324996787,0.7359096838038612,6.672105283310961,0.9939786543009644,-0.063600183335764,-0.05180535549957677,-0.0726474818232772,0.049688979241182096,0.0320095143765727,5483.6910217679115
1684316110631284475,102,1684316110631284475,camera_1,148,0,0.9152996005460494,0.7377220043124246,6.673957235824036,0.9939482577880407,-0.06388627502253484,-0.04979961003003564,-0.07419840661846988,0.050357225583866246,0.03245431953454223,5481.7384501827755
1684316110638023376,103,1684316110638023376,camera_1,149,0,0.9159329198268193,0.7411563996231467,6.678265891356419,0.9942543979209904,-0.06577803384058341,0.07065495306275041,0.04625278463548644,0.04594254669791553,0.029647807882751512,5480.811428040848
1684316110644700050,104,1684316110644700050,camera_1,150,0,0.9163054080863728,0.7427764486113677,6.678972694460819,0.9943118476075999,-0.0639482981953537,-0.049171172552304375,-0.06954682347103139,0.045553364063380286,0.029399068617266967,5481.570394733455
1684316110651319742,105,1684316110651319742,camera_1,151,0,0.9151342424692267,0.7433151867682368,6.669861496891768,0.9942636001948004,-0.0630679687688668,-0.05434644115084742,-0.06714751653844528,0.0427023376832949,0.027489066336153542,5492.65510484914
1684316110658006191,106,1684316110658006191,camera_1,152,0,0.916215276270663,0.7470312818940981,6.676266494450541,0.9944055630315316,-0.06336998614411388,-0.04573393821254652,-0.07106495594601221,0.04203243310621474,0.027100278226803626,5489.624558734301
1684316110664593696,107,1684316110664593696,camera_1,153,0,0.916480717233348,0.7487248872484042,6.6773905962255595,0.9943144029236164,-0.06336264420501489,-0.047980113820330496,-0.07086573315636543,0.0527188471169211,0.03400122047302756,5485.495989605553
1684316110671365261,108,1684316110671365261,camera_1,154,0,0.916823603586568,0.7503481323628699,6.67869000064225,0.994231697531944,-0.0632626337649199,-0.04731945329618834,-0.07253992095132619,0.04329918844450731,0.027938047221924035,5482.29237101745
1684316110678131818,109,1684316110678131818,camera_1,155,0,0.9285937779156053,0.7625791425232384,6.762822792802798,0.9977665326717577,-0.06548389641887167,0.010401334755490746,-0.00810048302789185,0.2987442862940952,0.19501704064159422,5491.090805544287
1684316110684725284,110,1684316110684725284,camera_1,156,0,0.9161214005753507,0.7536353720079829,6.671359265425133,0.9943145057984238,-0.06331529432167424,-0.04734981485948294,-0.07132904104618915,0.047735394691699184,0.030728616369326403,5496.827118203743
1684316110691522121,111,1684316110691522121,camera_1,157,0,0.9162540267681925,0.7552515883213666,6.671573346460559,0.9942302862261667,-0.06316806642100417,-0.04566085647100498,-0.07369545115948838,0.04619282764906529,0.029736869619213974,5495.772758362698
1684316110698295116,112,1684316110698295116,camera_1,158,0,0.9169175097022702,0.7581930668347174,6.675255195253425,0.9944876313863242,-0.06354881640157815,-0.044786173094178754,-0.07035693038468416,0.04052782665530685,0.026115893795075982,5495.878576375547
1684316110705020666,113,1684316110705020666,camera_1,159,0,0.9161869188364236,0.7588668820201951,6.668856172580828,0.9941282185553549,-0.06275197905374236,-0.04718228336502054,-0.0744654707448891,0.05087119963718578,0.03271915262066027,5497.995618139452
1684316110711627006,114,1684316110711627006,camera_1,160,0,0.9169051329805209,0.7605325333638612,6.673100285715946,0.9942240187184228,-0.06320824450669858,-0.0455129079499319,-0.07383693953375696,0.05058911279775202,0.03257833056846307,5494.241980533523
1684316110718552827,115,1684316110718552827,camera_1,161,0,0.9168061664886892,0.7627720353803618,6.671420854638923,0.994232031858198,-0.06342633126155868,-0.041946636419690236,-0.07563231467364015,0.032242782894172706,0.020752483703459675,5499.346066264495
1684316110724659204,116,1684316110724659204,camera_1,162,0,0.9179316366258818,0.7648177825236928,6.6785068935652605,0.9943997701989387,-0.06290092792377253,-0.043879239468135114,-0.07271301560466605,0.06452834846277256,0.04162092498462317,5489.612586097908
1684316110738238573,117,1684316110738238573,camera_1,164,0,0.9179469260206122,0.7680282471831159,6.677422714561335,0.9946639002596079,-0.0638138106855109,-0.04498289289716201,-0.0674393240827696,0.05052253301255405,0.032573376837749066,5497.711489702049
1684316110744705200,118,1684316110744705200,camera_1,165,0,0.9181007115358061,0.7690881531533312,6.677583224041841,0.9944256921335543,-0.0639503199489766,-0.047495827145610306,-0.06907999570700099,0.04210612486349419,0.027147975302908644,5492.31265303574
1684316110751279592,119,1684316110751279592,camera_1,166,0,0.918392564613626,0.7702786630715655,6.678773311739516,0.9944167429046425,-0.06375051731167972,-0.04397457390222552,-0.07167600591225133,0.06565250399580691,0.04234673827776969,5491.479019284656
1684316110758141279,120,1684316110758141279,camera_1,167,0,0.9182413474059911,0.7719239163485355,6.677213070195512,0.9946460972861407,-0.06384971145230842,-0.0487509557301018,-0.06500538297947113,0.035055867629125714,0.02260170943088466,5496.929777127227
1684316110764758825,121,1684316110764758825,camera_1,168,0,0.9179901738948382,0.772571899504425,6.674424899738927,0.994418779076194,-0.06320261792628185,-0.04962956696905763,-0.06836393047755464,0.05669287407363299,0.036521517696676144,5496.221009107192
1684316110777341365,122,1684316110777341365,camera_1,170,0,0.9178720178596536,0.7747116670995032,6.673028613068113,0.9942784860512834,-0.06389352612108806,-0.047262352891697945,-0.07137352096206459,0.04353794758208096,0.028029432416142232,5498.172189034055
1684316110784220457,123,1684316110784220457,camera_1,171,0,0.9184506031406496,0.7757455295021114,6.676252855820702,0.9945052375685031,-0.06394454467848765,-0.04965779878782352,-0.06636663826218847,0.0401817430392839,0.02589820065257331,5496.276201992007
1684316110791657686,124,1684316110791657686,camera_1,172,0,0.9181440958680454,0.7762277895187946,6.673992590867979,0.9942915804602601,-0.06346600259523032,-0.05267169953039262,-0.06769055775365171,0.03162921822513454,0.02037221758419237,5494.294695198653
1684316110798284053,125,1684316110798284053,camera_1,173,0,0.9179234546030728,0.7771197325168222,6.671946880194456,0.9944769556592858,-0.06376594334955268,-0.05547828983143902,-0.062222572180516814,0.04159296560101211,0.02677939542292443,5500.485912568462
1684316110804598569,126,1684316110804598569,camera_1,174,0,0.9179114764644627,0.7776420159083225,6.671090233276898,0.9942444566704043,-0.06416539948655307,-0.05428408979513637,-0.0664379370842993,0.04961854861176107,0.03193445726411692,5498.608871076312
1684316110811148881,127,1684316110811148881,camera_1,175,0,0.9176496053974671,0.7778371645006394,6.669367277221541,0.9944521784373478,-0.0643072001233262,-0.052363151226684945,-0.06471127573401193,0.03052430963725783,0.019633322000893277,5506.489613913292
1684316110817642927,128,1684316110817642927,camera_1,176,0,0.9184796410408562,0.7793455572996774,6.674842475994816,0.9944983384391747,-0.06366735136255164,-0.04811171622368487,-0.06785857332872437,0.02892741034156643,0.01863409136542681,5499.437990414792
1684316110824385166,129,1684316110824385166,camera_1,177,0,0.9181013523701624,0.7793083277076057,6.671952329331883,0.9944073305191731,-0.06419765703944606,-0.05245422808313223,-0.06543145876855062,0.046402270934777334,0.029868262583010632,5501.379601281311
1684316110831102132,130,1684316110831102132,camera_1,178,0,0.9182833922866653,0.7797967856318947,6.673016784563659,0.9944222171472954,-0.06425795961525627,-0.05400211678773977,-0.0638681458348737,0.026831704919459298,0.01727844998636092,5499.38686698419
1684316110837702751,131,1684316110837702751,camera_1,179,0,0.9181299855629319,0.7800295059317569,6.671644483083557,0.9943125316758176,-0.06362999418341435,-0.05290147851754901,-0.06704660142991713,0.044163409038446844,0.02842350284085527,5499.316827583128
1684316110844502449,132,1684316110844502449,camera_1,180,0,0.918260334193334,0.7802848586384669,6.672366426695919,0.994520360673289,-0.06335926338871055,-0.05101865831926395,-0.06566545859440664,0.029518529321649112,0.01900258346347956,5502.5336213433775
1684316110850971221,133,1684316110850971221,camera_1,181,0,0.9185732217367124,0.7806874095911761,6.675381081870538,0.9944523796288844,-0.06408416569843123,-0.04595414731160323,-0.06961250392026216,0.030148457182804123,0.019420857110454975,5499.320899876417
1684316110857820749,134,1684316110857820749,camera_1,182,0,0.9184133410590998,0.7805334623631118,6.673402538675951,0.9944408262616778,-0.0637836959294404,-0.049628307218766994,-0.06749899495675415,0.039309027735725977,0.02531135231885047,5500.431225780048
1684316110871037721,135,1684316110871037721,camera_1,184,0,0.9190408577984475,0.7809741153271846,6.678323115351346,0.9944868749753445,-0.06393254244938312,-0.04928379590390478,-0.06692976153426633,0.03241086663911119,0.020899227398424428,5493.549643193138
1684316110877908945,136,1684316110877908945,camera_1,185,0,0.9181723406507873,0.7799521240259033,6.672205544311441,0.9943313645105124,-0.06365051099619422,-0.05289896703416304,-0.06674915195943996,0.029076825128868222,0.01871797199861818,5498.776939162986
1684316110884176969,137,1684316110884176969,camera_1,186,0,0.9179245590982468,0.7794694013503232,6.670313385007515,0.9943074227165007,-0.06359266499309402,-0.052630353255195744,-0.06737037929371598,0.03452074191591237,0.022208754513370024,5501.418608571635
1684316110890772581,138,1684316110890772581,camera_1,187,0,0.9180609473011947,0.7793205450558361,6.671534960538498,0.994410678880779,-0.06426724740517711,-0.04941672180054822,-0.06763956124426745,0.036927949826349504,0.023763747397746837,5503.494550402858
1684316110897526264,139,1684316110897526264,camera_1,188,0,0.9177326327010791,0.77847432006055,6.66957269679006,0.9942090541514415,-0.06401357793791204,-0.05160708904462492,-0.06919051122244493,0.0335575911012711,0.021583871271276242,5501.591456439637
1684316110904254198,140,1684316110904254198,camera_1,189,0,0.9177861880625026,0.7780143748757451,6.669872917737147,0.9940867050229388,-0.06401501859985052,-0.05267998365019005,-0.07013215819375224,0.027086137808510102,0.017422415290238077,5498.230632242225
1684316110911218881,141,1684316110911218881,camera_1,190,0,0.9186059080206979,0.7783551456813307,6.676765476714207,0.9944705087068022,-0.06429656362958133,-0.05030426120197768,-0.06605937119580046,0.03769092450966127,0.024294019568218986,5495.4634635255225
1684316110918038606,142,1684316110918038606,camera_1,191,0,0.9184967127466196,0.7772024557347131,6.676043683081383,0.9943462947280378,-0.06386840328433474,-0.05210422540695486,-0.06694343072530094,0.04095069448521826,0.026390042117053935,5492.807599099879
1684316110924700975,143,1684316110924700975,camera_1,192,0,0.9183714814476528,0.7765787315582544,6.675246503306953,0.9943631055728732,-0.0641974347392963,-0.04761238622460327,-0.06966896243209195,0.029263705961056985,0.018853487186324944,5496.584358188263
1684316110931392669,144,1684316110931392669,camera_1,193,0,0.917793429353602,0.7753235942905745,6.671539288952339,0.9944924306934158,-0.06382160460143407,-0.05256149908517587,-0.06441193129785187,0.03878810718015302,0.024966314413729467,5502.459888087003
1684316110938021659,145,1684316110938021659,camera_1,194,0,0.9180769880469216,0.7743016852265863,6.674305182443735,0.9944128485515787,-0.06356655247275302,-0.04976542406887241,-0.06801310615983751,0.05101396238023881,0.03285843317513668,5497.03594240034
1684316110944619417,146,1684316110944619417,camera_1,195,0,0.9180198185303544,0.7736154446962042,6.6738186739903576,0.9940634100706799,-0.06345905275982887,-0.05244040702769768,-0.07113992614731952,0.0466590671276208,0.030049890985764455,5489.84839436336
1684316110951574087,147,1684316110951574087,camera_1,196,0,0.9180185580268762,0.7728767516450549,6.674373532561564,0.9944529532107752,-0.06372125897005987,-0.04417575380621417,-0.07107339714190627,0.04930316390527878,0.03175525200846355,5499.853184623993
1684316110958285331,148,1684316110958285331,camera_1,197,0,0.9184384946607334,0.7716376812084924,6.678417576253141,0.994543462847337,-0.06341140495077506,-0.04754267600982539,-0.06783795536144545,0.052500361067359336,0.03385870106474664,5492.8699240224105
1684316110964666843,149,1684316110964666843,camera_1,198,0,0.9180006913966365,0.7703061068669153,6.675543879900805,0.9943366940746752,-0.06289455344224462,-0.04934213336572863,-0.07002976394980383,0.05340951448306441,0.034416439264161415,5492.140427700708
1684316110971339702,150,1684316110971339702,camera_1,199,0,0.9178682089602883,0.7674478623496063,6.676201664160773,0.9943476078326409,-0.06306818403811068,-0.0465167511680255,-0.07163400603352993,0.05038224143208936,0.03247296036923915,5492.098307408101
1684316110978043079,151,1684316110978043079,camera_1,200,0,0.9178682089602883,0.7674478623496063,6.676201664160773,0.9943476078326409,-0.06306818403811068,-0.0465167511680255,-0.07163400603352993,0.05038224143208936,0.03247296036923915,5492.098307408101
1684316110990735054,152,1684316110990735054,camera_1,202,0,0.9169909127605931,0.7646870481764734,6.670842824230546,0.9943649316405246,-0.06322068577906254,-0.047397755128474876,-0.07067517542914956,0.047367377279442735,0.03048223678345786,5500.661292586303
1684316110997640132,153,1684316110997640132,camera_1,203,0,0.9168710084648047,0.7624948748665832,6.671557589925718,0.9945086591665807,-0.06307799157868564,-0.05084749353882444,-0.06624368816655839,0.046406154200667515,0.029874145672996538,5500.111614548716
1684316111004569530,154,1684316111004569530,camera_1,204,0,0.9167480207032044,0.7612216275592165,6.67152162951943,0.9941747363657787,-0.0631405991890073,-0.04369926730702298,-0.07563221762527605,0.046051393161178567,0.029642052324986783,5496.724873564905
1684316111017638921,155,1684316111017638921,camera_1,206,0,0.9173939316795564,0.7582707043439334,6.6779032139100964,0.9943028065486658,-0.063424691715574,-0.04265252985182552,-0.07429669620831202,0.05942720665188972,0.03832839046367583,5488.6310262730685
1684316111024842500,156,1684316111024842500,camera_1,207,0,0.9170106959897555,0.756665715183842,6.675705146804277,0.9946111200636364,-0.06336883571715533,-0.044547409295003004,-0.06891036809301247,0.06519492162624374,0.04202159828645511,5496.842513695593
1684316111031260013,157,1684316111031260013,camera_1,208,0,0.9166954688049239,0.755113762073694,6.6748490715082776,0.9943294930045221,-0.06668279691519849,0.063934460426356,0.05267493433244148,0.07247526297578588,0.04670342785778348,5491.967785462622
1684316111044596910,158,1684316111044596910,camera_1,210,0,0.9162369804062037,0.7509693501659257,6.672866277630591,0.994287184385187,-0.06343530465538566,-0.05247083979988295,-0.06793944407596181,0.06302351009799168,0.040596530755645115,5491.044829962542
1684316111051610469,159,1684316111051610469,camera_1,211,0,0.9166831462996559,0.7500182951968717,6.676764885527109,0.9942997721448333,-0.06319802784496518,-0.05156758756647665,-0.06866408305521444,0.06683619775867555,0.043105423060626286,5484.650333727478
1684316111058047533,160,1684316111058047533,camera_1,212,0,0.9165032114465479,0.7472326980381742,6.67723847678579,0.9944705167991463,-0.06324891653096767,-0.05052751539872744,-0.06689496216105228,0.05416161836183164,0.034936560183967964,5486.885319768391
1684316111064681291,161,1684316111064681291,camera_1,213,0,0.9164066895541583,0.7457036570340404,6.677579031999159,0.9942809432416668,-0.06346581124880364,-0.04793144881505537,-0.0712746302935507,0.06021837245498318,0.03884462078883364,5483.929353653688
1684316111071294546,162,1684316111071294546,camera_1,214,0,0.9164787866326597,0.744390105133875,6.6790130075352,0.994496875273265,-0.06294673831232651,-0.049634324683628744,-0.06745448110208693,0.07043162535410376,0.04545739792808588,5483.783308212817
1684316111078053474,163,1684316111078053474,camera_1,215,0,0.915097980899481,0.7404371721376352,6.670061686687131,0.9939057537750379,-0.06293403893416087,-0.04493270205052824,-0.07856024212504609,0.033140092637040645,0.021330643366283174,5488.969073788263
1684316111084617614,164,1684316111084617614,camera_1,216,0,0.9155108629934463,0.7395251415072378,6.674009275501962,0.9939899171869765,-0.06352462987972043,-0.04422695602133908,-0.0774121585434669,0.03262496904062573,0.021025077528206197,5484.743869664787
1684316111098029136,165,1684316111098029136,camera_1,218,0,0.9156881187410445,0.7352808403986852,6.678006798689949,0.9941707979840533,-0.06293811858281828,-0.04998444767020052,-0.07186635273972726,0.051781314017716795,0.03341536253772958,5477.191757743945
1684316111111304283,166,1684316111111304283,camera_1,220,0,0.9145111079439893,0.7314908415948662,6.670710378940123,0.9939772578402218,-0.06342015960126042,-0.05293299319655468,-0.07200828066158163,0.059034148303908296,0.038017407200933336,5484.117455703266
1684316111124679327,167,1684316111124679327,camera_1,222,0,0.9146112569047222,0.7271682736153773,6.673729757787954,0.994042441398012,-0.062328476583214935,-0.04999598537677908,-0.07412952955806969,0.0666269273206126,0.04294511389526328,5479.200503149651
1684316111138002395,168,1684316111138002395,camera_1,224,0,0.914830119668619,0.722996377878665,6.678009960020604,0.994417901748129,-0.06292321057473894,-0.048042200287622766,-0.06975423460507131,0.08088651100479181,0.0522105273764843,5479.239010561577
1684316111144771337,169,1684316111144771337,camera_1,225,0,0.9142778469817212,0.7211815547881191,6.675533994673369,0.9944017146065268,-0.06579108033729669,0.0669747292222054,0.048488652087508015,0.04339075959069305,0.02798810074813223,5478.1189263498845
1684316111151299476,170,1684316111151299476,camera_1,226,0,0.913974194917195,0.7195086793504851,6.67407359531595,0.9943997299453863,-0.06600581215822324,0.06626625016261808,0.04920562910136816,0.05716394628689159,0.03685629392995683,5479.672087845686
1684316111158138990,171,1684316111158138990,camera_1,227,0,0.912669584779318,0.715784959972448,6.665354979274634,0.9937412543481376,-0.06181622318901269,-0.05258806595895936,-0.07675655852064045,0.05317178707991843,0.034194119837170724,5483.057180054833
1684316111164299726,172,1684316111164299726,camera_1,228,0,0.913777595383681,0.7151728478599626,6.674806739136429,0.9944850763274335,-0.0659455571977778,0.062303976490450996,0.052619682262163334,0.05562876789190341,0.03587833948499694,5476.118660997105
1684316111178027153,173,1684316111178027153,camera_1,230,0,0.913956171416323,0.7111991256711677,6.678576275232128,0.9945124051275115,-0.0658563222331168,0.0662966068821697,0.04704020392527627,0.07995947866584174,0.05163625062296825,5471.123396064012
1684316111191401243,174,1684316111191401243,camera_1,232,0,0.9131219056658768,0.7079736830723315,6.674141372581613,0.9945438216324638,-0.06579697205336917,0.06010715381192777,0.054226150351389786,0.055278282077779295,0.035655288681448793,5473.794342410285
1684316111197705984,175,1684316111197705984,camera_1,233,0,0.9130391502498822,0.705421348582919,6.674725252663564,0.9943768823376693,-0.06575007071935156,0.06704518120305174,0.04895393498246167,0.050229657575982856,0.03240151262325172,5471.32880893958
1684316111204413414,176,1684316111204413414,camera_1,234,0,0.9252168498439844,0.7135073673098778,6.763689077970564,0.9976327246706442,-0.06462401598173849,0.02347057130743877,0.0013474075555688762,0.3190714806150936,0.20841858944869485,5471.043773211654
1684316111217995882,177,1684316111217995882,camera_1,236,0,0.9130667578359968,0.7007343062591701,6.677706949353954,0.9944329263177693,-0.06589103768812726,0.06833919126624033,0.04573052749024491,0.06800248187573743,0.043912420214428365,5466.913008878995
1684316111230775117,178,1684316111230775117,camera_1,238,0,0.9244706258952593,0.70712901914433,6.761720594823025,0.9975049360230938,-0.06549443455452368,0.026156784005298,0.003194417387753166,0.3067497771298804,0.20051529758585898,5464.318068526918
1684316111244312047,179,1684316111244312047,camera_1,240,0,0.9121325411626546,0.6945887696089608,6.673616536874354,0.9941463056958156,-0.06617589583064408,0.06765812418270645,0.05211767372447831,0.06773323591187363,0.04368807459640122,5462.530141071035
1684316111251142024,180,1684316111251142024,camera_1,241,0,0.91126086959435,0.6931332431764847,6.667254172344585,0.9937901890791951,-0.06260750890416673,-0.04711788984138224,-0.07900167324587322,0.05071947459509829,0.03264996038559049,5478.052165155415
1684316111257899045,181,1684316111257899045,camera_1,242,0,0.9111670756465886,0.6912011578784325,6.668648927229514,0.9944059359674251,-0.06518872541932215,0.0650244824489501,0.05175984228337603,0.06125371519374312,0.03945245126157612,5473.109336025432
1684316111270977973,182,1684316111270977973,camera_1,244,0,0.9116952359992484,0.6898650291791029,6.672976310457992,0.9943742010350002,-0.06596525003002326,0.06519410670601018,0.051168960857995625,0.08033400995554985,0.051808019316952184,5465.7917553825555
1684316111277600765,183,1684316111277600765,camera_1,245,0,0.9113591148370468,0.6880558180368733,6.671590784335108,0.9945547239399353,-0.06614152710961321,0.06245358924177744,0.05085025733648709,0.06656331774502178,0.042912829163007746,5470.922754457046
1684316111284434795,184,1684316111284434795,camera_1,246,0,0.9117725595933133,0.6878025865241476,6.674974299731299,0.9946799359160399,-0.065106389486197,0.06266304379771763,0.04946034852424615,0.0353574055043282,0.022818586911657376,5466.941478572933
1684316111298076152,185,1684316111298076152,camera_1,248,0,0.9114275410503606,0.6855449248927226,6.673621533013814,0.9944398913292198,-0.06601625414980766,0.06518487283591266,0.04982056878964104,0.08129054983510287,0.05244312973617106,5464.595261400216
1684316111304648876,186,1684316111304648876,camera_1,249,0,0.9118009543929256,0.6853513214891978,6.676968975432361,0.99443545016106,-0.06560425175564688,0.06424297179637815,0.0516435687120984,0.060697345124935964,0.039198143137079026,5457.290522871652
1684316111311518430,187,1684316111311518430,camera_1,250,0,0.916704024851346,0.6885392515333484,6.712361037060334,0.9946482912628322,-0.06558366275082639,0.0771697232622041,0.020454673787403545,0.19424635070026852,0.1260280066188576,5463.466047992408
1684316111318057060,188,1684316111318057060,camera_1,251,0,0.9116470054199236,0.6838993477003006,6.675838658795619,0.9944578999483368,-0.06554206927762998,0.06508566938793359,0.05021531664218375,0.054363707418815466,0.03509539881802945,5459.619580454863
1684316111330663204,189,1684316111330663204,camera_1,253,0,0.9108483469288968,0.6825573747983714,6.67088086234002,0.994354370858222,-0.06550690920214054,0.06915113404673395,0.046758428780091614,0.07534955926894327,0.048574778709000434,5467.2893834209535
1684316111337506771,190,1684316111337506771,camera_1,254,0,0.910997270324753,0.6821936947866827,6.672235129086857,0.9943466857761386,-0.06500560527743757,0.06577413623859653,0.0521795244381329,0.07743315275729401,0.049939458673962905,5461.078856606502
1684316111344983577,191,1684316111344983577,camera_1,255,0,0.9111195174045832,0.6821489467595624,6.672905587091858,0.9944444903776787,-0.06564620898657622,0.06466285207799294,0.05088660299439523,0.07389011915802256,0.0476609454672559,5463.209692294069
1684316111351650953,192,1684316111351650953,camera_1,256,0,0.9114782235372605,0.6823263351973728,6.675962854530349,0.9945014010679146,-0.06572042621518848,0.0658569604541233,0.04806921688349779,0.0722399261467217,0.0466381680193761,5460.871282442618
1684316111358225107,193,1684316111358225107,camera_1,257,0,0.9165173017482457,0.6859800550503908,6.7127993745314125,0.9947156483836377,-0.0654150504574358,0.07675449058865418,0.01924573222422781,0.19709501593388265,0.12784291026498118,5465.90191392592
1684316111364859580,194,1684316111364859580,camera_1,258,0,0.9104925756349108,0.68144762502008,6.668771847790433,0.9943206150517725,-0.06568412761420162,0.06417158560918798,0.05379700236099345,0.06346435817977181,0.04088766847989143,5465.960872499707
1684316111371400117,195,1684316111371400117,camera_1,259,0,0.9105939168451357,0.6816173781072103,6.669329034678412,0.9942588856634628,-0.06561960318808256,0.06416803981463552,0.055007259730287916,0.061514056971645914,0.03963647283304797,5463.2130737138805
1684316111378247261,196,1684316111378247261,camera_1,260,0,0.911238578372186,0.6823235822608787,6.674028944215944,0.9943849703380572,-0.06557129754521046,0.06601778202414725,0.05040424744632921,0.0562536165016354,0.03629648669998259,5460.518324153847
1684316111384843587,197,1684316111384843587,camera_1,261,0,0.9111580151325289,0.6824031979192589,6.67318599757644,0.9943707454512016,-0.0659731186058862,0.0637733633437117,0.052984208402751254,0.07166036939088372,0.046228158897652846,5460.693134376052
1684316111391461372,198,1684316111391461372,camera_1,262,0,0.911094042577731,0.6825716367917259,6.67265109984206,0.9945224278499103,-0.06607403162047887,0.05907384159257894,0.05540436885689467,0.0642202414892381,0.04142834156176391,5463.095659729239
1684316111404718399,199,1684316111404718399,camera_1,264,0,0.9111469180997147,0.6835758789716115,6.6725352863349014,0.9944385427214202,-0.06558485188243478,0.06447911840596139,0.051313304739096725,0.06656089202806471,0.042927576447088625,5464.117203738659
1684316111411506414,200,1684316111411506414,camera_1,265,0,0.9114463153601484,0.6841994830239329,6.674315642928584,0.9946040487963946,-0.06603763856141964,0.06225198448535135,0.050264369474666726,0.08630528758294533,0.05569142877648107,5465.532146791635
1684316111418168306,201,1684316111418168306,camera_1,266,0,0.9114232519140177,0.6852644103143188,6.673925182517296,0.9945423529870054,-0.06578053486859088,0.05994982705818863,0.05444674079470634,0.07787489960173843,0.050243398145383894,5463.56281866232
1684316111424689054,202,1684316111424689054,camera_1,267,0,0.9119214679980826,0.6861008653364883,6.677246280658698,0.9945717150248695,-0.0659727704938494,0.06126029955296669,0.05217157199602506,0.07096947596073733,0.04583690894145801,5459.7683957940035
1684316111431471586,203,1684316111431471586,camera_1,268,0,0.911006378841383,0.6860682477325661,6.670793740031372,0.9943687321860494,-0.06560124336715573,0.06686010592102465,0.049568412881807355,0.062021041365369456,0.03997597515276007,5468.017879462512
1684316111444087028,204,1684316111444087028,camera_1,270,0,0.9118130190290847,0.688582634936089,6.674018793757564,0.9940257503861369,-0.0630210164863233,-0.044386074525594475,-0.0772724752969413,0.10033384108101018,0.06472328832010044,5471.2985368994705
1684316111450780868,205,1684316111450780868,camera_1,271,0,0.9115472810309143,0.6891234896197873,6.672164187983313,0.9944155434749018,-0.06621709654458904,0.06327555611908947,0.05243307180148972,0.07095558748187614,0.04575405252710476,5467.104193037812
1684316111457378387,206,1684316111457378387,camera_1,272,0,0.9119028863120685,0.691025882717813,6.674485494279323,0.9946866705093099,-0.06619324785057394,0.059406888617904594,0.051843061588180674,0.06366333121695789,0.04107999183589868,5469.356525764306
1684316111464000463,207,1684316111464000463,camera_1,273,0,0.9107601771685081,0.6911227589160505,6.665607922912239,0.9943103427263361,-0.0656985274771662,0.06654196327271002,0.051017771007577074,0.06926084985389025,0.04456701872668407,5477.4821319078055
1684316111470685005,208,1684316111470685005,camera_1,274,0,0.9111719404865126,0.6923741607789097,6.668404535169802,0.9942865857300223,-0.06563215590201689,0.06591549393727177,0.052361753293735436,0.06314603613282088,0.040667106749691054,5472.105119813379
1684316111477350711,209,1684316111477350711,camera_1,275,0,0.9122665994876212,0.6952116892062955,6.675383834397594,0.9944730103982102,-0.06605134230551683,0.05917830323012861,0.056201247281209135,0.059602749726764166,0.03847003302169242,5463.393311669992
1684316111484261035,210,1684316111484261035,camera_1,276,0,0.9120958111053417,0.6959594515346491,6.673677169367707,0.99428660934926,-0.06575005693452145,0.0684376790438597,0.04886054204518179,0.05116422797436826,0.032999969356399636,5466.989885940915
1684316111490779161,211,1684316111490779161,camera_1,277,0,0.9126054392423847,0.6975165241916603,6.676760010509177,0.9943693107642009,-0.06580487232174066,0.06494250501747259,0.05178671288181221,0.05701514894099091,0.03680717350518077,5462.544277940062
1684316111497392654,212,1684316111497392654,camera_1,278,0,0.9117312041474194,0.6989467867115755,6.668759184047004,0.9942780478613948,-0.06633056547699531,0.06473189071154012,0.053114987991574394,0.05124914473344688,0.03300385991753501,5474.970663699874
1684316111504050016,213,1684316111504050016,camera_1,279,0,0.91256158647854,0.700829326980514,6.673089643348418,0.9939196313444302,-0.06290412148437899,-0.04663309032274613,-0.07740925535994593,0.06808846032072324,0.043901226903622324,5473.259235738485
1684316111510996580,214,1684316111510996580,camera_1,280,0,0.9130466256623118,0.7023104128545972,6.677207858390682,0.9942645712390312,-0.06640300109007856,0.06859947336563275,0.048194564828976584,0.08520388562828884,0.05500793446784632,5464.765036008904
1684316111517665386,215,1684316111517665386,camera_1,281,0,0.9128264931983114,0.7046822081041126,6.674215362023302,0.9944103170223443,-0.06611927438290732,0.06752163502377662,0.04708706572206807,0.05756936124089407,0.037130262848554356,5473.893013929397
1684316111524166107,216,1684316111524166107,camera_1,282,0,0.9125633980780303,0.7057065132664373,6.671886962599389,0.9943475201138902,-0.06578404584355478,0.06546981345735423,0.05156716088431961,0.06117066619117395,0.03942510545444682,5474.431819217483
1684316111530769348,217,1684316111530769348,camera_1,283,0,0.9132995267103589,0.7076213933582044,6.676196339011716,0.9945286827304569,-0.0661943670200372,0.0640608858941125,0.04926670173352886,0.06143571354186861,0.039645179706298175,5473.064056843488
1684316111537700176,218,1684316111537700176,camera_1,284,0,0.9127341611572333,0.7098750812521619,6.67046741407701,0.9942256566954408,-0.06287891654652564,-0.04621295467095231,-0.07366103612518021,0.054936791479121894,0.03538687812815051,5485.7825474615665
1684316111544349193,219,1684316111544349193,camera_1,285,0,0.9125108888789795,0.7108693169995828,6.667448458138474,0.9938734394849822,-0.06264663037113555,-0.05012449407111897,-0.07601658426651406,0.07797586864398909,0.05018196904031675,5482.7283613424515
1684316111551129341,220,1684316111551129341,camera_1,286,0,0.9129094471298703,0.7126420114172101,6.670038199355873,0.9940652439151936,-0.0626758617633483,-0.047005020528739457,-0.07547552740551805,0.05162242242658976,0.033246469251157894,5483.805894555753
1684316111557669878,221,1684316111557669878,camera_1,287,0,0.9138981400372787,0.7161293827202089,6.675292154525583,0.9941134462098989,-0.06299774303852655,-0.04488421822893976,-0.07586268773716982,0.06626897231399198,0.04274394470212988,5478.092685429119
1684316111564157724,222,1684316111564157724,camera_1,288,0,0.9132326936890196,0.7171082521122512,6.6706582494006,0.9943014147061104,-0.06558272777442684,0.0682481086707584,0.04904893672606293,0.04983651226575603,0.03209982751441692,5482.156992484495
1684316111570790290,223,1684316111570790290,camera_1,289,0,0.9137605845738332,0.7189254408632065,6.673801826072537,0.9942558578337695,-0.06572502607214696,0.06507134977548559,0.05386306294156659,0.04181635503846337,0.026959373163886323,5474.570077735669
1684316111577458381,224,1684316111577458381,camera_1,290,0,0.9136881998477139,0.7218385407348766,6.670869890384887,0.9942284861526716,-0.06243057344219646,-0.05183261547557994,-0.07018205465221172,0.04902548868267331,0.031579533657006754,5485.278449726204
1684316111584263563,225,1684316111584263563,camera_1,291,0,0.9147709081435206,0.7240175973798467,6.677795832844434,0.9944222145366879,-0.06300202283930298,-0.046424841090487785,-0.07071024313229506,0.06174933529109694,0.0398521128685927,5480.851777957926
1684316111591509580,226,1684316111591509580,camera_1,292,0,0.9141956504961972,0.7251048766122543,6.67270349179672,0.9942584353850691,-0.06246455409719321,-0.04866630946037075,-0.07197175467209742,0.07201642150175758,0.04640690695384575,5485.089966584579
1684316111598402738,227,1684316111598402738,camera_1,293,0,0.919872757166371,0.732495096043851,6.713581611493802,0.9946403590540981,-0.06572890118805565,0.07560139434475864,0.025587044817140418,0.1844318801886402,0.11956947115169632,5478.873320356361
1684316111604949235,228,1684316111604949235,camera_1,294,0,0.9142252126864577,0.7295700215372722,6.670135865309971,0.9941384184563525,-0.06277153575675169,-0.051048730850569,-0.07171168891043789,0.036995902555645443,0.02382056861625621,5487.665264577259
1684316111617988109,229,1684316111617988109,camera_1,296,0,0.9146841624390253,0.7342804487289328,6.670999141118745,0.9939702225715105,-0.06313776926283189,-0.05312494589109535,-0.07221190246575339,0.0629197609378025,0.040521165462995515,5483.821190691552
1684316111624269485,230,1684316111624269485,camera_1,297,0,0.9148259578388218,0.7359125254107948,6.671538514494871,0.9941318546414829,-0.06326741586199558,-0.05088887062875957,-0.07148015475193202,0.050159716920461506,0.03230644435785534,5487.466121284466
1684316111631256818,231,1684316111631256818,camera_1,298,0,0.9147274479793281,0.7373708843302081,6.670183086726883,0.9937961433535845,-0.06321620924891834,-0.05173302139091176,-0.07547602825736384,0.05961180054873694,0.038373499574218914,5483.547912097187
1684316111638026475,232,1684316111638026475,camera_1,299,0,0.9159613687679304,0.7412507615135737,6.677329976239854,0.9941015955047511,-0.06335178493323133,-0.04481988031247657,-0.07576112122624168,0.057394964300328866,0.037022199611272795,5481.258478543665
1684316111644722461,233,1684316111644722461,camera_1,300,0,0.9165838391626471,0.7432268047642224,6.681516778312256,0.9946727225641089,-0.06335362603178078,-0.046188232827045955,-0.0669263789835017,0.0456226592650637,0.029465308475840373,5484.602925598622
1684316111657378673,234,1684316111657378673,camera_1,302,0,0.9165953425078366,0.7473977818372326,6.679176996698863,0.9946501735208677,-0.0634470346668718,-0.04836228992286094,-0.06562465253474332,0.060013736321707256,0.038732193418297034,5488.2352585467725
1684316111670935869,235,1684316111670935869,camera_1,304,0,0.916629617831485,0.7502900311099202,6.677522014371934,0.9941330815964892,-0.06340147173258684,-0.043931734492006096,-0.0758265927108304,0.06779802011442371,0.0437268574010529,5483.976725190703
1684316111677905559,236,1684316111677905559,camera_1,305,0,0.9161433812440438,0.7526434512046072,6.672221294919498,0.9943593470349904,-0.06260551796704096,-0.05002720000439635,-0.06947889855162019,0.05705877146101557,0.03674644991259873,5493.987312048383
1684316111684428691,237,1684316111684428691,camera_1,306,0,0.9160420977765248,0.7537185068223822,6.671470742532214,0.9944677798376556,-0.06327958296864424,-0.0455584516053275,-0.07038435004604315,0.054346563658327796,0.03498594309383745,5500.252761281679
1684316111690949440,238,1684316111690949440,camera_1,307,0,0.9163674695308681,0.7553697087642675,6.6729992356356505,0.9943851672881466,-0.06352510391718255,-0.04543200082810933,-0.07140471658364503,0.047332588670542464,0.030482192137383016,5496.881659609613
1684316111697860240,239,1684316111697860240,camera_1,308,0,0.9165420656463299,0.7579441744050395,6.672525732909705,0.9943037120967595,-0.06315281252099489,-0.04582637781095481,-0.07260711726835285,0.07002055775956251,0.045085571569982115,5496.029426038149
1684316111704387664,240,1684316111704387664,camera_1,309,0,0.9172626691240815,0.759844706938781,6.676895223238324,0.9944103431176078,-0.06314666768048294,-0.04169814983896383,-0.0736330914846007,0.05320034408941865,0.034299687891662316,5492.757344608544
1684316111711106538,241,1684316111711106538,camera_1,310,0,0.9170681019530104,0.7607791829358177,6.674648664026077,0.9943826293489236,-0.06363392096581408,-0.04054736673041315,-0.07422817256855446,0.053074843672220595,0.03419507889250085,5497.197205195203
1684316111717990398,242,1684316111717990398,camera_1,311,0,0.9165547643714336,0.762673974568725,6.669858915701854,0.9941072781461333,-0.0631434175986584,-0.04126902620995013,-0.07784918642176204,0.047035691110068,0.03026154747805158,5499.486678949906
1684316111724718809,243,1684316111724718809,camera_1,312,0,0.9167686007128087,0.7639685107549236,6.670942037610074,0.9944513303281808,-0.06286233977138875,-0.04772349139381303,-0.06955103317825453,0.048414745600894094,0.03115681693641573,5501.524988481541
1684316111737477302,244,1684316111737477302,camera_1,314,0,0.9173571908054072,0.7675595173067228,6.673386158835114,0.9943658653163199,-0.06333603940390475,-0.04873071807394083,-0.06964473506555803,0.06318578863283619,0.04068895861437289,5496.680753968364
