%time,field.header.seq,field.header.stamp,field.header.frame_id,field.image_seq,field.transforms0.fiducial_id,field.transforms0.transform.translation.x,field.transforms0.transform.translation.y,field.transforms0.transform.translation.z,field.transforms0.transform.rotation.x,field.transforms0.transform.rotation.y,field.transforms0.transform.rotation.z,field.transforms0.transform.rotation.w,field.transforms0.image_error,field.transforms0.object_error,field.transforms0.fiducial_area
1684735151103921175,0,1684735151103921175,camera_2,1,0,0.7559608027417748,-0.17242582452072774,1.5074218785225133,-0.9676113168634692,0.08073524471660698,0.23846055819051878,-0.018620470610561816,0.005651635437970981,0.005082792432351856,2960.873150743428
1684735151124216794,1,1684735151124216794,camera_2,3,0,0.7573224699473331,-0.1721471759591193,1.5102111093743507,-0.968344369219032,0.08036844315896763,0.23568198934164497,-0.017438344129067026,0.003545873405528255,0.0031920600047195473,2959.824649910326
1684735151134328603,2,1684735151134328603,camera_2,4,0,0.7565323787731638,-0.1714672433099969,1.5086922064075983,-0.9678170251201323,0.07997161411854105,0.23799241712776678,-0.01715681242467546,0.0007673406798858196,0.0006900996102424963,2959.4738927118005
1684735151144761085,3,1684735151144761085,camera_2,5,0,0.7571751234573282,-0.17088865497615968,1.5101253164340989,-0.968116237591158,0.07952723094306995,0.23685227979188306,-0.018093302856466206,0.0046407642075791955,0.00417922326012849,2958.0818584149224
1684735151155132055,4,1684735151155132055,camera_2,6,0,0.7585522122772054,-0.17112337015015758,1.512950630133827,-0.9690253900620821,0.07898012935641423,0.23315970625563695,-0.01970999646522268,0.008727838765480556,0.007877258188137145,2957.7560524269934
1684735151164866209,5,1684735151164866209,camera_2,7,0,0.7560620417688422,-0.17070770632747986,1.5079236325408159,-0.9679296611977438,0.07939390249390507,0.2376031884813699,-0.01880170321794152,0.007607829786138609,0.0068372994112373894,2964.036146119586
1684735151174860000,6,1684735151174860000,camera_2,8,0,0.7569799760060733,-0.17128333172282667,1.509780642746337,-0.9682870286123085,0.07959642183807222,0.23605692799830474,-0.019020162873256162,0.002047246744041331,0.001843088843224034,2960.9653500623526
1684735151184930801,7,1684735151184930801,camera_2,9,0,0.7575895429027762,-0.17233142570605794,1.5107974778226216,-0.9683993307988353,0.08100940588205902,0.23516650802152314,-0.018355537910035365,0.0035966473660664633,0.0032411866549890167,2958.6452362668924
1684735151194960832,8,1684735151194960832,camera_2,10,0,0.7565430917705427,-0.17240265679268352,1.508638154238071,-0.9679687739894809,0.0805671158529945,0.23716949843290783,-0.017205273537912395,0.009986400022171438,0.008980450903563768,2960.954374124878
1684735151204708099,9,1684735151204708099,camera_2,11,0,0.7566034765525244,-0.17259541649761612,1.5087088829344102,-0.9679127176610957,0.08093112830837072,0.2372477064551448,-0.01756841604754407,0.009462003552471288,0.008512862561558383,2960.011859765742
1684735151214692592,10,1684735151214692592,camera_2,12,0,0.75679508183579,-0.17253725020492888,1.5090937817733876,-0.968024898925776,0.08095206337367802,0.23677708241115025,-0.017640060661706352,0.011074145906604826,0.009965488431879756,2960.057205106947
1684735151224540472,11,1684735151224540472,camera_2,13,0,0.7567833229356534,-0.17179973184191888,1.5091432173655237,-0.9679781106632049,0.08045290475694504,0.2371531010357357,-0.01743886642520706,0.004109159839572385,0.003697073915401166,2959.7983968451153
1684735151234625101,12,1684735151234625101,camera_2,14,0,0.7564249394846339,-0.1712703967185346,1.508535835550281,-0.9678379167369995,0.07968770818578362,0.2379805206804137,-0.017461611236128483,0.002273927384521812,0.002044698151236208,2960.2818952732487
1684735151244648694,13,1684735151244648694,camera_2,15,0,0.7567581251811832,-0.17093679664324735,1.5092708060742166,-0.9681315753986666,0.079340767991346,0.2367464120745018,-0.019427599452576185,0.007277216936927289,0.006550835732683147,2960.9838321895813
1684735151254592418,14,1684735151254592418,camera_2,16,0,0.7574825667687374,-0.17090026765863375,1.510765694278008,-0.9686132741845851,0.07920382672736251,0.23492375837112392,-0.018052885031088067,0.0035032248124480247,0.003153381174243551,2961.583880648717
1684735151264540672,15,1684735151264540672,camera_2,17,0,0.7562227982388967,-0.17087372451087826,1.5082765476435331,-0.96801720904923,0.07933371241306346,0.2371639012923029,-0.020053153944338535,0.00644423853373155,0.005796888652861069,2963.330182945473
1684735151275025606,16,1684735151275025606,camera_2,18,0,0.756055137053169,-0.17126867485489672,1.50789266153217,-0.9678775624431891,0.07939596426139037,0.23785924911147893,-0.01822862008376766,0.001517157128546387,0.0013634959008587025,2962.8469287997577
1684735151285060167,17,1684735151285060167,camera_2,19,0,0.7563252753216843,-0.17180596790809932,1.508321857071209,-0.9679063895570181,0.080332003967061,0.23740257068883208,-0.018547496425882343,0.0014758095203433186,0.001327377270198155,2961.732326510829
1684735151294893741,18,1684735151294893741,camera_2,20,0,0.7566238411695905,-0.1722828461900786,1.5088343804350224,-0.9681513163651562,0.08001228553337639,0.236736292876198,-0.015394493150990375,0.006437913223635405,0.005782772451485159,2962.4266629415783
1684735151305011510,19,1684735151305011510,camera_2,21,0,0.7573853484797071,-0.1727568936580205,1.5102507833779082,-0.9681907405429757,0.08110460576654392,0.23592889401798006,-0.019138699479085374,0.009821575455134735,0.008854971499565767,2957.362612947472
1684735151315267324,20,1684735151315267324,camera_2,22,0,0.756499636805789,-0.17232405587718824,1.5085258091721931,-0.9678966456374509,0.08082652273425418,0.23739689782748577,-0.016907675427050475,0.01027595229970757,0.009239295713679409,2960.8909376393995
1684735151324856519,21,1684735151324856519,camera_2,23,0,0.756887300343379,-0.1720468462216467,1.5093296077422855,-0.9678588179681289,0.08084115696258319,0.23755401381976252,-0.016796021564866735,0.004263293245458044,0.00383675780029409,2957.8006042924244
1684735151334820747,22,1684735151334820747,camera_2,24,0,0.7565778745536902,-0.1714834008472839,1.5087849232585637,0.9676814066570141,-0.07998972503303246,-0.2384949828270527,0.01773364784150441,0.0008404931431869045,0.000756463665228122,2957.3123546479037
1684735151344988107,23,1684735151344988107,camera_2,25,0,0.7571006124547933,-0.1708780188118643,1.5099561880016616,-0.9681889492980242,0.07922728432882999,0.23653270551908026,-0.01963351967658449,0.008792725697276182,0.00792164441411142,2959.03477250738
1684735151354943752,24,1684735151354943752,camera_2,26,0,0.7573447676005665,-0.17084262088071742,1.5104847628747464,-0.9683444978482962,0.07892362421679455,0.2362107725452397,-0.016866118729528357,0.008075993289821781,0.007267709259024124,2959.25895788672
1684735151365051507,25,1684735151365051507,camera_2,27,0,0.7570215729299312,-0.17092000662882786,1.50986658209388,-0.968412006834001,0.07962285347456308,0.23549271772419256,-0.019533717597653214,0.008985564025351778,0.0080889420942017,2962.6236644462915
1684735151374756813,26,1684735151374756813,camera_2,28,0,0.757357606641534,-0.1713897641997124,1.510551353050268,0.9684260062484131,-0.07911910281857491,-0.23564174582331207,0.019084171878122648,0.006301443907432258,0.005677246980658476,2959.165154666641
1684735151384790182,27,1684735151384790182,camera_2,29,0,0.7567232582942871,-0.17214942845070658,1.5090327470967775,-0.9679199396897304,0.08019574597610026,0.23745889905415948,-0.01768909094193235,0.0015448681806446984,0.0013903444813020257,2958.703537227585
1684735151394850492,28,1684735151394850492,camera_2,30,0,0.7568965274353723,-0.17250578913636766,1.5093705406962168,-0.9682324216870901,0.08089122968046956,0.23597308241858458,-0.017300026838315396,0.008770872955210507,0.007889692725633878,2961.732911412605
1684735151405074357,29,1684735151405074357,camera_2,31,0,0.7571118244629887,-0.1726899605449352,1.5096933722083763,-0.9680662994506395,0.0805506654387223,0.23677270628715713,-0.017260235304867932,0.016483933140989393,0.014842509798480999,2957.727589153219
1684735151415182113,30,1684735151415182113,camera_2,32,0,0.7577625030845843,-0.17275417982708102,1.510981848282171,-0.9684042023804631,0.08067674928039502,0.2352621952031423,-0.01833746017326442,0.014041459493455477,0.012659963280786871,2956.966750619002
1684735151424906730,31,1684735151424906730,camera_2,33,0,0.755881791733584,-0.17159504083527205,1.50734862356794,-0.9676070892136936,0.0806705064909147,0.2385607149051436,-0.01782065065729092,0.0009605488885426894,0.0008631241769113033,2962.334315481712
1684735151434732913,32,1684735151434732913,camera_2,34,0,0.7567058761849556,-0.1713254179366009,1.5090509279534836,-0.9679950817458118,0.0798932012892607,0.23728017303163665,-0.01734121073481439,0.0012609459809027612,0.00113406420608863,2960.4394338298594
1684735151444989681,33,1684735151444989681,camera_2,35,0,0.7564550489469695,-0.17087241881370335,1.5086343693650872,-0.9681195839375314,0.07944919657994924,0.23670647333753583,-0.020058460547316616,0.002514744715881534,0.002262586338434001,2963.2828841779847
1684735151454969406,34,1684735151454969406,camera_2,36,0,0.7579791632875683,-0.17100931453230778,1.5117650874989184,-0.9687772606919969,0.07940873122556236,0.23419355652778082,-0.017839581052432264,0.004455013346159831,0.004013214017054431,2959.998010665179
1684735151464925289,35,1684735151464925289,camera_2,37,0,0.7564696206681303,-0.17093920045044214,1.5087187692266484,-0.9679806250453888,0.07950707811301774,0.2372523978611834,-0.020085660949734012,0.003814615774899721,0.0034338055339905643,2961.2362795629297
1684735151474820137,36,1684735151474820137,camera_2,38,0,0.7570516441786697,-0.17148620429444666,1.509853478529723,-0.9681234670422852,0.07934163048971954,0.2368011036883562,-0.019159737086781932,0.0030089517240412533,0.002710863483730362,2958.0076894985978
1684735151484727382,37,1684735151484727382,camera_2,39,0,0.7565078401816709,-0.17185645899126245,1.5086774545183874,-0.9680040128680024,0.0805781227221659,0.23689190340110283,-0.018910931045782422,0.0019687164458446205,0.0017713754574059304,2961.7516982043153
1684735151494675159,38,1684735151494675159,camera_2,40,0,0.7558620525838851,-0.17213000448467475,1.5072750547530458,-0.9678029745841907,0.08035838143466717,0.23801678502050524,-0.015746204866421563,0.00524767093884293,0.004708848370570367,2964.4051411558185
1684735151504841566,39,1684735151504841566,camera_2,41,0,0.7565610697283247,-0.17256851532649214,1.5085736546971156,-0.9679794094086098,0.08061435899709814,0.23703161898933042,-0.018253758071771674,0.01073589373845607,0.009659508280783845,2960.8703334321044
1684735151514881849,40,1684735151514881849,camera_2,42,0,0.7570397619534637,-0.17245510384918222,1.5095855953889203,-0.9680949753261359,0.08033353824550782,0.23678433116258912,-0.01648702208196323,0.012512972403783351,0.011259108950246113,2958.742207749748
1684735151524665355,41,1684735151524665355,camera_2,43,0,0.7571153559988578,-0.17211092726154262,1.5097880084180313,-0.9681947393311251,0.08050319534107458,0.23622324647747475,-0.017797755337507534,0.0030286869878182188,0.0027264825519008355,2959.6569048205856
1684735151534709215,42,1684735151534709215,camera_2,44,0,0.7564839788678803,-0.17146172708632906,1.5085872988730376,-0.967736775590607,0.07997247749693748,0.23835337361140896,-0.01666149154659233,0.0008342845248989761,0.0007501715017128686,2958.9486428940436
1684735151544670104,43,1684735151544670104,camera_2,45,0,0.7575018680927488,-0.17096054897145646,1.5107420832665814,-0.9685621559855001,0.07914688970824742,0.23513524289685894,-0.01829036331147156,0.004874671998550184,0.00438910075374792,2960.7904468907514
1684735151554887771,44,1684735151554887771,camera_2,46,0,0.7574380355307843,-0.170867801246961,1.5106365328717215,-0.9684473275930314,0.07835352212329967,0.23591971093364558,-0.01767453653633959,0.005852412330568768,0.00526891208505431,2959.155839170446
1684735151564899682,45,1684735151564899682,camera_2,47,0,0.7561508767544983,-0.17073955384923523,1.5080816495632083,-0.9680864016155355,0.07871777338793172,0.23716122562100939,-0.01915161146930346,0.007756031831377186,0.0069709723276779574,2964.5711954652807
1684735151574663162,46,1684735151574663162,camera_2,48,0,0.7569550904013469,-0.17128526782859851,1.5096786944527831,-0.968237738630681,0.07908820692391377,0.23637422484989842,-0.019696772413653217,0.0014524311409331858,0.0013081270166649666,2960.005111476522
1684735151584436416,47,1684735151584436416,camera_2,49,0,0.7573027226556885,-0.17229077479000166,1.510206617035061,-0.9684533159779626,0.08015466748212512,0.23536458442671782,-0.016640806764007764,0.0033596942957956344,0.003022596635105199,2960.969257618767
1684735151594121456,48,1684735151594121456,camera_2,50,0,0.7568258443348553,-0.17247929433816436,1.50915820364642,-0.9681639727618815,0.08084752396515603,0.23630519142387282,-0.016794529489123775,0.009238232116331346,0.00830731896556015,2961.68770155811
1684735151604391574,49,1684735151604391574,camera_2,51,0,0.7565722676175395,-0.17259367103587178,1.508604074892619,-0.9679792892172046,0.08053349980903506,0.23709898832845905,-0.017734733961490314,0.017561701839440502,0.01579774290719265,2960.7529414150627
1684735151613544464,50,1684735151613544464,camera_2,52,0,0.7571300300778859,-0.1726154517880304,1.5097209982153734,-0.9680309682629529,0.08068193409457482,0.2368824616529837,-0.017122188991812674,0.017711023043375462,0.015947587417873985,2957.443486541276
1684735151623690843,51,1684735151623690843,camera_2,53,0,0.7560497614264088,-0.17164317757032307,1.5076248467145275,-0.9676140873958119,0.0802849722156326,0.23874015283060435,-0.016746358885601886,0.0008464115089736879,0.0007604619736378778,2961.0334529370293
1684735151634151697,52,1684735151634151697,camera_2,54,0,0.7561465669986139,-0.1712070069203861,1.5079404262247713,-0.9676219923115111,0.07973471565087027,0.2387898975703947,-0.018150480255279655,0.0020875600166618824,0.0018773741866916686,2959.781675325241
1684735151644183158,53,1684735151644183158,camera_2,55,0,0.7563263255712405,-0.17085514036217192,1.5083436997507664,-0.9678598836668393,0.07937398554626093,0.2378809167158193,-0.01896537553954026,0.00277311698300764,0.002494446503004652,2961.2187816024534
1684735151654555797,54,1684735151654555797,camera_2,56,0,0.7577783947575865,-0.1709638775706454,1.5112866860114593,-0.9683915155110966,0.07904251626930167,0.23592335900983932,-0.017615958147465027,0.003575453214580193,0.003221883846014376,2956.5943479689295
1684735151664742231,55,1684735151664742231,camera_2,57,0,0.7566777159854917,-0.17100010579981004,1.5091010841510561,-0.9680859340623413,0.07970764250383233,0.23670968740753467,-0.02061164439225384,0.002695752787985839,0.002427821790644532,2961.1297277874546
1684735151674601554,56,1684735151674601554,camera_2,58,0,0.7562764587023968,-0.17132395878651704,1.5082730773661077,-0.9678916655178298,0.07931193880791422,0.23779877647127312,-0.018630139355806225,0.0021346070716390386,0.0019197537543423468,2961.2929219193757
1684735151684735774,57,1684735151684735774,camera_2,59,0,0.7563038296428343,-0.1717985941676688,1.5082242985517735,-0.9678661788167989,0.08038277307554577,0.23756732107268347,-0.01831495710073983,0.00035567450686357915,0.0003198563630085176,2961.646850566031
1684735151695322036,58,1684735151695322036,camera_2,60,0,0.7561018840434501,-0.17217118603653128,1.5077644292468182,-0.9679410885177062,0.08002485341792347,0.2375376991051442,-0.016183741793294303,0.009762501227669418,0.008765045784679041,2963.8146872380767
1684735151704724073,59,1684735151704724073,camera_2,61,0,0.7572162401095548,-0.1727149818925237,1.5098795603350392,-0.9681680163380718,0.08062229756024258,0.23621653854014577,-0.018774562477526378,0.016042973802541383,0.014456341605004296,2958.0473943685656
1684735151714620828,60,1684735151714620828,camera_2,62,0,0.7566094790616887,-0.1723582138261634,1.5087026647272561,-0.9680036861706379,0.08027175918413869,0.23720787415032965,-0.016054054896576492,0.014106875081779435,0.012678847978691484,2961.0432258095825
1684735151724739551,61,1684735151724739551,camera_2,63,0,0.7573684295721005,-0.172167723604343,1.510259092208011,-0.968074621678091,0.08051020263965185,0.23681066323366393,-0.016442138321259778,0.0010665967856766656,0.0009604131137570564,2956.5136123562697
1684735151734799623,62,1684735151734799623,camera_2,64,0,0.7561910466309565,-0.17139001120709407,1.5079404138695174,-0.9676404066244444,0.07998263170071875,0.23875420910153194,-0.01646966090146959,0.0004497137415455654,0.0004040936392757043,2960.251331216655
1684735151744858026,63,1684735151744858026,camera_2,65,0,0.7572355195027285,-0.17091063615560462,1.5101829652212477,-0.968362310186719,0.07960689148147025,0.23579596911288372,-0.01836953969520989,0.00337701546959579,0.003039930556274192,2960.9010071306257
1684735151754998445,64,1684735151754998445,camera_2,66,0,0.7569829438654712,-0.17076843020422705,1.5097051803959534,-0.9684722732842254,0.07887358380082317,0.23552962306014977,-0.019136622461737314,0.002057684730971232,0.0018513822699824012,2963.3701124014337
1684735151764653205,65,1684735151764653205,camera_2,67,0,0.756294638181633,-0.17077339331094796,1.5083443070460916,-0.9678986367826139,0.07921392957524934,0.23775417055051837,-0.019244133169365307,0.0033048556360881776,0.0029727716560343964,2961.652282137542
1684735151774250030,66,1684735151774250030,camera_2,68,0,0.7562458290792966,-0.17114514831357897,1.5082308734770022,-0.9679628460758525,0.07917120655601305,0.2375210947984559,-0.01906772652792089,0.004197839545668103,0.0037750555891452407,2962.376919377013
1684735151784058332,67,1684735151784058332,camera_2,69,0,0.7563344410451714,-0.17207313533361646,1.5082353937818664,-0.9676603540531532,0.08054775016210972,0.2384546340506562,-0.016878585169273288,0.0029377815226325765,0.0026417495863672803,2959.0610996891055
1684735151794346332,68,1684735151794346332,camera_2,70,0,0.7572264979056843,-0.1725843574546217,1.5099534003233477,-0.968221978321108,0.08066663920224885,0.23606554706671617,-0.017667809820862943,0.012299942391109653,0.011075798164843016,2958.9226516115004
1684735151804299831,69,1684735151804299831,camera_2,71,0,0.7566166066837751,-0.17260203588977813,1.5086836097593561,-0.9678880998694931,0.08023946165251589,0.2375292723005619,-0.018278395036279482,0.01972444665443618,0.017755048729207537,2958.8632749198
1684735151814141750,70,1684735151814141750,camera_2,72,0,0.7571060546863151,-0.1726202835762296,1.5096720364094782,-0.9680434258548178,0.08044750339443682,0.2368630926816402,-0.01777639395824839,0.013546547124860808,0.012200925912364852,2957.3960062904507
1684735151823999166,71,1684735151823999166,camera_2,73,0,0.7562806286239298,-0.17168178100822146,1.5080617878493658,-0.9678563149498592,0.08019219529610518,0.23774041233701204,-0.017402924096188,0.0023985172883840278,0.0021556430837415064,2962.1402187603535
1684735151834369897,72,1684735151834369897,camera_2,74,0,0.756837963587524,-0.17136724790988753,1.5092879450748198,-0.9679295109707724,0.07985543954010958,0.23760058587412466,-0.01677892010858183,0.0010643910063663498,0.0009574947210866102,2958.7019142739
1684735151844288349,73,1684735151844288349,camera_2,75,0,0.7564466251902242,-0.17088036785987032,1.5085641354857648,-0.9678730806654227,0.07941058643944969,0.23777718852170746,-0.019433659029616333,0.0015290577575797215,0.0013760830715183574,2960.4512755917394
1684735151854158878,74,1684735151854158878,camera_2,76,0,0.7576706064040035,-0.1709491336772558,1.5110906055819098,-0.9685023409249138,0.07902254111913756,0.23542096235027393,-0.01832004650942047,0.0035604202712420374,0.003207738489223249,2958.611475145327
1684735151864027976,75,1684735151864027976,camera_2,77,0,0.7560772994675358,-0.1708586100348555,1.5079129052960158,-0.9677474867271173,0.07940624862225334,0.23828494805507808,-0.01948674276213145,0.003590901571442373,0.0032299880728484257,2961.433963002404
1684735151874496221,76,1684735151874496221,camera_2,78,0,0.7566757711805342,-0.17141513149457904,1.50905115003921,-0.9680957118313388,0.07926400033891282,0.2370509823223007,-0.017740991068098087,0.0015843989385757595,0.001425025180270261,2960.8967373787887
1684735151884272813,77,1684735151884272813,camera_2,79,0,0.7560415981793104,-0.17176277722209915,1.5077473165990152,-0.96783470803002,0.07986424608390066,0.23789140870207,-0.018037677113220206,0.002128634136170149,0.0019130589444807473,2962.640621298575
1684735151894085407,78,1684735151894085407,camera_2,80,0,0.7564076093560076,-0.17224787159818555,1.508359982664863,-0.96775184169886,0.0804365040780989,0.23814857249165905,-0.016480264571413914,0.011412322637625039,0.01026051812210697,2959.4665925409636
1684735151904034614,79,1684735151904034614,camera_2,81,0,0.7560240794270795,-0.17245565354332532,1.5074885807969785,-0.9673877742414907,0.08048952001594685,0.23941931913446884,-0.01899265755191995,0.0204304419021355,0.018391428494005345,2957.3941095144255
1684735151914324045,80,1684735151914324045,camera_2,82,0,0.7566124203986527,-0.1723654514503345,1.5086642380581803,-0.9680138141300302,0.08071511932825563,0.23700493217853705,-0.016216882817105295,0.011509811418363824,0.010344389814649831,2961.7124424576755
1684735151924297571,81,1684735151924297571,camera_2,83,0,0.757192954175012,-0.17213663253269595,1.509852450399859,-0.9681412649532265,0.08060883321309231,0.23643283918981695,-0.017441893688261774,0.005582270692684688,0.00502567928394833,2958.806556214812
1684735151934158325,82,1684735151934158325,camera_2,84,0,0.7562975327141281,-0.17143296226304694,1.5081655554816438,-0.9677547565678051,0.08021094317853694,0.2382126996267429,-0.0164816707689784,0.001739666739013046,0.0015631767484856744,2961.0553237420963
1684735151944001436,83,1684735151944001436,camera_2,85,0,0.7573703078143791,-0.17093860538213482,1.5104358851555282,-0.968264953490192,0.07944888248942893,0.23617585696706456,-0.01928262170167735,0.006652897835010663,0.005995311227607733,2958.342590195244
1684735151954452037,84,1684735151954452037,camera_2,86,0,0.7580389156050248,-0.17101392570332755,1.5118161513350745,-0.9687615018640505,0.07929103550937905,0.23431932252265078,-0.017565286404886082,0.005598904637736268,0.005043706383859252,2959.464723332202
1684735151964294910,85,1684735151964294910,camera_2,87,0,0.7567134623014778,-0.17087015082874016,1.5091613282911605,-0.9682107974464123,0.07963315644890473,0.2362623720876061,-0.020161935366045033,0.00581987266195938,0.005238805807306502,2962.637873271014
1684735151974181413,86,1684735151974181413,camera_2,88,0,0.7558238754796189,-0.17106152332534952,1.5073798534632783,-0.9679227562403536,0.07914117415657451,0.23770639428146445,-0.018917785887913006,0.0017829925200203434,0.001601685803684892,2965.1780142566413
1684735151984149456,87,1684735151984149456,camera_2,89,0,0.7563318869094241,-0.172074955378283,1.5082007198539227,-0.9678973568326606,0.08041027153430297,0.23757696647038365,-0.016311954844805007,0.003531422422383912,0.003172667823135172,2962.1002569798147
1684735151994280099,88,1684735151994280099,camera_2,90,0,0.7565368661239894,-0.17242969415413367,1.5085453964200715,-0.9677905023298682,0.0806874539023939,0.23783087926166924,-0.017537139232838787,0.020471074560191482,0.018419094664615287,2959.034424591112
1684735152004300355,89,1684735152004300355,camera_2,91,0,0.7554971266904439,-0.17234617788263562,1.5064161711704278,-0.9672052694730454,0.08009590729155705,0.24036730796940708,-0.017949083493492286,0.026319157012039796,0.02365876247084754,2959.0319427256472
1684735152014143705,90,1684735152014143705,camera_2,92,0,0.7573032849270658,-0.17267020113803527,1.5100241389304583,-0.9681949730740022,0.08080349283506837,0.2360259446358079,-0.019001134667700828,0.014116544640273787,0.012722958407213316,2958.0234495137115
1684735152024060726,91,1684735152024060726,camera_2,93,0,0.7561482445765598,-0.17167708356003963,1.5077884828965664,-0.9676717911907604,0.08052032086857351,0.23843960486586047,-0.016563130510258456,0.00280262777232565,0.002517953716869283,2961.3677866762746
1684735152034259557,92,1684735152034259557,camera_2,94,0,0.7555775772089346,-0.17108647757098522,1.5067658030562354,-0.9673368178735987,0.07949734709833467,0.24009132248946033,-0.017199112063384633,0.002000913198571652,0.0017971566887749848,2960.659866633475
1684735152044290304,93,1684735152044290304,camera_2,95,0,0.7559860333451492,-0.17077253655674166,1.507645177654423,-0.967663679023842,0.07930213421726717,0.23870259617616013,-0.01895379606807923,0.005264665072900243,0.004733701410792042,2961.4069123684912
1684735152054100990,94,1684735152054100990,camera_2,96,0,0.7576288127742213,-0.1709467412273601,1.5109795357879396,-0.9687045721297393,0.07888035228785056,0.23465511023101338,-0.01806436271653686,0.004946745946654119,0.0044533169812914905,2961.446698282496
1684735152063819885,95,1684735152063819885,camera_2,97,0,0.7568613452358002,-0.1710476745279937,1.5094608649346246,-0.9682016868724863,0.07976168065426578,0.23622329182229726,-0.020545662245759485,0.0023091729963198304,0.0020799419783308942,2961.2302914799643
1684735152074197530,96,1684735152074197530,camera_2,98,0,0.7566656854212346,-0.17142102693742203,1.5090235040068831,-0.9681399501625069,0.07955047895007025,0.23668146880082133,-0.018937806748382073,0.0008229796367231756,0.0007405146030801988,2961.629177043681
1684735152084127664,97,1684735152084127664,camera_2,99,0,0.7559631141238539,-0.17174166710823524,1.5075307694125557,-0.9677734846890045,0.08017662737947305,0.238071106757617,-0.017559580922044668,0.005794507567770779,0.005205729117916653,2963.094636834692
1684735152094116449,98,1684735152094116449,camera_2,100,0,0.7568925640543418,-0.1723603986435937,1.5092650036241941,-0.9681780079693209,0.07996639725022438,0.23656534692897674,-0.01653955343260463,0.011181434281752445,0.01005513227499981,2960.682208372861
1684735152104036808,99,1684735152104036808,camera_2,101,0,0.7563478610139843,-0.172541904157349,1.5080749894323198,-0.9676807063548963,0.08028624513909792,0.23829233872242928,-0.01910315932375474,0.01624140838976018,0.014622240813091918,2958.452497272404
1684735152114324331,100,1684735152114324331,camera_2,102,0,0.7565776622695645,-0.17237868048297272,1.5085766782789243,-0.968110734491936,0.08025771780830893,0.23676617009100653,-0.01618904549758344,0.012374230282148346,0.011117881533706074,2962.7336810540874
1684735152124336481,101,1684735152124336481,camera_2,103,0,0.7571040437300781,-0.17211437259518453,1.5096866511728901,-0.9680729715382115,0.08051887948588952,0.23685417093512304,-0.01585980876775021,0.004858710934058763,0.004370551180554569,2958.805299605592
1684735152134200811,102,1684735152134200811,camera_2,104,0,0.7563225494174591,-0.17144216138500348,1.5081678129969913,-0.9676991154208316,0.0802755926144794,0.23836688449390087,-0.017189520668291706,0.00019518595945555717,0.00017547462525218665,2960.2174274978465
1684735152144087553,103,1684735152144087553,camera_2,105,0,0.7562462339202423,-0.17068667812964422,1.5081675643227395,-0.9678064355404883,0.07938105902407354,0.23805664075776803,-0.019452161467521215,0.004424486614880152,0.00398030341773337,2961.329403563634
1684735152154451608,104,1684735152154451608,camera_2,106,0,0.7580390114404736,-0.171017179168766,1.511789538633786,-0.9687991034997256,0.07886533745342285,0.23427976887274868,-0.01793168992083883,0.005347379221348092,0.004817675458823177,2959.484915258945
1684735152164251089,105,1684735152164251089,camera_2,107,0,0.7564528798113009,-0.17080984342942934,1.5085926975490485,-0.9679262210436195,0.07932465884871119,0.23757443337660333,-0.01961677140968059,0.005319813688402064,0.00478752928472612,2960.997666125649
1684735152174252271,106,1684735152174252271,camera_2,108,0,0.755692635485462,-0.1710327463985031,1.5070737171213369,-0.9676051686423853,0.07975639492820534,0.23876666882086903,-0.01922584054814393,0.003047257792786695,0.0027387990669864456,2962.9408952981457
1684735152183910846,107,1684735152183910846,camera_2,109,0,0.7566016711912649,-0.1721500085491781,1.5087255282121388,-0.9681652580785186,0.08029154232894614,0.23652705716603337,-0.016255845366228917,0.0066696904541458935,0.005992154596697372,2963.2710890673343
1684735152194233894,108,1684735152194233894,camera_2,110,0,0.756842241521265,-0.17251002686026662,1.5091353329551218,-0.9680238428829511,0.08034662958000956,0.23695992593024442,-0.01800700498110896,0.020166804679320194,0.018153981830705018,2959.1563608460146
1684735152204123973,109,1684735152204123973,camera_2,111,0,0.7563388181321544,-0.1725434163512856,1.5080871430155856,-0.9676059046217909,0.08014795986058944,0.2387805156592433,-0.01729113104273542,0.016741430925321765,0.015061568888915505,2957.682768431026
1684735152214153051,110,1684735152214153051,camera_2,112,0,0.755853316309355,-0.17234083811381953,1.5071160439222049,-0.9674421013566356,0.08043008252887368,0.2392326064032686,-0.018829295806128216,0.013325537103810348,0.01198673130058493,2959.561248366954
1684735152223809480,111,1684735152223809480,camera_2,113,0,0.756175503055753,-0.17167742469073283,1.5078419382646266,-0.9675822820157397,0.08069679110112177,0.2387228116897635,-0.01685154634237649,0.004437122857780196,0.003988164353520167,2960.179989051074
1684735152234075546,112,1684735152234075546,camera_2,114,0,0.7567616719705024,-0.17136820403626973,1.5090848322559582,0.967980461559281,-0.07980167162707082,-0.23739765157700235,0.01696685800997788,0.0008887750736903399,0.0007992953758555765,2959.964463227894
1684735152244056463,113,1684735152244056463,camera_2,115,0,0.7563467178914386,-0.17085838904976872,1.5083157371871492,-0.9677667359769252,0.07958633414946095,0.23812051586849392,-0.019803536950279633,0.002754909059149213,0.0024796420400527083,2960.157331567025
1684735152254170894,114,1684735152254170894,camera_2,116,0,0.7572128195723914,-0.170851774922923,1.5100962963042783,-0.968303837094203,0.07903651377736103,0.2362074480771881,-0.0186265947351336,0.00501683124457486,0.004517086735220935,2959.8827700708052
1684735152264780282,115,1684735152264780282,camera_2,117,0,0.7567515889509739,-0.17102262702790033,1.5092104741914232,-0.9679296308373284,0.0794470585351617,0.2375638226029236,-0.019074192709272044,0.002665098989382386,0.0023997583668571025,2958.6846904801205
1684735152275057554,116,1684735152275057554,camera_2,118,0,0.7566897866963842,-0.17142110618500442,1.5090460913310275,-0.968066834639699,0.07951360868239014,0.23703845351967007,-0.0183565045142242,0.0027790058084065095,0.0025004040470640245,2960.674882735707
1684735152284805774,117,1684735152284805774,camera_2,119,0,0.7565231802486211,-0.17187478095771208,1.5086206478816089,-0.9677190836122216,0.08046463269356788,0.2381715897207357,-0.017874897149608812,0.0010403376363683492,0.0009362283633404751,2958.335117184557
1684735152295098304,118,1684735152295098304,camera_2,120,0,0.7570563918246844,-0.17240205240190873,1.5096022300411092,-0.9681877042940691,0.08009842723631944,0.23651306244919607,-0.016074280666673157,0.012988763191970065,0.011682412778547063,2959.718581095453
1684735152305113792,119,1684735152305113792,camera_2,121,0,0.7560414520378684,-0.17247913031035367,1.5074725337202148,-0.9675730126749833,0.08046554437396998,0.23870437884540394,-0.01865424433439274,0.016968135052593425,0.015264731946871501,2959.741215867922
1684735152315116405,120,1684735152315116405,camera_2,122,0,0.7568773593490619,-0.1724336359235934,1.5091724222924485,-0.9679213957649815,0.08054444135007531,0.23733657001121586,-0.01766683682173172,0.018020533549133688,0.016223344832653235,2958.0783451511525
1684735152324936151,121,1684735152324936151,camera_2,123,0,0.7573772534752485,-0.1721831787473791,1.5101832112707783,-0.968195562527167,0.08055170861109491,0.23628696045853056,-0.016650743521083006,0.005414076047600247,0.004873828201504051,2958.2319877049886
1684735152335018634,122,1684735152335018634,camera_2,124,0,0.7565831308784277,-0.17149853412346355,1.5086831656264237,-0.9676236956253492,0.08003310937980744,0.23880505931711193,-0.016469022797120984,0.0010302868613507599,0.0009267325800353115,2957.121711427114
1684735152344873905,123,1684735152344873905,camera_2,125,0,0.7568117515708301,-0.17083908749674453,1.509269889936779,-0.9680302472554769,0.07983675252348381,0.23700803684880972,-0.01925418952014095,0.00355395206133835,0.003199542304945319,2960.2909705099887
1684735152354993343,124,1684735152354993343,camera_2,126,0,0.7577927222361275,-0.17096931763872927,1.5112770136316214,-0.9684156013421997,0.07922057667238391,0.2356720962457671,-0.018814525235743562,0.005053969114669599,0.004556621582264114,2956.8674653108465
1684735152364838361,125,1684735152364838361,camera_2,127,0,0.7562136008133953,-0.17076945954042044,1.5081170182805161,-0.9678800041792591,0.07977712557469616,0.23759713732781032,-0.019786563082714394,0.00751269335160032,0.0067578363099491615,2962.731348483473
1684735152375084638,126,1684735152375084638,camera_2,128,0,0.756879076627209,-0.17128926897386262,1.5094555708811583,-0.968177901542397,0.07961306700079256,0.23653506838804803,-0.018559955558931664,0.0026273006515111774,0.0023645387755735765,2960.7981404683105
1684735152385051965,127,1684735152385051965,camera_2,129,0,0.757154571746912,-0.17226966553972733,1.5098098945540634,-0.9682050191940467,0.08051809829485262,0.23628544552056369,-0.016280813541866238,0.007041618009679951,0.0063347350358786665,2959.745053509367
1684735152395284891,128,1684735152395284891,camera_2,130,0,0.7568789429200038,-0.17253499868516506,1.5092284761956805,-0.9678316658239485,0.08035088438984322,0.2377252108258975,-0.018229814699923724,0.013386623541009612,0.01205919492043566,2956.333053926937
1684735152405056238,129,1684735152405056238,camera_2,131,0,0.7560693505746853,-0.17250497703945628,1.5075311538722873,-0.9674504494558319,0.08028976902376243,0.23930370787277735,-0.018080825096221952,0.01875482733885292,0.016874126716094222,2957.866201111115
1684735152415009737,130,1684735152415009737,camera_2,132,0,0.7564092128226921,-0.17245394015667603,1.5081455073507926,-0.9677406563894885,0.08031230548000683,0.2380640934241494,-0.018800079294138423,0.024219665094278753,0.021800156367471193,2959.0988071660963
1684735152424888610,131,1684735152424888610,camera_2,133,0,0.7567085037137544,-0.17180453434142934,1.5088956165757947,-0.9679498484037264,0.08055172961591794,0.2372704438836934,-0.016948341816297525,0.005997005326207727,0.005393076499713962,2960.4796031032465
1684735152434856891,132,1684735152434856891,camera_2,134,0,0.7567145637039595,-0.17134717685988926,1.5089771079391603,-0.9680298245912621,0.07983022519946072,0.2371460498169517,-0.017525549995069993,0.0032416203757748008,0.0029153504713455938,2960.947305500274
1684735152444802761,133,1684735152444802761,camera_2,135,0,0.755561205086558,-0.1706908526401429,1.5066957039179432,-0.9674862123360787,0.07884006388772916,0.23956149355412562,-0.019104032869621836,0.003063549753278494,0.0027528351795307205,2962.2369553027675
1684735152455034971,134,1684735152455034971,camera_2,136,0,0.7570618110442228,-0.17082776311646825,1.5098097697391932,-0.9682989884976929,0.0791492979689311,0.2361397923457034,-0.019247232951741678,0.005889677267987281,0.005302656335722875,2960.958042423822
1684735152464699029,135,1684735152464699029,camera_2,137,0,0.75595848984616,-0.17084379592137122,1.5075830564971096,-0.9678596998085222,0.07950299825309658,0.2378110015778838,-0.01930808856022192,0.0017188381170853972,0.0015448523455918325,2964.1549936061474
1684735152475173234,136,1684735152475173234,camera_2,138,0,0.7560695406907662,-0.17128267762033528,1.5077641327306375,-0.9677244517971454,0.07980042056076135,0.23841366857452934,-0.017326306850411442,0.0014015533088240772,0.0012593196713695737,2961.835956127032
1684735152484456777,137,1684735152484456777,camera_2,139,0,0.7561748877584972,-0.1718022663516585,1.507906058327931,-0.967710367052555,0.08031079385346031,0.23828214425644312,-0.01756250603382049,0.004734219721285625,0.004256019484402261,2960.8986906252094
1684735152493939638,138,1684735152493939638,camera_2,140,0,0.7567777434096067,-0.1723254737564212,1.508998567446204,-0.9680591926758345,0.07999770648359515,0.23704063133516506,-0.016538002582004243,0.015147071360843256,0.013620867704819278,2960.24138520239
1684735152503515481,139,1684735152503515481,camera_2,141,0,0.7567082654639051,-0.17262243931475674,1.5087695636610052,-0.9676966954513427,0.08047205974599184,0.23810529974095807,-0.019829761674245102,0.018042661671643145,0.016264139395848587,2955.9712381744753
1684735152513534307,140,1684735152513534307,camera_2,142,0,0.7574221906329458,-0.17255582541046202,1.5104015399401607,-0.9694359396976127,0.08740118029956467,-0.22491630123250705,0.04435820042267282,0.023568549790070392,0.02122282815826018,2958.5929451878187
1684735152523505687,141,1684735152523505687,camera_2,143,0,0.7568788979180244,-0.1720923556662597,1.5091838704663174,-0.9680970578006431,0.08078975952245607,0.23660114518869613,-0.01676304057859143,0.007100501621607691,0.006385424892635887,2961.1177683975548
1684735152533672332,142,1684735152533672332,camera_2,144,0,0.7562389132239457,-0.17144100905830156,1.5079804712216913,-0.9677398885395927,0.08025258747556187,0.23830283943014532,-0.015836257524563312,0.001525502244476229,0.0013700417112073096,2961.6529715436054
1684735152544502496,143,1684735152544502496,camera_2,145,0,0.7571651926145775,-0.17091521001559226,1.509948919729468,-0.9681816511354159,0.07945953282222415,0.23647056719713405,-0.01980262350901371,0.0022878571471665055,0.0020614215369480775,2958.9929137215936
1684735152556121110,144,1684735152556121110,camera_2,146,0,0.7571613789081053,-0.1708369726510831,1.509966480834625,-0.9683895021202218,0.07898943364310562,0.2358479606595165,-0.018925670631120186,0.000554056212422438,0.0004987444908565672,2961.317732804222
1684735152564906358,145,1684735152564906358,camera_2,147,0,0.7559894137134898,-0.17072334849400506,1.507644823256185,-0.9678543537878962,0.079393919158501,0.23780870868676726,-0.020039299568589033,0.004350359085947275,0.0039117280294157335,2963.769561984576
1684735152574666976,146,1684735152574666976,camera_2,148,0,0.7564082849739312,-0.17118615833732156,1.5084402411790476,-0.9678955895104328,0.07979653444290585,0.23754294697792644,-0.01959564334734088,0.0013132951862644404,0.0011818553438104978,2961.136156288907
1684735152584088087,147,1684735152584088087,camera_2,149,0,0.7572034083281334,-0.17228034810147894,1.509898882514788,-0.9684673730522226,0.08033616627922938,0.23527400743558335,-0.016223105315704013,0.008380948042031378,0.007535419266736282,2962.499038134584
1684735152594262599,148,1684735152594262599,camera_2,150,0,0.7572566344348454,-0.17260525545579258,1.5099207506523007,-0.9681413106167888,0.08014211538704272,0.23651639802422306,-0.01842925620158762,0.017652344205998816,0.015906149846149867,2957.209318094303
1684735152604304313,149,1684735152604304313,camera_2,151,0,0.7564581900161086,-0.17257675893088387,1.5082782813555007,-0.9675734904210167,0.08017750763422711,0.2387655252751864,-0.01908223897026682,0.025371829528012316,0.02285551250970215,2956.1699412671146
1684735152614154577,150,1684735152614154577,camera_2,152,0,0.757163525820645,-0.17265102325332035,1.5096756964634037,-0.9680081785251223,0.08058383745912549,0.23683311849084468,-0.019403232584747094,0.016273846005788073,0.014671558556077647,2956.633755358286
1684735152623898029,151,1684735152623898029,camera_2,153,0,0.7566296457282222,-0.17178142937655336,1.5086923912227124,-0.9679727870193372,0.08080070316783716,0.2370601533596338,-0.017390044471101065,0.008225772384321317,0.00739658357330742,2961.7135126061034
1684735152634035825,152,1684735152634035825,camera_2,154,0,0.756625212100904,-0.17133528921388255,1.5087705663335222,-0.9678915729781694,0.07984013893946192,0.23774587940086783,-0.016980930477458033,0.001714249447104521,0.0015414033935755903,2960.0783282500925
1684735152644030809,153,1684735152644030809,camera_2,155,0,0.7561533213619381,-0.1708333811158238,1.5079006243239226,-0.9678263336467897,0.07957403209561824,0.23785459723705502,-0.02013335265316606,0.0020954615611117333,0.0018850984574779544,2962.408486064407
1684735152653838396,154,1684735152653838396,camera_2,156,0,0.7576582214603518,-0.17095241523594282,1.510924542251562,-0.9683931092532034,0.07920593159651187,0.23573688380213714,-0.019217907432906696,0.004205368415568955,0.003790895020139957,2957.7632085423693
1684735152663827896,155,1684735152663827896,camera_2,157,0,0.7563125544525563,-0.1709325546494256,1.5082953938079828,-0.9679504016297948,0.07934922180748977,0.2375001857414181,-0.019219332872313227,0.005271179208648391,0.004740886521088301,2962.3567316529816
1684735152674506902,156,1684735152674506902,camera_2,158,0,0.7560763960553676,-0.1712932250132887,1.5077739495820162,-0.9677756356634344,0.07955285736476417,0.23828004433745292,-0.017443691463633615,0.0014558561524609104,0.001308081358728905,2962.1373207033616
1684735152684258222,157,1684735152684258222,camera_2,159,0,0.7566766153864373,-0.17190208760658499,1.5088871354431033,-0.9677407010517554,0.08039414712519899,0.23814677804513357,-0.017344415314183965,0.005947830111836083,0.005352957811632085,2957.5632777445726
1684735152693978071,158,1684735152693978071,camera_2,160,0,0.7564210901228267,-0.17226079991110432,1.5083031699468237,-0.9679514081295574,0.08018574848325478,0.23735370501841183,-0.017422283266558685,0.013913639253587462,0.012509007320081386,2961.6491484571006
1684735152703979492,159,1684735152703979492,camera_2,161,0,0.7557168047935322,-0.1724078208722215,1.506794317429919,-0.9674146095410354,0.08017403216726884,0.2394306754478849,-0.018816202251714893,0.019363760206033476,0.01741364376264978,2960.0257025421597
1684735152714251995,160,1684735152714251995,camera_2,162,0,0.7568897118877156,-0.17245348603699245,1.5091217666767334,-0.9680198248452119,0.07996901046947967,0.23712363127634672,-0.01774710008697195,0.017114200527430512,0.015404728834204236,2958.7630072492193
1684735152724305152,161,1684735152724305152,camera_2,163,0,0.7576154275388913,-0.17224843427160566,1.5106267181394457,-0.9681798017288463,0.08061225624729533,0.23628779116146184,-0.017251533701373903,0.011514099154737778,0.01037510388421845,2956.214144348982
1684735152734196901,162,1684735152734196901,camera_2,164,0,0.7573356299496632,-0.17168283944554877,1.5100987923170273,-0.9680891103097398,0.08014104425647363,0.23691833222048664,-0.015830078428163592,0.001922104536788538,0.0017296019586337443,2957.5441279248344
1684735152743944406,163,1684735152743944406,camera_2,165,0,0.756864774812192,-0.170848947988209,1.5093308593183066,-0.9680722814237457,0.07966148656739441,0.2368847708387525,-0.01938326189186758,0.005105759613798,0.004596966800987363,2960.322614334758
1684735152754199504,164,1684735152754199504,camera_2,166,0,0.7581800363706038,-0.17105712397274564,1.5120090290615147,-0.9685089561441167,0.07916542470601166,0.23525608863912031,-0.019437339271944333,0.0038756106805521995,0.003497901659532267,2954.961660467786
1684735152764271259,165,1684735152764271259,camera_2,167,0,0.7565544394142725,-0.17084566016141475,1.5087699330979578,-0.9678236017017264,0.07976864720158149,0.23787406874533865,-0.019244904033673328,0.004320304753491655,0.003889069322059663,2959.515847594477
1684735152774049758,166,1684735152774049758,camera_2,168,0,0.7569773396858716,-0.17133437726401818,1.5095963529087217,-0.9680256482121293,0.07936539749126724,0.23720709385459626,-0.018980851129409688,0.0016500741621712223,0.0014863033801270802,2957.894769700709
1684735152783835649,167,1684735152783835649,camera_2,169,0,0.7568797169713799,-0.17221319588310482,1.5092040856765134,-0.9681808557470344,0.08061630253295476,0.2362816305992959,-0.017257849581954136,0.008783481505815871,0.007899971921258589,2961.672114729067
1684735152794107913,168,1684735152794107913,camera_2,170,0,0.7572071840384529,-0.17258726153597964,1.5097930119260659,-0.9682253477433965,0.08024266856410787,0.23612277017474925,-0.01862330620196493,0.014658592772320844,0.01320465670073986,2958.8093858821085
1684735152803999900,169,1684735152803999900,camera_2,171,0,0.7568301680891348,-0.17267577822565408,1.508984828299872,-0.967954949050196,0.08011482029132797,0.2372571225213638,-0.018811964060235567,0.016309660742990673,0.014689474930145312,2958.1161754645864
1684735152814131498,170,1684735152814131498,camera_2,172,0,0.7560366414348454,-0.17238678454773887,1.5073741891179844,-0.967501391868531,0.08041716957912913,0.23898517047117035,-0.018979564383903122,0.02534609186113812,0.02280715019982263,2959.1365762453065
1684735152823939323,171,1684735152823939323,camera_2,173,0,0.7565547067669519,-0.17176348605931802,1.508518762759333,-0.9679402872241301,0.0804016964487305,0.23739142300052732,-0.016506964058229892,0.008879585366230458,0.007980172587518678,2961.688466011313
1684735152833974838,172,1684735152833974838,camera_2,174,0,0.7565075686338624,-0.17129674431472974,1.5085255877630142,-0.9679126391853523,0.0800140981308198,0.237582892689015,-0.017240536739840922,0.0018837494717445225,0.0016933814780871958,2961.451909163734
1684735152844192743,173,1684735152844192743,camera_2,175,0,0.7557328954209813,-0.17073133259362638,1.507011559598524,-0.9673967455608237,0.07980317454432649,0.2396090869129539,-0.019038788819546376,0.004549700941424817,0.004090398352014134,2960.888129701024
1684735152854647636,174,1684735152854647636,camera_2,176,0,0.7568922064926144,-0.17078959853521167,1.5093949053444855,-0.9681282592952772,0.07937898338330768,0.2368034126265623,-0.01872950398016734,0.004747943094116636,0.0042731413977569604,2960.6783914221455
1684735152864862680,175,1684735152864862680,camera_2,177,0,0.7559277065170794,-0.1708448412866685,1.5075101777699675,-0.9677452439790512,0.0793573025501124,0.23820219083194002,-0.0207672234726032,0.003343751042848453,0.0030082329483312165,2962.5568776865257
1684735152874971389,176,1684735152874971389,camera_2,178,0,0.7566984270081706,-0.1714370297911715,1.5089737195235533,-0.9678633055376129,0.07961892064644295,0.23792585932209231,-0.01710949253323343,0.0008755638846196234,0.0007876394775644337,2958.6119748733477
1684735152885106086,177,1684735152885106086,camera_2,179,0,0.7564987121081592,-0.1718687593256893,1.5084941708370538,-0.9680209987044779,0.08076470136146613,0.23677918790504215,-0.018655435031301095,0.006607631017686799,0.005943222064826003,2962.740542361862
1684735152894949674,178,1684735152894949674,camera_2,180,0,0.7570290428057195,-0.1724012199564547,1.5094752236597702,-0.9682350933428542,0.08055363293368993,0.23613971339795045,-0.016430215971581237,0.013046580090303905,0.0117328419020295,2961.1555332073485
1684735152904975414,179,1684735152904975414,camera_2,181,0,0.7563623982571536,-0.1725495889511035,1.508020364952264,-0.9677151965522659,0.0800978680536694,0.2382084631465031,-0.019192654335643596,0.02434023686510045,0.021912689750788295,2958.784332009497
1684735152915101528,180,1684735152915101528,camera_2,182,0,0.7568138452227254,-0.17243506068563455,1.508960546804747,-0.9679801169330393,0.07996716701351048,0.2373062930433157,-0.017477663006625125,0.016690866046701554,0.015019926955348565,2958.93709699763
1684735152924860715,181,1684735152924860715,camera_2,183,0,0.7574223344829993,-0.17221537877419293,1.510237997542963,-0.9681447814877112,0.08050448445758016,0.23646142108046878,-0.017340888124211237,0.005403072544140741,0.00486675956680665,2957.133981500985
1684735152935102462,182,1684735152935102462,camera_2,184,0,0.756943916030267,-0.17160651916104014,1.5093373470514992,-0.9678399938703391,0.08002614641011858,0.23794985458486123,-0.016168761821851816,0.0008386998233618215,0.000754555269871728,2957.218874000361
1684735152945020675,183,1684735152945020675,camera_2,185,0,0.7566367113006909,-0.1707942936056535,1.508861426263844,-0.9680620800145716,0.08008639840661032,0.23680509630538055,-0.01911346101359908,0.006272985090618022,0.005643498485169608,2962.534278076958
1684735152955014705,184,1684735152955014705,camera_2,186,0,0.756984706672422,-0.17079970928816854,1.5095844618502225,-0.9682938604502412,0.0790246101959316,0.23624221566153578,-0.018754368479859625,0.00157342322927434,0.0014158767225760538,2961.6544116334985
1684735152964675188,185,1684735152964675188,camera_2,187,0,0.755877089512803,-0.17069144719691254,1.507364481278595,-0.9676689029812572,0.07945389840014735,0.23862243162203728,-0.019060623254652083,0.003964184856158681,0.0035631415180546726,2962.716940221959
1684735152974826097,186,1684735152974826097,camera_2,188,0,0.7563869424966305,-0.1711958442830564,1.5083679540334156,-0.9677812154595191,0.08027080662624853,0.23785078839167748,-0.019573427618200245,0.0004174304340267554,0.0003757049859753536,2960.451026994385
1684735152985086202,187,1684735152985086202,camera_2,189,0,0.7567537913618451,-0.17218879574376317,1.5089274566999664,-0.9680127144029791,0.08035891187085115,0.23714026432039875,-0.016072494366487656,0.013295153301442042,0.011951929572800385,2960.558048162144
1684735152994734048,188,1684735152994734048,camera_2,190,0,0.7571890984196122,-0.17259488866783834,1.5097263616116332,-0.9680164373391822,0.08012282087302693,0.2369822886822189,-0.019076306441329818,0.018003728502662852,0.016229675937014024,2956.1860672691837
1684735153004999399,189,1684735153004999399,camera_2,191,0,0.756869659340912,-0.17268137527729577,1.5090393608003185,-0.9677575854060786,0.08003616226570724,0.23806875916544423,-0.019045590781066244,0.022799021913670003,0.020549186936143358,2955.2769911438213
1684735153014913082,190,1684735153014913082,camera_2,192,0,0.7562394511053505,-0.17244130171926408,1.5077873690416312,-0.967734536047465,0.08035005617521297,0.2380524566561563,-0.01909879822415064,0.0180572054523509,0.01624835312171621,2960.3540699699656
1684735153025234699,191,1684735153025234699,camera_2,193,0,0.7560161373281462,-0.17164348639944502,1.5074406597905778,-0.9674571721974441,0.08065719276098486,0.2392982701607181,-0.016042914876369937,0.006400825994205661,0.005749810361130719,2960.191131696105
1684735153035072088,192,1684735153035072088,camera_2,194,0,0.7568297275347347,-0.1713814380932222,1.5091505308638464,-0.9680483675201185,0.07984441093738871,0.23708085375776672,-0.017317533461313695,0.0006382300343830138,0.0005740442909758961,2960.468627643654
1684735153045073747,193,1684735153045073747,camera_2,195,0,0.7561036495258822,-0.17082574317214427,1.5077578221178842,-0.9677142146572429,0.07964818669487479,0.23840478387405378,-0.018668801046122528,0.0014059263630770147,0.001263978939065297,2961.842238693849
1684735153054514884,194,1684735153054514884,camera_2,196,0,0.7569336072071358,-0.17079782096445165,1.5094495867243478,-0.9681126491490731,0.07947911627177824,0.23674430009687933,-0.019826875847173044,0.0032499887893209234,0.002926923314951039,2960.155199527042
1684735153064660549,195,1684735153064660549,camera_2,197,0,0.7566527223427738,-0.17101470135185448,1.5089335582599626,-0.9680512301187102,0.07938078667508976,0.23704209752018468,-0.01966088949481522,0.001969549310160801,0.0017728555582216124,2961.013326320681
1684735153075311660,196,1684735153075311660,camera_2,198,0,0.7562026646602875,-0.1713346918745326,1.507972908523768,-0.967776666214648,0.07959829905764436,0.23830319331671612,-0.016852987054151714,0.0013993912725709379,0.001257315368972252,2961.449739370496
1684735153084613084,197,1684735153084613084,camera_2,199,0,0.7563623490374147,-0.1718472680510547,1.5081812370785053,-0.9677134462497292,0.08042400851247758,0.23824138874915382,-0.017427148049291147,0.005690767211490311,0.005117529285163246,2959.898549411331
1684735153094903707,198,1684735153094903707,camera_2,200,0,0.7572547047494134,-0.1724442832129468,1.5098833943418444,-0.9682468627412211,0.08033749404755341,0.23608886968313095,-0.017491296512385672,0.017451142019126564,0.01571112230122472,2959.2411318729864
1684735153104711771,199,1684735153104711771,camera_2,201,0,0.7562872735567916,-0.17253171321158622,1.507846492034134,-0.9677130819948849,0.07993210372018855,0.23824290639682055,-0.019559327248706727,0.011318050906993449,0.010188956298722447,2959.1512669926733
1684735153115109443,200,1684735153115109443,camera_2,202,0,0.7571371972590744,-0.17249337628187014,1.5095617256298315,-0.9680523409826562,0.07984369757096264,0.23702032456154687,-0.01791688647435528,0.01927142906060908,0.01735713561051603,2957.249325466574
1684735153125133991,201,1684735153125133991,camera_2,203,0,0.7574039492047576,-0.17221367271687538,1.5101907548615952,-0.9681827859116499,0.08065088454488357,0.2363267619991763,-0.016345930670011888,0.008862453119945712,0.007977445594057017,2958.126125313109
1684735153135048389,202,1684735153135048389,camera_2,204,0,0.7572347925050766,-0.17165791028529437,1.5098950820879922,-0.9681481690039638,0.08055025746199145,0.2364416282709172,-0.017208582093727807,0.00172018249577377,0.001548263637352515,2959.281746906112
1684735153145249605,203,1684735153145249605,camera_2,205,0,0.7559967930267301,-0.17067183363987593,1.507530104053436,-0.967674003651522,0.07945256949580086,0.23863752728839654,-0.01861296395604452,0.0009356782247778028,0.000840996131396436,2962.176386883947
1684735153155304908,204,1684735153155304908,camera_2,206,0,0.7571132265755153,-0.17081186837038334,1.5098390315516472,-0.9683308660254305,0.07898177523943527,0.23611530624705818,-0.018621902113505936,0.005184347814065404,0.004666116302145234,2961.128346913728
1684735153164776086,205,1684735153164776086,camera_2,207,0,0.7560727194032235,-0.17074377915849914,1.5077325547645166,-0.9679238145949972,0.07914915124396674,0.23768249750672568,-0.019129332873743344,0.001395187748130411,0.0012539172005338317,2964.100272210315
1684735153174728393,206,1684735153174728393,camera_2,208,0,0.756720067247044,-0.1712799478657994,1.509022955075305,-0.9679373934613075,0.07961192476603943,0.23753698853056066,-0.018311822798642702,0.0007278990960912779,0.0006550791603140689,2959.3427674993864
1684735153185010671,207,1684735153185010671,camera_2,209,0,0.7570849699271969,-0.172263217747066,1.5095901338860906,-0.9682601292133939,0.08027615025912484,0.23614597024116477,-0.0162216711252382,0.009984242511563934,0.008978423247886877,2960.9509068473717
1684735153195190191,208,1684735153195190191,camera_2,210,0,0.7565277536409422,-0.17246137181713297,1.508364593600943,-0.9676990933701736,0.08000073269434851,0.23837021386420676,-0.01838446630294213,0.019086269254330546,0.017183240465481385,2957.4563965528496
1684735153204972982,209,1684735153204972982,camera_2,211,0,0.7562065052944602,-0.17254824623138984,1.507681172828685,-0.9677370445402567,0.07986247325886027,0.2382192480601151,-0.01893641579445327,0.014806939143454656,0.013322179367620172,2960.09706834203
1684735153215152025,210,1684735153215152025,camera_2,212,0,0.7569465212286368,-0.17261383969598915,1.509179966013545,-0.9678088740494956,0.08033614906680298,0.23763969571994856,-0.020480758831021455,0.016285388817777857,0.014688852284821082,2955.515931562869
1684735153224844694,211,1684735153224844694,camera_2,213,0,0.7566832229164072,-0.1718106614718267,1.5087562963981243,-0.9677743592739769,0.08101114215103694,0.2378237797730673,-0.01702451625390526,0.00664385141863022,0.0059765130200415875,2959.196059736424
1684735153234264373,212,1684735153234264373,camera_2,214,0,0.7566223967985627,-0.17134327418250883,1.5086933001873961,-0.9677684416722967,0.08017660543544908,0.23815570541286535,-0.01666778999517232,0.0017150519124697894,0.0015422060285934216,2959.165046216337
1684735153244350433,213,1684735153244350433,camera_2,215,0,0.7561370315396707,-0.17082403201620458,1.5077714614724096,-0.9676682349493906,0.0794803126826466,0.23866178078239927,-0.018483001909158456,0.0034580578794702888,0.0031091862150543995,2961.021775165224
1684735153254684686,214,1684735153254684686,camera_2,216,0,0.7568556285122222,-0.17079250537847251,1.5092793245438059,-0.9681637562368655,0.07949498689307334,0.23657010340345078,-0.01934100162541645,0.0020868863502983004,0.0018783124732905927,2961.530593267526
1684735153264724254,215,1684735153264724254,camera_2,217,0,0.7562583856157055,-0.17092402142797292,1.5081268605283165,-0.9678883721798386,0.07923218773021842,0.23778297147273786,-0.019329198228093685,0.0031223846890497953,0.0028083600950526227,2962.009436726569
1684735153275151729,216,1684735153275151729,camera_2,218,0,0.7567321376799933,-0.17145143811371633,1.5090137845800413,0.968061449089098,-0.07988072534636348,-0.23704556669856924,0.01689673975086988,0.0008312192803714424,0.0007473052354036939,2961.230063671014
1684735153284996271,217,1684735153284996271,camera_2,219,0,0.7568608621629861,-0.1719563195602348,1.5091652080655982,-0.9678520177461747,0.08070649966934226,0.23756347519034762,-0.017678458961852297,0.004894061552477069,0.004405684911349276,2958.036850134609
1684735153294810056,218,1684735153294810056,camera_2,220,0,0.7568569847611395,-0.17236410206603212,1.5090555804705812,-0.967960102741156,0.08005113458593033,0.2373982652268024,-0.016944586750372675,0.017345750718959607,0.015607152658154523,2958.6130894959215
1684735153304807662,219,1684735153304807662,camera_2,221,0,0.7562810614642553,-0.1725436055874393,1.507842643073304,-0.9675693166750426,0.07981655695529563,0.23893974570211987,-0.018620756928748965,0.024100860769976862,0.02169465291055002,2957.420652620379
1684735153315221309,220,1684735153315221309,camera_2,222,0,0.7564418425258175,-0.1723476831019022,1.5081621163506702,-0.9676220372833607,0.08025636172876137,0.23862087948775626,-0.018071669489853323,0.019149817380821332,0.017235522884407443,2957.7061021208056
1684735153324813842,221,1684735153324813842,camera_2,223,0,0.7576288654370705,-0.1722773459280923,1.5106218928451838,-0.9683019846053832,0.08066748710173778,0.23577638644736898,-0.017132388268668308,0.012418363417964429,0.01118577271189977,2957.784282315407
1684735153335095882,222,1684735153335095882,camera_2,224,0,0.7571469708220605,-0.1716541421890938,1.5097193129519786,-0.967940383996272,0.08033802062905761,0.23743654320418905,-0.016158694928729456,0.003148499730741605,0.0028332605716033556,2957.3073938729945
1684735153344830513,223,1684735153344830513,camera_2,225,0,0.7567708993724256,-0.17084418211238248,1.509080862193946,-0.9680896309398828,0.07955348593175977,0.2368784531291823,-0.019034384306108022,0.0015087350766407326,0.001357675363189672,2961.3700014774236
1684735153354904174,224,1684735153354904174,camera_2,226,0,0.7569916487940354,-0.17081369504477606,1.5095813876377169,-0.9682335840409488,0.07927364356181094,0.23635993810369632,-0.01932345288168873,0.0031821118463994935,0.0028647089380835124,2961.0454590898007
1684735153364567279,225,1684735153364567279,camera_2,227,0,0.7558643418962477,-0.17070759771249128,1.507330903484251,-0.9676301581242702,0.07967182340013476,0.23867824055305928,-0.01941584741889307,0.0019269072799943388,0.001732339567831972,2962.4937289408413
1684735153374814033,226,1684735153374814033,camera_2,228,0,0.7567175682881941,-0.17127414147571077,1.50900893621017,-0.9679297615255401,0.0798043454548616,0.2375025758186902,-0.018324019185746932,0.0009851942450040951,0.0008866252608569988,2959.5049969146485
1684735153384544849,227,1684735153384544849,camera_2,229,0,0.7569791088871486,-0.17224464778210574,1.5093612134020584,-0.9682054126299303,0.08022609559677209,0.23638272716870445,-0.016286768730780124,0.015683246980188414,0.014101819309693292,2961.0761802968336
1684735153395179271,228,1684735153395179271,camera_2,230,0,0.7569638009908314,-0.17255308825721166,1.5092345618208345,-0.9680756563455725,0.07994520129129812,0.23676505998523484,-0.019508837786276264,0.024123787676217034,0.02173498717657642,2958.5334672870813
1684735153404942512,229,1684735153404942512,camera_2,231,0,0.7563045680442432,-0.1725580775351917,1.5078758578698424,-0.967885289641396,0.07991841408881183,0.2375933592873525,-0.018987069491401193,0.017954338938579895,0.016152209451292438,2961.274254816119
