%time,field.header.seq,field.header.stamp,field.header.frame_id,field.image_seq,field.transforms0.fiducial_id,field.transforms0.transform.translation.x,field.transforms0.transform.translation.y,field.transforms0.transform.translation.z,field.transforms0.transform.rotation.x,field.transforms0.transform.rotation.y,field.transforms0.transform.rotation.z,field.transforms0.transform.rotation.w,field.transforms0.image_error,field.transforms0.object_error,field.transforms0.fiducial_area
1683559485091747283,3,1683559485091747283,camera_1,5,0,-0.34294389109199536,-0.6971271871458502,4.165960637642092,-0.7513860730411427,-0.6540393103076412,-0.0873563878492324,0.004517888229032428,0.013349864286283264,0.0057992402968176345,4772.373615713908
1683559485098501443,4,1683559485098501443,camera_1,6,0,-0.34287920639201697,-0.6970788770541902,4.165484086675819,-0.7513912088487488,-0.6540683038868739,-0.08678255073590864,0.008642569243781565,0.0023380159109365195,0.0010148922289693024,4776.921474023139
1683559485105126857,5,1683559485105126857,camera_1,7,0,-0.3428319727870537,-0.6969019079929256,4.164889233292413,-0.751423938442305,-0.6540905611014484,-0.08636406347696818,0.008297659525053944,0.004896359405393014,0.00212498215151115,4778.830444281951
1683559485111876964,6,1683559485111876964,camera_1,8,0,-0.34247989773983867,-0.6961833089215482,4.160512822264713,-0.751256519360616,-0.6539913147883343,-0.08883412474083931,0.004183369590112793,0.005659035640746879,0.0024514714440069655,4782.270305756887
1683559485118549823,7,1683559485118549823,camera_1,9,0,-0.34281030792424216,-0.69683586013611,4.164406846367102,-0.7513236565008743,-0.65450131254138,-0.08428370012838195,0.006087113966087551,0.00593615382695134,0.0025763169985285814,4781.961553028061
1683559485125202894,8,1683559485125202894,camera_1,10,0,-0.34271996585894665,-0.6966422251433608,4.163078678212796,-0.7514563859267289,-0.6539918077675467,-0.08675648677556592,0.009018171945369333,0.009671107553913316,0.0041933019056719,4782.735987404825
1683559485132142782,9,1683559485132142782,camera_1,11,0,-0.34275441859381295,-0.6966389632694887,4.163590838588964,-0.7511686713495708,-0.6543996693320251,-0.08658343464404764,0.003163669751547174,0.01085679604238976,0.004711334923132506,4778.310754916165
1683559485138851165,10,1683559485138851165,camera_1,12,0,-0.3428113603149007,-0.6968592036682506,4.164484535924663,-0.7512474903712786,-0.6542097114239364,-0.0871782625774677,0.006067307758762875,0.003988273216236848,0.0017308971120542035,4777.0726727907895
1683559485145766496,11,1683559485145766496,camera_1,13,0,-0.3428441493354913,-0.696812175812475,4.164069944587011,-0.7510094750859161,-0.6542672209471232,-0.08890933584647497,0.003781788550886863,0.010667784265024238,0.004630309045191175,4773.644725086896
1683559485152588844,12,1683559485152588844,camera_1,14,0,-0.34334046798687856,-0.6977992557628125,4.169940636593703,-0.751341192598944,-0.6542210245102887,-0.0851144906245969,0.015387880894402682,0.011014482982318441,0.004789347936881188,4772.894278209132
1683559485159018278,13,1683559485159018278,camera_1,15,0,-0.34229230967243784,-0.6960088307904945,4.159076000565738,-0.7513366199479775,-0.6536809520094587,-0.09050636805105924,0.0017589335866352086,0.003447827498348488,0.0014930371137097363,4780.93984871666
1683559485165577411,14,1683559485165577411,camera_1,16,0,-0.3429188445296053,-0.6970806715205577,4.165762966131139,-0.7511019015841678,-0.654398398201491,-0.08614346642253252,0.013710326789687345,0.010027303029346513,0.0043516044438559566,4780.0845647639935
1683559485172349452,15,1683559485172349452,camera_1,17,0,-0.3423858770427053,-0.6960284729150135,4.159520436212642,-0.7515187471998013,-0.6540468510766179,-0.08620471832452081,0.00332200881872152,0.012391454736643936,0.005366863921643326,4788.274327392781
1683559485178820371,16,1683559485178820371,camera_1,18,0,-0.343048419799314,-0.6972394415122725,4.166966153663621,-0.7516013188948122,-0.6542929431806364,-0.08206741569670016,0.016159864494004323,0.006708513422381657,0.0029124611322059093,4784.932416954456
1683559485185437917,17,1683559485185437917,camera_1,19,0,-0.3425065700589566,-0.6962472698118386,4.160809074124896,-0.7513690426438995,-0.6540152435870703,-0.08766628078347674,0.004821423620426433,0.00968038904829882,0.004194418098278959,4783.910604895063
1683559485192133665,18,1683559485192133665,camera_1,20,0,-0.3432371954362766,-0.6976693018936948,4.169195057453813,-0.7516568314198848,-0.6539071150052691,-0.08576547454470225,0.007859777441291948,0.006972350024625484,0.0030324201699791207,4769.6271167004015
1683559485198735475,19,1683559485198735475,camera_1,21,0,-0.34287954680773636,-0.6971258226294925,4.1659179199799174,0.7515184871927453,0.6545200858246002,0.08243961374141348,-0.005208718254263997,0.005264778447781283,0.002286850374920158,4780.763542439323
1683559485205331802,20,1683559485205331802,camera_1,22,0,-0.34251476116919755,-0.6962135590639407,4.160976885193286,-0.7512625382448311,-0.6540303379436924,-0.08813336314241042,0.009023634544993555,0.00905976616559201,0.00392409433625402,4785.381478380907
1683559485212112903,21,1683559485212112903,camera_1,23,0,-0.342792353293511,-0.6969485055798982,4.165527171880205,-0.7514402674974643,-0.6541132199926627,-0.08596338438817928,0.009149664403669709,0.00213908537352836,0.0009285002050594766,4778.570887251175
1683559485218739271,22,1683559485218739271,camera_1,24,0,-0.3428174576604631,-0.6968841665474654,4.165164208427543,-0.7513270283344674,-0.654623332780279,-0.08303349676652697,0.009023695942451273,0.009872793675640423,0.004285324099160954,4784.017824392797
1683559485225433588,23,1683559485225433588,camera_1,25,0,-0.3429648240535076,-0.6972221776956117,4.167205704985945,-0.7515143040442708,-0.6540620566572656,-0.08586941352642014,0.007451219950599964,0.00825636665285856,0.003587511099854631,4773.88897588436
1683559485232041120,24,1683559485232041120,camera_1,26,0,-0.34277492629864814,-0.6969928640073884,4.1649540645660155,-0.7512419646925074,-0.6540386248771841,-0.08814345242801923,0.009985962536141268,0.012760428167894133,0.005537494008687394,4776.626582507656
1683559485238748073,25,1683559485238748073,camera_1,27,0,-0.342589989246198,-0.6967052049141105,4.163668643391891,-0.7511064549057247,-0.654284165685803,-0.08749886776693558,0.009760741328996143,0.003814760116256366,0.0016543658881936114,4780.575961145922
1683559485245199918,26,1683559485245199918,camera_1,28,0,-0.34255732969815644,-0.6964419707795866,4.162270952061267,-0.7515273978385442,-0.6539342859281659,-0.0868146068190384,0.006304286518103384,0.01023580949549796,0.004437451963808393,4782.934628906107
1683559485251914739,27,1683559485251914739,camera_1,29,0,-0.3425494986512796,-0.6964109424328234,4.162774378938068,-0.7520407567057614,-0.6531920175359828,-0.08774690706770907,0.008681519495392457,0.004784267472132342,0.0020740734632156985,4781.676848858887
1683559485258545398,28,1683559485258545398,camera_1,30,0,-0.34256093532306736,-0.6964620441382438,4.162896902814199,-0.7516770369815027,-0.653997881786184,-0.0850758360903791,0.005523115734460721,0.010142504441319034,0.004398814867536128,4783.891169835842
1683559485265210866,29,1683559485265210866,camera_1,31,0,-0.34277557711802975,-0.6970284615052093,4.165963131623652,-0.7512878688654784,-0.654477300218821,-0.08428188441698684,0.011070932795953399,0.006108276150371239,0.0026516368715438126,4781.333225896698
1683559485271921873,30,1683559485271921873,camera_1,32,0,-0.34265761765066705,-0.6966300475160655,4.164190586341799,-0.7514756301975856,-0.6543411014893982,-0.08358026324569372,0.011680741267724531,0.002059290382931067,0.0008930762379722964,4786.936154935711
1683559485278481960,31,1683559485278481960,camera_1,33,0,-0.34284959624926054,-0.6968358733973976,4.165421616184575,-0.7515015117568914,-0.6541565047709065,-0.08447706454845193,0.013724819062362803,0.01773179265910585,0.007694745412725948,4783.635955203705
1683559485285320043,32,1683559485285320043,camera_1,34,0,-0.34234345412443057,-0.6956876147457365,4.159002959185157,-0.7514576889877717,-0.6537257945776602,-0.08840318029040004,0.011781548264434321,0.005773086178123776,0.0024974216882170997,4791.140370483074
1683559485291955232,33,1683559485291955232,camera_1,35,0,-0.3421268863963238,-0.6955034779013751,4.157008235360316,-0.7511401988449431,-0.653825359704379,-0.09091604208233182,0.005922328824243642,0.013274780497340544,0.005740517376983414,4787.958162557856
1683559485298581600,34,1683559485298581600,camera_1,36,0,-0.34282541829118685,-0.696787665518722,4.164994184797728,-0.7512675401385966,-0.6538990629825729,-0.08890869992443694,0.010408729142482828,0.00559476962826011,0.0024275039421849665,4775.7280000264
1683559485305194139,35,1683559485305194139,camera_1,37,0,-0.342861832346709,-0.6969703976513391,4.165713017030475,-0.7512948720412918,-0.6541941552112358,-0.08682272729852847,0.006916397643415343,0.0018848405688913772,0.0008183921425577416,4775.450707761136
1683559485311981678,36,1683559485311981678,camera_1,38,0,-0.342636301283873,-0.6966660883763458,4.1640562729646895,-0.7514546722879178,-0.6538679592752399,-0.08715677517681003,0.013276440436742424,0.004090499520316371,0.0017735872870508435,4782.209769722279
1683559485318538427,37,1683559485318538427,camera_1,39,0,-0.3426601153123515,-0.6967001247056563,4.164086032751054,-0.751666735369217,-0.6541992907173604,-0.08304028637384439,0.011167712533730738,0.005331748070602771,0.002312461181381877,4787.640462293462
1683559485325242042,38,1683559485325242042,camera_1,40,0,-0.3431075192831432,-0.6974617164492873,4.168627551590151,-0.7515919082389687,-0.6542681774615228,-0.08245829012657069,0.01560082755130813,0.014627299614403455,0.0063561660428816955,4780.293520328705
1683559485332003831,39,1683559485332003831,camera_1,41,0,-0.3425557139453595,-0.6962568717785269,4.162300804326405,-0.7510994489741771,-0.6546653707608774,-0.08460758421826749,0.010218941724039697,0.0019948922099501942,0.0008644896313702616,4788.945694975699
1683559485338544368,40,1683559485338544368,camera_1,42,0,-0.3421468678464096,-0.6953271594038473,4.157087968048676,-0.7509506092490748,-0.6539770072787519,-0.09107824384512762,0.009592180005533822,0.005206512564654985,0.0022506331002428433,4789.883070590528
1683559485345178842,41,1683559485345178842,camera_1,43,0,-0.3430316765059148,-0.6972187061627093,4.168102497886861,-0.7514819928652925,-0.6545322530054991,-0.08266473324402063,0.005374574629547383,0.0034523129115768825,0.0015010174817476386,4775.795163634903
1683559485351882219,42,1683559485351882219,camera_1,44,0,-0.34266559443058964,-0.6966523965007433,4.164408135795255,-0.7512548075164952,-0.6544647465398779,-0.08430678054442928,0.013582211678537735,0.008837534683152626,0.0038325329185181943,4786.281641683483
1683559485358563423,43,1683559485358563423,camera_1,45,0,-0.34294949929669627,-0.6972597079284832,4.167734771702558,-0.7511513206650516,-0.6546771684156051,-0.08317418805490241,0.015860424328565114,0.008756111809816503,0.0038027790556106012,4781.4394967508015
1683559485365192174,44,1683559485365192174,camera_1,46,0,-0.34307660190715816,-0.6976684189166035,4.170098402437047,-0.7513763007235571,-0.6546484202308185,-0.08199240252466958,0.01209737692678542,0.011870618054672377,0.0051633174298190854,4776.005933907991
1683559485371943235,45,1683559485371943235,camera_1,47,0,-0.3427899003635242,-0.6970186468642845,4.166632086522384,-0.7517217558277726,-0.6540141259060074,-0.08321481466974927,0.015975592323640382,0.00832611957048357,0.00361422125536251,4783.92378072851
1683559485378646850,46,1683559485378646850,camera_1,48,0,-0.342793210607256,-0.6968160892735,4.165483432559992,-0.7512871502775254,-0.6542158546119875,-0.08545136781450109,0.01634922447128844,0.02143968099699123,0.009301649879878264,4783.222270777218
1683559485385275602,47,1683559485385275602,camera_1,49,0,-0.3422433020909791,-0.6959585196095107,4.1606985299908,-0.7515327692927015,-0.6539366137418946,-0.0866115526748916,0.007990045698972324,0.00800196476666315,0.003465682936025392,4788.091359898447
1683559485392109155,48,1683559485392109155,camera_1,50,0,-0.3425564805068223,-0.6967565205500946,4.164899028929753,-0.7511905917694321,-0.653948373739695,-0.08821802729285813,0.01678686929879833,0.01038747661459638,0.004505121774825647,4780.108232181927
1683559485398639678,49,1683559485398639678,camera_1,51,0,-0.34242899068002286,-0.69681191632052,4.164749019303463,-0.7512322884318525,-0.6543516462490564,-0.08612191502508895,0.007549014571643402,0.010040363326879742,0.004357784205911073,4779.093274480342
1683559485405345439,50,1683559485405345439,camera_1,52,0,-0.34286310267375797,-0.697836000451413,4.170756892695545,-0.7514343359561377,-0.6543125980421177,-0.08422007289224978,0.011333230411347475,0.006830763450125232,0.0029721501588454613,4770.496368308551
1683559485412116289,51,1683559485412116289,camera_1,53,0,-0.3427600034953186,-0.697543259665673,4.16853828553462,-0.7514561445232164,-0.6542754341794795,-0.08446336053375955,0.010161683664668741,0.00818424204862822,0.003557573753791886,4774.513147658758
1683559485418911218,52,1683559485418911218,camera_1,54,0,-0.3428338030261611,-0.6975728453168661,4.168914196377112,-0.7512996357652209,-0.6549084506997371,-0.08094674994951948,0.009560448406143533,0.009369675874040695,0.004074104654423024,4778.855652550494
1683559485426027059,53,1683559485426027059,camera_1,55,0,-0.34286455256054127,-0.6976396995302018,4.1689458308143195,-0.7512832598622143,-0.6546799719785966,-0.08293521621375846,0.009452388718494019,0.0103965361668088,0.004520417599586928,4775.620388983721
1683559485432973623,54,1683559485432973623,camera_1,56,0,-0.3426434334829005,-0.6972822999905421,4.165725627367211,-0.751698225650527,-0.6537213743359381,-0.08704599325168111,0.004597537276628289,0.015189877356533543,0.00659811703787856,4773.187361902383
1683559485439594745,55,1683559485439594745,camera_1,57,0,-0.34204316221292375,-0.6962262569855793,4.15885433479172,-0.750612900358173,-0.6547166007360758,-0.0889914693288009,-0.0026391140920098265,0.008445174783446419,0.0036596054943837763,4780.41183009604
1683559485446451663,56,1683559485446451663,camera_1,58,0,-0.34267579601140985,-0.6971599766021732,4.16493234569045,-0.7515943655616321,-0.6537644521365817,-0.08770602376527158,0.0023673136354602792,0.011179328366779373,0.0048554485119849345,4772.382117280826
1683559485452902793,57,1683559485452902793,camera_1,59,0,-0.3427471167454139,-0.6973914825450893,4.165979970048049,-0.7511382554434207,-0.6542495434068096,-0.08797587312622435,0.003016937035174848,0.005857925997588609,0.002545170298378368,4770.005854919086
1683559485459377050,58,1683559485459377050,camera_1,60,0,-0.3427032875452952,-0.6972097606698132,4.164721878850884,-0.7509784618577268,-0.6544118852933758,-0.0881764139893592,0.0011637132592301042,0.0050299179392823135,0.0021845602147462346,4771.249349533115
1683559485466146469,59,1683559485466146469,camera_1,61,0,-0.3420319161820451,-0.6960111095524596,4.1571110263331335,-0.7513741925517436,-0.6533268161325578,-0.09257541528529196,-0.005539546377300772,0.004449569656571839,0.0019270252966285268,4775.749268468937
1683559485472778081,60,1683559485472778081,camera_1,62,0,-0.342986576441246,-0.6979685361818969,4.168983666947592,-0.7510094773186616,-0.6548151827812985,-0.08485248237806077,0.0013775379945006841,0.005827781775224139,0.0025363076010326766,4767.040753602896
1683559485479355573,61,1683559485479355573,camera_1,63,0,-0.34274928329435483,-0.6976180361416504,4.166211256338993,-0.7509990128976448,-0.6546464738295121,-0.08619453714436026,-0.0029964471993556194,0.003560280392775894,0.0015483229330472078,4767.745694897023
1683559485486114501,62,1683559485486114501,camera_1,64,0,-0.3426047384370276,-0.6971980165901085,4.163968134784344,-0.7508246887056681,-0.6543663904734067,-0.08973960390144528,-0.0037036928130309912,0.0033444236769355484,0.0014528726992243406,4766.497910538018
1683559485492540359,63,1683559485492540359,camera_1,65,0,-0.34243506875418805,-0.6969345520850643,4.1617527325825305,-0.7513004110608071,-0.6540634273185556,-0.08792985745987597,-0.004131047234365379,0.006896559458255069,0.002993277260211747,4774.100643547952
1683559485499075174,64,1683559485499075174,camera_1,66,0,-0.34252756891464264,-0.6971283755728914,4.1632905253918375,-0.7512687268743145,-0.6537741137210503,-0.09040560006897881,-0.0012392437492020796,0.0031921854215397616,0.0013858783739459574,4768.735483690341
1683559485506015777,65,1683559485506015777,camera_1,67,0,-0.3428050512212399,-0.6974670974213253,4.165225362347033,-0.7511670122888845,-0.654200865792098,-0.08814124825524552,0.0006835216655846501,0.004681042883930786,0.0020335522521579396,4769.651913603681
1683559485512823343,66,1683559485512823343,camera_1,68,0,-0.3427200846848936,-0.6975638781002701,4.165068195886886,-0.7507157771288719,-0.654793648986809,-0.08758453554788244,-0.00021988450411678892,0.009765428319951752,0.0042430066449846305,4770.158535431896
1683559485519440412,67,1683559485519440412,camera_1,69,0,-0.3426989458894423,-0.6975126988232309,4.164460874552809,-0.7511209945454995,-0.6542572472776442,-0.08809794346530435,-0.0018596491183221853,0.006512897170978249,0.002829619800864741,4769.3288160408265
1683559485526127576,68,1683559485526127576,camera_1,70,0,-0.34274617884756414,-0.6976580570619728,4.165277687501711,0.7513154569347121,0.6540706368232022,0.0878172078502119,0.002196411179233553,0.009335276912679547,0.004057759670537188,4767.582491268055
1683559485532739877,69,1683559485532739877,camera_1,71,0,-0.34252438987307365,-0.6972970235900992,4.162669963382567,-0.751298745752599,-0.6541801707054659,-0.08672218012472072,-0.008818296930510146,0.01434813157266035,0.006235252639537065,4769.707331082494
1683559485539405107,70,1683559485539405107,camera_1,72,0,-0.34304596834168843,-0.6985503545633702,4.169592241611842,0.7514311675376113,0.654361006673159,0.0844406636180443,-0.0057138189065534415,0.00811066301412211,0.0035294902908289414,4768.650208289269
1683559485546154260,71,1683559485546154260,camera_1,73,0,-0.34323215643113675,-0.6989383206834646,4.171767948661093,-0.7514374207136758,-0.6545939426477081,-0.08274043657838012,0.0016103275835390063,0.018153040213292115,0.007912409237563938,4763.618757663033
1683559485552806615,72,1683559485552806615,camera_1,74,0,-0.3428537490839426,-0.6984901077430861,4.1683625951933125,-0.7515034915982584,-0.6539651138583068,-0.08665249594616495,0.007967240313835802,0.008049338125601935,0.003499975915811954,4769.125821769267
1683559485559359788,73,1683559485559359788,camera_1,75,0,-0.3426142113382611,-0.6978703381248326,4.164771620938895,-0.7514311411633828,-0.6541848032819755,-0.08598423339646939,0.00044142048077986545,0.004648929914765176,0.002019620780496142,4773.469238441495
1683559485566021442,74,1683559485566021442,camera_1,76,0,-0.34287780786223443,-0.6984613197422463,4.168372558655027,-0.7511526315558884,-0.6545274470038418,-0.08578750006663265,-0.0020124754941356175,0.0012661938244491466,0.0005511644632836288,4763.741703099861
1683559485572515249,75,1683559485572515249,camera_1,77,0,-0.34278998956421325,-0.698401920732819,4.1668412207119685,-0.7513688935676887,-0.6543833078968377,-0.08501317336947518,-0.00018021795506524373,0.0075620178868121,0.0032889104178695293,4769.66038230664
1683559485579072475,76,1683559485579072475,camera_1,78,0,-0.3432345028798746,-0.6995241399654053,4.173135848174584,-0.7516419012825931,-0.6542757323280198,-0.08251078583317302,0.012234726973428294,0.006920757406987832,0.0030151679255418103,4766.934108260174
1683559485586000442,77,1683559485586000442,camera_1,79,0,-0.34268047477130703,-0.6986004282747267,4.1668551354252745,0.7511831635772084,0.654909170333544,0.08253104875661399,-0.002541527552361366,0.006506990715024585,0.002829199250585461,4775.300064020501
1683559485593249559,78,1683559485593249559,camera_1,80,0,-0.34309688526746235,-0.6992145683009482,4.170675452416103,-0.751369361956206,-0.6543683219596529,-0.08423157064433853,0.012297301981323977,0.005847583682225377,0.002544616806761453,4769.797672679591
1683559485599016666,79,1683559485599016666,camera_1,81,0,-0.3431527349186109,-0.6991134098914653,4.170345655528005,-0.7513461194767164,-0.6541748421109307,-0.08594017077110003,0.012189000953858801,0.005037715514845331,0.0021917946429056427,4767.811570512975
1683559485605412721,80,1683559485605412721,camera_1,82,0,-0.3429558344715063,-0.6987100444894994,4.167616514051728,-0.7517198246306344,-0.6542660307817871,-0.08271070447696136,0.0034936495615432916,0.004821801901925937,0.002096964130443938,4773.980950548372
1683559485611942052,81,1683559485611942052,camera_1,83,0,-0.3435023973022505,-0.6998427153833982,4.17336182455345,0.7510478640720144,0.6553577416371934,0.07946446089552409,-0.010896595966002896,0.013734428812313126,0.005985888109062784,4770.154139417835
1683559485618612527,82,1683559485618612527,camera_1,84,0,-0.3427961041551628,-0.6984249320704785,4.165814248805481,-0.7515376327540984,-0.6539087615953714,-0.08669884921729924,0.008821995668217723,0.005450306911370716,0.002366871589405526,4775.031125675945
1683559485625186920,83,1683559485625186920,camera_1,85,0,-0.3429264527186906,-0.6985122818115758,4.1660862914055965,-0.7511775695984592,-0.6544518488773604,-0.0861544114290152,0.0015664687921420454,0.007752548169264628,0.0033698169423456,4770.650447389926
1683559485631808757,84,1683559485631808757,camera_1,86,0,-0.3428690589655784,-0.6981316824675707,4.165149066902505,-0.7515391474650096,-0.6540741458106031,-0.0858422509282532,0.0026513327341797623,0.001418064949575637,0.0006159670340300887,4774.267205391254
1683559485638450145,85,1683559485638450145,camera_1,87,0,-0.3432805869763649,-0.698829791314185,4.169183840299518,-0.7512513116474376,-0.6544984086628508,-0.0848334172291871,0.007522707426134194,0.00612948940579372,0.0026663760930581127,4769.841341484018
1683559485645168781,86,1683559485645168781,camera_1,88,0,-0.3428076258889613,-0.6980878046373382,4.164166819054411,-0.7513237530027312,-0.6542891309405653,-0.08594129998349534,0.005695986664104121,0.01090188711987139,0.004731844898694203,4778.318066519219
1683559485651854038,87,1683559485651854038,camera_1,89,0,-0.34251820675143474,-0.6973601351261636,4.16011706690893,-0.7507621098561248,-0.6540793913351244,-0.09225310603344535,0.005076284294155156,0.005296075011756329,0.002294303371571594,4776.594695182372
1683559485658525228,88,1683559485658525228,camera_1,90,0,-0.34275471514607675,-0.6977075285970783,4.163334638674177,-0.7517337233208062,-0.6534614117157724,-0.08879470111546109,0.00030606287463483,0.0035707613369595492,0.0015500492412901864,4771.977318719815
1683559485665171861,89,1683559485665171861,camera_1,91,0,-0.3434288585878468,-0.6988603715509519,4.170552385826994,-0.7513389264642314,-0.6542169342384868,-0.08651302705746913,0.002348762339076964,0.01082124608092272,0.004713097251060474,4760.828290037578
1683559485671825408,90,1683559485671825408,camera_1,92,0,-0.34272806363452424,-0.6975497468057115,4.16258894328731,-0.7516334660625791,-0.6539074634221895,-0.08624116738407993,-0.0038240062425252846,0.005781422712971107,0.0025102131104561363,4774.777781263867
1683559485678538560,91,1683559485678538560,camera_1,93,0,-0.34337143316771185,-0.6989965689933317,4.170120973197212,-0.7513695449531713,-0.6545834234661143,-0.08325291552629983,0.005770675577153974,0.003861694312945474,0.0016809416043177593,4769.101823395295
1683559485685138225,92,1683559485685138225,camera_1,94,0,-0.3425966174256299,-0.6974793085828214,4.161957967162855,-0.7516140900373284,-0.6539522405458909,-0.08613952784694598,-0.0016457474513269783,0.0013021422500969493,0.0005650222210771218,4778.066953158645
1683559485691792726,93,1683559485691792726,camera_1,95,0,-0.3425815301274423,-0.6973612492496154,4.161449512799985,-0.751388279129375,-0.6536841100244237,-0.0900706103354407,-0.0001531090288306206,0.0033582794758331147,0.0014565888326814164,4773.836941093323
1683559485698535680,94,1683559485698535680,camera_1,96,0,-0.34263946764854647,-0.6972938819792085,4.161236006411682,-0.7514399319200212,-0.6537945845959278,-0.08882939828026688,8.87143609127793e-05,0.004835467292650719,0.0020970689955657016,4776.657386832782
1683559485705091476,95,1683559485705091476,camera_1,97,0,-0.34302452541258277,-0.6981161681433393,4.165949843969503,-0.7513594193549676,-0.6537851129255855,-0.08942147277136639,0.005277240836388697,0.011687755673847278,0.005077354894852988,4768.43727474974
1683559485711795806,96,1683559485711795806,camera_1,98,0,-0.34334550772585526,-0.6988097358013297,4.169889617916194,-0.7516821924833047,-0.6539828091384186,-0.08512458189359935,0.005845717437139898,0.002745676845734124,0.0011949385626869903,4766.816110669636
1683559485718551874,97,1683559485718551874,camera_1,99,0,-0.34276042061592416,-0.697612829918694,4.162657949333763,-0.7515712173045196,-0.653908283012826,-0.0866356913038282,0.0062385670572855725,0.002988291537803889,0.0012959180992226991,4781.186752286448
1683559485725158452,98,1683559485725158452,camera_1,100,0,-0.3426703074244706,-0.6973613219861292,4.16144226359655,-0.751395279762641,-0.6538013863133243,-0.08907052650600128,0.003914347090054053,0.004568330740767124,0.001980423368191373,4778.478872684414
1683559485731884002,99,1683559485731884002,camera_1,101,0,-0.3427886446567572,-0.6975540361838788,4.1629584365893635,-0.7517640745699652,-0.6538634764646409,-0.08542535068791055,-0.0039799235401486895,0.007566036992102454,0.00328587893440904,4775.172528538098
1683559485738492012,100,1683559485738492012,camera_1,102,0,-0.34310209669429237,-0.697998028171502,4.1652929089347595,-0.750539968671622,-0.6548043547739651,-0.08845412436444536,0.009842777980383377,0.018376190179878904,0.007977696278488666,4774.367335863674
1683559485745179176,101,1683559485745179176,camera_1,103,0,-0.342494993341217,-0.6970053502544928,4.15978727711483,-0.7514176228541022,-0.6535939751523873,-0.09029359122993373,-0.005791294466050279,0.000996266499896592,0.0004320831869594254,4772.818157879406
1683559485751764059,102,1683559485751764059,camera_1,104,0,-0.3424328720613681,-0.6965837773254644,4.157487014509294,-0.7514867559187649,-0.653013069516286,-0.09393877823739978,-0.004134327378615866,0.008954818466918368,0.0038783283006942914,4773.181271022796
1683559485758462905,103,1683559485758462905,camera_1,105,0,-0.3430902274540748,-0.6981512032826314,4.166962048840953,-0.7515749791858627,-0.6543476322701917,-0.08344141599785314,-0.0013254812097792347,0.0022979830482654506,0.0009995274048785723,4771.369958944852
1683559485765137672,104,1683559485765137672,camera_1,106,0,-0.3426089477072256,-0.6972065105498843,4.161340788934631,-0.7516678749324346,-0.653554333027084,-0.0886395668179172,0.0022730531039210655,0.0015682030361858779,0.000679909082159408,4778.403820269712
1683559485771811723,105,1683559485771811723,camera_1,107,0,-0.34308000251536996,-0.6979991504659881,4.165702573238177,-0.7516664260841688,-0.6539440860962261,-0.08575964058839554,1.4274939419654492e-05,0.00454305333278171,0.0019744817274848186,4771.508976771149
1683559485778471231,106,1683559485778471231,camera_1,108,0,-0.3432350597969208,-0.6982406702766565,4.167809954389143,-0.7514908683122042,-0.6541419459030341,-0.08577738079826008,0.0014249199808530767,0.002543166400755581,0.0011062064163371926,4767.801280659507
1683559485785140991,107,1683559485785140991,camera_1,109,0,-0.34277264255767126,-0.6974663867876333,4.162388494497473,-0.7518065672987638,-0.6535297313934343,-0.08766800783653021,-0.00030976321463822593,0.01093609530107642,0.0047457061310101556,4775.682953728916
1683559485791771173,108,1683559485791771173,camera_1,110,0,-0.34267788632157037,-0.6975071017795877,4.162058539584776,-0.7517058626729558,-0.6535803226883912,-0.08815303868998389,0.00031557466317333086,0.001510811127445777,0.0006554405304453746,4775.960840630141
1683559485798502683,109,1683559485798502683,camera_1,111,0,-0.34253296336585937,-0.6970076573118278,4.159566901536625,-0.7516580004147159,-0.653205504140551,-0.09128075786294035,0.0008018834124630818,0.0127496617833458,0.005524395069443495,4776.816624403232
1683559485805197000,110,1683559485805197000,camera_1,112,0,-0.3427797226328681,-0.697620604502952,4.163361939504576,-0.7514289696126181,-0.6538333561486476,-0.08863644914809023,0.00016092461832477791,0.0015043690837046597,0.0006530529268323332,4772.188124134699
1683559485811751365,111,1683559485811751365,camera_1,113,0,-0.3428440194207485,-0.6978798667729549,4.164491988160373,0.7515010896918898,0.6539148668055008,0.0874103632927914,-0.000942099606503104,0.002426475876745826,0.0010538565969237272,4772.11761506545
1683559485818421363,112,1683559485818421363,camera_1,114,0,-0.3427724406610335,-0.697619682541041,4.162614404002336,-0.7512813377225503,-0.6541695191929765,-0.08734795539930623,0.0029877142109197025,0.008053192870647763,0.003493747639589483,4777.990416280286
1683559485825162410,113,1683559485825162410,camera_1,115,0,-0.34302728896940304,-0.6982809956021602,4.166921086582249,-0.7516082397844889,-0.6542108347835858,-0.08419219112435214,-0.002216414561117398,0.010838713847988402,0.004714664681506985,4769.471476803243
1683559485831870555,114,1683559485831870555,camera_1,116,0,-0.3428949944311502,-0.6980983570199193,4.1649398503330755,-0.7513238043773469,-0.6543858478777093,-0.08537777089417957,0.0015294804550984177,0.013974751961541187,0.006071361010176179,4774.713304131816
1683559485838513612,115,1683559485838513612,camera_1,117,0,-0.34265014131893234,-0.6977716848723433,4.162677678722632,-0.7513779438698623,-0.6539852377125918,-0.08757075554063558,0.008115238378818924,0.0042224154794894275,0.0018309128685817942,4780.548302581679
1683559485845171689,116,1683559485845171689,camera_1,118,0,-0.34311397194002125,-0.6985786193329664,4.167534997201114,-0.7513934567027428,-0.6547474212947667,-0.08189300767356553,0.0026875316433513227,0.0105860277553802,0.004604254711503959,4775.06772223435
1683559485851868629,117,1683559485851868629,camera_1,119,0,-0.3431380293218672,-0.6986782560630187,4.167680649950804,-0.7512521164587582,-0.6543557519715574,-0.08607592367295563,0.005453690660611333,0.014727442179719219,0.006404006684674295,4769.845284853391
1683559485858407974,118,1683559485858407974,camera_1,120,0,-0.34279082472844924,-0.6980902136639174,4.164052118595205,-0.7513608372578782,-0.6541189832591194,-0.08702784561006878,0.003376694191985496,0.002813465439430729,0.0012213929656240841,4775.200985943464
1683559485865130186,119,1683559485865130186,camera_1,121,0,-0.3433676707393948,-0.699184376899466,4.170414208062695,-0.7511440707918952,-0.6547678805412932,-0.08339014753148505,0.010377418769624986,0.008427656409367046,0.0036674564529076284,4770.814403628757
1683559485871925354,120,1683559485871925354,camera_1,122,0,-0.34273552316043954,-0.6980790891176376,4.1632117597472975,-0.7513073102763445,-0.6539692054354967,-0.08819684415762043,0.009106072041575973,0.012707122188658104,0.005511506374515073,4778.634205666633
1683559485878721237,121,1683559485878721237,camera_1,123,0,-0.3435405141855461,-0.6996701848896353,4.173074741286981,-0.7515815509130894,-0.6546022212036559,-0.07971948208026101,0.01630670105110634,0.010475807162947604,0.004562842494559837,4773.149626740575
1683559485885720729,122,1683559485885720729,camera_1,124,0,-0.3432385264414508,-0.6990277478824727,4.168922093457565,-0.7514812067864454,-0.6543079649264962,-0.0837590056958559,0.011895875141260278,0.0064573643685434945,0.0028076743690981162,4774.314630471838
1683559485892251968,123,1683559485892251968,camera_1,125,0,-0.3428252522201245,-0.6983153172777851,4.164678952407101,-0.7513751612228707,-0.6540416048299964,-0.08722226804792978,0.007564536025629106,0.00329336146114656,0.0014295490769004953,4775.990733904968
1683559485898785114,124,1683559485898785114,camera_1,126,0,-0.3432610394491742,-0.6989689886727608,4.168746041670675,-0.7516446726996053,-0.6539730503849658,-0.08450698588520303,0.014425834779464899,0.007601247132697608,0.0033041289468647805,4774.777284053562
1683559485905344963,125,1683559485905344963,camera_1,127,0,-0.34322317752465037,-0.6989475077251658,4.168720418471733,-0.7514992053828379,-0.6543336359737089,-0.0834991545872311,0.011150261234917356,0.004318262778724602,0.0018774829470853886,4774.842127798358
1683559485912017822,126,1683559485912017822,camera_1,128,0,-0.3431730490544035,-0.6985191737172751,4.166832200187378,-0.7513072537160987,-0.6546190985341725,-0.08333822161171689,0.008123248517509897,0.022298319335277483,0.009690013573430982,4777.862828445679
1683559485918640613,127,1683559485918640613,camera_1,129,0,-0.3428171789705866,-0.697877846513168,4.16336323615065,-0.7513877684539839,-0.653779865965432,-0.08923499537144841,0.005042209537661538,0.00998156828154606,0.004330833893756058,4774.341432627931
1683559485925277233,128,1683559485925277233,camera_1,130,0,-0.3427315998098732,-0.6976106892132801,4.1619844627328435,-0.7512656357728037,-0.6539949324465392,-0.08871800920098574,0.004437080633214224,0.00776287014468835,0.0033661666417829465,4778.031699141255
1683559485931893110,129,1683559485931893110,camera_1,131,0,-0.34257400551983996,-0.6974955297419747,4.161157074897859,-0.7515726021156118,-0.6539824394086841,-0.08613917635291841,0.005063100974301673,0.0077570240218847175,0.003362265209310723,4784.5396175849
1683559485938605308,130,1683559485938605308,camera_1,132,0,-0.3430965007637917,-0.698290622925315,4.1663053287996,-0.7514890361275751,-0.6541907469605638,-0.08536716125791441,0.0033381057492260398,0.007914999413515034,0.003439929456262063,4772.92787592899
1683559485945246458,131,1683559485945246458,camera_1,133,0,-0.34280180597542464,-0.6978616042264563,4.163745416392507,-0.7513899326457729,-0.6539093585918193,-0.08826726847182176,0.0049607641689252925,0.007826369773283659,0.003396522768010565,4775.085436608351
1683559485951908111,132,1683559485951908111,camera_1,134,0,-0.3427631363231328,-0.6975927478792318,4.1626719049065795,-0.7513959852165282,-0.6541641683167787,-0.08642868566086069,0.0018429828637925758,0.0021851511673958157,0.0009481215522995818,4778.5745650967565
1683559485958893299,133,1683559485958893299,camera_1,135,0,-0.3426082320970625,-0.6974268343016528,4.1611299552784935,-0.7512907638339208,-0.6538705727145108,-0.0894195979093571,0.004426943140641774,0.006565577323272009,0.0028457840983444433,4778.8228613639385
1683559485965554237,134,1683559485965554237,camera_1,136,0,-0.3431850092022256,-0.6983830198656107,4.167614190040249,-0.751976789837065,-0.6536263041456511,-0.08532229045643125,0.004865061819541279,0.011419123668929387,0.004965168628793262,4771.087446892577
1683559485972229003,135,1683559485972229003,camera_1,137,0,-0.34270936456433443,-0.697246726901513,4.162041100435065,-0.7511456671906978,-0.6535378113704617,-0.09307094338462842,-0.0025130195469935893,0.006013818649989844,0.002609813556360741,4765.696667985378
1683559485979353427,136,1683559485979353427,camera_1,138,0,-0.34346187119598715,-0.6987603707801553,4.170666950785979,-0.7511275506481104,-0.654349956666565,-0.08699699583107175,0.008065952157274325,0.010048069195363496,0.004373842714168012,4763.558743289468
1683559485986217498,137,1683559485986217498,camera_1,139,0,-0.34227631694994115,-0.6964339840196374,4.15716222841425,-0.751506191681187,-0.6532698660150088,-0.09159408648323202,-0.009351435337617493,0.006213498360011726,0.0026929830153769175,4773.529028777645
1683559485992825508,138,1683559485992825508,camera_1,140,0,-0.3430723546666268,-0.6978331456156726,4.165817582120021,-0.7514166871024892,-0.6540230737333982,-0.087292086096085,0.0026216546743582305,0.00849839164311561,0.0036925744267382985,4770.808202465122
1683559485999464988,139,1683559485999464988,camera_1,141,0,-0.34271447824814816,-0.6972991232076283,4.162783908535129,-0.7518942559830751,-0.6534541869809268,-0.08743693930946411,-0.002726716147105017,0.00477902954480669,0.0020747955436369505,4773.490060944343
1683559486005877971,140,1683559486005877971,camera_1,142,0,-0.3429528434976502,-0.6975946546748102,4.164610398926006,-0.750914396432989,-0.6544369851230889,-0.0884959339068836,0.0028760067160198597,0.013955009807432361,0.006059982029918201,4771.81984814955
1683559486012468338,141,1683559486012468338,camera_1,143,0,-0.34283542777673653,-0.697412869572109,4.163755087395566,-0.7516111253121532,-0.65375384136929,-0.08767333089788723,0.0001350968752625947,0.003685547060740646,0.001600131913579713,4773.17472509807
1683559486018987894,142,1683559486018987894,camera_1,144,0,-0.34284820598943255,-0.6976476330722642,4.16474495998356,-0.7515857682527495,-0.653482298918766,-0.08986489244813753,0.0020047605975985843,0.006643398072810669,0.0028851916535938085,4768.464322013895
1683559486025586366,143,1683559486025586366,camera_1,145,0,-0.3424925929087061,-0.6969023426086317,4.160767506732294,-0.751427659145778,-0.6534954679795266,-0.09099535231510646,-0.004471270285484424,0.0018881466621678555,0.0008190517049245007,4770.758862579211
1683559486032032012,144,1683559486032032012,camera_1,146,0,-0.3424223686569682,-0.6968463819893627,4.160113481280343,-0.7509557264427437,-0.6537503311817434,-0.09314505290495113,2.2846132689508033e-05,0.0025304507744294824,0.0010967259193895055,4771.99966368184
1683559486038773775,145,1683559486038773775,camera_1,147,0,-0.3428673479864622,-0.6974107971449066,4.16383272944775,-0.751451523922998,-0.65398995273876,-0.0870274095895336,-0.006631658216013671,0.0033136945148726227,0.0014402116354255133,4768.59057797573
1683559486045376062,146,1683559486045376062,camera_1,148,0,-0.34264568686076624,-0.6970766338525352,4.161966716321732,-0.7509198536476565,-0.6540614498592225,-0.09120632160078526,0.0020976429363073076,0.006658070271441829,0.002887650594473166,4772.759153680409
1683559486051874399,147,1683559486051874399,camera_1,149,0,-0.3429942765304258,-0.6977940997405785,4.166307286017393,-0.7509500119765513,-0.6542931736878199,-0.08907345103166811,0.00635945746482967,0.00875938664557907,0.003805327396243617,4769.28231353016
1683559486058632850,148,1683559486058632850,camera_1,150,0,-0.3423050942426745,-0.6963751569712633,4.157998244775895,-0.7514091378128566,-0.6534222450439257,-0.09172763165341268,-0.003117512526285252,0.00833243579199916,0.003609099749528714,4777.0351809049325
1683559486065214395,149,1683559486065214395,camera_1,151,0,-0.3428884134821385,-0.6974402917408856,4.164810818727604,-0.7511904699714312,-0.6536514007301488,-0.0919029607732923,0.0025631911199333664,0.005181399738830805,0.0022500259055342154,4765.459723947513
1683559486071969985,150,1683559486071969985,camera_1,152,0,-0.3425440060175264,-0.6969518598498112,4.1622268598743375,-0.7515918444644805,-0.6533191398203707,-0.0910148048931247,-0.0003258360283967923,0.005409554145444417,0.0023468932956264683,4770.845703057305
1683559486078609228,151,1683559486078609228,camera_1,153,0,-0.34294992395328616,-0.6975971184163989,4.165811992181682,-0.751252154760223,-0.6543736828706911,-0.08610992233586534,-0.0006036635498454436,0.005008317651117977,0.002176945861599436,4770.642462311865
1683559486085233449,152,1683559486085233449,camera_1,154,0,-0.3428053127336598,-0.6974041174299723,4.164590019461121,-0.7515048220883478,-0.6535289163908967,-0.09017139024065603,0.0030948668740894618,0.0029240010135254124,0.0012695469960605729,4769.266650619857
1683559486091768741,153,1683559486091768741,camera_1,155,0,-0.34208654605563016,-0.6962776870402413,4.157575684698485,-0.7514084349325283,-0.6535175999794748,-0.09101485841055003,-0.004050429338143022,0.0027369502504370757,0.0011854400107806785,4778.430682014793
1683559486098549365,154,1683559486098549365,camera_1,156,0,-0.3431833824659111,-0.6981964160267348,4.169304028866593,-0.7511437225197873,-0.6547318531025407,-0.08430242324626333,0.0015524454379195049,0.008011487433577713,0.003487278621966069,4767.16030936435
1683559486105199813,155,1683559486105199813,camera_1,157,0,-0.34294605742078077,-0.6979220564120316,4.167224427690294,-0.7508882805394724,-0.6549561048363914,-0.08481108854941927,-0.0025239146338408777,0.0055882961250972585,0.002431421309121051,4767.950530755392
1683559486111877202,156,1683559486111877202,camera_1,158,0,-0.3426916601954497,-0.697160008560856,4.163289920417992,-0.7514320489009381,-0.6536802764807195,-0.08970487352499225,-0.00223778696339414,0.005938131395851087,0.0025784021648951345,4769.158031560714
1683559486118421792,157,1683559486118421792,camera_1,159,0,-0.3423183877560839,-0.6965449462256628,4.1593495415002195,-0.7512358018595547,-0.6538113820706734,-0.0904048215805018,0.0015539994419000928,0.0019925928727388964,0.000863117599290138,4779.810288783221
1683559486125162124,158,1683559486125162124,camera_1,160,0,-0.34261507467174745,-0.6969034115208089,4.1616261445013105,-0.7515062474472817,-0.6534145932781141,-0.09093678568449086,-0.004269701192664574,0.015026494678750169,0.006521645829212193,4769.188015108988
1683559486131760597,159,1683559486131760597,camera_1,161,0,-0.3427055709091673,-0.6973699229486222,4.164148082474623,-0.7511391699204664,-0.6540521340580083,-0.0894243375176453,-0.003006859638887796,0.0011880075844601379,0.0005160853917579114,4767.017529611274
1683559486138529539,160,1683559486138529539,camera_1,162,0,-0.34270582827781065,-0.69726534549835,4.163370632243739,0.7511217749725018,0.6540919503406692,0.08918725881706613,0.005043067161523286,0.0002549467117205495,0.00011074401908691892,4767.493481733953
1683559486145196199,161,1683559486145196199,camera_1,163,0,-0.3426674974143084,-0.6970775872013817,4.162676288187583,0.7514497048372469,0.6541962043179561,0.08567826383882031,0.003146817687650427,0.0023175860887931776,0.0010061760215133724,4776.501690564182
1683559486151723861,162,1683559486151723861,camera_1,164,0,-0.34280945582475875,-0.6975403321276544,4.16451942642808,-0.7512320764651741,-0.6542234099940912,-0.08741695072258447,0.0006114179350310508,0.005744525584304938,0.0024950805454979456,4772.171531429631
1683559486158506155,163,1683559486158506155,camera_1,165,0,-0.3423271334224244,-0.6965346149824556,4.15864671463763,-0.7512573128358151,-0.6533314590014113,-0.09363483115127946,-0.0017242346327928885,0.0008617980074632214,0.0003733058173018575,4773.2183986576
1683559486165181159,164,1683559486165181159,camera_1,166,0,-0.34285654070664473,-0.6976604488358129,4.165105078599185,-0.7513089668562765,-0.654093487061097,-0.08771005456552795,0.0018689124433943763,0.004747366209812753,0.002062133865366112,4771.255311601912
1683559486171762704,165,1683559486171762704,camera_1,167,0,-0.3430220439021376,-0.6981426102389356,4.167578368421711,0.7517736722645619,0.6537457198694686,0.08620292125739205,-0.004683567966545847,0.006679429891846667,0.00290407432326543,4769.824491103792
1683559486178483486,166,1683559486178483486,camera_1,168,0,-0.34299629466264137,-0.6977849759579515,4.165956047884276,-0.7512389789866539,-0.6539274725363774,-0.08953509335636119,-0.0015245231854321348,0.004223745727358619,0.0018362011481424926,4763.755152230734
1683559486185150384,167,1683559486185150384,camera_1,169,0,-0.342548656072981,-0.6969414751112604,4.1609351632213265,-0.7512282112120561,-0.653448964056365,-0.0930484505736447,0.0016161369501931752,0.006099844529671827,0.0026443033244495056,4771.483523421979
1683559486191671371,168,1683559486191671371,camera_1,170,0,-0.3429350987991583,-0.6975475383312839,4.165139805915248,-0.7514687382137426,-0.6542185940946457,-0.08539724152776539,-0.0002788686418136963,0.007650112778719631,0.003324055497603381,4773.528520043242
1683559486198547363,169,1683559486198547363,camera_1,171,0,-0.34265232163518855,-0.6970480503410804,4.162089926507304,-0.7512874052326509,-0.6537205633495036,-0.09061358614081991,0.002416153864813966,0.0065487562569614965,0.002840178692482723,4773.758706939551
1683559486205122232,170,1683559486205122232,camera_1,172,0,-0.3424847265425006,-0.6968329785835048,4.160756210638623,-0.7508817618320619,-0.6538533691417027,-0.09300919822398157,-0.0012808027776962248,0.009694272249362257,0.0042034807286960765,4769.955468638798
1683559486211704015,171,1683559486211704015,camera_1,173,0,-0.34288187302335793,-0.6974314797869408,4.164744716654732,-0.7515555231632169,-0.6537718795479162,-0.0880067363941294,-0.0011997768553792252,0.007014177518612996,0.003047304981850641,4769.4940077131905
1683559486218475341,172,1683559486218475341,camera_1,174,0,-0.3426327669200323,-0.6969144833415308,4.162159145802917,-0.7512187316334188,-0.6542303674094604,-0.08748164336562655,7.534194981679074e-05,0.008308535960168228,0.003604739619315509,4777.350949076033
1683559486225172519,173,1683559486225172519,camera_1,175,0,-0.34254594787389514,-0.6967608432942143,4.161305207280599,-0.7513386751406543,-0.653899939579694,-0.08885955983393842,-0.003007138453354878,0.001105893065869168,0.0004797572051241726,4774.609861774138
1683559486231754541,174,1683559486231754541,camera_1,176,0,-0.34286785539723985,-0.6972239248589439,4.164208327567275,-0.7507882531497208,-0.6543344122045294,-0.09024758220504411,0.004341640644707382,0.003208000627637375,0.0013923710977364829,4771.072876256718
1683559486238430023,175,1683559486238430023,camera_1,177,0,-0.34315683183755225,-0.6977475272105469,4.167987866125359,-0.7511441537389131,-0.6547982701391769,-0.08366836496436557,0.0046141554789320945,0.01576734428817872,0.006856997343995466,4773.476187653139
1683559486245297670,176,1683559486245297670,camera_1,178,0,-0.34241153719531403,-0.6962914344844323,4.159780824060873,-0.7509869416849062,-0.6540003645800235,-0.0910698056760456,0.002902936801767527,0.007020180623840133,0.0030409420784729448,4779.00628625846
1683559486251823425,177,1683559486251823425,camera_1,179,0,-0.3429772966842469,-0.6972542250477812,4.166021776335342,-0.7515283581376012,-0.6541281041166306,-0.0851589255628641,0.00833712880808775,0.0049861534098454285,0.002165203924087865,4778.044962644519
1683559486258399724,178,1683559486258399724,camera_1,180,0,-0.34226163940684634,-0.6958901779227098,4.158632422835272,-0.7512881877640223,-0.6535928318868203,-0.09141289238932757,0.005113916056711659,0.007174462113653135,0.0031050093426507604,4782.722098383472
1683559486265119314,179,1683559486265119314,camera_1,181,0,-0.3420807058878068,-0.695336012101553,4.155612178556519,-0.7509871601129703,-0.653962032171182,-0.09106739123262077,0.007660031206131191,0.010598466383271443,0.004579242146852154,4791.942525210993
1683559486271719694,180,1683559486271719694,camera_1,182,0,-0.3426357626494786,-0.6965691404329521,4.162871416808729,-0.7514092380609544,-0.6538290576295297,-0.08831669212657119,0.009585522821297095,0.005522881206161401,0.0023941589478122536,4780.975356515758
1683559486278492450,181,1683559486278492450,camera_1,183,0,-0.34243814452000965,-0.6964266672353001,4.162430938202261,-0.7513243771913162,-0.6539387885566736,-0.08856162079895594,0.0057079226144920924,0.004623050281225005,0.002004357844419222,4779.318558774859
1683559486285113096,182,1683559486285113096,camera_1,184,0,-0.3426563635169254,-0.6966267374794433,4.163825224955327,-0.7512756539362886,-0.6545184386733212,-0.08438882415301366,0.008308525579904788,0.00872081425950455,0.003782986353632192,4784.572574806896
1683559486291737794,183,1683559486291737794,camera_1,185,0,-0.34275111947636766,-0.6965653056385313,4.163669305405098,-0.7512401072077727,-0.6542953239831952,-0.08606350742282279,0.011357949914565067,0.005939627532825398,0.002575529046442252,4783.9519226528355
1683559486298522710,184,1683559486298522710,camera_1,186,0,-0.34251452734059207,-0.6963692305424842,4.161840578180053,-0.751132074730116,-0.6539186407124333,-0.08960700970895102,0.01271225595458943,0.004219456522150722,0.0018277735938681463,4782.831773852668
1683559486305189609,185,1683559486305189609,camera_1,187,0,-0.34257798756450564,-0.6965861923234833,4.163228965918732,-0.7516083590582384,-0.6541668700753231,-0.08397513499850995,0.009937675362964813,0.004055688958032988,0.0017583896378907246,4787.459418573503
1683559486311822414,186,1683559486311822414,camera_1,188,0,-0.3431048583716232,-0.6977579495093634,4.170286330053198,-0.7513558119600011,-0.6551140671721722,-0.07851485981009318,0.011199089965867928,0.013181019699914032,0.005734286788275434,4780.345569720286
1683559486318547487,187,1683559486318547487,camera_1,189,0,-0.3421975119957694,-0.6959887873322355,4.1598670508974545,-0.7515322512186744,-0.6535813413769733,-0.08927482555034101,0.00779173312068741,0.005185608629290073,0.002245002868769276,4785.265650430494
1683559486325089216,188,1683559486325089216,camera_1,190,0,-0.34258490507520234,-0.696674280124284,4.164540755364728,-0.7517480680371207,-0.6541304852386434,-0.08335586769280309,0.006320585818851141,0.00996055120958772,0.004323081122396704,4783.38586781989
1683559486331753253,189,1683559486331753253,camera_1,191,0,-0.34214053035124603,-0.6956534536677892,4.158485956137527,-0.7510218017613286,-0.6543151381167625,-0.08795430253356024,0.010099206713628048,0.0088789566880223,0.003840883428987209,4792.13363193805
1683559486338513135,190,1683559486338513135,camera_1,192,0,-0.3425761545661414,-0.6965380234408061,4.164109000274279,-0.7512948044391003,-0.6541592806052831,-0.08635940167769744,0.013183556525561595,0.005856950287125073,0.0025397129973439973,4783.476843104641
1683559486345194816,191,1683559486345194816,camera_1,193,0,-0.34273401141283855,-0.6969854933976126,4.166662718533063,-0.7514293613426274,-0.6548699262403486,-0.08009854168808878,0.009138831304552697,0.00588759637412295,0.0025572663867322073,4785.260258368888
1683559486351815223,192,1683559486351815223,camera_1,194,0,-0.34238045870559264,-0.6965030850895093,4.163604099115498,-0.7513902905726306,-0.654260010429969,-0.08502855419198556,0.011252331197369474,0.006079348206185386,0.002636066662598569,4785.713219387284
1683559486358452320,193,1683559486358452320,camera_1,195,0,-0.3422355356542658,-0.6960324403636481,4.161234530466096,-0.7511172161000285,-0.6541639593569685,-0.08818631228058983,0.01075250123961612,0.010730821374636434,0.004647579753692342,4785.849452485794
1683559486365129709,194,1683559486365129709,camera_1,196,0,-0.3425349530003167,-0.6965836373465915,4.16473294253739,-0.7513807729826691,-0.6545792309530909,-0.08220835053354178,0.013955339457749148,0.005838791114001651,0.002532312072060688,4789.10555626912
1683559486371830701,195,1683559486371830701,camera_1,197,0,-0.3433543863342574,-0.6981474402516561,4.17391165871682,-0.7516111127428705,-0.6542209255160252,-0.0803108475453614,0.02501766545714031,0.002759642567980336,0.0012014776288344054,4774.951006747027
1683559486378334760,196,1683559486378334760,camera_1,198,0,-0.34299328817479263,-0.6973836100030427,4.169206052603524,-0.7516048067845919,-0.6544461291057815,-0.08083941138300042,0.015983368981696396,0.004968565266608493,0.002159331241516557,4781.792258494826
1683559486385113716,197,1683559486385113716,camera_1,199,0,-0.3426493001288773,-0.6970699205842535,4.166699720769426,-0.7513898570117725,-0.6544118853692068,-0.08353858527269081,0.013404172409574639,0.009868555374850985,0.004284804260593546,4782.040684015545
1683559486391846656,198,1683559486391846656,camera_1,200,0,-0.3425769147121779,-0.6969807777226128,4.16563431717456,-0.7511227659943266,-0.6545952583564678,-0.084781082938308,0.011480684564486896,0.014477596208053,0.006284384477754451,4781.430074887641
1683559486398437976,199,1683559486398437976,camera_1,201,0,-0.342757497448977,-0.6974281325442007,4.168159080972287,-0.7512154360810717,-0.6545289163951405,-0.08420783389354275,0.013278061119241687,0.01249131655004021,0.005427897757940587,4777.435363888159
1683559486405258655,200,1683559486405258655,camera_1,202,0,-0.34271258965508855,-0.6972563202409385,4.166849093604622,-0.7510130286348214,-0.6544988313115261,-0.08601967303412829,0.014537072734956892,0.009172180385576212,0.003982555393329778,4778.113282558158
1683559486411674261,201,1683559486411674261,camera_1,203,0,-0.34272514566063067,-0.697503705748231,4.168273317176454,-0.7512780828245764,-0.6542261440998288,-0.08634353577853414,0.010685900662090977,0.006740053448083927,0.0029293035395855944,4772.362135364965
1683559486418460607,202,1683559486418460607,camera_1,204,0,-0.34263952419664545,-0.6974136869057894,4.167723100118384,0.7512515860664788,0.6548905400547667,0.08197108759704337,-0.004491745488564635,0.0031699792389190407,0.0013782109067334812,4776.8446162669015
1683559486425186395,203,1683559486425186395,camera_1,205,0,-0.3424138411007231,-0.6966869983298251,4.163334364887467,-0.751471691834581,-0.6538811462389682,-0.08682863878477039,0.01380327683086195,0.010640036057338875,0.004612077052021261,4784.477972434106
1683559486431752204,204,1683559486431752204,camera_1,206,0,-0.3424944433495498,-0.6967694894111438,4.163654803960295,-0.7510000587172642,-0.654349044449584,-0.08832484819892458,0.004996101001708236,0.01593255138504901,0.006913563538448546,4776.2869035172935
1683559486438464164,205,1683559486438464164,camera_1,207,0,-0.3429441465504679,-0.6974636900084077,4.168073440548342,-0.7510043552698344,-0.6548879492072566,-0.08414520316437843,0.0058152500616580225,0.012518296332928003,0.005443161013496395,4773.5745321639115
1683559486445107936,206,1683559486445107936,camera_1,208,0,-0.3431575933190541,-0.6979189891575641,4.170966584490287,-0.7516560315845308,-0.6540290330439099,-0.08396541565909675,0.014458322566537623,0.008495124502587714,0.0036958646671806338,4771.940041504306
1683559486451693296,207,1683559486451693296,camera_1,209,0,-0.342651024570479,-0.6971252676236951,4.166235425083622,-0.7515695359430417,-0.6540370294275852,-0.08509697085371455,0.011717607751715974,0.003166064649121836,0.001374498390121912,4779.621515184846
1683559486458475828,208,1683559486458475828,camera_1,210,0,-0.3426067032693506,-0.6971073089427631,4.165729452988911,-0.7513636779734572,-0.6540605563349737,-0.08695281722832679,0.009829529238008434,0.01349313477294345,0.005858094186090444,4776.656881386329
1683559486465085983,209,1683559486465085983,camera_1,211,0,-0.34259418860636426,-0.6971207206206387,4.165909220559172,0.7513590479603318,0.6544374691606475,0.08468179548674927,-0.00041655718804181895,0.002147932056686841,0.0009334434621721696,4773.894193730754
1683559486471693992,210,1683559486471693992,camera_1,212,0,-0.34280271915778404,-0.6973668447686752,4.167675368245579,-0.7515037691299901,-0.6544855056111712,-0.08163399739836726,0.015056506801761958,0.004094939324204461,0.0017786074706221736,4783.4013357342055
1683559486478445768,211,1683559486478445768,camera_1,213,0,-0.34291804752453336,-0.6971411660516611,4.167544197215597,-0.751049313912037,-0.6546817118610961,-0.08441507091380732,0.013815933898946498,0.01392282522010646,0.006047305602024902,4779.057349098496
1683559486485186815,212,1683559486485186815,camera_1,214,0,-0.3421252698705187,-0.695859848827128,4.1594336443653255,-0.7508642654269055,-0.6544193912169204,-0.08803248694127089,0.013725762169143814,0.007697196555454866,0.003330116347625117,4791.648676827987
1683559486491709709,213,1683559486491709709,camera_1,215,0,-0.34251145855908915,-0.6967692959238989,4.164547310886276,-0.7513808204716491,-0.6544751688083295,-0.08363608219155434,0.009701638846489107,0.004556146614049794,0.0019767964776417264,4784.816257910281
1683559486498430490,214,1683559486498430490,camera_1,216,0,-0.34259827392875003,-0.6968790855662239,4.1658869720037774,-0.7515836669623192,-0.6544465428678496,-0.08217205299837103,0.008334733938562785,0.010192437872319715,0.004425621464583822,4783.393102768603
1683559486505172967,215,1683559486505172967,camera_1,217,0,-0.3424991930842356,-0.6968326734154707,4.165205244381236,-0.7511870150940096,-0.6539394175852367,-0.08883453894504949,0.013774293914906867,0.009168943172880972,0.003978127129151617,4776.952070831787
1683559486511679887,216,1683559486511679887,camera_1,218,0,-0.34254323900402733,-0.696647431531033,4.164987389936666,-0.7513370702277515,-0.6544249799499076,-0.08411256041340866,0.012067713115689025,0.011460712930784211,0.004972409644371118,4784.550095551792
1683559486518470287,217,1683559486518470287,camera_1,219,0,-0.3427050567474062,-0.6971142632430906,4.167434913189441,0.7509522849974144,0.654753039493475,0.08316832810147944,-0.021263869168685202,0.008813476330033154,0.0038263142733281222,4784.203424205829
1683559486525113105,218,1683559486525113105,camera_1,220,0,-0.3425385855225541,-0.6969768803023875,4.166577153311867,-0.7513236199623159,-0.6545262465008471,-0.083523019614253,0.01149416907614381,0.011099504750745837,0.004819743757712062,4781.445686137594
1683559486531682014,219,1683559486531682014,camera_1,221,0,-0.3427530918039856,-0.6975442465289515,4.169822780282523,0.7509963059515314,0.6551178731316207,0.0806683196969142,-0.01782534566094383,0.01660745025765209,0.0072203096656165925,4781.257566202608
1683559486538363933,220,1683559486538363933,camera_1,222,0,-0.34222395044026466,-0.6964238095434508,4.163226910717438,-0.7510243053637998,-0.6544849362732452,-0.08562214598284511,0.016757358429077655,0.004659975757022039,0.0020194112216950317,4788.229896119388
1683559486545203447,221,1683559486545203447,camera_1,223,0,-0.3423138954005711,-0.6964961116921369,4.164272330245285,-0.7511425268193067,-0.6539923506522558,-0.08717528166831932,0.02189474726716727,0.007937000118545257,0.003440048170207493,4785.319839654896
1683559486551738977,222,1683559486551738977,camera_1,224,0,-0.34178405529239697,-0.6953594351075568,4.157396029904041,-0.751175005907273,-0.6543295724976673,-0.08658872504738381,0.00955582282679501,0.003535156665748218,0.0015283732575968206,4796.683237335354
1683559486558357715,223,1683559486558357715,camera_1,225,0,-0.34187741067509125,-0.6956358031447616,4.158848403307194,-0.7516030619459242,-0.6536396833686654,-0.08826885238809386,0.007524047933871867,0.004197827345706173,0.0018164976168412788,4789.277374176308
1683559486565049886,224,1683559486565049886,camera_1,226,0,-0.34309068382478114,-0.6981015198976448,4.173346006308347,-0.7512961189236496,-0.6550472262139803,-0.07887102982737555,0.015704578109632755,0.00894682272519276,0.0038966382091995314,4775.049998403441
1683559486571799278,225,1683559486571799278,camera_1,227,0,-0.3421644087407552,-0.6962745141271316,4.162419943157754,-0.7513339009847164,-0.6543008192845902,-0.08538576731934919,0.009852809441394621,0.005590088421740802,0.002422599812668462,4787.15703630168
1683559486578661680,226,1683559486578661680,camera_1,228,0,-0.34254372335307354,-0.697025442667629,4.166773418937979,-0.7511390188700805,-0.6544519005129759,-0.08465235311574595,0.017800656106275653,0.009475214612393756,0.004112994655363705,4782.078971929146
1683559486585607051,227,1683559486585607051,camera_1,229,0,-0.34268538451115527,-0.6974010420492184,4.168046969186359,-0.7509434902280584,-0.6548051841033923,-0.08496814359386214,0.009719049832022172,0.020417412183633132,0.008874777154723077,4774.628652684536
1683559486591882228,228,1683559486591882228,camera_1,230,0,-0.34255216634193353,-0.6974922581156948,4.168916546799379,-0.7517206812306054,-0.6542767515762024,-0.08208570863372038,0.009994308139473343,0.003819648297394452,0.0016607020428715102,4777.298611619919
1683559486598618030,229,1683559486598618030,camera_1,231,0,-0.3428539326131045,-0.6978816573775671,4.171310076096615,-0.75154849440397,-0.6542042542353321,-0.08263566366816445,0.019052595351837374,0.00736971878541226,0.003205738391485554,4775.222257559332
1683559486605302333,230,1683559486605302333,camera_1,232,0,-0.34276794539546523,-0.6977170571941455,4.170006469007012,-0.7511377070700284,-0.6548183662936338,-0.08234682624144953,0.014968379674412393,0.023217172228214622,0.010097381609305333,4776.900292630889
1683559486611836433,231,1683559486611836433,camera_1,233,0,-0.34269431553964347,-0.6974260730786038,4.168405237854563,-0.7508413651658559,-0.654601217210617,-0.08524539531603743,0.021626681660971887,0.008698518967321434,0.0037779720607176454,4778.6865910725
1683559486618534088,232,1683559486618534088,camera_1,234,0,-0.3423853931552627,-0.6968590496995755,4.165462533883731,-0.7512207290001254,-0.6545584567956803,-0.08397970391799336,0.012963498278783634,0.008804766652247054,0.003820959220771832,4783.918961150631
