%time,field.header.seq,field.header.stamp,field.header.frame_id,field.image_seq,field.transforms0.fiducial_id,field.transforms0.transform.translation.x,field.transforms0.transform.translation.y,field.transforms0.transform.translation.z,field.transforms0.transform.rotation.x,field.transforms0.transform.rotation.y,field.transforms0.transform.rotation.z,field.transforms0.transform.rotation.w,field.transforms0.image_error,field.transforms0.object_error,field.transforms0.fiducial_area
1681985479728839159,0,1681985479728839159,camera_2,1,0,-1.2311381011497713,0.3134650999814789,1.7467468941210065,0.9580333361219486,-0.005403827755325631,0.2777043868105809,-0.07087453048027473,0.1157167496276088,0.016121771155277395,13051.560052463785
1681985479738814830,1,1681985479738814830,camera_2,2,0,-1.230491841882311,0.31375640852937187,1.745820452331182,0.9578822788493857,-0.005466329244098532,0.2782430603496861,-0.07079871805438265,0.11691498552681878,0.016280313573340626,13054.220097344833
1681985479748775720,2,1681985479748775720,camera_2,3,0,-1.2311810073405716,0.31446021124635054,1.7468318824860471,0.9580746320853729,-0.00544567627078185,0.2776118362789701,-0.07067540111134579,0.14008130668662488,0.019520662998702868,13050.751753566788
1681985479758774757,3,1681985479758774757,camera_2,4,0,-1.2311457399368047,0.3148270506267853,1.7467465996221776,0.9580403623707615,-0.0055677905122981436,0.27771877762747293,-0.0707102844741381,0.11550579412141815,0.016099373125588717,13048.361544936895
1681985479768783330,4,1681985479768783330,camera_2,5,0,-1.2311071311802162,0.3149577080854625,1.7466993944289326,0.9580430384721905,-0.0055274511063886375,0.27763598914524273,-0.07100169892743442,0.12431373971048743,0.017330132876250782,13048.960862087322
1681985479779140710,5,1681985479779140710,camera_2,6,0,-1.2309808994206062,0.3148405295948112,1.7465102073791812,0.9579595533647604,-0.005560967655841448,0.2779277006351883,-0.07098424455861217,0.10062685166485608,0.014027598563526943,13046.369114547733
1681985479788807630,6,1681985479788807630,camera_2,7,0,-1.2313867311888949,0.3146116657331757,1.7471420285066754,0.9580200374968674,-0.005460387863177858,0.2777965253132055,-0.07068863022293047,0.12748487043427303,0.017774782952239016,13042.448941058014
1681985479799151897,7,1681985479799151897,camera_2,8,0,-1.230747145028361,0.31392768982364294,1.746195282117845,0.957925077563064,-0.005324615677591914,0.27817415108565197,-0.07050060929850843,0.1237246036180295,0.017230700611992073,13051.146772862176
1681985479809155225,8,1681985479809155225,camera_2,9,0,-1.2306544846261187,0.31344296898587576,1.7460551793552426,0.9579379541469702,-0.005292559880713114,0.27806012114211853,-0.07077735404108228,0.11090127809438854,0.015441832110820527,13055.228101429995
1681985479818832874,9,1681985479818832874,camera_2,10,0,-1.2313292000426281,0.3133407259917342,1.7470329924293753,0.9580753289379644,-0.0055718771255820225,0.27753118845284724,-0.07097223190557642,0.11334852792788297,0.01579566471642809,13050.701372855337
1681985479828823089,10,1681985479828823089,camera_2,11,0,-1.2311717795162411,0.31328277721558684,1.7468105582323785,0.9580049094812089,-0.005506604921834695,0.277760783046191,-0.07102969881466822,0.1018915954628028,0.014198338078677831,13049.392197966577
1681985479838772773,11,1681985479838772773,camera_2,12,0,-1.2312367844682377,0.3134917889945676,1.7468857572680097,0.9580616597449533,-0.0053769658537063635,0.2776447828892892,-0.07072707331222486,0.10846890008542687,0.015111580034328076,13051.325269724242
1681985479848754167,12,1681985479848754167,camera_2,13,0,-1.2305062718479607,0.31373766569011735,1.745860630203278,0.9579249653113513,-0.005500241786917874,0.2780778676630116,-0.07086753621740167,0.12647591234417632,0.017610971947028632,13056.777778920485
1681985479859170913,13,1681985479859170913,camera_2,14,0,-1.2312848118136566,0.3144381055828416,1.7469896958829694,0.9580655041550891,-0.005366583332253683,0.27766417021698087,-0.07059956167788076,0.1483798514236696,0.020679286607306738,13048.075194540443
1681985479869185209,14,1681985479869185209,camera_2,15,0,-1.230916911012116,0.31473845372888304,1.746446777486511,0.9579561372354168,-0.005588096906087933,0.2779387596316011,-0.07098491530187781,0.12198628444457427,0.01700349599998419,13047.636086500715
1681985479879137516,15,1681985479879137516,camera_2,16,0,-1.231021668566212,0.3148989563967187,1.7465881526283007,0.9579839970730738,-0.005645261773090295,0.2778846432601159,-0.07081608158891976,0.11996691359672695,0.016722711625874857,13046.933931319509
1681985479889401674,16,1681985479889401674,camera_2,17,0,-1.2312838048691466,0.31487496918012464,1.7469736271193808,0.9580727767515539,-0.005422342128619875,0.27755934960053724,-0.07090811027473566,0.13220176321920007,0.01843128127531418,13047.40703996714
1681985479899127483,17,1681985479899127483,camera_2,18,0,-1.2311995591253033,0.31452061982912705,1.7468441997954005,0.9580153919853615,-0.005468401032012277,0.2778308971423523,-0.0706158473882665,0.14143603725824505,0.01971259812928334,13046.475272908807
1681985479908860445,18,1681985479908860445,camera_2,19,0,-1.2307349019410756,0.3139013738566652,1.7461672223437321,0.9579196329129079,-0.005351005282642012,0.27819768212130297,-0.07047973669643899,0.11166757700266317,0.015551061159801012,13051.14083508053
1681985479919107675,19,1681985479919107675,camera_2,20,0,-1.2306881999339734,0.3134341962053111,1.7461219666128516,0.957935248112922,-0.00529762243898676,0.27806280203910505,-0.07080306307985673,0.11047263629734516,0.015383454050777663,13054.26902458677
1681985479929171800,20,1681985479929171800,camera_2,21,0,-1.2314167814368466,0.31338996205059744,1.7471642475406954,0.9581325744543953,-0.0054912788427979075,0.27733303578283064,-0.0709802993058123,0.1195289539755322,0.016656717168919442,13052.535113320218
1681985479939129590,21,1681985479939129590,camera_2,22,0,-1.2311879857316639,0.31331820332288735,1.746834697805298,0.9579863987979215,-0.00545325693780095,0.2778491902755288,-0.07093764282941056,0.11759244278073311,0.01638666546544307,13047.691654144322
1681985479949154376,22,1681985479949154376,camera_2,23,0,-1.2307966794427894,0.31346382208916895,1.7462878760814298,0.9579369511496441,-0.005383431142494844,0.2781076117624769,-0.07059725611544773,0.11140479461755604,0.015514226947574598,13052.004611440705
1681985479959158897,23,1681985479959158897,camera_2,24,0,-1.230224392633564,0.3137586385656003,1.7454480809093942,0.9578539062981861,-0.005338057374534604,0.2783274297561529,-0.07086071674846194,0.10886298475088552,0.015154324258160573,13057.69442783273
1681985479969152927,24,1681985479969152927,camera_2,25,0,-1.231182645509475,0.3145001490236606,1.7468283457615472,0.9579566299285651,-0.00548461909961472,0.2779609288014896,-0.07089947946954095,0.1325699708540924,0.01848282703563886,13042.962961173147
1681985479979139328,25,1681985479979139328,camera_2,26,0,-1.2310190875532574,0.3147737211192063,1.7465882308179184,0.9579395663264951,-0.005414190039402241,0.2779807775850658,-0.07105744933239508,0.1179781689424999,0.01644847748548327,13044.283240071027
1681985479989161014,26,1681985479989161014,camera_2,27,0,-1.2309376602401787,0.3148418514615873,1.746464696813333,0.9579187299970806,-0.005529462998101608,0.27807734824596214,-0.07095153382575121,0.11942010238999501,0.01664790526240565,13044.53398944531
1681985479999109983,27,1681985479999109983,camera_2,28,0,-1.231259428501712,0.3147714708358635,1.7469297421994883,0.9580002472451806,-0.0055785550713925505,0.27777627287078477,-0.07102639109164778,0.11657015420496464,0.016255637981100864,13043.456629606895
1681985480008796691,28,1681985480008796691,camera_2,29,0,-1.2312319568752055,0.31436743373870474,1.7468780414916405,0.9580221186541936,-0.00538552839401806,0.27776155211647224,-0.07080350569778188,0.13850869779707864,0.01930610778219635,13046.66367080086
1681985480018778562,29,1681985480018778562,camera_2,30,0,-1.2305144196098725,0.3136904018751143,1.745868474242612,0.9578955617961125,-0.00540446376103804,0.2781418932464358,-0.071020924269219,0.1170986223150976,0.016307774085833966,13054.729509281231
1681985480028887033,30,1681985480028887033,camera_2,31,0,-1.230979140263224,0.3134259097896864,1.7465235281185443,0.9579978157019411,-0.005345707184941138,0.2778503069616437,-0.07078711356117746,0.11752316332422197,0.016369718632198358,13052.505107539708
1681985480039242506,31,1681985480039242506,camera_2,32,0,-1.2312755773661586,0.3133703036921167,1.7469576757075909,0.9580100987049769,-0.005485704725192473,0.277803102643957,-0.07079543759550787,0.11117367749102414,0.015492137112881747,13047.33310769382
1681985480049121379,32,1681985480049121379,camera_2,33,0,-1.2308720072200594,0.3133473700445596,1.746384776188669,0.9580003330870227,-0.0054714995100075626,0.2778199124856559,-0.07086268922873368,0.10970064118737353,0.015278305548768856,13055.05240427982
1681985480058954477,33,1681985480058954477,camera_2,34,0,-1.2307659536283249,0.31363950482352027,1.746249607055088,0.9579250041144542,-0.00538990763032688,0.2780442858163907,-0.07100711593152266,0.12669475574512035,0.01764920169342526,13051.566323494768
1681985480068896293,34,1681985480068896293,camera_2,35,0,-1.2311580039633916,0.3142010102124323,1.7467820206335951,0.9580645563805951,-0.005267149386715593,0.2777110071391105,-0.07043549856693519,0.12130183150293306,0.01689827949420303,13051.17673419462
1681985480079191446,35,1681985480079191446,camera_2,36,0,-1.2312783602932003,0.3146637034389073,1.7469387124168545,0.9579869572664278,-0.005596756558818224,0.2778732850965442,-0.07082445519089725,0.12333255662815645,0.01719654832861334,13042.653705640234
1681985480088893413,36,1681985480088893413,camera_2,37,0,-1.2311385605786993,0.31484474533529483,1.7467372595833437,0.9579661433339466,-0.005399140620108646,0.2779265811301369,-0.07091214993047587,0.10845798475202173,0.015121527749484881,13043.455026000036
1681985480099193572,37,1681985480099193572,camera_2,38,0,-1.2308184700052445,0.3147343360405426,1.7463023776865012,0.9579090689001609,-0.005388702496477513,0.2780528937763524,-0.07118824247604227,0.11831447581062093,0.01649276815233243,13046.502042824406
1681985480109197378,38,1681985480109197378,camera_2,39,0,-1.2314499544860318,0.3146308015029753,1.7471947746715926,0.9580830384246758,-0.0054711798022847825,0.27754556390632906,-0.07081961331742805,0.1240231255069375,0.017292126418687773,13045.487466911323
1681985480119153976,39,1681985480119153976,camera_2,40,0,-1.230593371238937,0.31394911537993464,1.7459478417330223,0.9578846099242087,-0.005207408809045647,0.2782927712209313,-0.07059100828020913,0.12250511674210429,0.017059142611980778,13051.719216543715
1681985480128834009,40,1681985480128834009,camera_2,41,0,-1.230676277855296,0.313525274639609,1.7460998793801863,0.9579128923971906,-0.005464180868007711,0.27811446076614477,-0.0708899147936203,0.1282447308767587,0.017861271961109742,13053.007768380696
1681985480139202356,41,1681985480139202356,camera_2,42,0,-1.2310103562938544,0.31337328404576287,1.746591073632948,0.9580108219103858,-0.005459216425958817,0.2777123799076418,-0.07114278673650001,0.11244650493608788,0.01566679276141163,13052.786185333272
1681985480148946523,42,1681985480148946523,camera_2,43,0,-1.231340262973271,0.3134271527812499,1.7470433228659206,0.9580320382954993,-0.0055053663653519295,0.27768115417518285,-0.07097521508591977,0.10426007094793022,0.01453133906401518,13047.34214158892
1681985480159061908,43,1681985480159061908,camera_2,44,0,-1.2304826992512194,0.313422795789235,1.7458261849334642,0.9578752861594081,-0.0054286103206214265,0.2783091613514999,-0.07063623052544485,0.12227900262223557,0.017023464172918282,13054.65481549921
1681985480168957471,44,1681985480168957471,camera_2,45,0,-1.2304969705389648,0.3138532902764402,1.7458278842904706,0.957839215751538,-0.005336171904018646,0.2784155924999487,-0.07071294005195992,0.11925952660385519,0.016608142829031232,13050.91320709372
1681985480179003715,45,1681985480179003715,camera_2,46,0,-1.2314212511429845,0.3145480484892297,1.7471583886871147,0.9580155803992264,-0.005319737152142157,0.2777932429802322,-0.0707726095568843,0.13826108048669994,0.01927822904195809,13041.80021682847
1681985480189164400,46,1681985480189164400,camera_2,47,0,-1.231308416040227,0.3148112025077382,1.7470168401971264,0.9580356132276014,-0.0055575506098722,0.27768428894639263,-0.07091059928648741,0.11306466028327122,0.015765467213020967,13044.589752356984
1681985480199090242,47,1681985480199090242,camera_2,48,0,-1.2307945540344372,0.31472141322059116,1.7462285384725664,0.9578756536646774,-0.005397494546919932,0.27828662093022205,-0.07072238528444705,0.11495762813137844,0.016020306575692596,13044.977567372609
1681985480208814144,48,1681985480208814144,camera_2,49,0,-1.2311895818643854,0.3146504746604574,1.7468388698971578,0.9580257992472425,-0.00547123242115769,0.2776468245866283,-0.0711960279049199,0.12105584290111437,0.01687884929310481,13046.92739122943
1681985480219083070,49,1681985480219083070,camera_2,50,0,-1.2306455436183648,0.31408550541610636,1.7460568974181458,0.957906652864286,-0.005289222130706372,0.2782622747142884,-0.07040578810312544,0.1257390443352051,0.01750921096439877,13051.578228296012
1681985480228960752,50,1681985480228960752,camera_2,51,0,-1.230833328833849,0.3136953683937909,1.7463185073233127,0.957982836443291,-0.005468264162703051,0.2778715919201318,-0.07089683752386693,0.12683181097963825,0.017666426356580976,13054.041798982766
1681985480238977909,51,1681985480238977909,camera_2,52,0,-1.2308891546648022,0.31340917059092865,1.7464136130169092,0.9580076439163687,-0.005423228870937679,0.27782043470144135,-0.07076544954088651,0.13327873672824353,0.018561378474659253,13055.061209355481
1681985480249037981,52,1681985480249037981,camera_2,53,0,-1.230876578381763,0.31333110473956094,1.7463737233956693,0.9579497723912054,-0.005265177270230594,0.27797989155869834,-0.07093441599791418,0.11389386985683814,0.01586441669454589,13051.694368724711
1681985480258885860,53,1681985480258885860,camera_2,54,0,-1.2311083455513345,0.3135491410835482,1.7467397137355347,0.957980742399396,-0.005467155922973607,0.27794319851917865,-0.07064407827231242,0.1192375035607256,0.016612363031219886,13048.332034795774
1681985480268817424,54,1681985480268817424,camera_2,55,0,-1.2303034724216089,0.3137118206740366,1.7455797856844006,0.9578374506139674,-0.005385913676497884,0.27835170729881875,-0.07098406285242985,0.1340705796610564,0.018668194095913762,13055.114786428401
1681985480278934955,55,1681985480278934955,camera_2,56,0,-1.2312332918001876,0.3143844078650044,1.7468968786557497,0.9580453039747061,-0.00547124023561405,0.2777308036670279,-0.0706035534287334,0.13045098981820047,0.018180001419815853,13048.024459387872
1681985480288883686,56,1681985480288883686,camera_2,57,0,-1.230766674233508,0.31459741116458234,1.7462226821838314,0.9578785942153865,-0.005488344580437308,0.27820526168577914,-0.07099513496056319,0.1301365246763453,0.018137804723776095,13046.063671641987
1681985480298805475,57,1681985480298805475,camera_2,58,0,-1.2308175105326615,0.31471054124065734,1.746298134979714,0.9579042339972167,-0.005453035108819139,0.27813897815870353,-0.07091157682028996,0.11587407073238865,0.016149794376784498,13046.28759545274
1681985480308789014,58,1681985480308789014,camera_2,59,0,-1.2310104944267994,0.3146096832954469,1.7465858596224835,0.9579360731166394,-0.005492573403780082,0.27795953705855503,-0.07118150895752651,0.1327618770301342,0.018510318602614415,13044.75788372686
1681985480318853378,59,1681985480318853378,camera_2,60,0,-1.2309642825239484,0.3142057022806774,1.7465385580417325,0.9579900010647058,-0.005340912698445909,0.2779676050205015,-0.07043183279426604,0.14516007818747312,0.020220801118776312,13050.151887413813
1681985480328859567,60,1681985480328859567,camera_2,61,0,-1.2301966166137246,0.3135450514825507,1.7454183353008796,0.9577604068268065,-0.005303177784138231,0.27869350796537645,-0.07068810393759863,0.13029070995980874,0.0181373428431478,13052.702517309928
1681985480338801622,61,1681985480338801622,camera_2,62,0,-1.2309541186885604,0.31331832121997116,1.746482372747648,0.9579721222950783,-0.005467820919908511,0.27789275556804904,-0.07095866573328338,0.113364321005065,0.01579251713044293,13051.6557362522
1681985480348813533,62,1681985480348813533,camera_2,63,0,-1.2318949593584767,0.31319985145850093,1.7478353097466066,0.9581498031786302,-0.0054000262778603056,0.2773386257163832,-0.07073246122325122,0.1223537873593159,0.017057426803924913,13044.427829931024
1681985480358817577,63,1681985480358817577,camera_2,64,0,-1.2305286996121139,0.31253948945371957,1.7458702857501212,0.9578912221268867,-0.005150452600498852,0.2783541743009114,-0.07026260071707496,0.12246787652838975,0.01703887720297781,13057.084886320401
1681985480368819475,64,1681985480368819475,camera_2,65,0,-1.2309155058465229,0.31246096950692637,1.7464247420328676,0.9580161492906998,-0.005293731376326203,0.2778439377386,-0.07056755889390062,0.10992764204274863,0.015301254540593123,13057.574671739247
1681985480378813266,65,1681985480378813266,camera_2,66,0,-1.2305163498573868,0.31233119850022256,1.7458713829616008,0.957887327703344,-0.005311227418297612,0.27830351674852155,-0.07050397757618453,0.11679565493250266,0.01625164214646982,13057.586253332907
1681985480388881444,66,1681985480388881444,camera_2,67,0,-1.2302004410625043,0.31232197269143797,1.745412137785282,0.9578196954682477,-0.005299619698492435,0.27856762160274773,-0.07038057401551018,0.13380225002765656,0.01861085555950889,13059.694149174029
1681985480398812770,67,1681985480398812770,camera_2,68,0,-1.2308004680304818,0.31267499172095625,1.7462810010383778,0.9579301846759297,-0.005249493588369426,0.2782676183103987,-0.07006665900171868,0.13002585369395092,0.01809528963122022,13053.609830646774
1681985480408832788,68,1681985480408832788,camera_2,69,0,-1.2313803167329926,0.3131374490483074,1.7471251199722768,0.9580464679329435,-0.005324655609859624,0.277655248565214,-0.07089553066334567,0.11919730535009876,0.016610363423925193,13048.14778595022
1681985480418795108,69,1681985480418795108,camera_2,70,0,-1.231011479706254,0.313420942235688,1.7465788548852252,0.9579383209335818,-0.00541708378312955,0.278022837130124,-0.0709093119720757,0.10978473559953272,0.015296629770015517,13047.853002066948
1681985480428808689,70,1681985480428808689,camera_2,71,0,-1.2303643680255483,0.31373557082296427,1.7456557795357128,0.957841126057824,-0.0053910340273858525,0.2783400381648027,-0.07097983614246706,0.12201353424461558,0.01699060168972899,13054.128829187252
1681985480438780069,71,1681985480438780069,camera_2,72,0,-1.2312527371233433,0.3145081523130738,1.74693649248402,0.9580272033746613,-0.005324101449798638,0.2777519913286411,-0.07077685250738518,0.13828850933350623,0.019276352140246256,13046.066828149605
1681985480448823690,72,1681985480448823690,camera_2,73,0,-1.2310209110170303,0.3150047061804053,1.7466134759600471,0.9579856296245474,-0.005476450940838261,0.27791762030431294,-0.0706777068271178,0.118812155444175,0.016560300885989157,13046.593834707053
1681985480458819866,73,1681985480458819866,camera_2,74,0,-1.2313696661488451,0.3157624410153804,1.747114015912789,0.9580886965515636,-0.005272204322921375,0.2775354586948057,-0.07079775821851474,0.12729698355542496,0.017753302794269774,13044.139056305641
1681985480469039678,74,1681985480469039678,camera_2,75,0,-1.2309935548637612,0.31641082527341163,1.746577737778118,0.9580037545782956,-0.005422679542607232,0.27790183425087744,-0.07049802323799614,0.10916267504217103,0.015220206343588904,13044.44222709443
1681985480478815793,75,1681985480478815793,camera_2,76,0,-1.231855460063417,0.3174350061531529,1.7478029012536762,0.9581383859861423,-0.005384772081346261,0.2774184155120046,-0.07057520998417953,0.12024458643281832,0.01678865895854157,13032.920132720843
1681985480488820075,76,1681985480488820075,camera_2,77,0,-1.2313251450807734,0.3180497139174683,1.7470618828020577,0.9581262740012092,-0.005364428122687482,0.27749406802988874,-0.07044365257210898,0.10862898646155372,0.01515736381656463,13041.15667772759
1681985480498812913,77,1681985480498812913,camera_2,78,0,-1.2316903428082584,0.3190244027903369,1.7476068957010547,0.9581734431540946,-0.005434651538362661,0.27732936681717124,-0.0704452957809874,0.11744958540657535,0.01640196583380722,13033.97743288194
1681985480508796930,78,1681985480508796930,camera_2,79,0,-1.2312907834544518,0.31979060161829215,1.7470405861289677,0.9582005255087103,-0.005275903393773769,0.27719221016471896,-0.0706285804912529,0.13551244279369712,0.018918821311095426,13041.858849333836
1681985480518908977,79,1681985480518908977,camera_2,80,0,-1.23172717757939,0.3208094238844561,1.7476741849147623,0.9582323756343725,-0.005519622973053767,0.2769375774689999,-0.07117461790514966,0.12727152812294662,0.017793063931508615,13032.259176035874
1681985480528809547,80,1681985480528809547,camera_2,81,0,-1.2317032285793894,0.321726007480948,1.7476398851303558,0.9582015983333126,-0.005416037447294511,0.2770400500556321,-0.07119813308667208,0.12391835253220052,0.017330975364350777,13028.164586295834
1681985480538823366,81,1681985480538823366,camera_2,82,0,-1.2313839674541172,0.3225032608794485,1.7472456289714795,0.958082762825994,-0.005268764762233707,0.27762061239168273,-0.07054399527144539,0.13138388079823926,0.018369546742081907,13024.316581880677
1681985480548799753,82,1681985480548799753,camera_2,83,0,-1.2315191561260785,0.3234271278637561,1.7474468007001838,0.9581736277104337,-0.0051970281207914665,0.2773183363516582,-0.07050411606486183,0.13063438521930948,0.01827011057999503,13024.73241650896
1681985480559199333,83,1681985480559199333,camera_2,84,0,-1.2316245016587368,0.3243970940451017,1.7476053500087758,0.9581013325556582,-0.005331259345217119,0.27752476258696446,-0.07066413786295815,0.10669659712584689,0.014935292228404923,13014.951381416757
1681985480568950176,84,1681985480568950176,camera_2,85,0,-1.231475000675357,0.32521423054979837,1.747373111560634,0.9582091063827537,-0.005129928665347842,0.27714977479345365,-0.07068942360064404,0.10161550930934027,0.014220832237021459,13022.593936437515
1681985480578808069,85,1681985480578808069,camera_2,86,0,-1.2314338243841114,0.3261185368045428,1.7473508802872686,0.9581156315710377,-0.005174782789452624,0.2774376053048324,-0.07082396010555807,0.0924900645040907,0.012952297310168554,13014.474608841587
1681985480588816881,86,1681985480588816881,camera_2,87,0,-1.231411998902185,0.3268739157788961,1.7473346550664899,0.9579814749767489,-0.005373099420354921,0.2778869856400272,-0.07086216632231107,0.12613105843774974,0.017676057152333693,13004.020043736322
1681985480598793745,87,1681985480598793745,camera_2,88,0,-1.231100994292005,0.3275615684678793,1.746904454038959,0.9579901227032593,-0.00529374333696193,0.27801599280456785,-0.07024250016455136,0.09966455009998754,0.013957902600531848,13008.662743573776
1681985480608858585,88,1681985480608858585,camera_2,89,0,-1.2313259762810436,0.3283049261597651,1.7472425676376095,0.9580193175165523,-0.005365931307942253,0.277775760736205,-0.07078715133228895,0.10871247207978742,0.015239353259227229,13003.819442273816
1681985480618798255,89,1681985480618798255,camera_2,90,0,-1.2310397727836209,0.32886957258654254,1.7468517627332751,0.9579850803103868,-0.005313598556963548,0.278024789836699,-0.0702749443922715,0.10773773194523528,0.01509590261638689,13005.518320293631
1681985480628810405,90,1681985480628810405,camera_2,91,0,-1.231807292848841,0.32964785363541843,1.7479239822777064,0.958064549437569,-0.005392777631165398,0.27762855654064345,-0.07075041804517951,0.10039895499357954,0.014089802846138321,12992.946691944959
1681985480638767719,91,1681985480638767719,camera_2,92,0,-1.231545041236735,0.3301449385374632,1.7476052207702493,0.9580378236179766,-0.00527936377427365,0.27786038860138956,-0.07020869804913389,0.09064946474973112,0.012715357337579652,12994.653978141956
1681985480648824691,92,1681985480648824691,camera_2,93,0,-1.231377118986622,0.33043957688539716,1.74736423820344,0.9580610902507338,-0.005261825529654833,0.2777720273396922,-0.07024216231913885,0.08910219417884946,0.01249608636699191,12998.654249970805
1681985480658810853,93,1681985480658810853,camera_2,94,0,-1.2315160470609063,0.33077512913998375,1.7475661781031802,0.9580691682484188,-0.005206638103599953,0.277757574732183,-0.07019322937674895,0.10471577808493748,0.014690022540158543,12995.349986474957
1681985480668915033,94,1681985480668915033,camera_2,95,0,-1.2320735063081374,0.33114844583133346,1.7483562159352795,0.9581493626563364,-0.005323999280462284,0.2773468036441836,-0.07071212329772514,0.10383653483586386,0.014583382512661424,12988.207719014026
1681985480678819894,95,1681985480678819894,camera_2,96,0,-1.2324774895535553,0.33134978417580574,1.7489373776235486,0.9581494149837491,-0.005328549549541927,0.2773523935991476,-0.07068914266576608,0.09896280738757923,0.013908259283822342,12979.415096143963
1681985480688932180,96,1681985480688932180,camera_2,97,0,-1.2322931865273303,0.33127354521693403,1.7486748504622665,0.9581886301344485,-0.005361197103073753,0.2772290158316126,-0.07063907861606399,0.09947275841841474,0.013973758968430542,12985.95296382206
1681985480698801994,97,1681985480698801994,camera_2,98,0,-1.2319629191621604,0.331050644709199,1.748200898106752,0.9581160600305014,-0.005274102179927232,0.2775220332024251,-0.07047921995181472,0.08784654253395274,0.01233416285580569,12988.460154126868
1681985480708801984,98,1681985480708801984,camera_2,99,0,-1.2314052238924513,0.3306099325438752,1.7473809989109415,0.9580514638815543,-0.005217287212538007,0.27779519338085384,-0.07028515492653356,0.09303680789889768,0.01304992817252691,12996.971385361856
1681985480718815565,99,1681985480718815565,camera_2,100,0,-1.2316964714492393,0.3304065191392748,1.7477905592610419,0.9580947869565796,-0.005145057563698188,0.27757938988583314,-0.07055203682319641,0.08112828806042671,0.011384064552539389,12994.480406140672
1681985480728860616,100,1681985480728860616,camera_2,101,0,-1.2321614498718112,0.3300583824787642,1.7484640012301862,0.9581532594372124,-0.005200783133175536,0.27739240749619176,-0.07048925838816941,0.10117022693157196,0.014201636655096769,12990.133955775758
1681985480738905191,101,1681985480738905191,camera_2,102,0,-1.2312994824274834,0.3292488273237673,1.7471980620960341,0.9579879565636334,-0.005319538328876503,0.2779696285665782,-0.07045326951647052,0.09254140278790146,0.012975013605389541,12999.324969275858
1681985480748814344,102,1681985480748814344,camera_2,103,0,-1.2317735076114267,0.3287850868863576,1.7478632779602001,0.9579949257289117,-0.005337237404734069,0.2778341895034229,-0.07089005090644579,0.09957870846847072,0.013972806597343878,12991.724701339379
1681985480758885622,103,1681985480758885622,camera_2,104,0,-1.2312610452659951,0.32784613038798693,1.7471120157715778,0.9579357404638419,-0.005289521740257698,0.2780551750927687,-0.07082695606815463,0.11051554302684963,0.015491260824788045,13001.15384579101
1681985480768823862,104,1681985480768823862,camera_2,105,0,-1.232051732377466,0.32721724682498704,1.7482413384464346,0.9580948819085419,-0.005397870432518405,0.2774438119667672,-0.07106329190798943,0.11486793879885226,0.016112663619324306,12997.440750716252
1681985480778850078,105,1681985480778850078,camera_2,106,0,-1.231360424529894,0.3261087839820413,1.7472567135768424,0.9581235984690119,-0.005253687144412768,0.27744303045554486,-0.07068899263551703,0.10342846816638485,0.01448111430280309,13016.585779694371
1681985480789210557,106,1681985480789210557,camera_2,107,0,-1.2314402109664953,0.3250376913523614,1.7473303582504427,0.9581398903005623,-0.005159638059402511,0.277392191243505,-0.0706746134552518,0.10881461744429544,0.015229270605553019,13019.336188569207
1681985480799175500,107,1681985480799175500,camera_2,108,0,-1.2319969168076272,0.3241079040135715,1.748123961956495,0.9582211204901512,-0.00536897732111775,0.2770650545440676,-0.0708407642506594,0.10497110954020172,0.014697410518189853,13016.127860942855
1681985480809199810,108,1681985480809199810,camera_2,109,0,-1.2316279264358263,0.32283535666575564,1.747568546761339,0.9582011250613994,-0.005268962321815726,0.27715551373853614,-0.07076484417737301,0.12185765174217522,0.017043098696621614,13026.214300991263
1681985480819301605,109,1681985480819301605,camera_2,110,0,-1.2320554325617064,0.3216943220889288,1.748159140533475,0.9581961474068758,-0.005469651698609247,0.27715287641531106,-0.07082731887934468,0.12048975034849718,0.016856721858088165,13020.606042428168
1681985480829187870,110,1681985480829187870,camera_2,111,0,-1.2312952271573032,0.3202355925091018,1.7470838068918493,0.958147720459331,-0.005302164389026282,0.27726946169200484,-0.07103857011796551,0.14397705398732796,0.02011294033041466,13036.985237042887
1681985480839179754,111,1681985480839179754,camera_2,112,0,-1.23175376744179,0.3190679931350778,1.747701647854248,0.9582361149878256,-0.005399992000555941,0.27707261908422887,-0.07060560723652601,0.1241153166629374,0.01733355515236099,13036.736920789353
1681985480849147319,112,1681985480849147319,camera_2,113,0,-1.2318109925687262,0.31780824792650614,1.7477578680589319,0.9581782023929682,-0.005439634303353339,0.2772007380320201,-0.07088507369065294,0.11512408195994796,0.016076764637259676,13035.418974593049
1681985480859189510,113,1681985480859189510,camera_2,114,0,-1.2312842146666731,0.31635369327586577,1.7470047167602634,0.9580638039804483,-0.0054391712400695715,0.27764210766584174,-0.07070376913293816,0.1173247400438413,0.01636484287223048,13042.623167906653
1681985480869190931,114,1681985480869190931,camera_2,115,0,-1.2310518512524653,0.314961867520927,1.7466293195973206,0.9579156617621525,-0.005480750393145026,0.2782155035152893,-0.07045338834747171,0.126649298297707,0.017653758708048358,13041.58758479543
1681985480879122734,115,1681985480879122734,camera_2,116,0,-1.231097362783484,0.3137466645448931,1.7466958987779089,0.9579271316583994,-0.005401379580423849,0.2780978986783141,-0.07076718365207102,0.13456515996949747,0.01875262091148114,13044.746524028478
1681985480888863086,116,1681985480888863086,camera_2,117,0,-1.2307912113028745,0.3125076812584651,1.7462440161970896,0.9578916357232556,-0.005207626810852841,0.2783167173110081,-0.07040099217801649,0.11494769959244877,0.016000528081484132,13051.781773588384
1681985480898818016,117,1681985480898818016,camera_2,118,0,-1.2310677139233612,0.3114649832597863,1.746629349752808,0.9579897242652727,-0.005308400186333065,0.27783469634423047,-0.07096048616602012,0.1073465971276164,0.014944633487651437,13055.475439054888
1681985480908787488,118,1681985480908787488,camera_2,119,0,-1.2314960765287708,0.310540792792993,1.747215077676495,0.9581257590588348,-0.0052954899384231886,0.2774515753632498,-0.07062301992052313,0.10494890861446038,0.014606359555910532,13058.112132456157
1681985480918817043,119,1681985480918817043,camera_2,120,0,-1.2305539102781489,0.3093611269223284,1.7458501653669425,0.9579058377677645,-0.0051796524013456805,0.27819501246723477,-0.07069025540902887,0.10310825990745798,0.014331624309646481,13066.115242118016
1681985480929003000,120,1681985480929003000,camera_2,121,0,-1.230621447916906,0.3085738000740709,1.745943453664874,0.9579527011716236,-0.005216671255194452,0.27803606979338463,-0.0706778080648607,0.10798280814196914,0.0150044114015161,13069.833068891894
1681985480938816785,121,1681985480938816785,camera_2,122,0,-1.2305939719911312,0.3079050585082426,1.7459060716534722,0.9580158425786639,-0.005159574423504649,0.2776977470013767,-0.07115465881037279,0.10052552382694557,0.013965910613297125,13076.319621801376
1681985480949213027,122,1681985480949213027,camera_2,123,0,-1.2311122727858081,0.30753429248352465,1.7466467317432988,0.9581475475358908,-0.00528765289245255,0.27711328524752865,-0.0716487614489516,0.0993187728454359,0.01380739781681521,13075.3582440298
1681985480958853721,123,1681985480958853721,camera_2,124,0,-1.2304469305027386,0.30694428300430543,1.7456625811078996,0.9580681571043281,-0.0051231760945873485,0.27760949225446335,-0.07079639270216574,0.09866046847309917,0.013693230191047841,13085.294654744212
1681985480968902111,124,1681985480968902111,camera_2,125,0,-1.230335729660559,0.3066897909636391,1.7454818516446309,0.9580058746640528,-0.005175719676781746,0.27770396897399363,-0.07126332612979623,0.09839589783223346,0.013659413827035474,13084.343448924368
1681985480978983640,125,1681985480978983640,camera_2,126,0,-1.2304898431764641,0.30666550103658285,1.7457142304992064,0.9580311994820854,-0.005013786009112185,0.2776075060599104,-0.07131027519206727,0.0876135035068728,0.012164389601303331,13082.804712693205
1681985480988949775,126,1681985480988949775,camera_2,127,0,-1.2304425955574392,0.30674060795705227,1.7456645470348573,0.9579529030252829,-0.005174822997964167,0.2778814138630018,-0.07128377530596901,0.08974423311883584,0.012462741123408142,13078.326072590893
1681985480998890638,127,1681985480998890638,camera_2,128,0,-1.229985769294935,0.3068288420547587,1.74501793517615,0.957907378348009,-0.005066118631211527,0.27812589745609084,-0.0709490952211719,0.10249397624284029,0.014222193678866292,13084.398247222416
1681985481008789300,128,1681985481008789300,camera_2,129,0,-1.231299589309632,0.30760425622428417,1.746910282069664,0.9581830694889841,-0.005308206656021323,0.27696552831894533,-0.07174346248804198,0.09691057755844668,0.013476427280647116,13073.69474428426
1681985481018955469,129,1681985481018955469,camera_2,130,0,-1.2305353782305777,0.3079386199050183,1.7458127645638648,0.9580022012594135,-0.005166864624949415,0.2777392272004285,-0.07117589174836213,0.10205812193453312,0.014178368051897622,13076.634184583552
1681985481029008388,130,1681985481029008388,camera_2,131,0,-1.2303937352421093,0.3085824346716612,1.745596123586286,0.9579372359397419,-0.0051779827418604275,0.27802522084653514,-0.07093248246105312,0.10359893378335983,0.014393093750864951,13073.58411085722
1681985481038801908,131,1681985481038801908,camera_2,132,0,-1.2303584773068847,0.30935269498186085,1.7455768565016145,0.957880938328721,-0.005141670426577999,0.2782577783260528,-0.070783331461317,0.10566475434461609,0.014684454384573036,13068.444133101966
1681985481048854351,132,1681985481048854351,camera_2,133,0,-1.2316367237956194,0.3105920808925276,1.7474304445883762,0.9581579299403742,-0.005425815875668378,0.2772484959398288,-0.070973328184348,0.10616414051037282,0.014781657204356839,13057.24706303724
1681985481058814048,133,1681985481058814048,camera_2,134,0,-1.2315489882556034,0.31159620757268885,1.7473355713553562,0.9581308233715947,-0.005201793155819161,0.2773715315815969,-0.07087524335981818,0.11163595673860982,0.015547000261054489,13054.412983511811
1681985481068806409,134,1681985481068806409,camera_2,135,0,-1.2311326086547971,0.3126239475305171,1.746725252580497,0.9579822159677654,-0.005317723819316895,0.2779333563018584,-0.07067421847926836,0.12943433015607297,0.01802653341165184,13050.634380799725
1681985481078904151,135,1681985481078904151,camera_2,136,0,-1.23078289505847,0.31369265655893197,1.7462679879044591,0.957979713482956,-0.005380248268543223,0.27783705464915476,-0.07108088735774787,0.1301220152527094,0.01812562528723131,13054.72750658845
1681985481088824272,136,1681985481088824272,camera_2,137,0,-1.2311572798766044,0.3149311903960274,1.746792976241589,0.9579682565818312,-0.005539299563720835,0.2780048569539606,-0.07056511214416332,0.11020781617844477,0.015363430674257514,13042.895007408219
1681985481099029064,137,1681985481099029064,camera_2,138,0,-1.2314916720542897,0.3161659978807796,1.7472878609935152,0.9581150711314901,-0.005426880842339501,0.2774416863270197,-0.07079668158213606,0.13606205774703994,0.018981380216210958,13042.443184232348
1681985481108862638,138,1681985481108862638,camera_2,139,0,-1.2319283611271146,0.3174668801326406,1.7479052832728672,0.958164345553506,-0.005335647552506579,0.2773386659458376,-0.07053993299259972,0.1087530229706317,0.015184402544715606,13033.003237514755
1681985481118966341,139,1681985481118966341,camera_2,140,0,-1.2316714210945423,0.31852575531383653,1.7475882395604148,0.9581416783831849,-0.005318756858602763,0.27742699077429894,-0.07050177132845428,0.137683869630564,0.019225240500745488,13033.769288154326
1681985481128910541,140,1681985481128910541,camera_2,141,0,-1.2309610169812704,0.3193588538605071,1.7465957820734985,0.9580966037303894,-0.005214249965781423,0.2775561625343229,-0.07061364001953223,0.12928592303069308,0.018042059474373255,13042.905301323397
1681985481138895034,141,1681985481138895034,camera_2,142,0,-1.2312507861757402,0.32038331063513037,1.746998589423424,0.9581008881794176,-0.005395504219146997,0.27747427741020114,-0.07086326255344877,0.11875237460481003,0.01658923728899136,13034.447936311833
1681985481148813962,142,1681985481148813962,camera_2,143,0,-1.2307045862541426,0.320991396279861,1.7462337680023903,0.9580509515230397,-0.005234264830646691,0.27770064702006353,-0.07066347997459069,0.13132963748648763,0.018334717231094692,13040.58295178041
1681985481158801317,143,1681985481158801317,camera_2,144,0,-1.2311822929884957,0.3217793446330906,1.7469475665701046,0.9581726659698849,-0.005482410582044609,0.27725331134153697,-0.07075087782159357,0.12728907755808905,0.017785578743463766,13036.451567219803
1681985481168873548,144,1681985481168873548,camera_2,145,0,-1.2311804881826245,0.32226095329043203,1.74691688990185,0.9581876409659246,-0.005343187593016286,0.27715545848323736,-0.07094185562451097,0.10881315846927464,0.01520738258066308,13036.1406062739
1681985481178794860,145,1681985481178794860,camera_2,146,0,-1.2316464871656558,0.32272482927488916,1.74760306029811,0.9582217376091766,-0.005293111092980738,0.27714880924614,-0.07050973040406887,0.13326704071369022,0.01863430859256802,13027.605916259352
1681985481188786268,146,1681985481188786268,camera_2,147,0,-1.231640345882673,0.3228912786323534,1.7475970347354535,0.9581142439125864,-0.005039777147221975,0.2774533327982956,-0.07079084953041381,0.12090712343342602,0.016914273016486247,13019.981195936682
1681985481198799371,147,1681985481198799371,camera_2,148,0,-1.2314830983906437,0.32277040271784996,1.7473428992085875,0.9581612191062991,-0.005270211058835038,0.2773337750196754,-0.07060651747156135,0.13647635548841208,0.019082837012799402,13026.923090633238
1681985481208801507,148,1681985481208801507,camera_2,149,0,-1.231290644902713,0.3224586571222487,1.7470731200384069,0.958214312775256,-0.005367734561428175,0.2771101921324501,-0.07075633989006548,0.12572997488314286,0.017572532473680944,13035.205977832898
1681985481218821048,149,1681985481218821048,camera_2,150,0,-1.2306318481953018,0.32185470532853183,1.7461366318067029,0.9580270089383862,-0.0053001094526440905,0.27777505384864276,-0.07069072388752923,0.11463406903203577,0.01600931594673007,13037.84316054685
1681985481228992223,150,1681985481228992223,camera_2,151,0,-1.2317049671339422,0.3215949239569556,1.747659409155319,0.9581701143965866,-0.005452626644749727,0.2772650871420053,-0.07074158742947033,0.12855592498090118,0.01797509489271737,13026.353301367493
1681985481239003181,151,1681985481239003181,camera_2,152,0,-1.2314261590887552,0.3207236656904728,1.7472427303676763,0.9582167781150518,-0.005468278655763946,0.27704159306734044,-0.07098351765066813,0.1189212073222734,0.01661586715029267,13037.550399145573
1681985481249261379,152,1681985481249261379,camera_2,153,0,-1.2316115402385552,0.3198904633220421,1.7475095359900674,0.9582156821567696,-0.005474014180605666,0.2770919505295923,-0.07080107759980485,0.12724889820674434,0.01777652386309061,13036.103916492077
1681985481258848905,153,1681985481258848905,camera_2,154,0,-1.2317120111281612,0.3189016921943196,1.7476283178307304,0.95819747869699,-0.005261453760568315,0.2772403852993499,-0.07048175424976866,0.11905274516902864,0.016624049377565033,13035.5440476723
1681985481269150972,154,1681985481269150972,camera_2,155,0,-1.2313619368101443,0.3176473016373577,1.7471338726042611,0.9580692932461414,-0.005461392386221319,0.27767151007708624,-0.07051194950895671,0.12201533146435395,0.017027427812878828,13037.79541399004
1681985481278872728,155,1681985481278872728,camera_2,156,0,-1.231369476468436,0.3164464929731732,1.7470991300854257,0.9580823949777255,-0.0054321659633341495,0.27762316441969614,-0.07052655233517856,0.11987747927196324,0.01672073505211506,13041.91484723147
1681985481288849115,156,1681985481288849115,camera_2,157,0,-1.2307565172413306,0.31506965350174265,1.7462103588059574,0.9578807026406421,-0.005364426878018652,0.2783228545624537,-0.07051362323088589,0.12446467415429652,0.0173439491977924,13045.034430231663
1681985481299173116,157,1681985481299173116,camera_2,158,0,-1.2307819757612366,0.3139051169890912,1.74624455242589,0.9579236009429376,-0.005362569044672467,0.27813476047782043,-0.07067299784006767,0.12327442789683118,0.0171708228860654,13050.501449556323
1681985481309194564,158,1681985481309194564,camera_2,159,0,-1.2309396679022417,0.31271786301195453,1.7464630431005574,0.9579412919828839,-0.005099727560806578,0.2781357174440166,-0.07044853848640736,0.12760037212865427,0.017765100893183526,13051.429461974412
1681985481319203376,159,1681985481319203376,camera_2,160,0,-1.2314693766688813,0.3116825485719543,1.747210025233241,0.9580018153489257,-0.005426136413714546,0.27781680945849463,-0.07085830377651642,0.11287886253558099,0.015724900703489187,13047.352737104055
1681985481328855752,160,1681985481328855752,camera_2,161,0,-1.2313797778953903,0.31062154835701444,1.7470725465527623,0.9580149650872813,-0.005380016536650208,0.27772787334329085,-0.07103246060142884,0.11062080092960969,0.015402900557712037,13052.92086534272
1681985481339204549,161,1681985481339204549,camera_2,162,0,-1.2302786385238225,0.309449716152748,1.7454857361526441,0.9578153730023823,-0.005109872031705443,0.27853452018169983,-0.0705841449284265,0.11544774292269722,0.01604337166709588,13065.416229694618
1681985481349230766,162,1681985481349230766,camera_2,163,0,-1.2309220682103301,0.3089071986528025,1.746412476188289,0.9579903128355797,-0.0054331119007267935,0.27773737909776763,-0.07132313832246341,0.11570177727844566,0.016092686984472648,13065.356812145092
1681985481359204769,163,1681985481359204769,camera_2,164,0,-1.2306524145910722,0.3082630611995284,1.7460040770415157,0.9580387301781061,-0.005304412624718791,0.2775629287597791,-0.07136158114645835,0.10909536376129836,0.015161709022501134,13075.768800521031
1681985481369181632,164,1681985481369181632,camera_2,165,0,-1.2302538284620133,0.30775325337891984,1.7454103249543955,0.9579584064645666,-0.005156589563334441,0.2779035215230975,-0.071124776224638,0.09777100553037599,0.013577087072236904,13079.972466051811
1681985481379186391,165,1681985481379186391,camera_2,166,0,-1.2309844730686306,0.30779340230201924,1.7464253618745904,0.9580875055135929,-0.005314818337184898,0.2774150035297153,-0.07128113566289515,0.09565798670519143,0.01329592098638431,13073.47824763623
1681985481389450311,166,1681985481389450311,camera_2,167,0,-1.2306557278111634,0.30773619407980196,1.7459420990115095,0.9580632971511036,-0.005342627835044219,0.27746848578154437,-0.07139617901449177,0.09506872139172629,0.013208904909696824,13078.927074687552
1681985481398798942,167,1681985481398798942,camera_2,168,0,-1.2303474500348648,0.30790482802560004,1.745536443731575,0.957913073792281,-0.005280810044971752,0.2780469732451449,-0.07116555889126973,0.1088973309379071,0.015127789334052545,13074.831819770861
1681985481408808946,168,1681985481408808946,camera_2,169,0,-1.230753293640088,0.30846859392726245,1.7461491327461391,0.958049429503902,-0.005091574288634466,0.2775954634270385,-0.07110643559650073,0.11412429227493703,0.0158604939615478,13073.729692366443
1681985481418797254,169,1681985481418797254,camera_2,170,0,-1.23099557636323,0.30921678005190634,1.746503673447626,0.9579886104780831,-0.005441538160997669,0.277706679906527,-0.07146475909151113,0.09227094339439645,0.012838088417830658,13062.79487093259
1681985481429209709,170,1681985481429209709,camera_2,171,0,-1.2312039405246424,0.3100853336877201,1.7468160553917171,0.9580310792427268,-0.005108261877578553,0.2777254280472761,-0.07084450212658372,0.08812937629409134,0.012262398242805754,13058.824014432732
1681985481439182043,171,1681985481439182043,camera_2,172,0,-1.2309148854576972,0.3109219619457806,1.7464114216837898,0.9579416934660515,-0.00522276675486921,0.2780978700201634,-0.0705833501405689,0.11887660674983636,0.016540402215474242,13056.725262202792
1681985481449159860,172,1681985481449159860,camera_2,173,0,-1.2313473565743733,0.31210306767341806,1.7470279174048189,0.9580068893924953,-0.005237434699890013,0.2778246524107474,-0.070773099883551,0.10152618755819276,0.014141126984501337,13049.132625259466
1681985481459125280,173,1681985481459125280,camera_2,174,0,-1.2313838709634994,0.3132947917212949,1.7470925287992212,0.9579873726938762,-0.005407935782056974,0.2778582904178134,-0.07089230166775282,0.12350723438430578,0.017214869100384243,13043.985149346528
1681985481469191789,174,1681985481469191789,camera_2,175,0,-1.231147095648227,0.3144486090240517,1.7467769242346824,0.9579978555365108,-0.0053608516126204455,0.27788549643442795,-0.07064715796707942,0.14028351358138025,0.019550791212548907,13046.505980412012
1681985481478839397,175,1681985481478839397,camera_2,176,0,-1.231160403826299,0.3156130097009663,1.7467745567703694,0.9579502756129468,-0.005319728849421477,0.2781233437362347,-0.07035890566960443,0.11736459919484332,0.01636305443464687,13039.86313536414
1681985481488817214,176,1681985481488817214,camera_2,177,0,-1.2313465252320444,0.316737569322256,1.7470681085624253,0.9580648936394198,-0.005409378337500929,0.27771327035722665,-0.07041120414524125,0.1266440144390799,0.017665110822418093,13040.560354457462
1681985481498830795,177,1681985481498830795,camera_2,178,0,-1.2311114823626783,0.31774255854993316,1.7467689707666167,0.9580191127056761,-0.005272264259695361,0.2778120376270568,-0.0706544738124073,0.115066809928976,0.016055228730274502,13039.265292183954
1681985481508798122,178,1681985481508798122,camera_2,179,0,-1.2319269829798005,0.31889766182078505,1.7479511222213022,0.9582516749531764,-0.005270176265247033,0.27699056352016294,-0.07072609428172759,0.13128697575302795,0.018338875659237582,13034.717332027853
1681985481518878698,179,1681985481518878698,camera_2,180,0,-1.2307585916404977,0.3193225296877678,1.7462890114941798,0.9580380951128299,-0.005422561937397916,0.2776931866048686,-0.07085265166420364,0.12393182056257501,0.017295598072693395,13043.391420674041
1681985481528855323,180,1681985481528855323,camera_2,181,0,-1.231760696729391,0.32017876829403663,1.7477355811765505,0.9582567826538924,-0.00559232720271062,0.27689335429126455,-0.07101221531258711,0.141477104567457,0.019772050364521853,13035.046057421248
1681985481538896083,181,1681985481538896083,camera_2,182,0,-1.231127552104158,0.3203473407626621,1.7468192589410452,0.9581399193733283,-0.005466350184689179,0.27731859906319883,-0.07093947090692979,0.12156648433301598,0.016978441261265804,13039.587463346546
1681985481548958539,182,1681985481548958539,camera_2,183,0,-1.2311598723729031,0.3204502159483516,1.7468633402974894,0.9581616039722325,-0.005444216692370734,0.27723792757387866,-0.07096360118050596,0.11621711007319391,0.016231880707081613,13040.095714264551
1681985481558950424,183,1681985481558950424,camera_2,184,0,-1.2311717945458103,0.32035085387725126,1.7468594967241138,0.9581555485895188,-0.005293507550302477,0.2772623166901937,-0.0709614770739735,0.1124701478984207,0.015707739373206055,13039.777918289878
1681985481568904399,184,1681985481568904399,camera_2,185,0,-1.2318003854270796,0.32012065175821863,1.747752743793985,0.9582198819789957,-0.005392223338872571,0.27699786661670783,-0.07111795552050014,0.15200860175536945,0.021247180229080682,13032.07502278267
1681985481578820943,185,1681985481578820943,camera_2,186,0,-1.2311335880973973,0.3193394675538711,1.746822271061726,0.958147992822072,-0.00544811366535511,0.27735837962559406,-0.07067581736343158,0.12496684800134972,0.017442845621238073,13042.972113594175
1681985481588848590,186,1681985481588848590,camera_2,187,0,-1.2319731552391582,0.31881094544161115,1.7480006515420972,0.9582658313578875,-0.005302924469792506,0.27695363241506743,-0.07067645248698026,0.12555218703346327,0.017537097690473565,13035.050671527162
1681985481598821401,187,1681985481598821401,camera_2,188,0,-1.2320497627994862,0.31788173463233255,1.7481032761250601,0.958240710835619,-0.00547598382727258,0.2770314349769401,-0.07069892313881762,0.11277596710715443,0.015750579502965822,13034.404081888028
1681985481608803749,188,1681985481608803749,camera_2,189,0,-1.2312977316091884,0.31658434480901443,1.7469865891272545,0.958023543231629,-0.005332573429484342,0.2778594313527561,-0.07040305876066298,0.12429130275268108,0.01733619153545443,13039.20768635138
1681985481618828058,189,1681985481618828058,camera_2,190,0,-1.230845599023739,0.31529464217096503,1.7463525759770766,0.9579017852008658,-0.0053185590610008715,0.27819730518667546,-0.07072582431743699,0.1281794006936252,0.017866882439807483,13044.011343097785
1681985481628787040,190,1681985481628787040,camera_2,191,0,-1.2311738533570855,0.31421573277372533,1.7467982415144485,0.9579737462731666,-0.005400238717802849,0.27799864884322334,-0.07052581168967478,0.12895550817484036,0.017971060470799955,13044.94072261429
1681985481638803005,191,1681985481638803005,camera_2,192,0,-1.2312927888184606,0.313109846583933,1.7469839476517117,0.9580651695356369,-0.0054729756749885405,0.27759222895039154,-0.07087828924477486,0.11860006541246548,0.016524019097353557,13051.447769386461
1681985481648796319,192,1681985481648796319,camera_2,193,0,-1.231164787874977,0.3119363467911148,1.7467378071000157,0.9580519650903209,-0.005290062663258529,0.277638624699993,-0.07088893777092309,0.09192445885855705,0.012798759135375818,13056.411512206774
1681985481658817291,193,1681985481658817291,camera_2,194,0,-1.2311853222208424,0.3109013750010124,1.7467668141757546,0.9580629406531233,-0.005210977605776862,0.2775792670112393,-0.07097885590079006,0.10248614009469748,0.014264340202027598,13059.421798808498
1681985481668844223,194,1681985481668844223,camera_2,195,0,-1.231018651733426,0.3100087707076849,1.7465471160762456,0.9580207050207077,-0.005195501668796,0.27774792967731726,-0.07089021846489049,0.08683739579282701,0.012079773512390642,13062.197861320808
1681985481678807735,195,1681985481678807735,camera_2,196,0,-1.2302683769150138,0.3091479754833847,1.7454759472031438,0.9579011687447179,-0.005386191249056225,0.2781133910331717,-0.07105829711836821,0.10899034497560933,0.015146413918909852,13072.13506421959
1681985481688822031,196,1681985481688822031,camera_2,197,0,-1.2311331706964193,0.30894854645437136,1.7466889207382967,0.958056061985441,-0.005429021405648667,0.2774517305811727,-0.07155169471814349,0.11699275800492615,0.016277189334568707,13065.406820141478
1681985481698854923,197,1681985481698854923,camera_2,198,0,-1.2308862007372476,0.30868988321898466,1.7463230978669173,0.958025550487519,-0.005238766399202931,0.27773980072428417,-0.07085339112093153,0.10132828052155672,0.014085004035668602,13068.91282042256
1681985481708830118,198,1681985481708830118,camera_2,199,0,-1.2308992932388587,0.30875071511043034,1.746354500977158,0.9580224929620329,-0.005241849661615293,0.27774031037954494,-0.07089249594428755,0.11288741329917684,0.015693206844161374,13068.239105466055
1681985481719022274,199,1681985481719022274,camera_2,200,0,-1.2309289498846312,0.30908383793572647,1.746392765447266,0.9580746483472907,-0.0054725248802578695,0.2773961499801627,-0.07151500291430475,0.09019927988993004,0.012545247198646556,13070.39305094839
1681985481728839874,200,1681985481728839874,camera_2,201,0,-1.2300410142969864,0.3093564448708937,1.745147894217602,0.957873183116307,-0.005196207851904801,0.2782090046942085,-0.07107541204700427,0.11280435050139205,0.015672738872450853,13074.490913189482
1681985481738920450,201,1681985481738920450,camera_2,202,0,-1.230899347767658,0.31033281306268157,1.7463808602911928,0.9579262887689339,-0.0051026380076659005,0.2780236422011138,-0.07109179100266716,0.09807665186235681,0.013647503188918435,13057.632169513498
1681985481748875379,202,1681985481748875379,camera_2,203,0,-1.2312489973001481,0.31131885248717284,1.7469146276475067,0.9580313156836613,-0.005219733294085204,0.2778299506780775,-0.07042209213015876,0.11283165804343298,0.01570423467658427,13054.64425805863
1681985481758973598,203,1681985481758973598,camera_2,204,0,-1.2311999705411865,0.3123723191835063,1.746822948300631,0.957990176930216,-0.005402248059240633,0.27783768511595175,-0.0709355859250417,0.11841292574536055,0.016494656817393386,13050.358178660736
1681985481768949985,204,1681985481768949985,camera_2,205,0,-1.2310468255934028,0.3135120604216686,1.746611401548015,0.9579609474433145,-0.00546566121917367,0.27796676187140906,-0.07081969369933613,0.11481395462760702,0.015996692444333067,13048.623429019703
1681985481778805732,205,1681985481778805732,camera_2,206,0,-1.2314329346779143,0.31478121938148934,1.7471617487652469,0.9580447537377388,-0.005444394339385601,0.27766595589074344,-0.07086766078510273,0.11703684227541089,0.016320693905062703,13042.873495075855
1681985481788802862,206,1681985481788802862,camera_2,207,0,-1.231182973960224,0.3158241896984211,1.7468303298127899,0.9579527658569655,-0.0053878539121193884,0.2780346826547864,-0.07066954547939189,0.11728932976257056,0.016358134397243707,13038.958773680963
1681985481798777580,207,1681985481798777580,camera_2,208,0,-1.23099888851269,0.3167723835507243,1.7465998033785968,0.9579750350255245,-0.0053912007563370655,0.2780008205713122,-0.07050043250879573,0.13886911171721295,0.019366452517810134,13041.559524847897
1681985481808814287,208,1681985481808814287,camera_2,209,0,-1.2313694641955435,0.3177988432771921,1.747145292506249,0.9580895201734994,-0.0051866188427761506,0.27758023590737796,-0.07061715763394802,0.12615205452311784,0.01760522422087334,13038.440336275846
1681985481818982124,209,1681985481818982124,camera_2,210,0,-1.2319286372632428,0.31870592989415614,1.7479467655828442,0.9582201851930191,-0.0053144222612687775,0.27714165310415595,-0.07055733639658524,0.1358457040041685,0.01897378866337473,13033.26510174153
1681985481829169988,210,1681985481829169988,camera_2,211,0,-1.2315227534194475,0.3190948444951469,1.7473958295701666,0.9581959008816648,-0.005476783231203273,0.2771697983247815,-0.0707638557147179,0.12421015818836167,0.017345136654833237,13038.637251938228
1681985481838874340,211,1681985481838874340,camera_2,212,0,-1.231725568036642,0.31936646436394245,1.7476645161560254,0.958290705111007,-0.005533342105342746,0.27686123130003243,-0.07068355697065616,0.12999912223313004,0.018155268954453088,13040.223186502466
1681985481848809003,212,1681985481848809003,camera_2,213,0,-1.2314328029246087,0.31926897643302843,1.7472463341627986,0.958209698161567,-0.005466014756941645,0.2771191093302648,-0.07077638218923218,0.12811875471379608,0.01788887866578231,13041.069586821834
1681985481858779668,213,1681985481858779668,camera_2,214,0,-1.231600804180947,0.31905489977709595,1.7474771298958107,0.9581545186789422,-0.005360879271661064,0.2774080717129717,-0.07039844499028461,0.10924936947412789,0.015254859744933224,13034.453215957386
1681985481868791341,214,1681985481868791341,camera_2,215,0,-1.2316504592918478,0.31845693064275504,1.7475347763105935,0.9581186616061341,-0.005244619318657639,0.27743531344641303,-0.07078680034556778,0.1314696114277467,0.018360664639352244,13032.906993343026
1681985481879181623,215,1681985481879181623,camera_2,216,0,-1.231666825928825,0.31772976557030785,1.7475642937898128,0.9581555187011419,-0.005336845088888677,0.27738501924887526,-0.07047745145324236,0.11721442296402529,0.01636087243076333,13036.960303524273
1681985481889294862,216,1681985481889294862,camera_2,217,0,-1.230909402436632,0.3165740338886266,1.7464454517754235,0.9579624259987505,-0.005350806195093348,0.2780249794437945,-0.07057952998518,0.11461333400802687,0.015981395989570102,13043.101164645517
1681985481899234771,217,1681985481899234771,camera_2,218,0,-1.231410318565947,0.31566372329979897,1.7471600704081416,0.9580239071925489,-0.005355424934261883,0.27783432982204864,-0.07049537462577748,0.11722867196658626,0.016349127919787088,13039.404194000876
1681985481908826351,218,1681985481908826351,camera_2,219,0,-1.231524729711223,0.31456090720438096,1.7473125087148478,0.9580378961904159,-0.005388822875686324,0.27776513759634985,-0.07057533837777455,0.12169012834783643,0.01696745112283376,13041.017528645698
1681985481918924331,219,1681985481918924331,camera_2,220,0,-1.2313306442474605,0.3133309847856848,1.7470182761025148,0.9580563434259219,-0.005437261242146174,0.2775697701706378,-0.07108798561610777,0.11295569513458757,0.015742273297116992,13049.522169747388
1681985481928829193,220,1681985481928829193,camera_2,221,0,-1.2313034935948064,0.3121985640238418,1.746999691020979,0.9580476226944545,-0.005297524686399481,0.277689241111386,-0.07074866961776462,0.11956008279230446,0.01665099759364185,13052.357784482418
1681985481938935518,221,1681985481938935518,camera_2,222,0,-1.2310140640542833,0.3111510833655985,1.7465475757940156,0.9579694751171413,-0.005122294087514047,0.2781212830040873,-0.07011988867097836,0.11229530372656882,0.015621830886058894,13055.909813349135
1681985481949201822,222,1681985481949201822,camera_2,223,0,-1.2313234721744049,0.3104781854632414,1.7469618699627054,0.9580645922360851,-0.005312661521697654,0.27750430352531447,-0.07124166095754907,0.09916847397107631,0.013805864099879692,13057.895530686714
1681985481959131717,223,1681985481959131717,camera_2,224,0,-1.2307232489039677,0.3097089086957155,1.7461400546286738,0.9579935703092933,-0.005188768781605357,0.2779037590946873,-0.07064627807341499,0.12765548919560388,0.017746326197113346,13067.390573580285
1681985481969157457,224,1681985481969157457,camera_2,225,0,-1.229973042719816,0.3092180511598352,1.7450742810897184,0.9577927281868536,-0.00519161737539928,0.27855159923408734,-0.07081767791691612,0.11344468157039955,0.01576007488552341,13070.768695382862
1681985481978787660,225,1681985481978787660,camera_2,226,0,-1.2300594151973818,0.30923088418556927,1.7451943522416828,0.9578100816539796,-0.005276966111601837,0.278464103886023,-0.07092068779706097,0.111527549859602,0.015496686590736185,13070.061512766639
1681985481988818883,226,1681985481988818883,camera_2,227,0,-1.230243328825788,0.3095097665737435,1.7454751537317268,0.9579190014019356,-0.005109162354249088,0.27810760275899005,-0.07086074019373426,0.12222593609476462,0.016983523611250904,13072.707663197067
1681985481998816967,227,1681985481998816967,camera_2,228,0,-1.2312860168590183,0.31028877704195734,1.7469166271860095,0.9580399185499877,-0.005466209615909761,0.2776841252093111,-0.07086015540420139,0.10579256556229664,0.014724137830474777,13057.400844675947
1681985482008773803,228,1681985482008773803,camera_2,229,0,-1.2304794038054974,0.310798506831997,1.7457833396926568,0.9578835873846028,-0.005245061801037556,0.2782936888699594,-0.0705984778947645,0.11419864237541333,0.015880901834103525,13062.153986777415
1681985482018862485,229,1681985482018862485,camera_2,230,0,-1.2312149267362051,0.31195985192029757,1.7468453336850989,0.9579686125649393,-0.005275072159558801,0.2780354404943979,-0.07045995162645904,0.11702042148681358,0.01629379079699587,13049.585446391724
1681985482028985500,230,1681985482028985500,camera_2,231,0,-1.2312802571010737,0.3130577780799959,1.7469426102450465,0.9581159439979826,-0.005299649435126133,0.2774660230494715,-0.07069906382569424,0.12325456232065335,0.017166565353615035,13055.25114397797
1681985482039217233,231,1681985482039217233,camera_2,232,0,-1.2308533949208311,0.31403118472877833,1.7463351413340724,0.9579067933905171,-0.0054089915035605415,0.2782216689252621,-0.07055509143678704,0.12007590383291245,0.016727525928645588,13047.60209938092
