%time,field.header.seq,field.header.stamp,field.header.frame_id,field.image_seq,field.transforms0.fiducial_id,field.transforms0.transform.translation.x,field.transforms0.transform.translation.y,field.transforms0.transform.translation.z,field.transforms0.transform.rotation.x,field.transforms0.transform.rotation.y,field.transforms0.transform.rotation.z,field.transforms0.transform.rotation.w,field.transforms0.image_error,field.transforms0.object_error,field.transforms0.fiducial_area
1685667512341286420,0,1685667512341286420,camera_3,1,0,0.02488800952842188,-0.47384604225674976,2.056682479032358,0.9921550500099959,0.05274072321084976,-0.0013172381577925523,0.11333595077686054,0.06400870281504467,0.025183858138721076,23057.296273607746
1685667512351285696,1,1685667512351285696,camera_3,2,0,0.024910787775719336,-0.4743838925443315,2.0572985262041543,0.9921413151579087,0.052728269971654154,-0.0011706862266883025,0.11346351746834887,0.0846081089694053,0.03331358452932271,23036.87879212061
1685667512361295938,2,1685667512361295938,camera_3,3,0,0.02491832225591184,-0.4750794415772319,2.058375883863596,0.9923691014854906,0.05296285252922309,-0.002256300658281588,0.11132570132807261,0.09630194288911298,0.03795448341151283,23029.446664661627
1685667512371254444,3,1685667512371254444,camera_3,4,0,0.024907286702478985,-0.4752767199000947,2.0571235150509133,0.9922026480514486,0.05312139466251537,-0.0017661562702733938,0.11273377187352247,0.1033768198103644,0.04071197115717486,23035.919900409877
1685667512381250619,4,1685667512381250619,camera_3,5,0,0.024927566695364112,-0.47670562396629185,2.058848924095409,0.9925583377085284,0.05293108522553896,-0.0028689617245897885,0.10962670988747408,0.09825932077364996,0.03875857913386746,23015.47532159462
1685667512391239404,5,1685667512391239404,camera_3,6,0,0.02489425661025715,-0.47682176436604534,2.057126814324006,0.9922681002354716,0.05275012385263721,-0.003318985173482918,0.11229615321121983,0.06154366221744567,0.02426010475261097,23018.490352885325
1685667512401300430,6,1685667512401300430,camera_3,7,0,0.024922972394114475,-0.4776834353028012,2.0587052932052887,0.9924966453194208,0.05319978282293512,-0.0018723464416650721,0.11007582139639278,0.06056164589244872,0.023894213956393042,22999.428062187515
1685667512411263704,7,1685667512411263704,camera_3,8,0,0.024899227780389714,-0.47796140740958093,2.0578803534105337,0.9925646455820462,0.05303540742822665,-0.002866152768058528,0.10951919953971231,0.09143116563791409,0.036055606007706596,23016.446062547628
1685667512421306610,8,1685667512421306610,camera_3,9,0,0.024868934050860592,-0.47857795000603615,2.0571910861047438,0.992540057246404,0.05301700612731906,-0.002432482794911594,0.1097611718689867,0.05960412079002709,0.023496997181252265,23017.54910689965
1685667512431266069,9,1685667512431266069,camera_3,10,0,0.024895240173068416,-0.4792938272341347,2.0590635563776707,0.9928712531820785,0.05271523893846839,-0.0023396863599935034,0.10687517979421679,0.07407861814135686,0.029238667671478973,23000.99325535679
1685667512441235542,10,1685667512441235542,camera_3,11,0,0.02487497449094747,-0.4791468960349262,2.0575517403330323,0.9926762086847847,0.05256484858876339,-0.0019823442343160826,0.10875178948127337,0.11426356562878937,0.04505487500165921,23012.240536044344
1685667512451316595,11,1685667512451316595,camera_3,12,0,0.024863677736267034,-0.479237545823831,2.0574920866883475,0.9927388667297672,0.053025574286971106,-0.0018477484332916616,0.10795562413029758,0.06148205237695947,0.024237756065039532,23020.237121710084
1685667512461363792,12,1685667512461363792,camera_3,13,0,0.024858784359877154,-0.4791489061713844,2.0573861283568307,0.9925900705866718,0.05289902840671262,-0.0029636740704088766,0.10935200593668166,0.09800912823993713,0.03865476189234236,23009.060730952064
1685667512471347808,13,1685667512471347808,camera_3,14,0,0.024876973213922304,-0.47912804618283583,2.058049377662897,0.992651316097046,0.05311788889789391,-0.0020429532720499873,0.10870915725807921,0.08010160137200728,0.03159763485194906,23003.8195145179
1685667512480416774,14,1685667512480416774,camera_3,15,0,0.024869272651384403,-0.47872665225491157,2.0573976327525605,0.9925628773157655,0.05277947073363755,-0.0024681230942989593,0.10966845677822484,0.06286387523869053,0.024787665079540257,23012.32856529718
1685667512491497516,15,1685667512491497516,camera_3,16,0,0.02486011802763624,-0.4780800444773616,2.056050181626231,0.9922487486102846,0.052801998316926696,-0.0022157320279272965,0.11246981989246735,0.038573833007831126,0.015197427390108912,23018.155549511077
1685667512501449108,16,1685667512501449108,camera_3,17,0,0.024910016777925714,-0.4777508283076706,2.0582024973755715,0.9924471568530188,0.05314769538636473,-0.0013667166134013274,0.11055358617058332,0.10089835623512045,0.039792482463617204,23002.864034553302
1685667512510416030,17,1685667512510416030,camera_3,18,0,0.02491596032010532,-0.4773061968714601,2.058353466695772,0.9925803590254964,0.052768393653706745,-0.0020436141127215396,0.1095242034866382,0.12549355858936906,0.049482420683265346,23017.28909746091
1685667512521535634,18,1685667512521535634,camera_3,19,0,0.02491538560591197,-0.4766936093473693,2.057937403444967,0.9923034801576482,0.052752435112352024,-0.0014032936629405225,0.11202238447574842,0.08970274031162262,0.03536440835262304,23008.004591771176
1685667512530394077,19,1685667512530394077,camera_3,20,0,0.024928619948455407,-0.4764692765436791,2.059232323281541,0.9925505461480334,0.052820198265285126,-0.002789410059303878,0.10975271836258887,0.08667551405960694,0.03419706184574266,23010.304378085304
1685667512541275739,20,1685667512541275739,camera_3,21,0,0.024938010776834357,-0.4753946731325649,2.0589136017998073,0.9926263659138553,0.052738421944768264,-0.001787930133948092,0.10912543172544492,0.10584064183058217,0.041712013902619666,23037.67951160764
1685667512551305055,21,1685667512551305055,camera_3,22,0,0.024925276863012984,-0.47475489443337343,2.0582011913782714,0.992407114260467,0.052768088362531315,-0.0022827788621842386,0.11107851878938067,0.09110515948850662,0.03589331538223903,23039.724112177726
1685667512561330318,22,1685667512561330318,camera_3,23,0,0.024923661928770463,-0.47429146434746294,2.058006755877261,0.992361354768246,0.05266565143130407,-0.0025689793584486864,0.1115287903050308,0.07604151946725322,0.029952928956832523,23044.84882259182
1685667512571277141,23,1685667512571277141,camera_3,24,0,0.024888216336169312,-0.47371000425540916,2.057051366763769,0.9921504184842173,0.052959985434214756,-0.002558447654675785,0.11325299726717547,0.07503333361819386,0.02953726223110314,23052.716636023488
1685667512581373453,24,1685667512581373453,camera_3,25,0,0.024918638744853457,-0.47359586140718074,2.0586543044807653,0.9923181740336612,0.05274503279996323,-0.0016089646431755214,0.11189286943415266,0.10028548893751577,0.039508755720091104,23037.428868530555
1685667512591351747,25,1685667512591351747,camera_3,26,0,0.024911655819390324,-0.4735390093897113,2.058945673898069,0.9924982655665591,0.052897404829048505,-0.0027395110632902867,0.11018871307378898,0.08802876208210364,0.03468258520835128,23050.214204237564
1685667512601369142,26,1685667512601369142,camera_3,27,0,0.024905860168569445,-0.47339993422418136,2.0584219457762436,0.9924660414313986,0.0530755485494972,-0.0033099791521593543,0.11037747410441959,0.10863828385481611,0.042788421742015345,23060.071226808705
1685667512611271381,27,1685667512611271381,camera_3,28,0,0.024900562889155077,-0.47329948308007747,2.05777405285008,0.9922997032347285,0.05301633425421318,-0.0027818219954603885,0.11190544548368055,0.09330654132645577,0.036736447047592415,23058.087797107168
1685667512621299505,28,1685667512621299505,camera_3,29,0,0.024903747547791344,-0.47358547129550876,2.0572762443400636,0.99218759985749,0.05268964232809889,-0.002469937632335277,0.11305515330343241,0.08632361801574007,0.033983426562701397,23052.01244891272
1685667512631271600,29,1685667512631271600,camera_3,30,0,0.024926367251690697,-0.47425257928650594,2.0588065175206305,0.9924117746662342,0.052778037911211474,-0.002351358852280999,0.11103071345175682,0.08872629172401503,0.03496731016932277,23035.116895562955
1685667512641292572,30,1685667512641292572,camera_3,31,0,0.024928574084805616,-0.4747740574394549,2.0593247810528332,0.9926701518521768,0.05290512561556769,-0.003910221136642378,0.10858972085809951,0.07732283358927816,0.030486497070677646,23043.300232652815
1685667512651087045,31,1685667512651087045,camera_3,32,0,0.02490962962859715,-0.4747100802704075,2.057090529586173,0.9921842691661173,0.05254876565208993,-0.0036684930019728113,0.11311739657026147,0.09329678403446451,0.03675095540049795,23039.961958425127
1685667512661269664,32,1685667512661269664,camera_3,33,0,0.024919995241044976,-0.4758835931730108,2.0578767634736628,0.9922866522514009,0.05272340825572324,-0.00246707167258988,0.11216664184582659,0.08249142003478482,0.0325169535264408,23019.095443717204
1685667512671169996,33,1685667512671169996,camera_3,34,0,0.02492525837238733,-0.4766448654858533,2.0588704311734247,0.9925809681561063,0.052953941218285394,-0.003262129162103214,0.10939954422696074,0.09728593577165157,0.03837555598810194,23018.229898079757
1685667512681191921,34,1685667512681191921,camera_3,35,0,0.02492585640308301,-0.47721536857884,2.059072174541153,0.9926882397502804,0.05305342182990705,-0.0015970058571812367,0.10841052839055706,0.0905369077809155,0.035707316073591074,23016.531319259666
1685667512691112041,35,1685667512691112041,camera_3,36,0,0.024921516863864582,-0.4776884787598349,2.058951785322544,0.9926592641055935,0.05274167588861933,-0.0026091817046244724,0.10880759707223499,0.08385562157491222,0.03308665883417457,23007.732283185924
1685667512701244592,36,1685667512701244592,camera_3,37,0,0.024870425345629693,-0.4779260463946109,2.056228116130135,0.9922798875848928,0.053079784519761364,-0.0023374277440574337,0.11206113332190416,0.06069035560358316,0.023911082457388967,23021.466696512412
1685667512711368560,37,1685667512711368560,camera_3,38,0,0.024881567339656605,-0.47862395138646774,2.057689031135956,0.9925224130770388,0.052817445436520165,-0.0010789393060676173,0.11003823375202852,0.07504792662803084,0.029591507236099282,23004.61620722222
1685667512721369743,38,1685667512721369743,camera_3,39,0,0.024873826276098177,-0.4789393496676561,2.057828677873342,0.9926992852268899,0.05306118128446985,-0.002266280745653133,0.10829360148365438,0.05730600777314976,0.022598402720387756,23015.1861366136
1685667512731208562,39,1685667512731208562,camera_3,40,0,0.024867579721045266,-0.47917978437565345,2.057951871882648,0.9925670777341941,0.052901735456444055,-0.0028605395601019627,0.10956194547982452,0.06843179184943438,0.027004011627645364,22995.92141392083
1685667512741246461,40,1685667512741246461,camera_3,41,0,0.024888164021494723,-0.4796082996231559,2.059030076964294,0.9928994298608692,0.05282063627984552,-0.002048956827851987,0.10656690077538508,0.09941231843549758,0.039237877239503685,22999.75178035348
1685667512751545429,41,1685667512751545429,camera_3,42,0,0.02486817134670917,-0.47932988875111593,2.0580906951446494,0.9927851977645206,0.05287969580323153,-0.0026031509067781177,0.10758490822032704,0.08660697238519789,0.03416428234112905,23011.320000384472
1685667512761228084,42,1685667512761228084,camera_3,43,0,0.02486609937442815,-0.4789812307431182,2.057216886346843,0.9925039604882336,0.05270548563034021,-0.002426147164077966,0.11023671806425926,0.07965806877473369,0.03141261089378237,23005.733032235403
1685667512771234989,43,1685667512771234989,camera_3,44,0,0.024879348587102803,-0.47884779128697674,2.057639338795071,0.9925867089390216,0.05271979990723941,-0.0015009491283318281,0.10949883600777217,0.09339158266084269,0.03682479118454271,23007.650514410823
1685667512781248092,44,1685667512781248092,camera_3,45,0,0.02488997621349863,-0.4780300625008584,2.057059004667154,0.9923506695115766,0.05260644790841223,-0.0020780158553077416,0.11166195506299462,0.10422384110279383,0.04108632362996342,23008.436757888867
1685667512791257381,45,1685667512791257381,camera_3,46,0,0.024907414130067154,-0.4779399627528268,2.0585626347162007,0.9926014658968445,0.05302307772323452,-0.0031689760761144958,0.10918260263805936,0.08228560257703066,0.032467701193951176,23007.38613674348
1685667512801459550,46,1685667512801459550,camera_3,47,0,0.024910436122050652,-0.4773540133548449,2.058163923974203,0.992451505389454,0.0528654410897971,-0.0020924920938604603,0.11063849269320698,0.0636848735739477,0.02511523899223295,23008.672455976248
1685667512811379909,47,1685667512811379909,camera_3,48,0,0.024921166793708035,-0.4770107424355837,2.0588823255035815,0.9925098909376401,0.052960520082917455,-0.0028165749294486392,0.11005165427728651,0.0686516971909441,0.027087206539323287,23006.12184945354
1685667512821349382,48,1685667512821349382,camera_3,49,0,0.0249131233394269,-0.4756385463843289,2.0575043502023163,0.9923105168672243,0.05249946277340157,-0.003135439159173129,0.11204380190124584,0.1133653816068545,0.04467248273194237,23030.806767735856
1685667512831221818,49,1685667512831221818,camera_3,50,0,0.024910206047497538,-0.47512260075939333,2.057445892217947,0.9922983155995186,0.05280948569362504,-0.0026720566910705215,0.11201817349061047,0.10480048629688099,0.041282382156660524,23039.367784259604
1685667512841258049,50,1685667512841258049,camera_3,51,0,0.024926429934483227,-0.47498994196042044,2.0589741324805964,0.9925892863812998,0.05301769024598933,-0.0044614716562216905,0.10925075904863685,0.09165046439738944,0.036138192908982666,23040.268485434353
1685667512851230382,51,1685667512851230382,camera_3,52,0,0.024917433039595177,-0.4743694736940039,2.058146585224988,0.9924391909032498,0.05276256261916795,-0.002923097370855149,0.11077914897182561,0.057292241661343724,0.022569039201037422,23048.977158207454
1685667512861294269,52,1685667512861294269,camera_3,53,0,0.024914696518935533,-0.47382841059327335,2.058653927909854,0.9925889457819732,0.052501485026912105,-0.002972719655531689,0.10955337383782207,0.07715108833508566,0.030389299001110117,23058.78838070527
1685667512871464014,53,1685667512871464014,camera_3,54,0,0.02491061877602389,-0.47359946116190055,2.0584915850610597,0.9925053256000463,0.0526838524404365,-0.004497225036661389,0.11016971142083354,0.10745893768034874,0.0423383939822642,23058.082452514667
1685667512881459236,54,1685667512881459236,camera_3,55,0,0.024918277494160194,-0.4735962597981846,2.0590398002908907,0.9925766706720205,0.05277742118984876,-0.0033720193094036897,0.10952043706986306,0.11164619104238227,0.04399112743911391,23054.40872737741
1685667512891270160,55,1685667512891270160,camera_3,56,0,0.02489660799012962,-0.4732611536146867,2.0577638402732723,0.9923237504297483,0.05282120977632075,-0.0037976336367691985,0.11175451717745255,0.09957638219930232,0.039211644171560846,23060.173133957647
1685667512901387929,56,1685667512901387929,camera_3,57,0,0.024914324296756933,-0.4737580368692405,2.059039288263398,0.992540411668992,0.052925117794214264,-0.0044744105435546525,0.10973806432001651,0.13410971872508526,0.05286199398666645,23049.874368884597
1685667512911392927,57,1685667512911392927,camera_3,58,0,0.024920602491493183,-0.4738642733496382,2.0585611899269782,0.9925084242206841,0.05288861172575392,-0.0021042259141463146,0.11011537056196766,0.09573748806724325,0.03770578005512558,23054.37300953221
1685667512921393871,58,1685667512921393871,camera_3,59,0,0.024903553850238354,-0.4738946251703996,2.057434290478022,0.9922753373370158,0.05263184009688972,-0.0030897650195181856,0.11229424594720525,0.05662797047989443,0.022298011067631737,23053.027373693418
1685667512931458234,59,1685667512931458234,camera_3,60,0,0.024907471492585244,-0.4742289098754624,2.0572728955795383,0.9923083875559473,0.052662632333308465,-0.0016076146269692472,0.11201842132905653,0.0733638284727931,0.02887642463415918,23054.791953560205
1685667512941306829,60,1685667512941306829,camera_3,61,0,0.02492242220499371,-0.4752657856674418,2.0577906616274566,0.9923202960036929,0.05301209017079425,-0.004024044291493117,0.1116868636071715,0.10642456717323512,0.04194616218543391,23034.032881708346
1685667512951379537,61,1685667512951379537,camera_3,62,0,0.024931283183415275,-0.4760358296413362,2.0589144764062466,0.9927192124105927,0.052778416325585546,-0.003362684640073748,0.10822059153907501,0.08371066965628415,0.0330039939750774,23038.044099655242
1685667512961121797,62,1685667512961121797,camera_3,63,0,0.024924068142193372,-0.47641558397106626,2.058251055968949,0.9924205329684428,0.05287827967178612,-0.0017010437989161153,0.11091654399402501,0.12189774704165757,0.04805396286562491,23017.602490583435
1685667512971250057,63,1685667512971250057,camera_3,64,0,0.024910784025650667,-0.47690331672061864,2.0580965466525147,0.9924221247918129,0.05295786278753258,-0.004365964709485959,0.1107913775744125,0.08725891826907173,0.03442218343856535,23014.497760800637
1685667512981263160,64,1685667512981263160,camera_3,65,0,0.02487545131230277,-0.4775457020637059,2.0566210978711053,0.9923518410524127,0.05256840492009634,-0.00327471816704556,0.11164077474189432,0.06475039437646046,0.025517156030067406,23024.232720994383
1685667512991164445,65,1685667512991164445,camera_3,66,0,0.024871491143342403,-0.4778814422498351,2.0561876244627513,0.9921973492460772,0.05284054466967665,-0.0029787813851095478,0.11288677446685164,0.08805913414107636,0.03470419862111631,23013.96214136296
1685667513001104593,66,1685667513001104593,camera_3,67,0,0.024883640999343322,-0.47859323474851995,2.057684083276359,0.9926574371568029,0.052792126754133244,-0.002683201191905395,0.10879799741460039,0.07074390107300133,0.027895403057229845,23017.988677120302
1685667513011293411,67,1685667513011293411,camera_3,68,0,0.02488028074967598,-0.4790691418715831,2.0584569292222468,0.9926807750408955,0.052828407269371165,-0.0014639544358331662,0.10859049261790077,0.07506831694627181,0.02961749309770196,22998.36922957748
1685667513021230936,68,1685667513021230936,camera_3,69,0,0.02485448837798338,-0.47920984098587055,2.0575693136179347,0.9926899420171679,0.05290946419882684,-0.003960407522771017,0.10840471755601157,0.07229133771033958,0.02851697725513924,23014.356486022694
1685667513031296730,69,1685667513031296730,camera_3,70,0,0.024858381155187913,-0.4792101243784484,2.0573687802714176,0.9925621539622264,0.05322688023501059,-0.003576387315593531,0.10942796350148519,0.09101394424214959,0.03590274128449811,23007.519529260004
1685667513041250705,70,1685667513041250705,camera_3,71,0,0.024864042272655026,-0.4792035161763201,2.0575440113220114,0.9925688479237035,0.05284841927046324,-0.0022841264214219534,0.10958516997530458,0.10031537158647554,0.03956674787553228,23002.89283347921
1685667513051259756,71,1685667513051259756,camera_3,72,0,0.024888312061911305,-0.47936192459375987,2.058767442483234,0.9928435372736566,0.05281186447023135,-0.001715384913058755,0.10709656819763737,0.1043557008379139,0.04117665954500333,23003.173171724655
1685667513061190128,72,1685667513061190128,camera_3,73,0,0.024871320958957773,-0.4783189145391488,2.0565225851824596,0.9923916984878606,0.052486223914648085,-0.0018371437760824646,0.11135770280634816,0.06746384885627776,0.0265834049707922,23017.33642220685
1685667513071214914,73,1685667513071214914,camera_3,74,0,0.02490615551393057,-0.4784028552387483,2.0584199642451755,0.99269157685816,0.05299503592535952,-0.0024438262320798363,0.10839274475479138,0.09305927582317963,0.03670887314730532,23011.24937215447
1685667513081284761,74,1685667513081284761,camera_3,75,0,0.024888481198168187,-0.4776283348311598,2.05692996324917,0.9923321701621326,0.052778766567575075,-0.002339780666553108,0.11173983751263587,0.09121060726465657,0.035949042355220985,23016.149804309254
1685667513091312646,75,1685667513091312646,camera_3,76,0,0.02489520296468989,-0.47722481612051176,2.057235689328616,0.9922832430853443,0.052658439223862735,-0.0037095117028693348,0.11219310938495515,0.08105392340803519,0.03196139520839259,23011.478502479138
1685667513101358652,76,1685667513101358652,camera_3,77,0,0.024939314561396184,-0.4766664648301894,2.0593010398115186,0.9925881405845198,0.05278469378516998,-0.004388127254583796,0.10937688792505101,0.11154196929419413,0.044025827493252775,23009.689245208167
1685667513111229658,77,1685667513111229658,camera_3,78,0,0.02493686291739315,-0.4761571653583472,2.0593532914394856,0.9926911375898956,0.052974103640032105,-0.0036032776331895986,0.10837465609778098,0.09415352094219998,0.037140932283722734,23026.32765156124
1685667513121225833,78,1685667513121225833,camera_3,79,0,0.02492519163126586,-0.47541557624069164,2.0583236280299766,0.9923925249985778,0.0527012956625429,-0.001977116261249401,0.11124630678690471,0.11627999367192388,0.04582920807228894,23026.68451678077
1685667513131277561,79,1685667513131277561,camera_3,80,0,0.024924012597543847,-0.4749003228024307,2.0581994937860895,0.9924796026221525,0.05234234244515604,-0.004166950096125723,0.11057646265469316,0.11674670508364215,0.0460114276613717,23042.70373234038
1685667513141357421,80,1685667513141357421,camera_3,81,0,0.02491000164410581,-0.47402103048321526,2.0579189566273093,0.9924515082234194,0.05269971563042077,-0.002353227141820959,0.1107122672496224,0.09089296619640663,0.03578748834352767,23058.630087655038
1685667513151235103,81,1685667513151235103,camera_3,82,0,0.02490558106429005,-0.47368205425314597,2.0578084975744018,0.9922921915229947,0.05314115567625577,-0.003394501243612555,0.11189594084323035,0.07420473347883672,0.029225740277371105,23052.599338846278
1685667513161219835,82,1685667513161219835,camera_3,83,0,0.02491507559656825,-0.47368754420042064,2.0588198163572033,0.9924989743220091,0.052427983516520435,-0.0033839440800978067,0.11038859287360321,0.12800026359036565,0.05043815911451201,23048.56706885971
1685667513171259164,83,1685667513171259164,camera_3,84,0,0.02492748084132541,-0.47365887668323303,2.0593564131025515,0.9924921434136162,0.05289265560536994,-0.003321280267945752,0.11023012901489031,0.10546498466283083,0.04157475300979387,23040.139657713466
1685667513181262493,84,1685667513181262493,camera_3,85,0,0.024911103610758524,-0.47350781367252665,2.0587189281759652,0.9923965050236723,0.05286131463194104,-0.0028500179941797128,0.11111586578709766,0.10709533072076738,0.042196336749250496,23045.330822077354
1685667513191218137,85,1685667513191218137,camera_3,86,0,0.024920451527098736,-0.47376674485001113,2.0592565783712757,0.9925626017673767,0.05284196750068674,-0.0023892264131812734,0.10964259957051103,0.1101504047983326,0.04340458518328159,23046.949351734245
1685667513201098680,86,1685667513201098680,camera_3,87,0,0.024902148602197346,-0.47363640947282193,2.0577243977031605,0.9923384314140475,0.05289373240177124,-0.0031663961716418667,0.1116094285739414,0.08517877559643239,0.033540495120486735,23057.86218678672
1685667513211148262,87,1685667513211148262,camera_3,88,0,0.024924548181895646,-0.47411062312688135,2.058543982402782,0.992513460847152,0.05258624889148489,-0.0016530327395086072,0.11022242942111947,0.08278694009641185,0.03260577926763115,23050.48080715513
1685667513221131324,88,1685667513221131324,camera_3,89,0,0.024896043714057074,-0.4745232471183063,2.0569361423680297,0.9921239715854222,0.05266155321339243,-0.001713583720402881,0.11363911936280871,0.07107618183363229,0.02798354417680598,23040.17381439638
1685667513231356620,89,1685667513231356620,camera_3,90,0,0.024917737639599112,-0.4752076535873732,2.057886838829783,0.9924134159272132,0.052970114417568846,-0.003585282211522558,0.1108914993032981,0.11036972427973524,0.04349039324750444,23041.445160317242
1685667513241377353,90,1685667513241377353,camera_3,91,0,0.02492751616664789,-0.4756946362204637,2.0578623073603146,0.9922800918549777,0.05269802333538671,-0.0023533695098471416,0.11223902751169144,0.09648122225189582,0.03802718805008195,23021.214435887276
1685667513251344680,91,1685667513251344680,camera_3,92,0,0.02491786739405556,-0.4762109644787546,2.057801715202964,0.99246528373921,0.052845800966969815,-0.0013047450433765356,0.11053632675722828,0.12537213281029835,0.0493906526044072,23033.0472698901
1685667513261290550,92,1685667513261290550,camera_3,93,0,0.024903997787219204,-0.47722450800316674,2.0578123012807232,0.9924531507966763,0.05325302670959268,-0.0031009259620966454,0.11041396142786748,0.062481628730893135,0.024636188037589223,23019.475062685793
1685667513271290302,93,1685667513271290302,camera_3,94,0,0.024889576088049755,-0.4775502497309809,2.057103179716063,0.9922306891880964,0.052831953663185154,-0.0013272230661404958,0.11262895979444729,0.10120874649146572,0.03989349229778919,23004.657211007776
1685667513281440734,94,1685667513281440734,camera_3,95,0,0.024887325588521268,-0.47806537979654806,2.0574009038253145,0.9924977143718035,0.05294816321961598,-0.002674188396723771,0.1101709022148481,0.08208216016646475,0.03236078319296436,23017.15536016925
1685667513291398286,95,1685667513291398286,camera_3,96,0,0.0248929026718967,-0.4787330307111241,2.0586180242659986,0.9927678027607468,0.05308840808100992,-0.005373373765994205,0.10753993483071418,0.09072253212798387,0.035814907495329874,23010.556376653498
1685667513301383733,96,1685667513301383733,camera_3,97,0,0.024884849890479246,-0.47926303582772584,2.05849853670932,0.9927201017367103,0.052855063827034754,-0.0032494786783168546,0.10817847625112333,0.1045008446672,0.04124734421408508,22998.549101462595
1685667513311320781,97,1685667513311320781,camera_3,98,0,0.024873033727815196,-0.47931608368586515,2.058076825696255,0.9927335247171755,0.0526376577983322,-0.002443458795058258,0.10818250964567205,0.0857758556958288,0.033838612651802644,23005.695386874246
1685667513321361064,98,1685667513321361064,camera_3,99,0,0.024881379390697976,-0.4795253615402158,2.058735517041761,0.9927877609379856,0.05293330675944628,-0.0019074420253020637,0.1075494696973059,0.08882483677007258,0.03505576656561177,22996.61372576515
1685667513331420660,99,1685667513331420660,camera_3,100,0,0.024871085770448206,-0.4793512278077164,2.0580650678531507,0.9926203560650632,0.05282150734038478,-0.002105763695154793,0.1091342423202597,0.0982949121389538,0.038784404030465916,22995.538393100713
1685667513341283082,100,1685667513341283082,camera_3,101,0,0.02487372273992658,-0.4789937695656368,2.0579743699684423,0.9926380146383426,0.053132526289850775,-0.002146955988100957,0.10882140012374912,0.05975564196705818,0.023570488793046445,23006.182500826428
1685667513351216793,101,1685667513351216793,camera_3,102,0,0.024885777986956757,-0.47862297545263327,2.0576417684253956,0.9926521548425945,0.053100711363386004,-0.002830424440783083,0.10869223816143053,0.05607943329960108,0.02211271334257447,23019.418561540544
1685667513361325740,102,1685667513361325740,camera_3,103,0,0.024882915152514756,-0.4781001687506215,2.0569527299330814,0.9924041823927647,0.05305175372143535,-0.0034394930051092204,0.11093971373812024,0.05517369182780385,0.02175225974362308,23016.90787490597
1685667513371153831,103,1685667513371153831,camera_3,104,0,0.024894798117181226,-0.4779054715503811,2.057863531099255,0.9925062951891198,0.05271231085972205,-0.0028380928502221366,0.11020259308550495,0.09464335913071409,0.037326297798297575,23010.52736873924
1685667513381209850,104,1685667513381209850,camera_3,105,0,0.024924604763215116,-0.47716340931492784,2.058807230312717,0.9925960311817286,0.05274885722922697,-0.002410757025576897,0.10938402622803435,0.08166062698001042,0.03221163622082528,23012.257571282335
1685667513391331672,105,1685667513391331672,camera_3,106,0,0.02491646947887226,-0.47650407153861785,2.058195691398683,0.9924721059743546,0.05311057122523055,-0.0025750341859849435,0.11032567827074619,0.0645253689144738,0.02543856819505129,23023.614831128638
1685667513401448726,106,1685667513401448726,camera_3,107,0,0.02491784469647469,-0.4760947962347492,2.0587166270797685,0.992470531026947,0.052788603983448146,-0.002979540280684069,0.11048407429256075,0.061655743047595024,0.024316769075123597,23017.796149406808
1685667513411308526,107,1685667513411308526,camera_3,108,0,0.024916383906651702,-0.4753705429158368,2.0577363065616843,0.9924713987525592,0.05296501803099139,-0.0030477419873669353,0.11038994878109915,0.08790054131532088,0.03462622901399687,23047.475551802887
1685667513421285629,108,1685667513421285629,camera_3,109,0,0.02489821184508035,-0.47429560187547826,2.0571196006638313,0.9923252921798855,0.05252627545590065,-0.0023093887495478195,0.1119203806750095,0.08786264370428398,0.03458402148036983,23057.878905181777
1685667513431297063,109,1685667513431297063,camera_3,110,0,0.024920400414537334,-0.47420568685654196,2.058448836415934,0.9925300959962973,0.052774559516984856,-0.002521125018384953,0.10996589624975064,0.06168715964304283,0.024297809830131044,23053.749123262256
1685667513441300153,110,1685667513441300153,camera_3,111,0,0.02491755931614764,-0.47391729667079135,2.0585459102923345,0.9923810389641124,0.05268898417867317,-0.0018316460368932883,0.1113570362551175,0.09014172834577039,0.03551144035188942,23041.09732336249
1685667513451169013,111,1685667513451169013,camera_3,112,0,0.02489003413425222,-0.4733753525349828,2.0572669840272857,0.9921329252269234,0.052676102864839126,-0.002751294330694268,0.11353377139488884,0.111843912221957,0.044034547846189015,23049.73142385342
1685667513461155891,112,1685667513461155891,camera_3,113,0,0.024906000436537748,-0.47335140270490794,2.0582259162895653,0.9923637153148844,0.052984390033384045,-0.0027622181339803024,0.11135205920956207,0.08426758216228336,0.033186980652176436,23054.456182135047
1685667513471203088,113,1685667513471203088,camera_3,114,0,0.024899100879958093,-0.4732890512156777,2.0578650302297277,0.9922993322797937,0.05287019172816473,-0.003082593155948907,0.11196997634695517,0.09854711580555886,0.038805881387876634,23055.72404119885
1685667513481296300,114,1685667513481296300,camera_3,115,0,0.024908874696641978,-0.47345370384307195,2.058091594398251,0.9923384398078567,0.05262670533701347,-0.0028027598138625986,0.11174522496512149,0.10443405341356993,0.04112968359029942,23051.626043262204
1685667513491240262,115,1685667513491240262,camera_3,116,0,0.0248899158315377,-0.473317307845483,2.0565880459041126,0.9921012722656816,0.052694789947445225,-0.0007210788736907454,0.11383235360155043,0.1084412097116001,0.042651781978211886,23060.521354307417
1685667513501283407,116,1685667513501283407,camera_3,117,0,0.024911377465188875,-0.47420641499792376,2.057692897395453,0.9923923037171044,0.0528574753035239,-0.0025064845913389594,0.11116348484367188,0.07988725660834461,0.0314550468361217,23055.882379719755
1685667513511155605,117,1685667513511155605,camera_3,118,0,0.02493324602633088,-0.47492768038949207,2.059019662125393,0.9926262568773088,0.05269256000973115,-0.002959308386583003,0.10912309916437096,0.1141563119017519,0.0449952718958757,23041.81690903845
1685667513521301269,118,1685667513521301269,camera_3,119,0,0.024907700099104674,-0.47503267526701065,2.0574295781330303,0.9922959062091528,0.05295089903953559,-0.0028464317187372207,0.11196845376235094,0.09835003444459288,0.0387406340307664,23041.423469685702
1685667513531226396,119,1685667513531226396,camera_3,120,0,0.024920731069657254,-0.47575697954643936,2.058414011305113,0.9923785114631027,0.052837263728205165,-0.0026822767940172143,0.1112920434675943,0.06879660184495151,0.027125258826194775,23019.839563014924
1685667513541152477,120,1685667513541152477,camera_3,121,0,0.024905070575582663,-0.4765593903452399,2.057389903591801,0.9922232202860923,0.05283622631676435,-0.0037187798416583023,0.11263918052875696,0.0712671834626235,0.028100904955640115,23013.56455352554
1685667513551230907,121,1685667513551230907,camera_3,122,0,0.02493045243122311,-0.4775258111311135,2.059329727374874,0.992662510311636,0.05304112501325501,-0.00273788256233637,0.10862911063892713,0.10420023952610791,0.04112315355940119,23004.78901950921
1685667513561204671,122,1685667513561204671,camera_3,123,0,0.02489859166831189,-0.477550703896263,2.0574533614815964,0.9922824123174939,0.052791909882296026,-0.0023131935325640227,0.11217520934696548,0.06844244070816785,0.02698907598886362,23002.91449395172
1685667513571235656,123,1685667513571235656,camera_3,124,0,0.024878473758140257,-0.4778669448973999,2.0568581004352593,0.992371093326479,0.05294784547842625,-0.002015609612081895,0.11131970224130688,0.0736344006145373,0.029018461658571894,23018.387396410813
1685667513581254243,124,1685667513581254243,camera_3,125,0,0.024882717171805964,-0.4786944760346955,2.0573760278017694,0.9925731729666198,0.05299380721381295,-0.0020913341016500784,0.1094795826884489,0.0714799813576974,0.02818020826268272,23015.18133445432
1685667513591293096,125,1685667513591293096,camera_3,126,0,0.024883093098395433,-0.47920541934925304,2.0584826479257234,0.9928119437223721,0.05303229152834286,-0.0033796911182766404,0.10724084177869699,0.059255002823192626,0.02338278728260706,23009.413049601495
1685667513601204633,126,1685667513601204633,camera_3,127,0,0.024875995545179025,-0.47928979050658405,2.0580420517757148,0.9926820060086228,0.05287498074278095,-0.0002174194488927535,0.10856621982426407,0.11801116570131853,0.046535612453150015,23002.706683071097
1685667513611187934,127,1685667513611187934,camera_3,128,0,0.024879743342808104,-0.47952748006650414,2.0587478481411132,0.992955247684235,0.05279573959922469,-0.0027265982142597907,0.10604268781339095,0.09405707340920344,0.03711455103812731,23011.53949282947
1685667513621099948,128,1685667513621099948,camera_3,129,0,0.024852164224808043,-0.4788946103569067,2.05649539343641,0.9925400431038801,0.052620109990632664,-0.001591349987744065,0.10996751549952388,0.051529008080251515,0.02030181164805798,23023.479834898608
1685667513631176471,129,1685667513631176471,camera_3,130,0,0.024874298430834357,-0.4790621875296314,2.0580223972559337,0.9926135964249074,0.052936459534950284,-0.002912903565010295,0.10912146643596997,0.07378051342675462,0.029111601307410268,23001.003623808043
1685667513641316890,130,1685667513641316890,camera_3,131,0,0.024878504575255908,-0.47867556687866114,2.0575339428829813,0.9924997706277372,0.052782048492949214,-0.002327687924304006,0.11023993164776633,0.06549868686124682,0.025831687661480498,23004.608770094805
1685667513651124000,131,1685667513651124000,camera_3,132,0,0.024894910478773697,-0.4784354104124279,2.05799841826704,0.9927140320883797,0.052952298077325315,-0.0024040919305282136,0.1082087102092583,0.1016065418953076,0.04006416842939922,23020.556751623277
1685667513661291599,132,1685667513661291599,camera_3,133,0,0.024904878241870102,-0.47748291015438166,2.0576899651469205,0.9922739726661853,0.05310764280857491,-0.00222740922155592,0.11210254275770548,0.09303067956352606,0.036690096713165546,23000.188724590946
1685667513671255111,133,1685667513671255111,camera_3,134,0,0.024923104354236322,-0.47713504111808447,2.0583275939158816,0.9925387153174595,0.05295747876111159,-0.0021167785095061653,0.10980857565771049,0.11473549745278433,0.04524061416368736,23017.303890719544
1685667513681227207,134,1685667513681227207,camera_3,135,0,0.02491720590548839,-0.47649283141712595,2.0577558075732134,0.9923486560364273,0.0527173197544128,-0.002802373626025803,0.11161171875151801,0.11185314459726214,0.04409525617278255,23018.541210976648
1685667513691227197,135,1685667513691227197,camera_3,136,0,0.024929838672915716,-0.4764945104132625,2.060053701421017,0.9927826325194532,0.053211999940687274,-0.004316273504040831,0.10738946602481565,0.08673914952669293,0.03423988081170701,23018.164986112854
1685667513701045989,136,1685667513701045989,camera_3,137,0,0.024913018509425382,-0.47488441137628445,2.057509536371138,0.9923633651893857,0.052718703840208464,-0.0017244419928737667,0.11150208964507986,0.07752741110743955,0.030527276144074526,23046.922638601394
1685667513711111783,137,1685667513711111783,camera_3,138,0,0.024929162806289453,-0.47469308021709117,2.0586223663936285,0.9925153134672544,0.052709496400459084,-0.003610740170634396,0.1101000639310801,0.0750856566010043,0.0295941230030541,23042.427412002347
1685667513721076965,138,1685667513721076965,camera_3,139,0,0.024910373567574737,-0.4742587573640742,2.058473786914664,0.9924400009535698,0.05286274108848758,-0.004188515157118643,0.11068347416244555,0.06576178461546078,0.025918534789298092,23044.843404258147
1685667513731276273,139,1685667513731276273,camera_3,140,0,0.02490603271321735,-0.47384829334375494,2.0580835893302227,0.9922676083066961,0.052863570792414695,-0.0017521114657856247,0.11228252977999695,0.08903366164304316,0.03506742390533466,23041.238815718323
1685667513741112947,140,1685667513741112947,camera_3,141,0,0.02490394017499797,-0.4733831151073568,2.0579508756850875,0.9922520585140991,0.05289829578437446,-0.0017543878694110374,0.11240349105274829,0.09837570117088035,0.03873591729556221,23048.41730179265
1685667513751310825,141,1685667513751310825,camera_3,142,0,0.024914276044633053,-0.47350216218628216,2.058833726577244,0.9924993884937421,0.052790845086445534,-0.0035401935065376726,0.11020688519572186,0.10810326813952997,0.04259495725145308,23052.488083513228
1685667513761296749,142,1685667513761296749,camera_3,143,0,0.024909617630279348,-0.4733154290183065,2.0580308608967357,0.992370504801137,0.052688753529382924,-0.0019676846169966898,0.11144866383005554,0.07857248798245564,0.030933573005074426,23057.758655954854
1685667513771136283,143,1685667513771136283,camera_3,144,0,0.02490646663931948,-0.4735518630387676,2.0586316269962754,0.992415102577381,0.05279596999856999,-0.0023343206587874738,0.1109927956008788,0.0983274262980558,0.038734166930788676,23047.851487377193
1685667513781286001,144,1685667513781286001,camera_3,145,0,0.024901301722786963,-0.4737186251203876,2.0574050464465152,0.9922910998092777,0.05304820716455,-0.003352433184921078,0.111950981003571,0.07976603164570406,0.031405940242713024,23059.38598895864
1685667513791279554,145,1685667513791279554,camera_3,146,0,0.024901868750901897,-0.4739087745073821,2.056786235413244,0.9922586698637336,0.05300365053553064,-0.00266441553587348,0.11227754005149003,0.07904971856623888,0.031106610504325057,23065.568833745558
1685667513801316976,146,1685667513801316976,camera_3,147,0,0.024913725454558416,-0.4746728009524005,2.0583156904434,0.9923831926245378,0.05302846429263369,-0.0016927366452445952,0.11117875522663598,0.11112393095390871,0.043778872352014706,23037.591751584318
1685667513811284065,147,1685667513811284065,camera_3,148,0,0.024902516183973707,-0.47479723135119484,2.0568961879809096,0.9919759234116015,0.05267444788224926,-0.001926422795462061,0.11491500688428034,0.10913065250497311,0.04298468977560341,23023.414906646118
1685667513821268081,148,1685667513821268081,camera_3,149,0,0.024924051924048736,-0.47594653302122797,2.057510717500437,0.9923489357831791,0.05283708312129801,-0.0025512067660700935,0.11155861078940481,0.09687925881007686,0.038171745476894836,23031.594566818785
1685667513831273794,149,1685667513831273794,camera_3,150,0,0.024924787785209474,-0.4767128147440103,2.058469814794801,0.9924453882212764,0.05288104828405735,-0.0021311857455339816,0.11068515789398962,0.08075720805209129,0.03184766421710961,23011.662401666395
1685667513841255187,150,1685667513841255187,camera_3,151,0,0.024919813884994937,-0.4770493247703775,2.0576642207100124,0.9922308856154246,0.05291803773100109,-0.001817038852817114,0.11257996839286344,0.11861598101677373,0.0467704969798587,23001.98703154573
1685667513851068973,151,1685667513851068973,camera_3,152,0,0.024904150657251576,-0.47766608307921155,2.0581467598379954,0.9925497713586813,0.05332040046487273,-0.002598367353583165,0.1095223025561048,0.05613582499790937,0.02213816790550737,23015.93351425416
1685667513861116170,152,1685667513861116170,camera_3,153,0,0.02489284199065511,-0.4785216702338392,2.0581577370051782,0.9926674737557737,0.052889751296215856,-0.0024865515480347222,0.1086635993171305,0.06917487765895203,0.027284809732232424,23011.629249792073
1685667513871099710,153,1685667513871099710,camera_3,154,0,0.02489014927352118,-0.4790010684857185,2.058729586186076,0.9926935799987546,0.05301605295239746,-0.002774976473563204,0.10835614363835498,0.07774774386780336,0.030688150434641827,22996.64105476183
1685667513881156682,154,1685667513881156682,camera_3,155,0,0.024897143533153893,-0.4794297139174177,2.059419169040005,0.9928972939800068,0.05300446076860457,-0.002720140141033872,0.10648047512770804,0.11004031600896268,0.043448300998592766,22996.121855072437
1685667513891249418,155,1685667513891249418,camera_3,156,0,0.02487892917865596,-0.4792533556135987,2.0579035933055585,0.9926814248792624,0.05237350898142966,-0.0019016217441797636,0.10879792319429438,0.09758938365848735,0.03849319783786003,23003.563357979518
1685667513901298522,156,1685667513901298522,camera_3,157,0,0.024876766641219884,-0.479385676063932,2.058079455332302,0.9927245640899134,0.05278038849727799,-0.0024098925999687985,0.10819594659794182,0.11545823467895389,0.045550094590340554,23004.328777319282
1685667513911431312,157,1685667513911431312,camera_3,158,0,0.02488865816434915,-0.47951676741800847,2.0590339673469957,0.9929523365069786,0.05292438678713574,-0.001859887371745665,0.10602456096349622,0.086122025270015,0.033984814733886204,23006.633695156303
1685667513921302080,158,1685667513921302080,camera_3,159,0,0.02486591709296347,-0.47893464492439064,2.057298088270789,0.9925639856225575,0.05317445683210949,-0.0023525490335449305,0.10946998263779192,0.07278582180151716,0.028698451169477043,23012.969131285565
1685667513931292772,159,1685667513931292772,camera_3,160,0,0.024885810075716396,-0.47885817597475133,2.0580821568494323,0.9927874204509928,0.052708054546483585,-0.003056048877615092,0.10763670073653532,0.05271571135381237,0.02079222847957005,23018.33430599772
1685667513941245079,160,1685667513941245079,camera_3,161,0,0.02486529603711162,-0.4775951814150519,2.055739129531475,0.9921090262810092,0.05285343633305483,-0.0031662766311626555,0.11364932437911986,0.10078137792879716,0.03970688196342096,23018.536056701087
1685667513951235294,161,1685667513951235294,camera_3,162,0,0.0248912417003412,-0.47754203899775177,2.0574797017952844,0.9923305921248335,0.052809508763473824,-0.0026301181526513645,0.11173286980938485,0.09157110739033669,0.036109007751948946,23007.167633672252
1685667513961313009,162,1685667513961313009,camera_3,163,0,0.02490994831244745,-0.47713005465935976,2.0578837456528487,0.9923817206689295,0.05272441789063931,-0.0010247710086264742,0.11134453774051076,0.08003665308933705,0.03155086069545253,23009.817266026497
1685667513971132278,163,1685667513971132278,camera_3,164,0,0.024916313314401983,-0.47666714226722867,2.058150932447142,0.9925641428427199,0.05301309253790877,-0.002267637254010328,0.10954858366838084,0.08204315608600155,0.03233735970421842,23030.192528898835
1685667513981279373,164,1685667513981279373,camera_3,165,0,0.024915634782286478,-0.4755399312066554,2.057901259540489,0.9923646301910328,0.05311256661649528,-0.0031164773553277983,0.11127346306337825,0.07842292112763972,0.030907092739263117,23032.753707838012
1685667513991246223,165,1685667513991246223,camera_3,166,0,0.024911021253284434,-0.47507342925211726,2.0579997286138236,0.9923960580632926,0.05265775460526065,-0.0033066375410259006,0.11120382623157489,0.126660356647335,0.049912337789287275,23037.871828009367
1685667514001287937,166,1685667514001287937,camera_3,167,0,0.024935543272485348,-0.4749483101285694,2.0595493832962593,0.992655089518545,0.05295923228342339,-0.0024390043591663367,0.10874393880403613,0.10566710849525407,0.0416609538649643,23035.293867910972
1685667514011305332,167,1685667514011305332,camera_3,168,0,0.02491328790794531,-0.4741857683957652,2.058073988504707,0.9923872817922876,0.05269662860036803,-0.0024242123561426087,0.11128643882127756,0.05422039551194757,0.02135640512663655,23047.546318683293
1685667514020461320,168,1685667514020461320,camera_3,169,0,0.02490578742815564,-0.47347502200208075,2.0576057330041246,0.9922183494039903,0.05270882086521821,-0.001692915815551563,0.11279034242815583,0.08886797568993643,0.034985111375021444,23049.880466676783
1685667514031383037,169,1685667514031383037,camera_3,170,0,0.024913580410348,-0.47350369232626033,2.0585339206723687,0.9924210342482033,0.052898261070820844,-0.0034543371491287888,0.11086177119399677,0.10110844351584092,0.03983350277768485,23051.526616132825
1685667514040448188,170,1685667514040448188,camera_3,171,0,0.024906522429132036,-0.47334847573901856,2.0582581416357426,0.9923634047126856,0.0529056215368639,-0.0027715404935686984,0.11139204082939431,0.08859711128752679,0.034893758466860735,23053.437721417045
1685667514051209449,171,1685667514051209449,camera_3,172,0,0.02491513651423037,-0.4734304377106966,2.058606694380698,0.9925598947217976,0.0526640797198105,-0.0024785548605589275,0.10975065768788192,0.09364698576973751,0.03687728366706852,23062.69188896496
1685667514061471700,172,1685667514061471700,camera_3,173,0,0.02491743198154456,-0.4736528238315929,2.0584463253214373,0.9923667080997027,0.053010229093198816,-0.0035134243071727974,0.11129190499081183,0.08239039621548727,0.03246280613029114,23046.867776377592
1685667514070451498,173,1685667514070451498,camera_3,174,0,0.024902488289474906,-0.4737865736352392,2.057859035563256,0.9923092584439831,0.052638458676119784,-0.0015355673356850423,0.1120230793520365,0.10020381963113323,0.039453346091513374,23049.118380856704
1685667514081341743,174,1685667514081341743,camera_3,175,0,0.024883807196520877,-0.4736502334419863,2.0558468897331177,0.9919062580162681,0.05263554475757135,-0.0018919871100710015,0.11553309102163671,0.0794852614053525,0.031268899717490514,23052.266533442064
1685667514091323137,175,1685667514091323137,camera_3,176,0,0.024928052547893688,-0.47472301780243265,2.058746578384275,0.9926196601448394,0.05278865175134103,-0.0029278535791216176,0.10913751057101634,0.06791341479402035,0.026760131005217267,23049.71228842717
1685667514100521326,176,1685667514100521326,camera_3,177,0,0.024912015660990716,-0.47533252516333213,2.057280731679836,0.9921315998446069,0.053154934371618466,-0.0007201111876806638,0.1133530898635205,0.11723368527600542,0.046172227709129286,23025.49710431227
1685667514111347675,177,1685667514111347675,camera_3,178,0,0.02490193353050841,-0.475657991671722,2.0565179479735067,0.992186327170011,0.05274028045326748,-0.0032126312633763425,0.11302404166795839,0.05189185740891844,0.02043702621606561,23039.04599365498
1685667514121414899,178,1685667514121414899,camera_3,179,0,0.02491608222878376,-0.4765566185516167,2.058120132172919,0.9925134961419985,0.052977174626301624,-0.00395804114619555,0.10997596489636513,0.11128272418864071,0.0438791521553902,23027.635391264466
1685667514130542993,179,1685667514130542993,camera_3,180,0,0.024893528011179555,-0.47675856735834393,2.056725793236316,0.9923013326505972,0.05291384395825676,-0.002423932511079172,0.11194782216993684,0.061367412214167416,0.02417448726383777,23030.820978067808
1685667514141346931,180,1685667514141346931,camera_3,181,0,0.024885223225529295,-0.47794577675225114,2.0576219294202267,0.9925362216610455,0.052981216996448637,-0.003294480231469297,0.10979064503133198,0.07293443486560136,0.02876030439546287,23018.71731806337
1685667514151427984,181,1685667514151427984,camera_3,182,0,0.02489649749453044,-0.4783505586109156,2.0575851254079125,0.9926824859667492,0.05307691494020414,-0.0029376112366536625,0.10842367636050464,0.09514007513644174,0.037506387407721185,23027.32024465408
1685667514160484552,182,1685667514160484552,camera_3,183,0,0.0248913675211746,-0.4788461250911074,2.0582509873345773,0.9927670912823587,0.05282912710345778,-0.0017362264171581693,0.10779411539634212,0.08495838334783912,0.03350507254542553,23013.81408162835
1685667514171298980,183,1685667514171298980,camera_3,184,0,0.024876390432404367,-0.4791927271684566,2.058533139403163,0.9927583875170257,0.052936368964146094,-0.0023730479770922705,0.10780952415619631,0.06055402761558071,0.023894310659240376,23003.027996560093
1685667514181238174,184,1685667514181238174,camera_3,185,0,0.024870221482312344,-0.47949433888390214,2.058504003687611,0.9927677773555847,0.05299234157223638,-0.0020367719233014146,0.10770238409281492,0.09258696489268914,0.036535588399289776,22999.861236099612
1685667514190306186,185,1685667514190306186,camera_3,186,0,0.02486864568639199,-0.47929358931511556,2.057625825516574,0.9926737391930933,0.05297390510181443,-0.0023150469647495934,0.10856911831739953,0.06896440265700221,0.02719786230950616,23010.50257852418
1685667514201102018,186,1685667514201102018,camera_3,187,0,0.024868833562874466,-0.47917151300614363,2.0574168845741494,0.992634033099409,0.05281849582968389,-0.002434113637146702,0.10900439404855498,0.09071911597857252,0.03577329417905554,23011.779404578734
1685667514211204051,187,1685667514211204051,camera_3,188,0,0.02486986373821775,-0.47906025081582854,2.057711190074938,0.9925285249835323,0.05251550880680344,-0.0016959995572976038,0.11011980754740705,0.06838353048078716,0.02697377823598157,22996.57324787417
1685667514221214294,188,1685667514221214294,camera_3,189,0,0.0248820011817769,-0.4783573952135997,2.057176728699498,0.9924385693470049,0.05280315172735485,-0.002681850266603671,0.11077148062238483,0.06606471148552373,0.026048595915501155,23010.600182688333
1685667514231187105,189,1685667514231187105,camera_3,190,0,0.024907798823140846,-0.4784194798465503,2.059128683382434,0.9927898503988412,0.052848515483560274,-0.0035806456043032666,0.10752918828526048,0.09711496590171009,0.03833373371980657,23006.37997218453
1685667514241204261,190,1685667514241204261,camera_3,191,0,0.024891760087595114,-0.4776143519979419,2.057584020607408,0.9923443153960944,0.0530240647411366,-0.0019507494035005946,0.11152310449476086,0.11188098613638431,0.044114346575827794,23006.351307758596
1685667514251255989,191,1685667514251255989,camera_3,192,0,0.024904661296257985,-0.4772145909592956,2.0580670182027068,0.9923913615616832,0.0529009601670929,-0.001744969977560955,0.11116577256928493,0.06104037945624441,0.024070115908799327,23007.062961755095
1685667514261359214,192,1685667514261359214,camera_3,193,0,0.02492041953273412,-0.47612114486262014,2.057830786455203,0.9923672566130494,0.052962302179699064,-0.0032828065325659294,0.11131687083001565,0.09191433619707823,0.03623249929005619,23025.486684353094
1685667514271270990,193,1685667514271270990,camera_3,194,0,0.024925028827385974,-0.47575305483521285,2.0584942506156914,0.9924925093586685,0.05280069192106024,-0.0026112186721590643,0.1102900146733008,0.07590358634479344,0.029922007674104394,23028.789095259734
1685667514281346559,194,1685667514281346559,camera_3,195,0,0.024916417259606197,-0.47519073328832107,2.058238540509289,0.992445258450306,0.052933116648110144,-0.0021223464789455223,0.11066160032660988,0.10807589814066887,0.042583483317344524,23037.524139500234
1685667514291301012,195,1685667514291301012,camera_3,196,0,0.02492290908805063,-0.47461115024339656,2.057810777755606,0.9922891038213635,0.05269751106766733,-0.001119573992323015,0.11217866695029055,0.09494921570876613,0.0373933080650924,23037.602742016323
1685667514301316022,196,1685667514301316022,camera_3,197,0,0.02490928747637622,-0.47379893947595836,2.0576697377419895,0.9922650750543577,0.05308572642010476,-0.0033352837153824556,0.11216417592242892,0.08747143280925229,0.034449535908915425,23050.956096052425
1685667514311239719,197,1685667514311239719,camera_3,198,0,0.02492196411214317,-0.47383644088491905,2.059049029936221,0.992553916364399,0.05288560937544021,-0.0019821826561837582,0.10970827855088942,0.09240497020073235,0.03640398670137654,23049.475037239958
1685667514321343183,198,1685667514321343183,camera_3,199,0,0.02492337037377058,-0.47365695258576274,2.0591550597501476,0.9926459822287078,0.05273317751434018,-0.004246853517781165,0.1088812664770366,0.09814215387450531,0.038676010518011145,23057.772032625508
1685667514331189870,199,1685667514331189870,camera_3,200,0,0.024890270484145785,-0.47302124337609747,2.0568484318297218,0.9922115816082113,0.052597035597947504,-0.0019251963376135882,0.11289828514154608,0.07293633796507493,0.02869121724429972,23069.227263000794
1685667514341328382,200,1685667514341328382,camera_3,201,0,0.024898138519409706,-0.4732015316807791,2.0574091192506203,0.9922410951509223,0.05265980600397036,-0.0033535891123545086,0.11257578498677323,0.08914132439531386,0.03509420981501956,23059.257264460197
1685667514351277112,201,1685667514351277112,camera_3,202,0,0.0249060636728854,-0.47358408414638187,2.0583003982794885,0.9924684417494313,0.05288224619285776,-0.0036282795969260254,0.11043865155017198,0.09061955020297319,0.035693241330165375,23059.46020648582
1685667514361337661,202,1685667514361337661,camera_3,203,0,0.02488881043609365,-0.47343549107966293,2.056592093163258,0.992123418327622,0.05302504310669353,-0.0043136538303738545,0.11340573177789352,0.07526213681558147,0.029624795400177355,23063.16741729551
1685667514371304988,203,1685667514371304988,camera_3,204,0,0.024928249590649224,-0.4742689846307519,2.058756345813048,0.9924465292695749,0.05275307733934559,-0.0017515725933992393,0.11074263571657471,0.11043750203680248,0.04351338167581649,23038.872003502453
1685667514381334304,204,1685667514381334304,camera_3,205,0,0.02491798822655156,-0.4749149229240025,2.057871734435382,0.9923719557509166,0.052621018339180425,-0.002482639200414463,0.11145746440077087,0.09691649430897087,0.03818029039656066,23039.92770870635
1685667514391241312,205,1685667514391241312,camera_3,206,0,0.024932032999163762,-0.47557249567948906,2.058553151460368,0.9924243697292597,0.05294619590527692,-0.002072509201222464,0.11084347257395266,0.1062258790479973,0.04187439720106075,23024.356122034842
1685667514401276588,206,1685667514401276588,camera_3,207,0,0.024908589544712444,-0.47586538381602494,2.0576144971781805,0.9923294799864969,0.052659702161978066,-0.0026432608285396515,0.11181311233541916,0.08516705688089132,0.033561875184525046,23028.109434911523
1685667514411297798,207,1685667514411297798,camera_3,208,0,0.024918638321932023,-0.4766036449696392,2.05849074999827,0.9925369393287089,0.053048071033426986,-0.003231772826111997,0.10975373283871476,0.1130349010345526,0.044575693746172554,23022.370766366825
1685667514421354293,208,1685667514421354293,camera_3,209,0,0.02489680296029424,-0.4774134248758669,2.0576056920935866,0.992412955195436,0.052900761511395444,-0.00248052916475585,0.11095892378190605,0.07596976857166737,0.02995151835260285,23014.918478618834
1685667514431474447,209,1685667514431474447,camera_3,210,0,0.024900490557819805,-0.4781380240982618,2.0586886907213073,0.9927122050543356,0.05308005756206879,-0.0030755395255104073,0.10814585744259168,0.07599102315725759,0.029981817633971827,23012.7479411792
1685667514441327095,210,1685667514441327095,camera_3,211,0,0.02487447071184109,-0.4780239917712157,2.0564624809892464,0.9922515146037502,0.0531798375281066,-0.0027209484688949545,0.11225610489624965,0.0770844646031037,0.03038204590537855,23013.39393473415
1685667514451350927,211,1685667514451350927,camera_3,212,0,0.024887100282432177,-0.47860637119950233,2.0574749176047895,0.992459863364984,0.05292209424725647,-0.0023086663287462126,0.11053208407437208,0.0584492307389155,0.023051018253795796,23003.745097443458
1685667514461295604,212,1685667514461295604,camera_3,213,0,0.02485933419586981,-0.479160328318347,2.057687340402968,0.9925885507834307,0.0529478824234632,-0.003452263455805435,0.10932782115066461,0.0728759674821049,0.028753121266768326,23003.49975868734
1685667514471333265,213,1685667514471333265,camera_3,214,0,0.024875277556959955,-0.4794394486408204,2.0583377304429695,0.9927365495870398,0.052760134708400526,-0.0021174076636711623,0.10810193284283101,0.08754556259373203,0.034543864037788134,22999.72112193401
1685667514481405735,214,1685667514481405735,camera_3,215,0,0.02485184097496912,-0.4790954685342715,2.056745068176412,0.9924900533765526,0.05263158217376795,-0.0017960170870183316,0.11040917004088414,0.07807212235638872,0.03077365373196189,23010.95248625753
1685667514491383075,215,1685667514491383075,camera_3,216,0,0.024864796723962086,-0.47927474790294883,2.0577994115547757,0.9926951757994555,0.052609509118028926,-0.003268615415888253,0.1085257741189211,0.07757286360720173,0.030603095167631118,23007.903071363475
1685667514501399040,216,1685667514501399040,camera_3,217,0,0.024868885953069256,-0.47864656653990467,2.0568516851973047,0.9925466405957022,0.05256215144077529,-0.0029798283847397426,0.10990681098503671,0.05582336091902107,0.022004017756625464,23021.24172483152
1685667514511505603,217,1685667514511505603,camera_3,218,0,0.02488811746681032,-0.4785182841884937,2.0576590968327912,0.992633271192872,0.05285429326294545,-0.0026337280141885645,0.10898933930142081,0.06811853713588789,0.026859154274430013,23017.669183694525
1685667514521539926,218,1685667514521539926,camera_3,219,0,0.024893015153692293,-0.478153223247478,2.057738191986754,0.9923827631303522,0.05293153430242483,-0.003137960977320612,0.11119738000089414,0.06721958110574633,0.026519976098029023,22998.66277779707
1685667514531456947,219,1685667514531456947,camera_3,220,0,0.02489814591886688,-0.4777133194853361,2.0577472097565557,0.9923738165558659,0.05270417101333006,-0.0021585586898397757,0.11140834437565715,0.09096164256334305,0.03587286225760597,23003.020082361538
1685667514541457414,220,1685667514541457414,camera_3,221,0,0.024911151369407775,-0.47676658683043827,2.057998197507942,0.9924060130600728,0.05320325391585655,-0.0035584643503679364,0.11084699520709917,0.09417497488902882,0.037138303220388746,23017.96298160636
1685667514551265239,221,1685667514551265239,camera_3,222,0,0.02493957316251723,-0.47657800023448355,2.0594814212506036,0.9926735152698353,0.05304587988643631,-0.00433433770587578,0.10847414542439822,0.08964679180644453,0.03537997763497353,23016.83439473831
1685667514561269998,222,1685667514561269998,camera_3,223,0,0.024925316760951007,-0.4756174896967141,2.057602183942366,0.9922974289102275,0.05292270907270731,-0.0030513248864222774,0.1119628905441223,0.08536099595949054,0.033638781580164076,23030.110004921684
1685667514571326732,223,1685667514571326732,camera_3,224,0,0.02490723473452113,-0.4750726653939329,2.057363783792606,0.9921899119720766,0.05316693874897587,-0.0029663731245578463,0.1127991836645617,0.11583446827717125,0.0456363401838749,23033.30075361208
1685667514581349849,224,1685667514581349849,camera_3,225,0,0.024919883953896126,-0.47438537993835894,2.0583288750315636,0.992532525008589,0.05295993767527311,-0.004499320558850798,0.10979156577813405,0.09568808373296633,0.03770447892833903,23055.079568248933
1685667514591284751,225,1685667514591284751,camera_3,226,0,0.02490927191156085,-0.4738710889974699,2.057715398896113,0.9922599110024615,0.052846073030190385,-0.002360306876463561,0.11234763252567398,0.05300353211350739,0.02087278923082603,23047.40018772333
1685667514601270198,226,1685667514601270198,camera_3,227,0,0.02491973634786859,-0.4738564011196558,2.058916933462682,0.9925281875417514,0.05276509997224103,-0.0017406095228481183,0.11000277923077366,0.0980904880561866,0.038640505614872596,23048.75612037862
1685667514611292600,227,1685667514611292600,camera_3,228,0,0.024890011825259583,-0.47323083878114225,2.0570794871084708,0.9921631213797332,0.052740442532673605,-0.0018112870081970047,0.11325857819545683,0.10408807551721111,0.04096007856151343,23058.22532449871
1685667514621280670,228,1685667514621280670,camera_3,229,0,0.024918412421173916,-0.47363456560015776,2.0595032239508897,0.9926237084887601,0.05285754106210314,-0.003040291281584547,0.10906424862351607,0.097351067524869,0.038368073803750166,23049.683464812115
1685667514631314277,229,1685667514631314277,camera_3,230,0,0.024914540015900204,-0.47350985741040097,2.0587223069170744,0.9924443881002306,0.052594329400790896,-0.0043266988382478135,0.1107666588843552,0.08181781996972859,0.03224473414739434,23048.59731101315
