%time,field.header.seq,field.header.stamp,field.header.frame_id,field.image_seq,field.transforms0.fiducial_id,field.transforms0.transform.translation.x,field.transforms0.transform.translation.y,field.transforms0.transform.translation.z,field.transforms0.transform.rotation.x,field.transforms0.transform.rotation.y,field.transforms0.transform.rotation.z,field.transforms0.transform.rotation.w,field.transforms0.image_error,field.transforms0.object_error,field.transforms0.fiducial_area
1683654910493679523,22,1683654910493679523,camera_1,24,0,-0.17937563728788744,-0.169759778911916,1.8013913762282634,-0.07794550796582572,-0.9948976262253725,-0.05674396213973162,0.029720933359389308,0.011297818564344198,0.0008841263730239576,26817.24061691569
1683654910502996683,23,1683654910502996683,camera_1,25,0,-0.17932625337596408,-0.16972382613964496,1.8006829799784831,-0.0775733863872788,-0.9948107672524555,-0.058038537646441124,0.031071453632769985,0.02543893997790292,0.0019894465010928406,26824.73447722417
1683654910512212991,24,1683654910512212991,camera_1,26,0,-0.17934605936444153,-0.16976221002480946,1.8011620984611332,-0.07768156265330219,-0.9947293076261491,-0.059840804845538366,0.02997094340826667,0.016779968587798066,0.001312894498801189,26805.228391073873
1683654910521634340,25,1683654910521634340,camera_1,27,0,-0.17936721859812868,-0.16970590831256827,1.8012006039085877,-0.07768406919805926,-0.9948129654007604,-0.059258741546251194,0.02829754077179629,0.012601959286257625,0.0009860187134268146,26814.737660516228
1683654910530956268,26,1683654910530956268,camera_1,28,0,-0.17933425197479153,-0.16967477497786074,1.8005852549392016,-0.07789067365180045,-0.994735937277306,-0.058830379928591435,0.031184041504687284,0.042015482278657146,0.003285753573813235,26822.49297420738
1683654910540261983,27,1683654910540261983,camera_1,29,0,-0.17930239118517116,-0.16970702831615503,1.8006523712882534,-0.07762341269548702,-0.9947987818819162,-0.05945925592714363,0.028540957453325282,0.01693276131118182,0.0013241355857896088,26828.772857615255
1683654910549702644,28,1683654910549702644,camera_1,30,0,-0.17935366904100492,-0.16975761148977567,1.801088658601148,-0.0777500518662503,-0.9948934757411256,-0.058304431769723615,0.027248754073298725,0.014052262195036747,0.0010993979753663502,26827.862257982153
1683654910559029102,29,1683654910559029102,camera_1,31,0,-0.17937261377479183,-0.16979332313951198,1.8013701719492707,-0.07748076354868776,-0.9947863620902747,-0.060651817635178476,0.026798919692001988,0.014865245553664863,0.0011634139326094726,26807.667975475553
1683654910568427562,30,1683654910568427562,camera_1,32,0,-0.17940250781155892,-0.16974945679326187,1.8014378701088913,-0.07769188735079186,-0.9948128799821291,-0.05783671539554298,0.031084060445651665,0.015169026737567037,0.0011871582164175289,26803.516806688982
1683654910577771186,31,1683654910577771186,camera_1,33,0,-0.17937174315079316,-0.1697591445736023,1.8014849109025484,-0.07797854278742396,-0.9950265373813071,-0.05410817523848108,0.030229822098021046,0.012236006048624404,0.0009576471365056133,26826.514399625252
1683654910587106466,32,1683654910587106466,camera_1,34,0,-0.17940540629177826,-0.16981108287495655,1.8015611782010017,-0.07780276329161576,-0.9948751522309663,-0.05810348411499872,0.028180607362132567,0.03442630010249559,0.0026951590288024187,26811.03210295119
1683654910596419811,33,1683654910596419811,camera_1,35,0,-0.17937775498261155,-0.16971238966277474,1.8010193853908374,-0.07763218575192173,-0.9947303920381119,-0.059042777037592885,0.03160128748599538,0.0196110106917331,0.0015341491776405085,26806.544391811243
1683654910605569362,34,1683654910605569362,camera_1,36,0,-0.17937682201283828,-0.1697397818529776,1.8013131227864718,-0.07767468341124256,-0.9949854965811111,-0.054646179701349606,0.03137355883942767,0.013496823274181224,0.0010561257677887397,26823.46101196621
1683654910614920139,35,1683654910614920139,camera_1,37,0,-0.17928909699383053,-0.16958480530356973,1.8000002169280196,-0.0778201815434645,-0.994802803881511,-0.054297398074653204,0.03692144764698643,0.006204773919307627,0.00048479549838265144,26837.138966631137
1683654910624514579,36,1683654910624514579,camera_1,38,0,-0.1793009496868051,-0.16973487001397808,1.800813503376087,-0.07761302890994025,-0.9947400310894817,-0.060235326310987186,0.028986095903561826,0.01333282154519111,0.0010427668588162788,26817.621059279434
1683654910633465528,37,1683654910633465528,camera_1,39,0,-0.1793293151472158,-0.16973116822072007,1.80079925133084,-0.07774901049592096,-0.9947281132587056,-0.060232471905721265,0.02903655261575357,0.03632899410149548,0.002841786763295669,26817.591367302113
1683654910643074989,38,1683654910643074989,camera_1,40,0,-0.17933798326297545,-0.1697204703623743,1.801010691311803,-0.07746917172912121,-0.9947556275417783,-0.05935794627821961,0.030600704553964745,0.018992573095601983,0.0014857720829680606,26809.710354940667
1683654910652372121,39,1683654910652372121,camera_1,41,0,-0.17935462577582936,-0.1697826111360117,1.8012923650698576,-0.07751357960905472,-0.9948760452742532,-0.05781870652911839,0.02950079136146362,0.018267602208652534,0.0014295134137034626,26815.08474430162
1683654910661638975,40,1683654910661638975,camera_1,42,0,-0.1792861270370579,-0.16968733719075613,1.8004840328240614,-0.07772018255836466,-0.9947472746874355,-0.058741276718763245,0.03141488714708638,0.017527544070617296,0.001370339685376335,26825.232851986424
1683654910670912265,41,1683654910670912265,camera_1,43,0,-0.17946146241881059,-0.16982081455994655,1.802048369300158,-0.07786177092818197,-0.994925560186916,-0.0571225065381024,0.02824346935989348,0.027021419839002192,0.002116493560541323,26801.854635104653
1683654910679689884,42,1683654910679689884,camera_1,44,0,-0.17933286596796622,-0.16973895946524553,1.8008954450323422,-0.07758940329701029,-0.994694129816767,-0.06185593118834617,0.027153570315913974,0.018544272883445956,0.0014506585151874136,26813.01952567743
1683654910689178228,43,1683654910689178228,camera_1,45,0,-0.17945146922351982,-0.16977137127496766,1.8018697862260766,-0.07755953937415264,-0.9949973343434783,-0.05468617493233468,0.031212894334105092,0.00527005446201656,0.00041259336228309567,26807.440776014708
1683654910699008464,44,1683654910699008464,camera_1,46,0,-0.17940364709051837,-0.169755081448182,1.801262536491999,-0.0776431753898449,-0.9949258354290829,-0.05490009343035192,0.03286486045097527,0.02044090401614085,0.0015995422652322787,26816.461454674147
1683654910708185672,45,1683654910708185672,camera_1,47,0,-0.17938305135130556,-0.16980936081500445,1.8015310469662738,-0.07769715240424682,-0.9947907430383429,-0.060178179265923705,0.02707612996222175,0.013594007832580246,0.0010640809126361017,26804.62781893491
1683654910717823505,46,1683654910717823505,camera_1,48,0,-0.17937307960585314,-0.1697347572759611,1.801228794486177,-0.07762928568633153,-0.9948946563699688,-0.057787938433764986,0.028615920427052355,0.031844241835642606,0.0024919670642770727,26820.818128060833
1683654910727073192,47,1683654910727073192,camera_1,49,0,-0.17938945310377075,-0.1697931016256738,1.8013296320200871,-0.0776783058021281,-0.9947956781564552,-0.05915014497843761,0.02913588642858118,0.0209213201305829,0.0016373101359808994,26807.772751211312
1683654910736196756,48,1683654910736196756,camera_1,50,0,-0.17936123574357188,-0.16970325042213366,1.800793948935053,-0.07789863059070552,-0.994744226846602,-0.05958339926497325,0.029420146829674372,0.0294836827670224,0.0023061233636688656,26819.78012443381
1683654910745550155,49,1683654910745550155,camera_1,51,0,-0.17935092188387933,-0.16969824719517565,1.8009937299169987,-0.07761820997778032,-0.994932034145873,-0.054858013503557304,0.03280639060677497,0.014118206803686917,0.0011043772515389615,26825.144465857134
1683654910754723787,50,1683654910754723787,camera_1,52,0,-0.17936055711732554,-0.16968655470776187,1.800758172187475,-0.077692444264738,-0.994896757110818,-0.055399552144217344,0.03279049278020318,0.036095321585889906,0.0028231405438787836,26828.999732004017
1683654910764133691,51,1683654910764133691,camera_1,53,0,-0.17933247744149292,-0.16965996059090904,1.8005066674492254,-0.07766679508618628,-0.9948011057501307,-0.05898284799094491,0.029319832575152027,0.01588498394994531,0.0012419101797036332,26832.2955120487
1683654910773343563,52,1683654910773343563,camera_1,54,0,-0.1792953202040216,-0.16968080454372442,1.8002033127039467,-0.07787030823987466,-0.9946753940846158,-0.060506197915370874,0.029934520391469512,0.03253084923198912,0.002542895166094228,26829.595261853647
1683654910782542705,53,1683654910782542705,camera_1,55,0,-0.17933380469654042,-0.16969597967693673,1.8006522148912196,-0.07782574789487917,-0.9947012274763555,-0.059261395223204526,0.031633969997991215,0.031806996164959855,0.00248742737096923,26815.997208276236
1683654910792043447,54,1683654910792043447,camera_1,56,0,-0.1793028814841321,-0.16970020301649358,1.800320426204416,-0.07767375801239261,-0.99456408915699,-0.06297744513650726,0.02903276217719179,0.02886985265649855,0.0022570704798365606,26815.041268592693
1683654910801513671,55,1683654910801513671,camera_1,57,0,-0.1793843484737619,-0.1697091388245851,1.8009654813424334,-0.07786538186235029,-0.9948222720011707,-0.05510728535501266,0.035054479580512714,0.0253161407308653,0.0019804287320292534,26813.495096205013
1683654910810720443,56,1683654910810720443,camera_1,58,0,-0.179363743697596,-0.16973069402034438,1.8012790294766656,-0.0776389144186023,-0.9948012048216603,-0.057667684930567106,0.031893572518971326,0.00995811384927947,0.0007791663003269026,26805.653942249075
1683654910820286273,57,1683654910820286273,camera_1,59,0,-0.1793860438448842,-0.16975811259917675,1.8016000765967324,-0.07764611363796851,-0.994982175318657,-0.05647530082624498,0.028144133165873407,0.018919046051451,0.001481015218490573,26819.34481757944
1683654910829201936,58,1683654910829201936,camera_1,60,0,-0.17939611759684956,-0.16974155011649103,1.8012665836474016,-0.0778937937176089,-0.9948548527208286,-0.055851050532336854,0.03281827345445328,0.01961494650458917,0.0015348711874768283,26811.505600751967
1683654910838680982,59,1683654910838680982,camera_1,61,0,-0.1793524007181443,-0.16969186476790488,1.800516210405153,-0.07799252009873446,-0.9947926926102643,-0.05625439388811374,0.03376549579304328,0.04930108424741775,0.0038553389503362652,26826.739798417548
1683654910848135948,60,1683654910848135948,camera_1,62,0,-0.17941878487142693,-0.16981285650433375,1.8017640875418037,-0.07763449465051084,-0.994958934589151,-0.05505516416482665,0.03159956677496617,0.012629230346647091,0.0009887302863641465,26806.888493335115
1683654910857252836,61,1683654910857252836,camera_1,63,0,-0.17941438271544374,-0.16976228306645805,1.8015633886775395,-0.0776660073990774,-0.994948216332664,-0.056307525122125085,0.02958886151507588,0.020023685705382377,0.0015674030969431547,26814.949621356332
1683654910866669416,62,1683654910866669416,camera_1,64,0,-0.17931493765312062,-0.1696696644785788,1.8005146462683672,-0.07762716933572344,-0.9947569400533991,-0.059465147990166424,0.02994242760746955,0.015300754515919834,0.001196284332663573,26826.62557433649
1683654910876250505,63,1683654910876250505,camera_1,65,0,-0.17927129779148093,-0.16969173360613285,1.8002619879315747,-0.07764781481571267,-0.9945617037742553,-0.06335003158247823,0.02836560837518669,0.010979500963003375,0.0008582077392080935,26817.567280465737
1683654910885271549,64,1683654910885271549,camera_1,66,0,-0.1793058207064029,-0.16966679335324308,1.8002477494715667,-0.0775535604738535,-0.9946992344030225,-0.060670834591440154,0.029629852612647504,0.023062938838847913,0.001802784786839698,26828.63873788935
1683654910894792079,65,1683654910894792079,camera_1,67,0,-0.1794067537963496,-0.16973101603454574,1.8015348163471214,-0.07770184265941277,-0.9950060584912123,-0.055167508556762175,0.02969702363459896,0.017999173782300204,0.001408861255775681,26821.589981896766
1683654910903884172,66,1683654910903884172,camera_1,68,0,-0.17937026722828653,-0.16976311022046425,1.8013441180296685,-0.07765069154184395,-0.994835399674631,-0.05837157603928061,0.02942204561177382,0.019630465772934258,0.0015362434558985768,26810.712083837938
1683654910913366317,67,1683654910913366317,camera_1,69,0,-0.17944957499542424,-0.1697736875013642,1.801744789099959,-0.07786989601502896,-0.994986515226766,-0.055380742474124334,0.029514185987761767,0.03837116848444566,0.0030045083955478713,26814.78860977012
1683654910922851085,68,1683654910922851085,camera_1,70,0,-0.17932114166505606,-0.16969348343091625,1.8004658987005369,-0.07776962196886439,-0.9948540098524509,-0.059452003417841376,0.026131289078893012,0.028814652061555535,0.002253173475356493,26844.070978103555
1683654910931786775,69,1683654910931786775,camera_1,71,0,-0.17938694668986888,-0.1697053912965689,1.8007951680175576,-0.07775932572230487,-0.9947259094571529,-0.05854613147585921,0.03234505846438004,0.024404957541264594,0.0019087818899204349,26812.406427282483
1683654910941452264,70,1683654910941452264,camera_1,72,0,-0.17946575627968353,-0.16979172129594838,1.8017009552191672,-0.07787352414632992,-0.9949073800966394,-0.05617928113002947,0.030641599794809325,0.03019394564034883,0.0023639192492046083,26806.644751989457
1683654910950743436,71,1683654910950743436,camera_1,73,0,-0.1794364060321204,-0.16977869335413695,1.8016480412596416,-0.07761578973000266,-0.9948861610800971,-0.058030656960362616,0.028456256405993797,0.016749670379795134,0.0013112463737923105,26807.639079445806
1683654910960049867,72,1683654910960049867,camera_1,74,0,-0.1793497664567032,-0.16970019541607725,1.800913979372288,-0.07780060622982159,-0.9948604941913481,-0.05606566965622896,0.03250082235294051,0.010089665709529072,0.0007891438678143795,26822.421476651398
1683654910969393014,73,1683654910969393014,camera_1,75,0,-0.17941133579719082,-0.16979050668999088,1.801646530415537,-0.07749715700620415,-0.9948436583711486,-0.05785066778013505,0.03055464436149364,0.015310129863792099,0.001198505231761118,26799.678376561373
1683654910978577613,74,1683654910978577613,camera_1,76,0,-0.17938842343306655,-0.1696624425975921,1.8007016274809338,-0.07795480404387194,-0.9947857542449533,-0.0570046675602311,0.03278444073227949,0.03768055532418657,0.0029468561317606726,26821.76475471293
1683654910988048076,75,1683654910988048076,camera_1,77,0,-0.1793067334941764,-0.16959650489493866,1.8000672592118132,-0.07750849278470476,-0.9946534988467235,-0.06051474529481879,0.03154070988607818,0.017092062276788056,0.00133566992119096,26826.34766209394
1683654910997525930,76,1683654910997525930,camera_1,78,0,-0.17932938894913986,-0.16966214112099748,1.800789580359591,-0.07772320604265413,-0.9948653384951547,-0.0589049468219146,0.027060464579897376,0.011211777047719808,0.0008768282324875183,26834.13751088398
1683654911006664037,77,1683654911006664037,camera_1,79,0,-0.17931812323501617,-0.16968858476395726,1.800538990260211,-0.07749009789190375,-0.9946928837654933,-0.06128361992928773,0.02873446786270495,0.020249827415682375,0.0015833668580918822,26820.301425413934
1683654911015999078,78,1683654911015999078,camera_1,80,0,-0.1794068093166053,-0.1697575582531336,1.801653716276723,-0.0777696219288728,-0.9949778200561875,-0.0557276394786592,0.02941859445000305,0.0021764239063486457,0.00017034327109891103,26816.412846042884
1683654911025460481,79,1683654911025460481,camera_1,81,0,-0.1794363815018889,-0.16969542878213761,1.8014092113927953,-0.07785269324862781,-0.9949256056779545,-0.056658456867974376,0.02918589703316585,0.035016410110984,0.002740538349615709,26819.166882141042
1683654911034666299,80,1683654911034666299,camera_1,82,0,-0.1794017821075353,-0.16972099859035011,1.8011104480760147,-0.07770852301217084,-0.9948692184957235,-0.0573979292294968,0.030035000601651273,0.037951558479107916,0.002969630416870977,26820.12684983755
1683654911044027090,81,1683654911044027090,camera_1,83,0,-0.17940669612453447,-0.16973018426549544,1.8010710551529254,-0.07792405487253556,-0.9947899413185592,-0.05892122716506642,0.02913937736126619,0.030272940348368138,0.002368660084364343,26816.53919440497
1683654911053289413,82,1683654911053289413,camera_1,84,0,-0.17934197145844158,-0.16965628271818162,1.800524569119934,-0.07792840463064774,-0.994741812090408,-0.058510707682832404,0.031502192261295484,0.036558709223754704,0.002858689999209704,26824.636417607035
1683654911062640905,83,1683654911062640905,camera_1,85,0,-0.17936542916762338,-0.16967553723112394,1.8006069083377876,-0.0776373776260836,-0.9947447852502118,-0.05909815852530925,0.0310267218985884,0.043850266956724226,0.0034293595032982597,26820.827426867334
1683654911072010755,84,1683654911072010755,camera_1,86,0,-0.17934538486472656,-0.16965874867552405,1.8005070637481957,-0.07776889733137309,-0.9947411886150875,-0.05897276498585042,0.03105123621418112,0.028727497963700444,0.002246247333846698,26824.54865827156
1683654911081204652,85,1683654911081204652,camera_1,87,0,-0.1793343692013317,-0.16966923170066833,1.8003894200259276,-0.077475199105754,-0.9946298825636074,-0.06231204884730628,0.028743674147179273,0.02753637959540356,0.0021529697752131075,26818.267537889722
1683654911090657711,86,1683654911090657711,camera_1,88,0,-0.17931903198861973,-0.16962379325429364,1.8004861841334583,-0.07776507816967833,-0.9948914170339731,-0.057054059677832315,0.029807636667055354,0.02726937762054149,0.002132181632867183,26841.819102926645
1683654911100274801,87,1683654911100274801,camera_1,89,0,-0.17936137039738975,-0.16966385577343684,1.8007107054759426,-0.07784608914561908,-0.9946473848198759,-0.060059151779735385,0.031772072063570383,0.015913138704490848,0.001244420255485205,26808.97266385984
1683654911109128475,88,1683654911109128475,camera_1,90,0,-0.1793925596939873,-0.16973203494245004,1.8012201729133877,-0.07765460016693156,-0.9948465293374321,-0.05918848337921736,0.02732891460427932,0.014366615461767651,0.001124171475866176,26818.456341096422
1683654911118626594,89,1683654911118626594,camera_1,91,0,-0.17935012412423146,-0.1696982447725927,1.8008046014724577,-0.07758361323240003,-0.9947587419184991,-0.059252775063234425,0.03041277662161108,0.01090062731236685,0.0008524882869124254,26817.148866736792
1683654911127952098,90,1683654911127952098,camera_1,92,0,-0.17930492623985475,-0.16960595383680996,1.8000798031371512,-0.07794370310315522,-0.9947421702987074,-0.057594125025325536,0.03310151867440062,0.01750520612404216,0.0013679586879312296,26835.63224161358
1683654911137341976,91,1683654911137341976,camera_1,93,0,-0.1794084810059534,-0.16972867144812215,1.8011924799256214,-0.07792312632042932,-0.9948336467318647,-0.05876908796100007,0.02793198909605238,0.029966641290229745,0.002344995622913228,26819.025307130752
1683654911146663427,92,1683654911146663427,camera_1,94,0,-0.17939683993790795,-0.16969537074344238,1.8009735596848082,-0.07754134131575298,-0.9948560424994533,-0.057350524807573355,0.03097922519328077,0.019284500755020417,0.0015085192415778105,26820.251110882622
1683654911155759096,93,1683654911155759096,camera_1,95,0,-0.17943593585531853,-0.1697754620029565,1.8015070009962544,-0.07769936941789911,-0.9948433791814428,-0.056880142608298295,0.031845066615861096,0.007093931722920388,0.0005551817288128493,26803.221022553407
1683654911165378332,94,1683654911165378332,camera_1,96,0,-0.17945519609108657,-0.1697564158274394,1.8016161255454646,-0.07772455154082128,-0.9949035202678383,-0.05618778572979997,0.031125747882155053,0.033526181941851974,0.002624673755543253,26806.95699657653
1683654911174757480,95,1683654911174757480,camera_1,97,0,-0.17941000224507025,-0.16971228179460293,1.8009981423328785,-0.07772205119509087,-0.9946861526359271,-0.06196454861567125,0.02681669679921736,0.018953653416247107,0.0014828665230556363,26810.38518001583
1683654911183848381,96,1683654911183848381,camera_1,98,0,-0.17940039917049846,-0.16971586548885154,1.8011246059037953,-0.07782516406183329,-0.9948601644595286,-0.05663125580796317,0.031454695610063595,0.015287114612874575,0.001196003156524387,26817.719057511247
1683654911193245887,97,1683654911193245887,camera_1,99,0,-0.17933423644182703,-0.16967602762727574,1.800529674025276,-0.07778499005037015,-0.9947623172529388,-0.058379257281388514,0.031452977851084474,0.023140008459449746,0.001809313152635426,26825.533413485755
1683654911202441692,98,1683654911202441692,camera_1,100,0,-0.17937096671996497,-0.16963630808365404,1.8004676255380274,-0.07806829943711277,-0.9947217332209101,-0.0588268744988047,0.031199565985567154,0.021713487629313022,0.0016976300140274922,26825.79574333963
1683654911211820125,99,1683654911211820125,camera_1,101,0,-0.17939311640944883,-0.16970975852873613,1.8011412235243118,-0.07765294169661519,-0.9947616650216993,-0.05928031361824286,0.030084794605276532,0.006769146537408233,0.000529558572653371,26808.501202046165
1683654911221250295,100,1683654911221250295,camera_1,102,0,-0.17939576333150375,-0.16973207772606916,1.8012534290704112,-0.07766957634075074,-0.9948108497621488,-0.058787924505747505,0.02937328784569723,0.015884067281149328,0.0012429080246365437,26811.093080764225
1683654911230424880,101,1683654911230424880,camera_1,103,0,-0.17942630620860509,-0.16977439405853062,1.8015023685409965,-0.07770077861623172,-0.9948341630927214,-0.05962297984094761,0.026696015075699128,0.01896941347513348,0.0014848903572269932,26810.07204569398
1683654911239897012,102,1683654911239897012,camera_1,104,0,-0.179407094666971,-0.16972186511654702,1.8009494638094774,-0.0777231563970932,-0.9947090590917144,-0.060578542872862184,0.029038575446292434,0.026690319762565196,0.0020880382985264,26810.78603014868
1683654911249296188,103,1683654911249296188,camera_1,105,0,-0.17938201258913342,-0.16967734520094394,1.8009261032970811,-0.07793640129971165,-0.9949156532240674,-0.0568618953256824,0.02890476054474071,0.014614058149163611,0.001143111641952081,26833.686848042067
1683654911258448123,104,1683654911258448123,camera_1,106,0,-0.17937262277013402,-0.169742480614646,1.8013199681462475,-0.07769024115747572,-0.994871316699224,-0.05865414531677895,0.027476915314568372,0.005382489602197893,0.00042116664541556724,26818.177411113167
1683654911267975568,105,1683654911267975568,camera_1,107,0,-0.17943170175332623,-0.16971010833126546,1.8013295713166468,-0.07792453944690733,-0.9949121418192565,-0.05491664058857181,0.03258464053925964,0.019789572688750923,0.0015486549015785796,26815.662445786507
1683654911277109861,106,1683654911277109861,camera_1,108,0,-0.17939567077232427,-0.16969374501879908,1.8008421660811507,-0.07757565622216063,-0.9947877687327756,-0.058405909404490135,0.031113702576218722,0.013121468262397684,0.0010262040947633243,26817.518164235753
1683654911286386013,107,1683654911286386013,camera_1,109,0,-0.17947678500448228,-0.16981166323882257,1.8021961285487351,-0.07768228284662237,-0.9950201332805422,-0.05507749505612756,0.02944260240623889,0.010043884511105716,0.0007866602238725891,26803.560982833398
1683654911295983791,108,1683654911295983791,camera_1,110,0,-0.17936872244918556,-0.16964008194370503,1.8006606117518074,-0.07772927339371728,-0.994859485353199,-0.057539332143866265,0.030033143639830878,0.019945699561503716,0.0015597134009791942,26832.747630701633
1683654911305031776,109,1683654911305031776,camera_1,111,0,-0.17942001533250757,-0.16973485824695816,1.8010433624565674,-0.07774637839667989,-0.9946740694496418,-0.06126126273413529,0.028741153402548243,0.028386265214066952,0.00222101210473103,26805.194705288573
1683654911314491987,110,1683654911314491987,camera_1,112,0,-0.1793864093596799,-0.16967256094806682,1.8007762045306166,-0.07763798132210487,-0.9948951852761135,-0.05617565674344338,0.03162609302583965,0.019998305549961515,0.0015640008700890792,26829.62071364693
1683654911323976516,111,1683654911323976516,camera_1,113,0,-0.1793951341857118,-0.1697042140458894,1.8009342667248436,-0.07743649330854387,-0.9947219019067465,-0.06091787028484622,0.028652058408773363,0.015899383593932725,0.0012437309424129556,26810.994915627405
1683654911333248615,112,1683654911333248615,camera_1,114,0,-0.17942940663445725,-0.1697043722450287,1.8012317450636883,-0.07765287248608627,-0.9949134660512395,-0.056792154309124376,0.02986432107879546,0.015172251616604626,0.0011871751854838815,26820.731123881058
1683654911342595338,113,1683654911342595338,camera_1,115,0,-0.17939611673724418,-0.16970299480593257,1.8009892480125727,-0.07771451649423085,-0.9947782862253655,-0.059650411919387386,0.028608452220284165,0.021522625771467574,0.0016837199069972793,26817.05729954906
1683654911351760864,114,1683654911351760864,camera_1,116,0,-0.17943237148083915,-0.16971125491934658,1.8013686237127382,-0.07772408804351498,-0.994872702447283,-0.0569043673557438,0.03080852217953114,0.012266919264220633,0.0009599080407179748,26811.894341872816
1683654911361089706,115,1683654911361089706,camera_1,117,0,-0.17947814742578264,-0.16976504027666992,1.8016953499963457,-0.07764731540163716,-0.9949257223882186,-0.05696933298499186,0.029123812258102042,0.03955593769205734,0.003097248509841192,26809.068040764723
1683654911370568275,116,1683654911370568275,camera_1,118,0,-0.17940564952336707,-0.16969402542807477,1.8011609308272998,-0.07755863912331466,-0.9948505852658036,-0.057771816188496146,0.03032140741968114,0.008928652227041312,0.0006985289845243029,26815.428757388487
1683654911379815816,117,1683654911379815816,camera_1,119,0,-0.17938788447945972,-0.16973404291041339,1.8010021532331186,-0.07785971811026511,-0.9947137237391874,-0.060332579066936225,0.029025023752645724,0.017709476422169246,0.0013854262375643973,26810.91652292118
1683654911389120578,118,1683654911389120578,camera_1,120,0,-0.1793526917258733,-0.16969072331937568,1.8005731454174485,-0.07780428542561794,-0.9948226735055573,-0.058615989119668616,0.02895698997111019,0.037848477775696665,0.002959913334428277,26833.837996338974
1683654911398625850,119,1683654911398625850,camera_1,121,0,-0.17938855810799442,-0.16968378082076155,1.8008274643384758,-0.0778697055696008,-0.994746117612955,-0.0598371835605714,0.02891335179454832,0.018161226878874004,0.001420501183459911,26819.461549781954
1683654911407917261,120,1683654911407917261,camera_1,122,0,-0.1793412262323058,-0.16963249732605534,1.800473061101145,-0.07795539939054129,-0.9947793119170755,-0.05864347102183354,0.029966975058597637,0.010656173224560915,0.000833071354414567,26832.45070698578
1683654911417162179,121,1683654911417162179,camera_1,123,0,-0.17939407955878117,-0.1696867333691103,1.8008052842795865,-0.07791211293727154,-0.9948113113859551,-0.057682357019755166,0.03086912834615206,0.026951239866320975,0.0021079568456855223,26823.785888821807
1683654911426381349,122,1683654911426381349,camera_1,124,0,-0.17930883949184856,-0.1696443238102285,1.800345726419382,-0.07745024991496542,-0.9947761078945098,-0.0602890426936844,0.02805682236888423,0.0222464660910191,0.0017391740232970039,26834.840256781776
1683654911435986995,123,1683654911435986995,camera_1,125,0,-0.1794546632147538,-0.16976086940701182,1.8016495408895397,-0.07770133843473569,-0.9948025362046096,-0.057782221451960186,0.0314901706950591,0.014574117085430771,0.00114087999389863,26795.562635807193
1683654911445435285,124,1683654911445435285,camera_1,126,0,-0.1794198169848099,-0.16974175728918364,1.8013843771111204,-0.0773997800838238,-0.9949283974145124,-0.05637411606163844,0.030801251588769497,0.011264803368248977,0.0008815319413407222,26814.413810686445
1683654911454428911,125,1683654911454428911,camera_1,127,0,-0.179397843126409,-0.1696723920434725,1.8010833624152505,-0.07742902124764632,-0.9949469289087305,-0.05626653541134303,0.03032214234715703,0.01220690191257745,0.0009549421121453619,26826.08562322143
1683654911463907480,126,1683654911463907480,camera_1,128,0,-0.1793640830881315,-0.16967444602311144,1.800610277211712,-0.0772900221999799,-0.9946687255810874,-0.06179054088605773,0.02902254083002856,0.006776226291549392,0.0005298142779306696,26813.758095862297
1683654911473257303,127,1683654911473257303,camera_1,129,0,-0.1794296470007526,-0.1697357256725195,1.8013583670497795,-0.07763888126933215,-0.9949177147697622,-0.05662914227455863,0.030068009541844038,0.010095365010784008,0.0007899867219259834,26817.01586920058
1683654911482455492,128,1683654911482455492,camera_1,130,0,-0.17940756997881446,-0.16975171757947072,1.8011145102617017,-0.07761571737892557,-0.994720001725597,-0.06070737117631351,0.02867984776187663,0.010828280413988978,0.000847164099477163,26806.816695992595
1683654911491847753,129,1683654911491847753,camera_1,131,0,-0.1793728301836599,-0.1696642944767661,1.8006195616892111,-0.0777424130414592,-0.9948034397786002,-0.05871581482361845,0.02957509947159723,0.0063039937522262335,0.0004928829155703163,26829.29038154544
1683654911501190900,130,1683654911501190900,camera_1,132,0,-0.1794123790753474,-0.16969256245432238,1.8011458365770976,-0.07773439431864926,-0.994901183269364,-0.056536497135693045,0.0305388925921992,0.0070188340614549816,0.0005490822392487561,26821.77077570292
1683654911510553598,131,1683654911510553598,camera_1,133,0,-0.17939918908399793,-0.1696898522998199,1.8010496167910792,-0.07772298907098454,-0.9948701605957904,-0.05918931750386854,0.02625119462813718,0.02212425513425842,0.0017310040742555808,26827.768946246717
1683654911519947052,132,1683654911519947052,camera_1,134,0,-0.1794238547698698,-0.16974884185191483,1.8012789137665455,-0.07742434888309173,-0.9946929666133958,-0.062149400314433355,0.02699674814542708,0.013515342026948929,0.0010576765646407387,26800.26188173912
1683654911529111862,133,1683654911529111862,camera_1,135,0,-0.179385527360549,-0.16967611204985591,1.8007243852645463,-0.07800406414786867,-0.9946890335346914,-0.06055842750038015,0.029013262500413344,0.02254330193682108,0.0017631127923160219,26817.767420013894
1683654911538615465,134,1683654911538615465,camera_1,136,0,-0.17946697618147298,-0.1697495542824501,1.801604581923963,-0.07769730278464297,-0.9949020660016595,-0.05846462272175985,0.026737540941966276,0.02178621123312041,0.001705561908036135,26813.432875394075
1683654911548228502,135,1683654911548228502,camera_1,137,0,-0.17944459771427754,-0.1697039635573105,1.801195418202907,-0.07755955448718982,-0.9948976820780367,-0.055583335732371786,0.03276599597694557,0.018060855683870614,0.00141311057036151,26815.019032753185
1683654911557270765,136,1683654911557270765,camera_1,138,0,-0.17939493836995152,-0.1696444992257763,1.8007401180344254,-0.07786457532859989,-0.9947563158005782,-0.05882965983816257,0.030594953948052294,0.025399536301847547,0.0019864846383510215,26820.437095922996
1683654911566493034,137,1683654911566493034,camera_1,139,0,-0.1793682607588298,-0.16966855828227678,1.8006329040204534,-0.07766403160081706,-0.994730635136331,-0.059714596769219135,0.03022298214055629,0.009869818997685798,0.0007717238861351052,26820.234087401066
1683654911575848817,138,1683654911575848817,camera_1,140,0,-0.17944087666424482,-0.16970555591565778,1.8011601053288577,-0.07774431935925666,-0.9949173512850528,-0.05659474284171259,0.029871725795162826,0.01575366168981418,0.0012325755189552686,26823.780962463243
1683654911585304260,139,1683654911585304260,camera_1,141,0,-0.17938222070575144,-0.16965348018052998,1.8004695693462975,-0.07769787199377858,-0.9947875030647186,-0.057956749715004134,0.03165248167795428,0.037208546011243016,0.0029094429091959095,26828.493918669876
1683654911594668388,140,1683654911594668388,camera_1,142,0,-0.1794006363542681,-0.16973941343787666,1.801015653050215,-0.0777199734538458,-0.9947193645373846,-0.061578019835442414,0.02647902969939159,0.018925800977740437,0.00148071499098908,26813.60441448771
1683654911603960752,141,1683654911603960752,camera_1,143,0,-0.17935080105700626,-0.16964354175613935,1.800297360762592,-0.07763042079341921,-0.9946709350044288,-0.05986657301989351,0.03192557375687713,0.027239860559348017,0.0021294033551798445,26821.394786648874
1683654911613291501,142,1683654911613291501,camera_1,144,0,-0.1793767083845963,-0.16964325694426835,1.8003761451505105,-0.07782507776889432,-0.9948017787606283,-0.057459510827819575,0.03179752915531734,0.014045889489352703,0.0010979784662072717,26833.472553174946
1683654911622721433,143,1683654911622721433,camera_1,145,0,-0.17947408157175507,-0.16972293845386843,1.801294648384512,-0.07790155044645593,-0.9948808246090137,-0.055977558246453896,0.03178059527592439,0.027657675454975106,0.0021644532413506935,26814.410169197778
1683654911631820917,144,1683654911631820917,camera_1,146,0,-0.17935672744723202,-0.1697112628131791,1.8008269530523109,-0.07782890596661844,-0.9947228424357317,-0.061170215765737536,0.026969108917261588,0.019901293228031136,0.0015566887089895312,26819.827254707
1683654911641138792,145,1683654911641138792,camera_1,147,0,-0.17942019702278944,-0.16972800297580662,1.8011348105360714,-0.07759487664230201,-0.994749731297424,-0.06142795640184951,0.026050208729704073,0.01576931291492656,0.0012338870449243333,26812.699321942637
1683654911650477647,146,1683654911650477647,camera_1,148,0,-0.1794573275013159,-0.16975491874257637,1.8013594333594642,-0.07772529152004597,-0.9948188153426304,-0.05845108253947449,0.02962726191150508,0.01331161348207388,0.0010417212803476089,26808.53387601325
1683654911659824371,147,1683654911659824371,camera_1,149,0,-0.179418977925502,-0.16968388455532596,1.801073316390074,-0.07786025863898542,-0.9949737720916676,-0.05541572446248237,0.02990101096362711,0.023272631820873357,0.0018208063475934704,26832.73300233623
1683654911669245243,148,1683654911669245243,camera_1,150,0,-0.17942547271506581,-0.1697027030430914,1.8010404751791347,-0.07784672697167416,-0.9947493354254364,-0.06081862545547601,0.02673465107602396,0.020737948958412744,0.0016225589599087136,26816.363853816638
1683654911678657531,149,1683654911678657531,camera_1,151,0,-0.1794861675175523,-0.16976096713508027,1.8016264676725917,-0.07758223475782718,-0.9949086944102512,-0.05731538174041881,0.02919989131522179,0.02567546779755503,0.0020100694228529885,26808.80922371416
1683654911687880992,150,1683654911687880992,camera_1,152,0,-0.17936912669397642,-0.1696872673423999,1.800769361706415,-0.077727732577342,-0.9946837234679006,-0.0617286655220675,0.02742738976429931,0.034196736000012606,0.002675007559328052,26816.14451276844
1683654911697282314,151,1683654911697282314,camera_1,153,0,-0.1794074612852007,-0.1696981853026902,1.801040075181404,-0.07748961799334941,-0.994840277732132,-0.05839589965947626,0.029632748911628978,0.01890698629722465,0.0014791023782313505,26818.340611804968
1683654911706736564,152,1683654911706736564,camera_1,154,0,-0.17940880495658496,-0.16970774270418768,1.800990745881456,-0.07746795797963513,-0.994878253432182,-0.05617165734368714,0.03256871574778888,0.010162781705730595,0.0007949370501333764,26818.936113149735
1683654911716423273,153,1683654911716423273,camera_1,155,0,-0.17941368962268955,-0.1697048925935453,1.8008986518747987,-0.07783532165217177,-0.9946176418394397,-0.062051458978166406,0.028758054241135235,0.01805151918961201,0.001412066032188798,26804.621818991436
1683654911725302457,154,1683654911725302457,camera_1,156,0,-0.17943817259519354,-0.16975331723127934,1.8014739503585826,-0.07756215927663283,-0.9948947890442496,-0.059313189252740754,0.025503250020601775,0.01905070210341364,0.0014912153576328974,26817.417192192268
1683654911734481334,155,1683654911734481334,camera_1,157,0,-0.17952089262559992,-0.169788973051616,1.8019653768584465,-0.07758630805147601,-0.9949316976673227,-0.05671728096349605,0.029570793358793073,0.020627870864700526,0.0016154611910387283,26800.511454424923
1683654911744163990,156,1683654911744163990,camera_1,158,0,-0.1794875537871894,-0.16979130517545765,1.8021050460325874,-0.07758456604745742,-0.9949120957261082,-0.057517040463851414,0.028676592290417986,0.014249169209506363,0.0011159974929542808,26796.071674861007
1683654911753060340,157,1683654911753060340,camera_1,159,0,-0.17939513454653386,-0.1696522319645182,1.800538183528756,-0.07770060804660732,-0.994747386002713,-0.05822480823652382,0.032405636173011565,0.024031800334341824,0.001879062696354596,26821.435195645077
1683654911762729406,158,1683654911762729406,camera_1,160,0,-0.17940285370751952,-0.16964019340542244,1.8005808910586205,-0.07757689660184582,-0.9948009624015006,-0.058080636602053475,0.03129712399846013,0.021994797818479128,0.001719872935657921,26826.131257317265
1683654911772029399,159,1683654911772029399,camera_1,161,0,-0.17947300724086973,-0.1697337828696574,1.8016572408268787,-0.07748481826131601,-0.9948713352238621,-0.05787608384754664,0.029622427438893997,0.014657356034149416,0.0011474155740415443,26803.077969108133
1683654911781299114,160,1683654911781299114,camera_1,162,0,-0.17943500838539045,-0.16969286574508394,1.8012254142007758,-0.07769438269159049,-0.9950002757830951,-0.05594214584164875,0.028434317441589797,0.027150658890604973,0.0021246242417916773,26831.67883173329
1683654911790528535,161,1683654911790528535,camera_1,163,0,-0.1794239728412394,-0.169682342861513,1.8010758598019718,-0.07787075381710176,-0.9948403727635117,-0.05771665765014926,0.029959403355358488,0.03612242138478905,0.0028263491554783703,26819.622913146806
1683654911799641609,162,1683654911799641609,camera_1,164,0,-0.17951703141021286,-0.16976437032654962,1.8018314202530752,-0.07798873855423981,-0.9949037970742439,-0.05668864852645414,0.029505734259876567,0.03003056801389903,0.0023516523060648433,26804.888907503795
1683654911809112310,163,1683654911809112310,camera_1,165,0,-0.1794275977660093,-0.16974112330707908,1.801323103163632,-0.07748838948008835,-0.9947851454916309,-0.06023303008686047,0.027749700746716413,0.011145924756419845,0.0008722285610814711,26807.397957677837
1683654911818520545,164,1683654911818520545,camera_1,166,0,-0.17941482049863625,-0.16967515421640672,1.8007873290359226,-0.07786554799626619,-0.9948193842634016,-0.05735938140387044,0.03132491810034217,0.031652140780352056,0.0024757476515174263,26823.950644464407
1683654911827026367,165,1683654911827026367,camera_1,167,0,-0.1794270962925939,-0.16973429529302486,1.8014307159767111,-0.07741246500459095,-0.994819904171669,-0.05913092964196898,0.029055149035255984,0.007908516228781082,0.0006189053579863791,26805.20726144749
1683654911836120605,166,1683654911836120605,camera_1,168,0,-0.17945599113314645,-0.16971921947224766,1.8016134378149382,-0.07784912178117101,-0.9948301738446862,-0.05864825108019966,0.028510034922559196,0.01145293856097851,0.0008965122634570401,26804.918743273476
1683654911845635890,167,1683654911845635890,camera_1,169,0,-0.17942911057793187,-0.16969791937655718,1.801128146170309,-0.07775686207511014,-0.9948283969604401,-0.058661499115174556,0.02879513019442386,0.032790920813567936,0.002565812500535141,26817.750590729753
1683654911855552673,168,1683654911855552673,camera_1,170,0,-0.17939663031353723,-0.16961642912904326,1.8007224370194026,-0.07778061097152407,-0.9949413978701809,-0.05218049464351289,0.03631786529775051,0.01583454030333087,0.001238340419776235,26829.497307300277
1683654911865156888,169,1683654911865156888,camera_1,171,0,-0.17937907678116446,-0.16966309340172905,1.8007512873974882,-0.0773060090392127,-0.9948830692515886,-0.05869559301684313,0.028040806753179735,0.03232331038452685,0.0025282371816181394,26831.979648151144
1683654911874610662,170,1683654911874610662,camera_1,172,0,-0.17940251505697974,-0.16967537809771427,1.800762367271485,-0.07791150328367631,-0.9948338315523111,-0.0568011646410761,0.0317659086198221,0.03011479933047667,0.0023553866609309143,26825.83239983266
1683654911883753061,171,1683654911883753061,camera_1,173,0,-0.17943691479968277,-0.16971749891027238,1.8013038215666328,-0.07785379261544077,-0.9948568582750216,-0.05790982328840621,0.029070102945315517,0.01598471800389234,0.0012508716659267805,26815.778381140317
1683654911893310308,172,1683654911893310308,camera_1,174,0,-0.17944829884165892,-0.16975790107752578,1.8014263250686249,-0.0775405873934409,-0.994793427123895,-0.05965412464578746,0.028546104296745655,0.017880580096971244,0.0013994844650781085,26804.29334382643
1683654911902334690,173,1683654911902334690,camera_1,175,0,-0.17935046985400005,-0.16962760677034974,1.8003807374210747,-0.0775465210191148,-0.994823278563637,-0.05810651357472289,0.030607426973190414,0.019094762101303786,0.0014927343723210847,26835.2157283892
1683654911911807060,174,1683654911911807060,camera_1,176,0,-0.17943785644474414,-0.16971649804893618,1.8013057373536696,-0.07765586466581303,-0.9948977912126123,-0.05762670498809837,0.028759600057806478,0.011485946844913997,0.0008987844719221695,26818.688232639335
1683654911921205759,175,1683654911921205759,camera_1,177,0,-0.1793854162980578,-0.16965886036821815,1.800635104488826,-0.0775708232665124,-0.9947457745580681,-0.059776572002387396,0.029839115540983157,0.02131679526064545,0.0016669848237369728,26821.384617577773
1683654911930341720,176,1683654911930341720,camera_1,178,0,-0.17946782996070404,-0.16970251554223303,1.801323150473424,-0.07780983609029475,-0.9949322467596524,-0.05583201501757395,0.030630701338186284,0.03159434552071616,0.002472650205503538,26819.643156824473
1683654911939857959,177,1683654911939857959,camera_1,179,0,-0.17938718699114167,-0.1696219767978438,1.800313859070719,-0.07770746784501521,-0.9946335732418474,-0.058095054701263776,0.03592449081793279,0.032150237893802114,0.0025133649742141353,26811.604484817362
1683654911949201345,178,1683654911949201345,camera_1,180,0,-0.17944840723983208,-0.16967909191713101,1.8010646115960425,-0.07792898427036651,-0.9947735157303125,-0.05844841062539174,0.030602436300207297,0.028467227704823017,0.0022272514073074924,26812.83515698022
1683654911958267688,179,1683654911958267688,camera_1,181,0,-0.17942854200826247,-0.16968557871960377,1.8011677107063697,-0.07772783788689681,-0.994820327863968,-0.059013081101812664,0.028431580063838984,0.01785894647764508,0.001397362995703566,26816.216909594084
1683654911967958450,180,1683654911967958450,camera_1,182,0,-0.1795115577636371,-0.16976633328362797,1.8019760687121447,-0.07780380004538541,-0.9949997892300569,-0.05512199059863198,0.029724641008502938,0.01450761838350445,0.0011360980831359173,26808.337706955204
1683654911976949214,181,1683654911976949214,camera_1,183,0,-0.17943069866209843,-0.1696785636095331,1.8007861205578384,-0.0778944668393236,-0.9947294393216707,-0.05859218538876166,0.03182373947199212,0.03229555656434968,0.002526054255787214,26814.60294340506
1683654911986307382,182,1683654911986307382,camera_1,184,0,-0.17945084696001853,-0.16967884986311355,1.801065519927421,-0.07787937455758631,-0.9948018594958248,-0.058584009450655485,0.029529260045824415,0.022712724705343135,0.001776989726075708,26816.79459514177
1683654911995774984,183,1683654911995774984,camera_1,185,0,-0.1794404749916786,-0.16969766701595668,1.801004394054091,-0.0776761667424977,-0.9947557336806266,-0.060106049945808336,0.028543058519049598,0.014863154443446547,0.0011627388177920836,26814.021293933038
1683654912005021333,184,1683654912005021333,camera_1,186,0,-0.17942926831756836,-0.16966442599317205,1.8007674085595986,-0.07761060970257919,-0.9948167618598242,-0.059215890308811435,0.02845491028386504,0.026261845720000565,0.0020541190440280365,26826.55129622297
1683654912014571428,185,1683654912014571428,camera_1,187,0,-0.17940027933999847,-0.16965613902568072,1.8008878198863068,-0.07745249518253099,-0.9949799936414251,-0.05572826818649737,0.030170902675323578,0.012636896761250682,0.0009883833000382317,26835.380294676987
1683654912023869752,186,1683654912023869752,camera_1,188,0,-0.17946578920709655,-0.16971807265469363,1.8014419237623396,-0.0775959492076537,-0.9948978049801173,-0.057500787111114136,0.029169946758781082,0.012632530488190241,0.00098866906900714,26813.503459099804
1683654912033224105,187,1683654912033224105,camera_1,189,0,-0.179404765249376,-0.16966891368788883,1.8008148747611232,-0.0778151371726,-0.9947822212915421,-0.0584079069592427,0.030686365599649202,0.02624811412533745,0.002053022464075398,26820.1796195471
1683654912042463302,188,1683654912042463302,camera_1,190,0,-0.1795753929977626,-0.16981027036826107,1.8021271913122088,-0.07761821331654412,-0.9948165917343745,-0.058913371741429556,0.029061596680265485,0.03978624883166049,0.003116785644879161,26785.228960087406
1683654912051845788,189,1683654912051845788,camera_1,191,0,-0.17943082615195868,-0.1697291158767001,1.8011700302922584,-0.07767547352719609,-0.9948763721690792,-0.05698506987903089,0.030663116653396282,0.026243046100717038,0.002053463856765612,26817.783767332316
1683654912061115741,190,1683654912061115741,camera_1,192,0,-0.17945299216958063,-0.16972698469094044,1.801302607827227,-0.0776705870954208,-0.9948343005878827,-0.058165579891948246,0.029812071211242092,0.024855649753590114,0.0019451628331075654,26810.961510015346
1683654912070523500,191,1683654912070523500,camera_1,193,0,-0.17942087786960317,-0.16970366463219894,1.800800936287077,-0.07758729019903007,-0.9947417419393039,-0.06058192636475504,0.028264986132429958,0.02599547263525892,0.0020333861858264643,26818.32843454689
1683654912079543828,192,1683654912079543828,camera_1,194,0,-0.17936946255010083,-0.16967737674521005,1.800848486530872,-0.07750460939276024,-0.99473752867206,-0.06122686400984689,0.02723152029906248,0.011629239656031132,0.0009096016311061929,26817.78961365771
1683654912088988304,193,1683654912088988304,camera_1,195,0,-0.17942318336500485,-0.16965047448414133,1.8006036567969277,-0.07778915082048687,-0.9948187708417084,-0.056949968299191744,0.03226704675579996,0.04516170646820683,0.003531933434460849,26827.13594711689
1683654912098487377,194,1683654912098487377,camera_1,196,0,-0.1794418420534277,-0.16968750681502626,1.8011104032553438,-0.07766306132225811,-0.9948362250398125,-0.057889560787980625,0.030300709667688174,0.020146869006566703,0.0015762871610044101,26816.090967268985
1683654912107577562,195,1683654912107577562,camera_1,197,0,-0.17947003060786432,-0.16968474731598698,1.801275491899543,-0.07778113068548091,-0.9950143946575449,-0.0561004122273377,0.02737140627535064,0.019656171163660474,0.0015382057976649083,26833.690632845985
1683654912117265701,196,1683654912117265701,camera_1,198,0,-0.17952040747128822,-0.16968599553503022,1.8017560358745326,-0.07778729604093133,-0.9950776067652981,-0.05284282910046242,0.031262253622322336,0.018672948717721738,0.0014619081109022052,26819.77966376405
1683654912126535177,197,1683654912126535177,camera_1,199,0,-0.1794436000753486,-0.16974227314223966,1.8015675651339178,-0.0776337400426515,-0.9948936881418403,-0.058991302863808555,0.02606871475441932,0.013450218320940621,0.001052886542613756,26814.365628732718
1683654912135744571,198,1683654912135744571,camera_1,200,0,-0.17955095420387646,-0.16972025120103354,1.8019453444305014,-0.07767548537695951,-0.9949676947508881,-0.05487810011578111,0.031530929279670744,0.02363848920504097,0.001851134900728809,26802.202647880185
1683654912145034551,199,1683654912145034551,camera_1,201,0,-0.17946207356757554,-0.16970975270423352,1.8011079688846696,-0.07791590428826914,-0.9947885642852847,-0.059381252444618,0.028261123195509413,0.0277165016887011,0.002168739167764563,26816.299928753528
1683654912154454708,200,1683654912154454708,camera_1,202,0,-0.17939342545126624,-0.1696206039220217,1.8003904870386978,-0.07769535155631498,-0.9947559014531477,-0.05795170341868785,0.03264550415522046,0.011686675323289819,0.0009135468583105119,26826.27216299204
1683654912163492679,201,1683654912163492679,camera_1,203,0,-0.17947072911949713,-0.16965847016611518,1.8011061374852164,-0.07786687043045425,-0.9948650776578871,-0.05672833327076376,0.031018122935700238,0.020378254470415413,0.001594368680530611,26819.377125810137
1683654912173017501,202,1683654912173017501,camera_1,204,0,-0.1794126477015591,-0.16971073568850786,1.8013069383270206,-0.07785773012429724,-0.9948944578250148,-0.05730394857279394,0.02897324847041746,0.010062275978270918,0.0007873664382331257,26819.696698575055
1683654912182271242,203,1683654912182271242,camera_1,205,0,-0.17940207948092654,-0.16963868328842113,1.8006636274307384,-0.07758959023874255,-0.9946745330686582,-0.06042103594305717,0.03085007563683997,0.009062850280315615,0.0007086467995476379,26812.229471208353
1683654912191631793,204,1683654912191631793,camera_1,206,0,-0.17947532171729969,-0.16968946539178129,1.801319371669548,-0.07788059878477906,-0.9947877515206698,-0.059296309382043846,0.028563778654852556,0.030805049929767847,0.0024109850683949074,26809.321770003768
1683654912201033830,205,1683654912201033830,camera_1,207,0,-0.17947938094269492,-0.16976732499766156,1.8020388968476353,-0.07748010985016557,-0.9949660896813545,-0.05705897867353903,0.02799260464004446,0.009767460520379245,0.0007649223826392164,26803.555018236635
1683654912210245847,206,1683654912210245847,camera_1,208,0,-0.1794228505629988,-0.1696974734728091,1.8009770641124976,-0.07768079152608212,-0.9946546595494569,-0.0627088833920037,0.026370415396116075,0.020671676626079716,0.0016172924055402806,26808.178796065735
1683654912219699144,207,1683654912219699144,camera_1,209,0,-0.17947800634646885,-0.16969656276133221,1.8016010015536705,-0.07754758444757635,-0.9949286878741317,-0.05694068042288031,0.029343433752445164,0.01174289162736386,0.0009191894693241102,26811.2259694506
1683654912229187011,208,1683654912229187011,camera_1,210,0,-0.17943019993835038,-0.16962244397786053,1.8008704331731442,-0.07774550143500696,-0.9949714884009502,-0.05525173305552717,0.030571559825728137,0.01778623863356188,0.0013911718908286078,26836.54790831171
1683654912238249778,209,1683654912238249778,camera_1,211,0,-0.17952070212228508,-0.16975376427845246,1.8018855382610353,-0.0777171654109373,-0.994918424790975,-0.05823049861823167,0.026581558317864414,0.018594733148347586,0.0014561481801976498,26806.986764731588
1683654912247828483,210,1683654912247828483,camera_1,212,0,-0.17942560186219136,-0.16965191319739278,1.8009827798323073,-0.07765477098108915,-0.994904390473661,-0.05494099361029799,0.033413733422371666,0.02708868660556618,0.002119202827212924,26821.72734744753
1683654912256963014,211,1683654912256963014,camera_1,213,0,-0.1793659604185772,-0.16962679237648984,1.8003665939409004,-0.07785704600078613,-0.9946450635938909,-0.06083447669804455,0.0303091455044753,0.0168449185002828,0.0013168162046030296,26820.99397655285
1683654912266206026,212,1683654912266206026,camera_1,214,0,-0.1794177198665765,-0.1696679905648058,1.8009224863834836,-0.07773997116517345,-0.9947915254708606,-0.05934266631194793,0.028718734122259934,0.02776512441050727,0.0021720058548056775,26820.226962437726
1683654912275747537,213,1683654912275747537,camera_1,215,0,-0.17949133834887848,-0.16969151187902998,1.8012686873180017,-0.07774964690421315,-0.9948215455305673,-0.05870435442996978,0.028963489523950718,0.01361927337711677,0.0010657191570168534,26812.476012699313
1683654912285074949,214,1683654912285074949,camera_1,216,0,-0.17941875713635622,-0.16968099389686156,1.8010468235496968,-0.07791712737029306,-0.9947729499790614,-0.05996300519003041,0.027570586879827278,0.016979245832771994,0.0013283960731924102,26817.905626331933
1683654912294311523,215,1683654912294311523,camera_1,217,0,-0.17946910422137652,-0.16968814700708104,1.8015054862577977,-0.07788566554388089,-0.9948523040306927,-0.05759713480744954,0.029753761603893536,0.009510819756542332,0.000744370958401684,26808.632012463866
1683654912303751707,216,1683654912303751707,camera_1,218,0,-0.17940840479534864,-0.16966385049503305,1.800818954529066,-0.07732427034564726,-0.9948459069033473,-0.057973101929194554,0.030687101294795027,0.016728219226934016,0.0013083416093309028,26822.530150848328
1683654912312924623,217,1683654912312924623,camera_1,219,0,-0.17943027034229128,-0.16967502322219025,1.8010147745058729,-0.07754229587524104,-0.9947694899604934,-0.05914928845898107,0.030368007325683587,0.015051471826154739,0.0011774489098662561,26811.43621513073
1683654912322323083,218,1683654912322323083,camera_1,220,0,-0.17939490354594154,-0.16964164649796612,1.8004256935630372,-0.07752007566669643,-0.9947670635770929,-0.05932996140129239,0.030150999501818865,0.020692649486591108,0.0016177878543974721,26828.65754814557
1683654912331773042,219,1683654912331773042,camera_1,221,0,-0.17944834466699877,-0.16971801493759942,1.8012126706044085,-0.07750813252150324,-0.9947183033961667,-0.061734612875558544,0.026773566344167606,0.018582732358481735,0.0014541976759670143,26805.516392599362
1683654912340878009,220,1683654912340878009,camera_1,222,0,-0.17941227647368008,-0.1696425294928289,1.8006852926704426,-0.07777930614476794,-0.9948947512290879,-0.05744713211591809,0.028890145795861397,0.02359133266145364,0.0018449693084290448,26837.29220431571
1683654912350277185,221,1683654912350277185,camera_1,223,0,-0.1794902173379151,-0.16968609812869975,1.8012936184426718,-0.0777102985795341,-0.9948548499972033,-0.05757291440030009,0.030171119620881585,0.027819580340292305,0.002177163630359709,26812.842290108336
1683654912359402894,222,1683654912359402894,camera_1,224,0,-0.17942106999258883,-0.16965814777172297,1.8006668002076793,-0.07774513147264352,-0.9947143259657325,-0.06037887647813369,0.029214645746241785,0.022881115204654634,0.001789412190334834,26819.43457129169
1683654912368976354,223,1683654912368976354,camera_1,225,0,-0.179346053469543,-0.1695764465359366,1.8000525706535067,-0.07773452315695276,-0.9947419138627376,-0.060377586209177776,0.028291620628949826,0.01778194798680488,0.001389665928060172,26841.785927582867
1683654912378449201,224,1683654912378449201,camera_1,226,0,-0.17949398048377022,-0.16978164418754707,1.8017541958336236,-0.07736681583859666,-0.9947821586357288,-0.06075075224216192,0.027058802062329475,0.01929961593123153,0.0015111870896777106,26794.23794026318
1683654912387453794,225,1683654912387453794,camera_1,227,0,-0.17948574507586956,-0.16968664104376,1.8014699443051359,-0.07768195880701989,-0.9948658436519573,-0.05689512716537647,0.031151419155785755,0.028109831153415143,0.0022003009649233037,26807.1578782167
1683654912396946191,226,1683654912396946191,camera_1,228,0,-0.17948719612823003,-0.16973868673746073,1.801451567648254,-0.07762619886927151,-0.9948515846816027,-0.05818725462440756,0.029304284753030034,0.03130616282578558,0.002450550685628428,26808.558882728743
1683654912406272172,227,1683654912406272172,camera_1,229,0,-0.17945133112460654,-0.1696792660601449,1.8010799377981541,-0.07772935559245717,-0.9949556447639257,-0.05450114524786947,0.03241970694273878,0.02464150491869077,0.0019279411245582256,26825.794061255652
1683654912415620803,228,1683654912415620803,camera_1,230,0,-0.1795058921610045,-0.16966458516703575,1.8009908697210741,-0.07794520121880705,-0.9948200409009857,-0.05744464642262084,0.030947446196753305,0.03262916627863888,0.0025527060408806817,26818.786760989
1683654912425054550,229,1683654912425054550,camera_1,231,0,-0.1794637422799889,-0.16967329072026957,1.800998004858586,-0.07774458295591981,-0.9948758047064782,-0.05689054564297224,0.030681897710095517,0.02309210058592725,0.0018065331910481937,26823.128765285124
1683654912434246301,230,1683654912434246301,camera_1,232,0,-0.17942715068537707,-0.16971729927901155,1.8013193309332671,-0.07747411444490804,-0.9949071813072535,-0.057916430408513644,0.02833988819612528,0.015593890871969052,0.001220312009988358,26818.437159245314
1683654912443592786,231,1683654912443592786,camera_1,233,0,-0.17949753956475795,-0.16972785945632674,1.8017315392300413,-0.07795540473738011,-0.994998712643619,-0.05537022478675068,0.028890394888906348,0.019044043845497072,0.0014910227310914444,26817.839572814988
1683654912452909469,232,1683654912452909469,camera_1,234,0,-0.17945219589301123,-0.16967196677491017,1.801074742479067,-0.07784777427303151,-0.9947599967547692,-0.057760376231070276,0.03249633571392463,0.021907853850279935,0.0017139647715497652,26807.769787577457
1683654912462107419,233,1683654912462107419,camera_1,235,0,-0.1795023093739077,-0.16970619383610577,1.8014883730036102,-0.0777128182229528,-0.9949793654949667,-0.05565835619373126,0.029646711603337685,0.028022940910886973,0.00219356605636947,26819.987946862137
1683654912471747636,234,1683654912471747636,camera_1,236,0,-0.17945057604832193,-0.16967103924452254,1.801227156529614,-0.07777574319752194,-0.9948822584615045,-0.056178091147634356,0.0316898665762056,0.007555496718850918,0.0005911308414452782,26815.993762299535
1683654912481075286,235,1683654912481075286,camera_1,237,0,-0.17946128841057613,-0.16968102104221827,1.801206163200034,-0.07764860662127446,-0.994878671992957,-0.058531892682316594,0.02758875572277484,0.013693498738575727,0.0010714729902439773,26821.27182785795
1683654912490271568,236,1683654912490271568,camera_1,238,0,-0.17949513139838894,-0.16970971324451883,1.8013439098100725,-0.07788439392564508,-0.9948280607507609,-0.05808150051840637,0.029625833713934204,0.026829722119146027,0.0020997807187121673,26810.864490846525
1683654912499696016,237,1683654912499696016,camera_1,239,0,-0.17949505615816552,-0.16972714696440983,1.8013978168049394,-0.07759604685620916,-0.9948811088446076,-0.05723899119646343,0.030234593816098634,0.024864157545380294,0.0019460610975481104,26811.364141241866
1683654912508740186,238,1683654912508740186,camera_1,240,0,-0.17946263380031127,-0.1696860715999688,1.8011363459724266,-0.0778725490209938,-0.9947811118125555,-0.05871803758622579,0.029976620089190067,0.03566855385724921,0.002791121191814667,26811.906081076424
1683654912518277883,239,1683654912518277883,camera_1,241,0,-0.17946946190372082,-0.16967744580608912,1.8009651252076433,-0.0776277917648256,-0.9947899690456367,-0.05933811133591107,0.029083190591567373,0.017434778696042486,0.0013638848529180772,26817.205781062497
1683654912527682304,240,1683654912527682304,camera_1,242,0,-0.17950485912603364,-0.16970302140799215,1.8011692232180736,-0.07761146408094896,-0.9948638037818227,-0.05788087559387129,0.02953433270723081,0.04022293124580756,0.003147691422904689,26817.353289125356
1683654912536901235,241,1683654912536901235,camera_1,243,0,-0.17945131437701123,-0.16964008772706243,1.8008105797985883,-0.07780977605531693,-0.9949245343832512,-0.05580500924392995,0.03092912180740421,0.028712255356367677,0.002245800729792482,26833.49855334074
1683654912546251058,242,1683654912546251058,camera_1,244,0,-0.17949247168828725,-0.16971395451864574,1.801233625483254,-0.0776487087144573,-0.9948229556272238,-0.05825177908124388,0.030078151970525546,0.020586076614563353,0.0016108912294283866,26811.146495234694
1683654912555689811,243,1683654912555689811,camera_1,245,0,-0.17950014604535539,-0.16971077520189087,1.8013491246703592,-0.07758546540832403,-0.9949637026203146,-0.056812035999043456,0.02828636758389658,0.03225542377913371,0.002524588339467619,26823.537299358988
1683654912564848899,244,1683654912564848899,camera_1,246,0,-0.17947287922946423,-0.1697160068581604,1.80122393113981,-0.07762457185736645,-0.9948730303912854,-0.056463978196537846,0.03184177146834365,0.012359191256109625,0.0009670160432809269,26813.612600571578
1683654912574233531,245,1683654912574233531,camera_1,247,0,-0.17952126091527476,-0.16972205983405608,1.801406598305251,-0.07763681527767236,-0.9948680103339856,-0.05821209099106149,0.02866215955028084,0.0319114782178076,0.002497864267167562,26812.318062915576
1683654912583436489,246,1683654912583436489,camera_1,248,0,-0.17945743610563655,-0.16969194651429048,1.8010178500934435,-0.07756905446417409,-0.9948725592410209,-0.057723026365755,0.02965948222632687,0.011507035000249743,0.0009001504829435449,26822.493538626535
1683654912592790126,247,1683654912592790126,camera_1,249,0,-0.1794833298058025,-0.16967665394064077,1.8010596355572168,-0.07769156090733012,-0.9948712129078939,-0.05700918432255894,0.030744820601772336,0.015054790652357042,0.0011777600635283977,26820.316295305045
1683654912602392673,248,1683654912602392673,camera_1,250,0,-0.17960245172328027,-0.16982003374716484,1.8022251307639006,-0.07766502073778482,-0.994784822047948,-0.06007622121802739,0.02760706469355946,0.020702644207631238,0.0016218913872814904,26781.722241410185
