%time,field.header.seq,field.header.stamp,field.header.frame_id,field.image_seq,field.transforms0.fiducial_id,field.transforms0.transform.translation.x,field.transforms0.transform.translation.y,field.transforms0.transform.translation.z,field.transforms0.transform.rotation.x,field.transforms0.transform.rotation.y,field.transforms0.transform.rotation.z,field.transforms0.transform.rotation.w,field.transforms0.image_error,field.transforms0.object_error,field.transforms0.fiducial_area
1684722600491564035,9,1684722600491564035,camera_1,11,0,0.2799866886330538,0.9284370430854292,6.239974613567398,0.9976730377969377,-0.03702447846576081,0.03625122065925986,0.04431192444570853,0.02355658740270883,0.015761411183911132,4466.462821521798
1684722600497463703,10,1684722600497463703,camera_1,12,0,0.2795693442724134,0.9292295925732607,6.230023789752736,0.9969067934582797,-0.03659506234035703,0.03311000780613084,0.061166771633905416,0.004521509108599275,0.0030207983388973415,4463.485193212518
1684722600504384040,11,1684722600504384040,camera_1,13,0,0.2798522851696581,0.9307754862500518,6.234819331587616,0.9969219776334384,-0.034629412735882284,0.003207251553674998,-0.07026441362790864,0.007721224392298609,0.005164022020344967,4465.87076829816
1684722600511268138,12,1684722600511268138,camera_1,14,0,0.2796190499616563,0.930351033346637,6.227868265184145,0.996854700612197,-0.036631078369336614,0.035722189926519564,0.060521030325998044,0.010560347407590598,0.0070486789046804365,4466.781709465315
1684722600517741680,13,1684722600517741680,camera_1,15,0,0.27995290943016937,0.9326506139556956,6.2353500039716705,0.996853052349627,-0.03611889048759671,0.03184177520685372,0.06297236793112809,0.0016815023845992982,0.0011257112787888821,4454.350339121769
1684722600524156808,14,1684722600524156808,camera_1,16,0,0.2799522568323448,0.9327844358358751,6.232701520237794,-0.9967780502659985,0.03425451966035854,-0.0007361118826787503,0.07252313100004011,0.0036666404921561484,0.002450553229636769,4465.531671983772
1684722600530865669,15,1684722600530865669,camera_1,17,0,0.28007037764319836,0.933756731500264,6.237629158396536,0.9971889227092842,-0.03421753823976732,-0.005310853559964006,-0.06644702654876422,0.005619801115244627,0.003758316814550218,4463.0142800634485
1684722600537468194,16,1684722600537468194,camera_1,18,0,0.2807771778259232,0.9355477375904866,6.249875591977331,0.9975881280687974,-0.03667311401568807,0.01823694647575395,0.05603947918945472,0.04565193789312615,0.030580084891099497,4464.749956021899
1684722600544532537,17,1684722600544532537,camera_1,19,0,0.28196712302912164,0.9397166502838108,6.277635274679136,0.9991913829398028,-0.03647580350384103,0.013457787133835919,-0.010246169189197596,0.05625999462790787,0.03785790065920039,4469.926001073095
1684722600551185846,18,1684722600551185846,camera_1,20,0,0.28012205574997556,0.9333218015212289,6.24037408976705,0.9973929505984254,-0.03664532435641442,0.036716493210996515,0.050162948733771216,0.004017415165435523,0.002689974650205244,4460.6334872659045
1684722600557965993,19,1684722600557965993,camera_1,21,0,0.28009764520909247,0.9326806910415285,6.240048845919595,0.9969611401751979,-0.03658664120822232,0.05476928462230389,0.04159601095816166,0.0005146965850144625,0.00034412374613041375,4460.349174663077
1684722600564459085,20,1684722600564459085,camera_1,22,0,0.27981391123462107,0.9308647335702158,6.229939398796926,-0.9964374110300779,0.03502086675727945,0.004494665682679403,0.07658865954986677,0.007182177621871233,0.004795290849897137,4462.79633032158
1684722600570921897,21,1684722600570921897,camera_1,23,0,0.2801324883064933,0.9315814354388581,6.240904969210924,0.9976853740269123,-0.03739023972581346,0.03401002659408645,0.04548826790608626,0.007045709353405982,0.004716850603609123,4465.15131143469
1684722600577684164,22,1684722600577684164,camera_1,24,0,0.2799098529193666,0.9293425872864213,6.237363873898234,0.9969324571644748,-0.03639561331408806,0.03674424560407422,0.058744323968207654,3.5492994356900454e-05,2.3757173362890063e-05,4454.692856983049
1684722600584220170,23,1684722600584220170,camera_1,25,0,0.27895149579629663,0.9250151577163137,6.217172049157916,0.996261910324608,-0.03778856359863868,0.032244028915521396,0.07067215220162588,0.01077183271991089,0.007175397370497519,4468.8959194493955
1684722600590949296,24,1684722600590949296,camera_1,26,0,0.278932266482302,0.924484951071942,6.220584467191985,0.9961140148095696,-0.03732361892081943,0.03612079552986769,0.07112738643380268,0.0030595802818425,0.002039724852335026,4462.090971460333
1684722600597625494,25,1684722600597625494,camera_1,27,0,0.27974589287718055,0.9246319367038313,6.239435137289427,0.9971008578226492,-0.03666680607179967,0.042424682147912264,0.051435114527711406,0.0040996253956109285,0.002742933111795017,4457.0964549349155
1684722600604361295,26,1684722600604361295,camera_1,28,0,0.2797692026919486,0.9233634470350061,6.240908847172725,0.9970812457753209,-0.037610350154768775,0.04675406444470346,0.04720707936602782,0.023255471896845847,0.015559314756218792,4457.043693836894
1684722600611156702,27,1684722600611156702,camera_1,29,0,0.2793553859728941,0.9207129317868024,6.233805796469196,0.9965038855499242,-0.0384243680052073,0.039923455431180796,0.06252752780766568,0.003361350914929062,0.002247574472856805,4452.416599108023
1684722600617500782,28,1684722600617500782,camera_1,30,0,0.27938825962489805,0.9179178336921956,6.236961937004647,0.9968984176567428,-0.03738854679588671,0.04620039934182791,0.05158647635407944,0.005270353809464723,0.0035231159389389802,4457.56236727233
1684722600624211311,29,1684722600624211311,camera_1,31,0,0.2793545002006943,0.9166376517681566,6.2405674810826754,0.9974456308581218,-0.03701764144211899,0.041503065723916766,0.04482636768267597,0.004002244968432933,0.0026784013360676615,4461.342056833558
1684722600631071805,30,1684722600631071805,camera_1,32,0,0.27903565243680867,0.9142868492843306,6.236349405717537,0.9971236284503643,-0.03668965464923103,0.043906734964736585,0.04970450132972265,0.00504519761307165,0.0033724332225997457,4461.0431695157895
1684722600637447357,31,1684722600637447357,camera_1,33,0,0.27896695697275076,0.910499547399674,6.236611910845928,0.9968701221511524,-0.038032218471937926,0.036978540532831096,0.05861823488054894,0.007965930213686079,0.005331556265844188,4452.439254456083
1684722600644192695,32,1684722600644192695,camera_1,34,0,0.27880659134770985,0.9082048192698834,6.23334848906883,0.9962868270980105,-0.03528234561559247,-0.0046762145754914945,-0.07839545430753424,0.006574832907062955,0.004394405764830514,4456.076179733092
1684722600650823354,33,1684722600650823354,camera_1,35,0,0.27838961043625904,0.9052531635986903,6.2278297659004735,0.9964748353928048,-0.03759331344236912,0.049455581169687665,0.05638076537681089,0.002880035201087594,0.0019199552717249848,4461.286733184095
1684722600657636880,34,1684722600657636880,camera_1,36,0,0.27854109935459453,0.90218421211526,6.233912103669244,0.9971103034088012,-0.03885336902140901,0.04004068312741373,0.05155775641341146,0.002702845522435382,0.0018058818012586264,4461.907459262437
1684722600664274215,35,1684722600664274215,camera_1,37,0,0.27840397931859706,0.9000041886081342,6.232245670222996,0.9967545066057358,-0.03454620010101517,-0.01548687438467752,-0.07104343982050619,0.007312138244742528,0.004879638113514711,4460.474451248795
1684722600671345233,36,1684722600671345233,camera_1,38,0,0.2782430391731432,0.8980974598596064,6.232802733464715,0.9965089077714551,-0.03791764680585759,0.04807646348855121,0.05675299508644362,0.00015159051690716296,0.00010123705248054296,4452.886862040206
1684722600677601814,37,1684722600677601814,camera_1,39,0,0.27818855048499086,0.8942670907659617,6.234297597029468,0.9968597134707894,-0.03906077322064396,0.04064064904986759,0.05561749094616494,0.0018198620673501864,0.0012165725053724173,4454.734879391473
1684722600684295654,38,1684722600684295654,camera_1,40,0,0.2778457417195653,0.8912569184966362,6.227538477746759,0.9963825931520128,-0.03769151189342019,0.043884811281563255,0.06225111511965383,0.0046280969108920544,0.0030878465524947314,4454.162526346366
1684722600691169500,39,1684722600691169500,camera_1,41,0,0.2779140174695324,0.890381088166395,6.234117454280212,0.9967047531605354,-0.038046630250401434,0.040997620543823055,0.05874763028012456,0.000855352045618929,0.0005719153277747435,4450.191226034718
1684722600697626113,40,1684722600697626113,camera_1,42,0,0.27803743185713836,0.8874162570419458,6.240363317708723,0.9971192698399567,-0.03715059034686527,0.05314528399262297,0.039351926764194634,0.0032142358541022986,0.002149898974303963,4455.2379869447905
1684722600704341173,41,1684722600704341173,camera_1,43,0,0.27975269810584,0.8911515988998232,6.27744131139986,0.9982472667796217,-0.03592447715254257,0.013253542231091238,-0.04512393961812145,0.05842634044529405,0.0393115091097869,4457.649524961744
1684722600711011409,42,1684722600711011409,camera_1,44,0,0.27731328039855885,0.8819150054327098,6.226238069434095,0.9968121561740717,-0.03772198594591837,0.03710727820190392,0.05971287117816901,0.009478156236582436,0.006325768956490211,4459.9197182653
1684722600717439651,43,1684722600717439651,camera_1,45,0,0.27760601657110495,0.8802416946030133,6.236443669842424,0.997176989861686,-0.037437261006170876,0.04059193284614012,0.05088022569286959,0.007643456425284967,0.0051124098734943784,4454.0237134856
1684722600724105358,44,1684722600724105358,camera_1,46,0,0.2776332672106629,0.8788864030163964,6.237766086120276,0.996975344372199,-0.037741895844602115,0.039712156284973626,0.055124011602821356,0.005177343933610246,0.003465781223125409,4447.12516136386
1684722600730845451,45,1684722600730845451,camera_1,47,0,0.27750966253905524,0.8772074338757516,6.23545190283931,0.9969296188464286,-0.03782723835332572,0.0465183308418462,0.050363478840962844,0.010196492905379273,0.006815540819997275,4452.5646934822435
1684722600737472295,46,1684722600737472295,camera_1,48,0,0.2774805835707972,0.8743669211887847,6.232610347217842,0.9966421794263438,-0.034364072835657795,-0.014054164287151281,-0.0729791556037946,0.02304796910902951,0.015388173373784703,4457.321558221476
1684722600744166374,47,1684722600744166374,camera_1,49,0,0.2774863540241992,0.874264419646617,6.238487675980609,-0.9968522180965335,0.03438204812951479,0.011348842179086358,0.07053179299886804,0.0006890453660162166,0.00046089367015226976,4453.073545025896
1684722600750731229,48,1684722600750731229,camera_1,50,0,0.2772706750112621,0.8726992313401685,6.23658510438369,0.9971662139930332,-0.037176970218493165,0.04181530462557611,0.05028811843014263,0.0018052579398499802,0.0012075842503414206,4452.179038518081
1684722600757448911,49,1684722600757448911,camera_1,51,0,0.27766077872692585,0.8723959753515699,6.245599935007454,0.9974295975054258,-0.037459382639343425,0.042350591894228344,0.044016133844901294,0.005305822560330853,0.0035576755530554675,4445.461084981129
1684722600764299154,50,1684722600764299154,camera_1,52,0,0.2769903816697468,0.8695223258348379,6.22951891446421,0.9966245779427504,-0.037852764444245686,0.036011432671951046,0.06332294671978533,0.0007973986357683316,0.0005331035616780814,4447.476238303527
1684722600770966291,51,1684722600770966291,camera_1,53,0,0.27695088518285393,0.869323853492594,6.231760960768591,0.9970192288822413,-0.03722809207488883,0.03877483818138108,0.05534652946240145,0.00038550456520169973,0.000257642927952717,4453.62448654277
1684722600777475357,52,1684722600777475357,camera_1,54,0,0.2770587289014333,0.8688041612390273,6.2324280910244045,0.9968910312779576,-0.037181854121573356,0.04939246744766736,0.048848394457579436,0.0013289771450217815,0.0008872583574356318,4455.129971860298
1684722600784338235,53,1684722600784338235,camera_1,55,0,0.2772221000162917,0.8692429189929598,6.237476468320863,0.9974254906261499,-0.03718454732095096,0.04484256684575287,0.04181918564970382,0.007983206858625636,0.005337673053790277,4457.62172188249
1684722600791206836,54,1684722600791206836,camera_1,56,0,0.27736953979415613,0.8695056064015795,6.23839624895801,0.9968918812845288,-0.03402625728809115,-0.012856422015742665,-0.06988206677618161,0.017480582915595733,0.011691687913232987,4452.597156214468
1684722600797702074,55,1684722600797702074,camera_1,57,0,0.2771959819516002,0.86950252586979,6.237005174843311,0.9972949545149254,-0.037024323771512775,0.04415286715585299,0.04563438911887225,0.0015250911965267733,0.001019821175935676,4454.826154624112
1684722600804045200,56,1684722600804045200,camera_1,58,0,0.27673494286790834,0.8685423749850236,6.227497711940057,0.9969325227246009,-0.03776853147449394,0.044803663309252104,0.051881739738509534,0.0022510505077661946,0.0015013467748403201,4461.226782459706
1684722600811168670,57,1684722600811168670,camera_1,59,0,0.27693587077845816,0.8695341202805766,6.230795382107727,0.9967728665866318,-0.0374349201580403,0.055088282973810104,0.04480803798904284,0.0049622377555351704,0.0033100168651529894,4458.527929753735
1684722600817763090,58,1684722600817763090,camera_1,60,0,0.27745057254984873,0.8723735505919882,6.240038435394775,-0.9967365905623733,0.035131450530364,0.005804409924085309,0.07244486899126634,0.0007488378032576293,0.0005013634641374801,4451.351801441226
1684722600824514389,59,1684722600824514389,camera_1,61,0,0.2773635537352437,0.8727411601191669,6.237538936058271,0.9972224056642637,-0.037480930034094646,0.04464489503237216,0.046362558951233285,0.0014976239472161978,0.0010015653390273399,4453.828129518517
1684722600830908298,60,1684722600830908298,camera_1,62,0,0.2772720154440927,0.8731406360062104,6.2342663872995,0.9973257399429465,-0.03661831581608403,0.040131951664745584,0.04888654057740687,0.003924196498701349,0.0026228593200033757,4457.946098832124
1684722600837431192,61,1684722600837431192,camera_1,63,0,0.2770321226239422,0.8746807606279924,6.22966219151933,0.9966501228605654,-0.037659732581632334,0.04117923276435973,0.05978752322047251,0.0020367163815535605,0.0013602810669164083,4451.505008291512
1684722600844112157,62,1684722600844112157,camera_1,64,0,0.2772399196902387,0.87612035269377,6.230614478038958,0.9969213838716291,-0.037150686614554486,0.04231833501197273,0.05455950316267172,0.005468399700475857,0.0036512455144366955,4456.531521006661
1684722600850855350,63,1684722600850855350,camera_1,65,0,0.27705781776220695,0.8769206019831677,6.2259916265756745,0.9965548523674878,-0.03874789279747845,0.04021014428029526,0.06132023584044395,0.008174315313226543,0.00545405610097201,4455.757471279214
1684722600857621908,64,1684722600857621908,camera_1,66,0,0.2772048198989612,0.8800803764400498,6.226605082584639,0.9962922924511223,-0.037556032159337976,0.04188400769202695,0.0650917994112033,0.0005011095490772277,0.00033446275402484354,4449.901287107117
1684722600864272594,65,1684722600864272594,camera_1,67,0,0.27750847424204694,0.8826788411538068,6.232484053326013,-0.9963196452659676,0.03511989848744089,0.010420670097708761,0.07749301144002001,0.002168434002669528,0.001448036449762455,4455.096373530338
1684722600871178388,66,1684722600871178388,camera_1,68,0,0.27775607292440746,0.8843422062743225,6.234171750361626,0.9968258299030265,-0.03779093319203185,0.04381401842495748,0.05468493390391446,0.0034870596864493564,0.002330563431030496,4452.441392366014
1684722600877569437,67,1684722600877569437,camera_1,69,0,0.2778275211705289,0.8883113881986451,6.236228703507266,0.9969971080242896,-0.03770827780968146,0.04708262652708001,0.048560052050449436,0.00030075876566115767,0.00020101768604722183,4455.784183266107
1684722600884365081,68,1684722600884365081,camera_1,70,0,0.2776739785454366,0.8890960976846684,6.228229429826996,0.9967295638875899,-0.038083517205029616,0.03956750491215463,0.059280981307462684,0.0023764706711517647,0.0015862119893872702,4458.394656523829
1684722600890872001,69,1684722600890872001,camera_1,71,0,0.2780257700270633,0.8921030937007508,6.234805842715098,-0.9964613205156125,0.03472789985421167,0.00763380733792801,0.07616124128140886,0.0007289066270459443,0.0004871669275433454,4455.04167149507
1684722600897675514,70,1684722600897675514,camera_1,72,0,0.2780069078645005,0.895195264641195,6.229718194583315,0.9967156721512979,-0.03655612054539848,0.04671531822429487,0.05512892146468901,0.005970380356302485,0.003983660126865158,4459.4581560060615
1684722600904691457,71,1684722600904691457,camera_1,73,0,0.27871852183946955,0.8990240685131194,6.243541864574602,0.9971135460926327,-0.037694904489319885,0.05072607305522312,0.042077736233220364,0.0056400300964014605,0.0037761716564493793,4451.837513549427
1684722600911224126,72,1684722600911224126,camera_1,74,0,0.27810698205414186,0.8989187045189978,6.2264085708616195,-0.9956441323725529,0.03445576349151049,0.0033846776319312877,0.08656850461715969,0.0015236181498039514,0.0010168673108624893,4455.779794306203
1684722600917565345,73,1684722600917565345,camera_1,75,0,0.2785798344414006,0.9039395460648253,6.234582199480722,0.9968218642112464,-0.03718782565371943,0.045078662701849355,0.0541401036439437,0.0011145257303724065,0.0007447618831846153,4456.163218731641
1684722600924257993,74,1684722600924257993,camera_1,76,0,0.2784983933613254,0.9056633654024866,6.231884205456372,0.9969244395963449,-0.03834274100246161,0.03816892584908459,0.05669769878451029,0.001219563724589534,0.0008148071353896146,4460.360871848417
1684722600931025266,75,1684722600931025266,camera_1,77,0,0.27868429344346923,0.9074705877943708,6.231276628952938,0.996693563234842,-0.03728137364286386,0.04856825929088666,0.053415020125319124,0.0018851182103389874,0.001257862442361535,4460.6658812924
1684722600937661647,76,1684722600937661647,camera_1,78,0,0.27857504837878266,0.9108180229421752,6.227884327647401,0.996769131425331,-0.03761744495466015,0.036353704484057024,0.060947802609778,0.0050350758247077465,0.003361018503627407,4462.5684964773245
1684722600944294452,77,1684722600944294452,camera_1,79,0,0.27887735605303177,0.9132540086015437,6.231154052158307,0.9968772743383205,-0.036975638762480265,0.042158113152147715,0.05559852103571079,0.015137410955503583,0.010105116936241713,4462.564441342782
1684722600951114654,78,1684722600951114654,camera_1,80,0,0.2792218548285807,0.9159943892278315,6.2363480267208935,0.9971109337336221,-0.037166897062033334,0.04069138391059643,0.05227445711898679,0.003090019221417606,0.0020659382402742977,4459.928217219074
1684722600957887649,79,1684722600957887649,camera_1,81,0,0.2797326278259744,0.9205428538484778,6.244402822296406,0.9973951027118002,-0.037264863680839734,0.037433287884017494,0.049123191870625506,0.002203428011853248,0.00147707935070996,4453.629912127046
1684722600964552640,80,1684722600964552640,camera_1,82,0,0.2792524935596624,0.9201465500629529,6.2307611138364045,0.9963911635841582,-0.037014637392610926,0.034221034490728754,0.06828972505791002,0.0033676375751383603,0.0022521651158932347,4451.003306973144
1684722600970879077,81,1684722600970879077,camera_1,83,0,0.2793240319050666,0.9219297452057036,6.23176490222109,0.9967150077356103,-0.03781075498719177,0.04076035451448183,0.058890862294201346,0.004446146136615425,0.0029694823027171355,4459.873710849323
1684722600977459907,82,1684722600977459907,camera_1,84,0,0.27913299998131996,0.9235389959791092,6.22371732310234,0.9964415267038741,-0.03785471907414286,0.035014005342967454,0.06667325951018901,0.022248615336138755,0.014839648902311665,4463.849584363519
1684722600984147787,83,1684722600984147787,camera_1,85,0,0.2795960597889615,0.9261127250034533,6.232036277833549,0.9969293266339285,-0.03700186652267593,0.04516431865445853,0.052182026518128234,0.001702960580587387,0.0011366770946838625,4465.95964018302
1684722600990930318,84,1684722600990930318,camera_1,86,0,0.27956755539854283,0.9274396525399116,6.233399358694164,0.9968076091206888,-0.037321714622290475,0.037585406407090655,0.05974125243047996,0.002894928678870201,0.001935276319851007,4458.624334908438
1684722600997644901,85,1684722600997644901,camera_1,87,0,0.28003359955105583,0.9307257032902926,6.2410508423605116,0.9975838651923912,-0.03716655515828078,0.03923366979304965,0.04365544914493184,0.006782258744351566,0.0045394848770057995,4464.812340333709
1684722601004159927,86,1684722601004159927,camera_1,88,0,0.27949437261708077,0.9293651195079959,6.226970994391831,0.9964577022995361,-0.037064567336449944,0.039986414559418725,0.0640261823535747,0.009324037644546479,0.006221490073797689,4461.933834539961
1684722601010963916,87,1684722601010963916,camera_1,89,0,0.2791347817614307,0.9291281654662434,6.21938400278666,0.9961653779176547,-0.037038284949448816,0.03588998070088861,0.07067258712874208,0.004540800815448165,0.003025905650785568,4465.406520083432
1684722601017486572,88,1684722601017486572,camera_1,90,0,0.27983606540901085,0.932173758300263,6.230716280042912,-0.9963400091039105,0.03416052099199526,-0.003652408136998626,0.07827071597459537,0.004485328157898039,0.0029982683685179238,4462.2544835156295
1684722601024320840,89,1684722601024320840,camera_1,91,0,0.2802619482768766,0.9339036795904261,6.2411201435136245,0.9974682422974207,-0.035951763656884274,0.03296932557818796,0.051745529941948455,0.0034053573617711663,0.002281269899193455,4459.098388244398
1684722601031161546,90,1684722601031161546,camera_1,92,0,0.2797030573790919,0.9321773227188387,6.228506500804119,0.9966747639640845,-0.0359445834490106,0.03559236333559726,0.06387946047048644,0.004373692732769997,0.0029207359785231976,4461.9690921938745
1684722601037519693,91,1684722601037519693,camera_1,93,0,0.28011791329609553,0.9338377444444554,6.238607784017752,0.9972653144810466,-0.03645352574577289,0.03996069446829097,0.05036045960208812,0.006885783339384943,0.004606262356858462,4461.866676426726
1684722601044185161,92,1684722601044185161,camera_1,94,0,0.28224830799315137,0.9405354470169722,6.284134422542493,0.9991132362496457,-0.035609182063456556,0.02246357215445533,0.0003394548468645674,0.0803230240708217,0.05410104274899178,4466.140839941798
1684722601050887107,93,1684722601050887107,camera_1,95,0,0.27962617365440035,0.9319470807253114,6.228672553629719,0.9965408039356513,-0.037104345617591135,0.029770571222396663,0.06814254703684418,0.004065171931870282,0.00271796463875345,4457.522967688737
1684722601057935714,94,1684722601057935714,camera_1,96,0,0.27963552084219384,0.9312357928641926,6.230207747847911,0.9968659944670029,-0.03641310356051507,0.0435196054156026,0.05512094800413583,0.002919862396083772,0.0019483900297233413,4466.963163836278
1684722601064179182,95,1684722601064179182,camera_1,97,0,0.2796545094958098,0.9311417071315634,6.2329529779726345,0.9967493743617051,-0.0380563919245387,0.044641829229225015,0.05522230370334155,0.0030990286613814533,0.0020696213636695266,4462.310065403348
1684722601071003437,96,1684722601071003437,camera_1,98,0,0.2791816788492007,0.9284181082081759,6.219452910029978,0.9963482911542346,-0.036669649764910175,0.03629733391515425,0.06802883984610511,0.00044984841952100396,0.00029964836147752474,4468.756771807093
1684722601077673196,97,1684722601077673196,camera_1,99,0,0.2823082384933296,0.937077377031295,6.28997689824089,0.9988036805391961,-0.03527256354488612,0.01334312526559405,-0.031129005934565742,0.09304951707599685,0.06275177296013341,4457.025671333775
1684722601084552764,98,1684722601084552764,camera_1,100,0,0.27970729069664163,0.9274919249151079,6.2338467447653985,0.9969953209907624,-0.03755565379205242,0.03585696540117437,0.05748200434046641,0.008673208765685558,0.00579839124648146,4461.248502679284
1684722601090924024,99,1684722601090924024,camera_1,101,0,0.2797072170842194,0.9273490777287441,6.238945143217125,-0.9966532602668463,0.034109183859403626,0.0016157521934467463,0.07427133848774232,0.004359720041975379,0.0029186679829492027,4454.064998456859
1684722601097567081,100,1684722601097567081,camera_1,102,0,0.27969874538617745,0.9241134101306737,6.237240394911071,0.9971662505156954,-0.03816618254061549,0.038683767376583564,0.05202285540317996,0.009594132658094168,0.006417430223904684,4460.99007340509
1684722601104136466,101,1684722601104136466,camera_1,103,0,0.2792751934175611,0.9219828189456917,6.231111427723705,0.997067470331867,-0.036578097356370944,0.03558447757267753,0.057028478461896494,0.0055814863299019635,0.0037280947527411506,4465.003304186511
1684722601111096858,102,1684722601111096858,camera_1,104,0,0.27935332056344264,0.9208222460247799,6.234917484260121,0.9971224940691513,-0.03762721602646495,0.03935834111106538,0.052743202598990645,0.007182849338278174,0.004800530272174318,4462.837027761506
1684722601117601871,103,1684722601117601871,camera_1,105,0,0.2793651096356275,0.9177015182783888,6.23497714417307,0.9968244107553708,-0.03444780851994121,-0.008058799689608601,-0.0713407201950199,0.003467039961833507,0.0023167050389316475,4460.4323503856995
1684722601124583482,104,1684722601124583482,camera_1,106,0,0.27900350372271765,0.9151667828318117,6.230573280625022,0.996570701800037,-0.037982570770197524,0.03945493102725564,0.062027969893454035,0.0011710100225172937,0.0007821964632442186,4456.937694137914
1684722601130957126,105,1684722601130957126,camera_1,107,0,0.2786455775630499,0.9129451834893808,6.22773847046554,0.9966522685107307,-0.037679270058499796,0.039500708566731234,0.06086232252386714,0.0028387534111971036,0.0018943867600483425,4462.168424176867
1684722601137706518,106,1684722601137706518,camera_1,108,0,0.27869462625377533,0.9097064897001916,6.230237054572858,-0.995717285134182,0.03432852079429645,0.002457807970407002,0.0858055937865975,0.003279042517533526,0.002191449504227592,4451.679075294405
1684722601144814014,107,1684722601144814014,camera_1,109,0,0.2786472391725322,0.9077001254719832,6.2296718097573756,-0.996123947215442,0.03517919446611308,0.003301945881757871,0.08055186660802392,0.0006916515558259562,0.000461839101779577,4459.1260511965975
1684722601151083230,108,1684722601151083230,camera_1,110,0,0.2788439446488731,0.9066947845786256,6.237609282636468,0.9969777808684288,-0.038086323774622316,0.04716121710316989,0.048585553381075786,0.000656157688354142,0.00043864315495405773,4457.369098408732
1684722601157796859,109,1684722601157796859,camera_1,111,0,0.2789707222904744,0.903569641713922,6.243983363273163,0.9973072571611101,-0.03795406985799598,0.041182445926755434,0.047346906366599266,0.0005988509801682085,0.00040129909304371264,4451.612225293413
1684722601164434671,110,1684722601164434671,camera_1,112,0,0.2782633751540124,0.899208247481902,6.227102768446633,0.9965059629044835,-0.0355784085101795,-0.01154179957913682,-0.0746781735593882,0.004943969790474512,0.0032951728596586597,4466.003837712893
1684722601171104192,111,1684722601171104192,camera_1,113,0,0.27863067268366215,0.8988303029619826,6.2381765809589105,0.996749592299691,-0.03416162595066977,-0.0100562673844524,-0.07226413390540896,0.00709896779153496,0.004748207132962567,4453.574467149476
1684722601177747726,112,1684722601177747726,camera_1,114,0,0.27819613511727215,0.894488350889826,6.23491100102426,0.9964866395310323,-0.03527838299084925,-0.004032661180723026,-0.07585216261586257,0.00417392878443934,0.0027906336171788456,4456.840272263797
1684722601184454202,113,1684722601184454202,camera_1,115,0,0.27819570727439236,0.8924188581801232,6.236444253575023,0.9969108458459863,-0.03822572212729707,0.04187459160032249,0.05435143218713684,0.0007203502173069865,0.0004818020540981819,4452.218529029631
1684722601191242218,114,1684722601191242218,camera_1,116,0,0.2775789316016564,0.8889516235139806,6.224199240198913,0.9960838278858061,-0.03761550793491935,0.0423102959631869,0.06791112016942205,0.0040663372783456,0.0027120373492573596,4451.427115674713
1684722601197788000,115,1684722601197788000,camera_1,117,0,0.27773618385833,0.8861407902847939,6.231972072770598,0.9968692431742295,-0.03736704345145367,0.04858145478990833,0.04995256076951634,0.0028101409698138013,0.001875523237878489,4459.142863228799
1684722601204433441,116,1684722601204433441,camera_1,118,0,0.277576787852638,0.8840927895845869,6.229505477864291,0.9966262311043236,-0.0376751399818455,0.049086120440395384,0.053919310847328566,0.0006769530737074092,0.0004515822349967523,4457.4221831786
1684722601211076974,117,1684722601211076974,camera_1,119,0,0.2782155782896213,0.8844348651082428,6.2444657578200795,0.9974396665433218,-0.03740597259556605,0.034759688229200336,0.05006664452842271,0.01221197986160405,0.00819134962048153,4446.250695574884
1684722601217988967,118,1684722601217988967,camera_1,120,0,0.2774537077446939,0.8795157560556921,6.232315996517507,0.9969291814525575,-0.037153323954148124,0.04560839631580584,0.05168860486598704,0.005209920695051551,0.0034790512387001824,4456.695519609493
1684722601224432468,119,1684722601224432468,camera_1,121,0,0.2774323693498917,0.8783022861215591,6.233794987828967,0.997238489165187,-0.037949724459299006,0.041490088219753675,0.04851583989292285,0.002437678282149136,0.001628664697846639,4459.717638391886
1684722601231285810,120,1684722601231285810,camera_1,122,0,0.2774829679270484,0.8771801157271915,6.233590409088464,-0.9962149780524336,0.034741713365980344,0.0054599348342176226,0.07949163457868687,0.008627988063381054,0.005768110597485556,4453.015226235555
1684722601237779378,121,1684722601237779378,camera_1,123,0,0.277037927607013,0.8736560312520577,6.2280779761560385,0.9970069535931023,-0.037895813241011024,0.04502286789849756,0.05013963693524793,0.0070822725392645225,0.0047227593932716565,4463.5371530673865
1684722601244481086,122,1684722601244481086,camera_1,124,0,0.2771815188886818,0.8730402452858677,6.232327634443188,0.9969907810935841,-0.036911350806233506,0.043403220932113545,0.05256515013563967,0.006599793239729479,0.004409071303288591,4455.1282366002
1684722601251049041,123,1684722601251049041,camera_1,125,0,0.2769453735480729,0.8715191765540853,6.22803064779416,0.9965071136854717,-0.03757361035213406,0.046072977518795966,0.058643643491081955,0.002843328271410428,0.001897264104686361,4452.2500249764435
1684722601257790565,124,1684722601257790565,camera_1,126,0,0.27730390851629266,0.8711667488534257,6.237092281134401,0.9971090074671697,-0.03745616093797383,0.04179923922838639,0.05121998472815583,0.0017357718897983432,0.0011613137270508425,4449.9740546324765
1684722601264625072,125,1684722601264625072,camera_1,127,0,0.2771478363715549,0.8706833280195906,6.23654981575442,-0.9963693405721044,0.033463168880759515,0.006572473739698665,0.07800741045124228,0.005304137521306984,0.0035478590837378526,4449.7304170569405
1684722601271295309,126,1684722601271295309,camera_1,128,0,0.2769640932345868,0.8694276011606831,6.232057061380215,0.9971910833646613,-0.03696362444080395,0.04409040485254905,0.04795487385188824,0.0008710590336704627,0.0005816562564239643,4459.607226589374
1684722601277701854,127,1684722601277701854,camera_1,129,0,0.2774400472906115,0.8699927718388526,6.24119291422126,0.9974985512283485,-0.037222183565471155,0.04094355706940612,0.04398607145982122,0.005035910551669076,0.003372191138045714,4451.936123219784
1684722601284704923,128,1684722601284704923,camera_1,130,0,0.2772987069276501,0.8694340031368462,6.23820461263063,0.9966019192198319,-0.033976487649423334,-0.0009029944566452344,-0.07502931090825479,0.019999231939436868,0.013391450610778689,4452.728055970976
1684722601290987491,129,1684722601290987491,camera_1,131,0,0.2769055583612203,0.8680379626134818,6.227555115859319,-0.9957978150048747,0.03444929975981203,-0.003084922121784621,0.08479646592328366,0.0171095521945972,0.01143213644824074,4457.424749735801
1684722601297531604,130,1684722601297531604,camera_1,132,0,0.2769224308167243,0.8686626479479669,6.230219854448031,0.9970854513562865,-0.03753389466046397,0.04132410229633322,0.05200123089552716,0.008516185262124054,0.005685910076115308,4458.668240856117
1684722601304411411,131,1684722601304411411,camera_1,133,0,0.2771532597669506,0.8697484978450924,6.235578365984472,0.9970983052435743,-0.03726094283385696,0.04638778253765737,0.047484370594574006,7.308015483431518e-05,4.8847049323845676e-05,4453.884866677428
1684722601311411619,132,1684722601311411619,camera_1,134,0,0.27653940130719407,0.8683641641808384,6.2219314044101734,0.996975260673067,-0.03732643559760972,0.038825619929669195,0.05603247316087933,0.0016086376417661086,0.00107178909208566,4466.922203831898
1684722601317597866,133,1684722601317597866,camera_1,135,0,0.27738933498132723,0.8719111284735207,6.237962501617846,0.9973035176575361,-0.0376313479342266,0.04092366561096087,0.04790437259290802,0.0013199763343436643,0.0008832100019703316,4452.976786749905
1684722601324324607,134,1684722601324324607,camera_1,136,0,0.27737799977974065,0.8725207022505552,6.236146751333014,0.9969704482391473,-0.03694310095635394,0.0386352513863138,0.056501769705726394,0.007824768763384782,0.005233912461929025,4448.8657547534685
1684722601331185579,135,1684722601331185579,camera_1,137,0,0.2776376684750923,0.8744043778596444,6.243246423867967,0.9972287682442255,-0.03632528925648623,0.038715191556484424,0.052119008905412004,0.001179437298560515,0.0007908816599493711,4442.040670675049
1684722601337722063,136,1684722601337722063,camera_1,138,0,0.2771492284458756,0.8749066472192789,6.230891813913456,0.9973093523619126,-0.037817616030030865,0.03622929871548166,0.05129640848881977,0.005382224117056467,0.003595545664299127,4461.992696071685
1684722601344435214,137,1684722601344435214,camera_1,139,0,0.2776430568551937,0.8775455428608895,6.239749413598653,0.9971403083983424,-0.03671158519028327,0.039936238718997846,0.052617123800664856,0.0031255361682269722,0.0020931994093674132,4446.843975940603
1684722601351499795,138,1684722601351499795,camera_1,140,0,0.2772814007216262,0.877513756084573,6.229493547441676,0.996881043034919,-0.03719726157369068,0.038440943592501206,0.05802450882815611,0.0076479749113786966,0.005107966331366596,4455.767935758196
1684722601357862710,139,1684722601357862710,camera_1,141,0,0.2772413767082154,0.879755501797901,6.22466767861213,0.9966933849507925,-0.03771665105767745,0.04117150910030945,0.059030987343325486,0.005008711726986803,0.0033392879417598843,4461.019151550368
1684722601364450931,140,1684722601364450931,camera_1,142,0,0.27734457620941055,0.8820131163543701,6.228362754212619,0.9970552137831242,-0.038067371938396946,0.036603717608366025,0.055605249022367034,6.286971620284021e-05,4.1970513811431756e-05,4462.211730961077
1684722601371405124,141,1684722601371405124,camera_1,143,0,0.27741625936619496,0.8835629671550833,6.227957822647954,0.9967042701642074,-0.03796499989539513,0.03758799869154642,0.06104423784225487,1.8887600162997842e-05,1.2612312375876404e-05,4455.939278785081
1684722601377807855,142,1684722601377807855,camera_1,144,0,0.27805418260794396,0.8885970943302843,6.238512036709067,0.9973506843896262,-0.03725038704694601,0.04230453929655262,0.04598202874280153,0.000407020648708567,0.0002722837087328485,4457.506043510657
1684722601384429216,143,1684722601384429216,camera_1,145,0,0.27759900280230076,0.8891550080357669,6.2279770085717905,0.996554354789112,-0.037260602281006305,0.04311654198525371,0.060266319580237815,0.0007801705942256376,0.0005205848687010851,4456.06021631058
1684722601391300201,144,1684722601391300201,camera_1,146,0,0.2778024426711153,0.8910699548326411,6.227847108455687,0.9967933084014174,-0.03780631093258924,0.04606189055260558,0.053404919422697365,0.006360519371810369,0.004240569533804615,4463.647463479632
1684722601397771358,145,1684722601397771358,camera_1,147,0,0.2782275702687318,0.8958666403127618,6.232912905775112,0.9971049460440177,-0.03832872357797655,0.03948837288649008,0.052471934691006326,0.005904258985538036,0.003944292530943051,4461.261223559997
1684722601404464483,146,1684722601404464483,camera_1,148,0,0.2782845612138146,0.8977409272655517,6.23375637104394,0.9970088591631867,-0.03752921990785943,0.045813601060903875,0.04965890011932367,0.006942987296497449,0.0046372590321473025,4460.762399282308
1684722601411065816,147,1684722601411065816,camera_1,149,0,0.2783401185128657,0.8997881960204018,6.231559355414564,-0.9963075681112774,0.03515600233975199,0.003916338241427921,0.07823009343250625,0.0002306205715285614,0.0001540459408286968,4459.00184425083
1684722601417577028,148,1684722601417577028,camera_1,150,0,0.27875768064940754,0.9044256714500271,6.2369310789435195,0.9970249610153249,-0.03741957313691689,0.044741168715318316,0.05039077773390937,0.0033743278036126867,0.0022557672189140675,4457.2020156975195
1684722601424250364,149,1684722601424250364,camera_1,151,0,0.279155371063887,0.907508879614316,6.243038568360712,0.9974079281991476,-0.03706177193766746,0.04878457965860814,0.03773479314713887,0.002755625595455058,0.001844445990931479,4459.154069554816
1684722601431190729,150,1684722601431190729,camera_1,152,0,0.27878626874263085,0.9078825771258381,6.233555729468613,0.9967812818813708,-0.036719396792379976,0.04334311485119206,0.05656974796771868,0.00046117411693558097,0.00030814423102488346,4456.383386621019
1684722601437727928,151,1684722601437727928,camera_1,153,0,0.278894790137071,0.911704247148746,6.231627925174586,0.9965717368382856,-0.034399351486858375,-0.007454289477139853,-0.07487250176665328,0.006138216733234003,0.004098397404342474,4461.479431452463
1684722601444456100,152,1684722601444456100,camera_1,154,0,0.2786317151214611,0.9124429181463467,6.225485890520732,0.9966528447273939,-0.03789184911365754,0.03391196661836552,0.06401010379319672,0.003066559787839651,0.002046518747962039,4463.140845264543
1684722601451193809,153,1684722601451193809,camera_1,155,0,0.27911767726296116,0.9159287983763982,6.235500821502905,0.9969476686632157,-0.03832159349291261,0.04028027887394702,0.05481150018910326,0.006235653650946915,0.004169547965773283,4458.413806156954
1684722601457641124,154,1684722601457641124,camera_1,156,0,0.2794231000037965,0.9194976549347565,6.23606099087072,0.9970667177425342,-0.03647422767339736,0.044781476569745154,0.0502216132953939,0.005607908067759126,0.00374769077533785,4461.34381301678
1684722601464493274,155,1684722601464493274,camera_1,157,0,0.2797822884333703,0.9226052070083582,6.245605393210609,0.9974270501568414,-0.03745132253008908,0.04173169427561284,0.04466703201529996,0.0019449307583272457,0.0013036509267236602,4455.077314763328
1684722601471392154,156,1684722601471392154,camera_1,158,0,0.2797346267880043,0.9230980521760516,6.23917883120772,0.9972355093817771,-0.03708351605282818,0.03908493183982714,0.05117147416582093,0.009980907721910624,0.006678790768554812,4458.826690929242
1684722601477784633,157,1684722601477784633,camera_1,159,0,0.2792232601735849,0.923922032287742,6.225926113422121,0.99625933743167,-0.03719426331694809,0.04056693502273961,0.06662014064365533,0.01957706513348967,0.013058873541017382,4458.813824039534
1684722601484169483,158,1684722601484169483,camera_1,160,0,0.27945598947956773,0.9262680390745275,6.231287776862985,0.9966136564174795,-0.03349404810303788,-0.0032619361603419003,-0.07502485159158638,0.001827854779548943,0.0012207269034248045,4463.435318549746
1684722601490967035,159,1684722601490967035,camera_1,161,0,0.27909421416702623,0.9261019387363093,6.222882837087771,0.9964059602596648,-0.0366598044932564,0.03384280196734658,0.06845353057754372,0.0022768538910895586,0.0015189041127314574,4463.525936848831
1684722601497701644,160,1684722601497701644,camera_1,162,0,0.2799074129946588,0.9302600391954151,6.236783241927818,0.9971469388350476,-0.03640395966044518,0.038572841969114584,0.053710985425332314,0.0025622787652537227,0.0017136809257048968,4460.88365841005
1684722601504365682,161,1684722601504365682,camera_1,163,0,0.2796636908171385,0.930091188615586,6.230541451855126,0.9970203013923664,-0.03739430738894147,0.038278045111970846,0.05556055839156239,0.0019212671904824674,0.001282567366774466,4467.934163681932
1684722601511047124,162,1684722601511047124,camera_1,164,0,0.2797036885677676,0.931257553828249,6.2331204114913294,0.9971308360823649,-0.037975569237503844,0.03523511269506286,0.0551945532470183,0.00036599987652152777,0.0002445992527868264,4465.829008948407
1684722601517605066,163,1684722601517605066,camera_1,165,0,0.2795626778174517,0.9314681259173948,6.228024436005956,0.9963649568262888,-0.03717938516364998,0.035202797196996496,0.06808325195602821,0.0009044163161888719,0.0006042009484065811,4457.059191680744
1684722601524316787,164,1684722601524316787,camera_1,166,0,0.2795491438860465,0.9319354273814271,6.227076955694066,0.9965228077341342,-0.036795451654840626,0.034361802276006985,0.06639017207041188,0.0005058043752796948,0.0003377535003071962,4461.092953648651
1684722601531026840,165,1684722601531026840,camera_1,167,0,0.2795493216213879,0.931949864819605,6.226426145315987,0.9968518868351489,-0.037822393920794936,0.03558807504463972,0.059910526169618054,0.0010000866022892296,0.0006671585106198629,4469.966775766457
1684722601537831068,166,1684722601537831068,camera_1,168,0,0.28003547018998054,0.9336991980303494,6.237558277959527,0.9972259841669455,-0.037270964748508335,0.04751269837543324,0.04351729750418026,0.010988707246724516,0.007343218467210794,4466.631794655699
1684722601544468164,167,1684722601544468164,camera_1,169,0,0.2797139545898602,0.9321658253973861,6.227859629482433,0.9967441164383175,-0.03636393006067501,0.03767565152551493,0.06131375227685894,0.007000693527515978,0.004671606025234353,4465.4742736076005
1684722601551138401,168,1684722601551138401,camera_1,170,0,0.27970919723902726,0.9321169343316514,6.229748569014848,0.9965686210597116,-0.03729869782857142,0.03178272923879453,0.06670568777526671,0.0034065463696606457,0.0022775285711936436,4457.462222893723
1684722601557644367,169,1684722601557644367,camera_1,171,0,0.2793013445015835,0.9298729210763181,6.221409615375729,0.9964423622030311,-0.0367902733583033,0.03056130318472094,0.06939093125990284,0.0015982161276042461,0.0010661187449447576,4465.859284463222
1684722601564369678,170,1684722601564369678,camera_1,172,0,0.2798202319827454,0.9309638160629882,6.23273981446561,0.9967721044128919,-0.03867898371549411,0.03674307856124452,0.059993785185415614,0.0035661212750710547,0.0023836887218710357,4460.0697100585085
1684722601570793628,171,1684722601570793628,camera_1,173,0,0.28012022876445036,0.9316488316005634,6.2413595037078275,0.9972112018425786,-0.03686897298112028,0.04258955172642846,0.04895536574002211,0.0008752301218919456,0.0005858633151311114,4457.936287201011
1684722601577497243,172,1684722601577497243,camera_1,174,0,0.2800761592134775,0.9296566823889667,6.240763683725076,0.9974644874863068,-0.0370908035634952,0.03838343502015767,0.04706995231298838,0.0016901823692023754,0.0011313347347938828,4462.0920726668555
1684722601584200143,173,1684722601584200143,camera_1,175,0,0.27967581739775577,0.92734492789871,6.232987333835574,0.9971148768456705,-0.03689888970236125,0.035247134237151444,0.05619638635930824,0.017477364162914455,0.01167933047884091,4464.1999648627825
1684722601590822935,174,1684722601590822935,camera_1,176,0,0.2796135353909203,0.926592898159736,6.23528256922221,0.9971505756765384,-0.036566461747883125,0.04267923740995368,0.0503200357441602,0.00021273287711665034,0.00014213958634770601,4464.551066280225
1684722601597462177,175,1684722601597462177,camera_1,177,0,0.2795044478597423,0.9234425383956426,6.2339258419291115,0.9968766561378779,-0.037413506184618264,0.04208148638620006,0.055374276571932224,0.006564013718161732,0.004385757095942398,4460.589942643301
1684722601604166030,176,1684722601604166030,camera_1,178,0,0.27969985453813656,0.923021327811275,6.23907289318169,0.9974244945280603,-0.03707441575659827,0.03358414605313992,0.05140010258386616,0.005539635953027755,0.0037084718381614943,4460.556962833736
1684722601611108064,177,1684722601611108064,camera_1,179,0,0.2791670472937565,0.919969752495055,6.23007311752362,0.9963486666447453,-0.03784504116852273,0.04386183651402825,0.06271544173333866,0.0072497056680731475,0.0048400293739932964,4455.781260457589
1684722601617623090,178,1684722601617623090,camera_1,180,0,0.2793975381650999,0.9180081743451117,6.238242812284925,0.996959743482185,-0.03804292714982139,0.039411488993584994,0.05541425904149431,0.007965840515680611,0.005330454495594699,4454.436418225407
1684722601624364614,179,1684722601624364614,camera_1,181,0,0.27911054912909755,0.915407695006895,6.233180093446458,0.99652640313489,-0.03684325785812115,0.03488172684579266,0.06603762062411246,0.005261547397822142,0.003520398952575467,4449.485272820339
1684722601631270885,180,1684722601631270885,camera_1,182,0,0.27879027255090594,0.912867097880184,6.228344139330673,0.996676044356407,-0.03672218953544909,0.04161425959789053,0.059637209860181624,0.0017014280892908573,0.0011353387196577597,4461.946665101685
1684722601637828350,181,1684722601637828350,camera_1,183,0,0.27875407549877923,0.9093904528719889,6.230319269057328,0.9967956143847343,-0.037623541406392125,0.03802767147629215,0.05947157705570678,0.0033647537347860634,0.0022472074538299595,4459.976022328512
1684722601644147396,182,1684722601644147396,camera_1,184,0,0.27895476348482007,0.9088224492919162,6.239464521472577,0.9970587789274536,-0.036516595762635384,0.05103011840109914,0.04400291596670888,0.002719613738008775,0.0018185862978995274,4457.57873103535
1684722601651134014,183,1684722601651134014,camera_1,185,0,0.2790919953303706,0.9072844507237177,6.243371879850777,0.9973543683840127,-0.03753719665824218,0.04937229368271336,0.03791568737179783,0.00239413752569817,0.0016027726404722836,4458.146974445495
1684722601657601594,184,1684722601657601594,camera_1,186,0,0.2785142628827747,0.9020678861717484,6.234468459058517,-0.9966837119133912,0.03708151232012082,-0.04963304478431363,-0.05275510132712447,0.0017312038544332609,0.00115630153238199,4455.158407953189
1684722601664191961,185,1684722601664191961,camera_1,187,0,0.278664362901654,0.9004639444353681,6.236452862667469,0.996878384616936,-0.034544915391161744,-0.00676906847759887,-0.07067046636390242,0.00379482374410145,0.0025369933539920574,4459.396620132029
1684722601670882225,186,1684722601670882225,camera_1,188,0,0.2785048825772363,0.8985035601623365,6.237602081300342,0.9968728249243284,-0.03800289299632281,0.046258765776904895,0.05157981814718629,0.012617231011972763,0.00843688841157164,4452.939661261713
1684722601677762508,187,1684722601677762508,camera_1,189,0,0.27808704857162136,0.8937399760235891,6.231402913917294,0.9968372476917298,-0.03735290628196516,0.038143689893664165,0.058866976548517774,2.1691652364097536e-05,1.4494857626784558e-05,4455.859411758602
1684722601684136152,188,1684722601684136152,camera_1,190,0,0.277749386977012,0.8912723922927793,6.227779560514629,-0.9956282865651677,0.03390833774877723,0.0075432807791826545,0.08670431671785286,0.0014599298156099394,0.0009743976932181039,4451.785480671504
1684722601691186189,189,1684722601691186189,camera_1,191,0,0.27804778741083386,0.8907046253610087,6.2377764533248214,0.997013298439397,-0.038319330181684444,0.04260453249343624,0.051778040523340445,0.0005759532505180687,0.00038532412466945996,4452.606179636378
1684722601697547674,190,1684722601697547674,camera_1,192,0,0.27762810454146297,0.8857468625685044,6.23000453449255,0.9970297497617698,-0.037498364828710176,0.04253369058186509,0.052119438702291625,0.0016708419716451317,0.0011150739586335157,4462.481071934454
1684722601704614400,191,1684722601704614400,camera_1,193,0,0.27795139662537466,0.8855343343140689,6.239281584104473,0.9972892903223367,-0.03767177054993736,0.044101876914916065,0.04527619202831126,0.0001301199954468757,8.705605091799713e-05,4455.625182238931
1684722601711083889,192,1684722601711083889,camera_1,194,0,0.27778648086812285,0.8834037478150167,6.236310288850056,-0.9966117130115303,0.035724242589021786,0.011392914003059437,0.07320569301757106,0.0007472787838196382,0.0004994800151033868,4453.981589045548
1684722601717519760,193,1684722601717519760,camera_1,195,0,0.27777013977537257,0.8804173418309178,6.238151648570391,0.9972627267925007,-0.03725969228847392,0.03689488866736238,0.05212999396870748,0.003893742963555269,0.002606770613583807,4451.511987255624
1684722601724259853,194,1684722601724259853,camera_1,196,0,0.277545354354172,0.8787181037434977,6.237994286691982,0.9974458535226114,-0.03722634445770336,0.04953372025095143,0.03552997504877156,0.010636694889399223,0.007110590447174499,4462.396216777853
1684722601731004714,195,1684722601731004714,camera_1,197,0,0.2771770641342623,0.8765063399818842,6.229500103388327,-0.995617323556818,0.0337237708608029,0.005603530553730473,0.08704856551270711,0.006003519898513332,0.004010558644545801,4449.1923914725485
1684722601737577199,196,1684722601737577199,camera_1,198,0,0.2769665310418139,0.8735835448063365,6.228170320198468,0.997147896269957,-0.03698944009236899,0.04172410763058018,0.05086209913564106,0.0019291603966848925,0.00128694219525278,4464.119047443818
1684722601744170188,197,1684722601744170188,camera_1,199,0,0.2773877789553118,0.8737190841152358,6.235219472084401,0.9964452662929324,-0.033827271939068176,-0.004892995163493115,-0.07699743861907131,0.004292935787816532,0.0028708361578790855,4453.630613260377
1684722601750784873,198,1684722601750784873,camera_1,200,0,0.27748601887806984,0.8730092171253552,6.237601066833703,0.9965278995536959,-0.03400468010253779,-0.0006540176473054726,-0.0759960486021489,0.007937495334772393,0.005313878034364357,4452.86129262601
1684722601757403850,199,1684722601757403850,camera_1,201,0,0.2774530445391605,0.8717430282008082,6.24143912684294,0.9972549069590055,-0.037231087293982085,0.04426716725179239,0.046226773504052396,0.006190834537846968,0.004146108576935196,4448.185540763399
1684722601764099597,200,1684722601764099597,camera_1,202,0,0.27698917521856015,0.8699919163489147,6.232877218517872,0.9970373270235215,-0.037507123103637234,0.04745995515596535,0.047511439621148496,0.00639394877362065,0.004270187436428132,4457.3245484766085
1684722601770901679,201,1684722601770901679,camera_1,203,0,0.2770818053248248,0.8696479614137882,6.234004766916819,0.9969043473766319,-0.036932289649672975,0.04101665306278469,0.055994306267079325,0.0024368156300624833,0.0016294117709025344,4448.751681431488
1684722601777465343,202,1684722601777465343,camera_1,204,0,0.27732255291843105,0.8698396197736464,6.240397150889968,0.9975584025091404,-0.03716205406197775,0.044491748244822396,0.03894482840411639,0.001219082419993356,0.0008157891811045008,4456.455877995235
1684722601784194469,203,1684722601784194469,camera_1,205,0,0.27715612784871263,0.8689710524106607,6.2352289027002525,0.9973577484819005,-0.03777010603974628,0.037448330117751005,0.0494829587257326,0.013504246671800502,0.009031559829693106,4455.778824057461
1684722601791191577,204,1684722601791191577,camera_1,206,0,0.2767645648638051,0.8676275633363884,6.224915848881929,0.996091211449828,-0.03363603559587679,-0.006263172922572691,-0.0814351781894597,0.004978079756256193,0.003318851640385844,4462.1654842884745
1684722601797639608,205,1684722601797639608,camera_1,207,0,0.27688051472686837,0.8688966210357922,6.2321659018782345,0.9968437279051491,-0.0373373421780556,0.049455824804311606,0.049624856757165325,0.00595401824102737,0.0039754275572221115,4454.635802988662
1684722601804365634,206,1684722601804365634,camera_1,208,0,0.27688902972362206,0.8689060236445291,6.229976775852008,0.9967889460166032,-0.037941634426511495,0.04903016616343915,0.05067812429579418,0.0005944547592662275,0.0003966207687434022,4456.866884196614
1684722601810948848,207,1684722601810948848,camera_1,209,0,0.27731246009152155,0.8706505427167728,6.238347421901231,0.9973255237416205,-0.037606901985982294,0.04668617728751546,0.04180815072205108,0.0022945103410165757,0.0015346325375244266,4455.762598856293
1684722601817419052,208,1684722601817419052,camera_1,210,0,0.2771445608522752,0.8715209545357424,6.234845838656191,0.9973674706518624,-0.037110165972333395,0.03920926906332691,0.04841071458398621,0.00039311047294177115,0.000262819559583137,4457.620154619799
1684722601824248075,209,1684722601824248075,camera_1,211,0,0.27722739315605566,0.8726062965602865,6.235989376314297,0.9970028561247407,-0.03751150688471817,0.04262510797820166,0.05254799615774238,0.0012785897415596992,0.0008552103594526205,4450.077777967116
1684722601830892324,210,1684722601830892324,camera_1,212,0,0.27716606833590596,0.8732771537934396,6.234948029578083,0.9971528945414108,-0.037089136081222156,0.04259479325770283,0.04996183022836869,0.0025165213301079348,0.0016822257199107969,4454.769562282394
1684722601837628364,211,1684722601837628364,camera_1,213,0,0.27741635364977396,0.8755729890229053,6.234758499392869,0.996820920209978,-0.037889723919705416,0.03931729709420822,0.05802216819653605,0.0007476453465642408,0.0005001823259858746,4447.244584133676
1684722601844165802,212,1684722601844165802,camera_1,214,0,0.27734980430594824,0.8765432804903388,6.232780966062978,0.9968781874854664,-0.037415857342647116,0.0386812144132921,0.05777280144253917,0.0011341665813233703,0.0007582859451188348,4450.963379455614
1684722601851006746,213,1684722601851006746,camera_1,215,0,0.27699309266856564,0.8770260319768386,6.223516646299126,-0.9962147811554272,0.03384828303311657,0.009310403217672876,0.07952182049650836,0.00040516840817872435,0.0002698702092327355,4465.755148934259
1684722601857669115,214,1684722601857669115,camera_1,216,0,0.2778044997893108,0.8819131694329498,6.238121891324796,0.9967155189151156,-0.036728360453838836,0.04245538008318747,0.058367307579989695,0.001454854282201268,0.0009739810124828611,4442.227553862089
1684722601864426612,215,1684722601864426612,camera_1,217,0,0.2774650639317948,0.8823691673141288,6.230368496431902,0.9967723627291064,-0.03678013132928265,0.042043144836517145,0.05765806804854903,0.00035978246887680143,0.00024027210053721484,4454.741676849228
1684722601871062517,216,1684722601871062517,camera_1,218,0,0.2772688208912867,0.8831004309393494,6.22434238232211,0.9963204765947876,-0.037639304576738496,0.037400890766185545,0.06730500753146536,0.002022130021941848,0.0013496361742898323,4452.58282638213
1684722601877799987,217,1684722601877799987,camera_1,219,0,0.2777675906765208,0.8878500016636475,6.231806812358234,0.9970810667279076,-0.03726804808532224,0.04344822616810905,0.0505241586520032,0.0006604684895137325,0.0004409458703334351,4461.733374656816
1684722601884097814,218,1684722601884097814,camera_1,220,0,0.2784514980646199,0.8916065453901397,6.243462303142025,0.9970197828989222,-0.0352827737301786,-0.0046492628101449125,-0.06844751815379051,0.004792278166860342,0.0032112498971318113,4452.276225954819
1684722601891050815,219,1684722601891050815,camera_1,221,0,0.2779809502065628,0.8917864697509887,6.232707934760435,0.9969219852291605,-0.03707191728251978,0.04077673228012818,0.05576276912333638,0.005540048441616818,0.0037016350762795022,4456.338446807786
1684722601897455930,220,1684722601897455930,camera_1,222,0,0.27798563672282517,0.8954522820410491,6.230210441439434,0.9965680506055801,-0.03745141487394396,0.04588933640675333,0.05782456952093545,0.0012972628173884004,0.0008658650079017514,4455.944881337985
1684722601904299020,221,1684722601904299020,camera_1,223,0,0.2786574645741603,0.8989513904304167,6.239409734229959,0.9971609023198018,-0.034893564722735124,-0.015208941604728292,-0.06497124072205368,0.0023410130670526996,0.001565413374110101,4456.584279625209
1684722601910817384,222,1684722601910817384,camera_1,224,0,0.2783184098697148,0.9000064799004371,6.233523958018593,0.9967210263487949,-0.03789865617493895,0.045654147112587966,0.055014419434916834,0.001872010761871934,0.001250473502517216,4455.587908545162
1684722601917585611,223,1684722601917585611,camera_1,225,0,0.2784191461692589,0.903455931606911,6.229927882739227,0.9967501521908628,-0.03763978862100784,0.039397036509241895,0.059331727889445254,0.008489781015668996,0.005668606943028261,4459.0306874748785
1684722601924156188,224,1684722601924156188,camera_1,226,0,0.2789176806893872,0.9066896733712608,6.236548593758626,0.9971987176891304,-0.03496932838039163,-0.018040526589235627,-0.06361134263762783,0.0029217847040854394,0.0019516414695082951,4460.500425426755
1684722601931030035,225,1684722601931030035,camera_1,227,0,0.2788001787389759,0.9079881099926448,6.234232371612937,0.9967981848659422,-0.03773165299197484,0.04728649979420566,0.052284681768841,0.004611826763721183,0.00308008828954575,4458.424965250013
1684722601937403917,226,1684722601937403917,camera_1,228,0,0.2788949994646463,0.9120252771872576,6.233930422637091,0.996973139917336,-0.03678929173156037,0.04292512649127897,0.053371713603422785,0.00039879036194179207,0.00026641265653091893,4460.576463287578
1684722601944288969,227,1684722601944288969,camera_1,229,0,0.2792553806927207,0.9146139258495765,6.23926668876764,0.9969928335353099,-0.03688402227017399,0.0397880873293899,0.05533323492329212,0.004623189859557897,0.0030949330557393045,4452.3102877002075
1684722601951011657,228,1684722601951011657,camera_1,230,0,0.27927857775313636,0.9164477487052669,6.238723911171249,0.9969708721513353,-0.03720567174897886,0.039394564615752886,0.055793246457328756,0.004373520554509014,0.002927793645779602,4453.04822818935
1684722601957629680,229,1684722601957629680,camera_1,231,0,0.27896337925611375,0.9182436716720184,6.227468566633612,0.9966231542687123,-0.037653315348205395,0.04235610226368698,0.059417815676775045,0.0028688223101198673,0.0019133437978832376,4464.15937670681
1684722601964193820,230,1684722601964193820,camera_1,232,0,0.2791582709532379,0.9205440167491369,6.231589986146309,0.9965949857415757,-0.03683875432152394,0.03635712746945589,0.06418333005506013,0.002630203904118389,0.0017583403680469108,4454.825302180602
1684722601971092700,231,1684722601971092700,camera_1,233,0,0.27949608707974655,0.9225975507315687,6.23552586972991,0.9969213811807773,-0.03685116154569353,0.03883967544585266,0.05728203251112195,0.0075102526461705565,0.005022231188223337,4457.224598766768
1684722601977626085,232,1684722601977626085,camera_1,234,0,0.2796738706729353,0.9256323429338928,6.235300356289817,0.9966880068747818,-0.034887451728166305,-0.004115377862548743,-0.07334130029484275,0.03222508542239666,0.021548961214195448,4459.317446064436
1684722601984395027,233,1684722601984395027,camera_1,235,0,0.27980651861907113,0.927582332088265,6.239959068765473,0.9976024061347523,-0.036984798578115714,0.03572008902468188,0.04632104476755451,0.0004980204976163805,0.0003333470315805189,4464.663393394088
1684722601990991353,234,1684722601990991353,camera_1,236,0,0.2796249004546097,0.9277129759384597,6.233172332181914,0.9970867956652488,-0.03726017954215258,0.03907759353790916,0.05387525047532421,0.0037925178185105324,0.0025334710418496937,4465.348558130905
1684722601997498512,235,1684722601997498512,camera_1,237,0,0.2796851908153576,0.9293055302975647,6.229296766377293,-0.9963484169837069,0.03362379804246152,0.009640745762121242,0.07788663685390025,0.005852972331922501,0.003905754200828969,4459.807466558181
1684722602004104137,236,1684722602004104137,camera_1,238,0,0.2799464364273978,0.9307171043777475,6.235078906140271,0.9971714060822552,-0.037530223722064236,0.039721032908110736,0.05160337919189617,0.0029581605922430754,0.001976944808833028,4465.251349620054
1684722602010883331,237,1684722602010883331,camera_1,239,0,0.2798532159084448,0.9313338110902771,6.233981282548895,0.9970608260148588,-0.036936059327490944,0.034659493130384814,0.05748179088953793,0.004177486291155219,0.0027933945187257163,4462.072819374967
1684722602017638683,238,1684722602017638683,camera_1,240,0,0.2799903082961783,0.9330186227151476,6.237023176079149,0.9969559203931159,-0.036757979767542054,0.03843830932344094,0.0570108769699228,0.00033368245931342244,0.0002232462779499007,4457.258691683644
1684722602024177551,239,1684722602024177551,camera_1,241,0,0.2797675540057815,0.9323335535304623,6.2304002028767425,0.9964953583998145,-0.037775064510247196,0.036140386996318094,0.06529868005272571,0.006877914769575,0.004595943116506615,4457.160148954134
1684722602031227827,240,1684722602031227827,camera_1,242,0,0.28005911327328337,0.9334874729341622,6.236728262405934,0.9969728650867256,-0.03670595883584767,0.04132711181697524,0.05467950891855207,0.008097566314972937,0.005414227827116457,4459.451008887495
