%time,field.header.seq,field.header.stamp,field.header.frame_id,field.image_seq,field.transforms0.fiducial_id,field.transforms0.transform.translation.x,field.transforms0.transform.translation.y,field.transforms0.transform.translation.z,field.transforms0.transform.rotation.x,field.transforms0.transform.rotation.y,field.transforms0.transform.rotation.z,field.transforms0.transform.rotation.w,field.transforms0.image_error,field.transforms0.object_error,field.transforms0.fiducial_area
1684727528194734573,7,1684727528194734573,camera_1,11,0,-0.1132326818540588,-0.20309513012743957,1.5578379571011474,0.9967743795386185,-0.037590693190733424,0.04438384814534574,0.05529783092177621,0.003970602978370152,0.0026517116430754147,4455.022482704223
1684727528201357364,8,1684727528201357364,camera_1,12,0,-0.11328810893506311,-0.20407838643665438,1.5577387022633011,0.9972325985600907,-0.038485774633768594,0.04125014689082557,0.04841915841289455,0.0008040164539124817,0.000536983126670579,4462.41520469499
1684727528207893133,9,1684727528207893133,camera_1,13,0,-0.1132037083812828,-0.20439756902517786,1.5563553921022866,0.9966458347111135,-0.038078834134751605,0.04072303266312243,0.059905902502546564,0.0009687438432592899,0.000646577251822143,4455.583032803464
1684727528214455842,10,1684727528214455842,camera_1,14,0,-0.1132760064873898,-0.2049174545929539,1.5569122885018738,0.9966476012628295,-0.037149449489246054,0.04633373919319089,0.056273101141410216,0.008281110698590055,0.005528811698498844,4453.2894607631315
1684727528221114397,11,1684727528221114397,camera_1,15,0,-0.11323334321972171,-0.2056932293723333,1.5559653728429994,0.9971056214936745,-0.038416214403127126,0.039922313130962034,0.05206518002388435,0.005167240131413564,0.0034470135599197387,4464.344437042921
1684727528227822303,12,1684727528227822303,camera_1,16,0,-0.1132599873743957,-0.20601584266239614,1.5558922001229578,0.9967621752457937,-0.03764011376328889,0.03762743628365913,0.060270754714700954,0.004220715461997315,0.0028186905571082293,4454.598548690845
1684727528234535932,13,1684727528234535932,camera_1,17,0,-0.11328074108093539,-0.20649695490913142,1.5562997998680448,0.9969180329159354,-0.0382794316610842,0.04352877275016242,0.052861769754627724,0.012854646076448262,0.00857924540598499,4458.006247976039
1684727528241082668,14,1684727528241082668,camera_1,18,0,-0.11328251456374919,-0.2070938493217137,1.5561300570805274,-0.9956243980496553,0.035002096378764856,0.004567791170737471,0.08652194254160994,0.0049796678649727255,0.0033270492814113125,4449.434984948253
1684727528247701644,15,1684727528247701644,camera_1,19,0,-0.11311410596984739,-0.20706177464107953,1.553200524220491,0.9966460716148614,-0.03798197629951586,0.046958774761215454,0.05521640049815851,0.0012534353445516897,0.0008335726520337578,4468.751464048282
1684727528254427909,16,1684727528254427909,camera_1,20,0,-0.11313290061967984,-0.20733166725440394,1.5533756338896154,0.9967199847175005,-0.037923389660816965,0.04234336416493065,0.0576031951594328,0.00025809301587287337,0.00017178962515482978,4466.318410940583
1684727528261774063,17,1684727528261774063,camera_1,21,0,-0.11319206694505513,-0.2078552924020459,1.5536470043527515,0.9965751144258846,-0.03888406599213838,0.042575649217676786,0.05927381219937833,0.00935264713189099,0.006229648734575974,4461.137289231818
1684727528268197298,18,1684727528268197298,camera_1,22,0,-0.1133167119917479,-0.20825241123866284,1.5553527549889337,0.9965989882225784,-0.03847816373458171,0.05228163977109641,0.05075941028216471,0.0012252481246832758,0.0008168695257451988,4456.344186238712
1684727528274856805,19,1684727528274856805,camera_1,23,0,-0.11336912278893742,-0.2085009585103635,1.5559745159001332,0.9971795720634777,-0.037386101841634094,0.04476049580613777,0.047240644190942226,0.009838930403930135,0.006566438746551872,4460.459832137336
1684727528281624317,20,1684727528281624317,camera_1,24,0,-0.11334111558814083,-0.20860285164296496,1.5556566363549447,0.9967886691137205,-0.0384493690962287,0.04208823004827348,0.0562367854166935,0.0012285255652386695,0.0008203607860023811,4452.516599072493
1684727528287733078,21,1684727528287733078,camera_1,25,0,-0.11334101597044915,-0.20864248945237185,1.5555168544266673,0.9967321427973109,-0.03840688466064664,0.04903509788820144,0.051434481628955434,0.0008757315372349694,0.0005841996175257745,4455.558053358749
1684727528294728994,22,1684727528294728994,camera_1,26,0,-0.11326524979253522,-0.20847352206488876,1.5541661299961753,0.9964790599606417,-0.03840066227879167,0.04432241073710928,0.05991991407668372,0.0009224064269801602,0.0006148974460636464,4455.093789065257
1684727528301502227,23,1684727528301502227,camera_1,27,0,-0.11334824950635522,-0.2085559267421106,1.5556860991063488,-0.9963876590354498,0.03569596951823454,0.008993535641315517,0.07652807980524623,0.00012266139674466103,8.185429408077631e-05,4459.511419210527
1684727528307705879,24,1684727528307705879,camera_1,28,0,-0.11428746401124742,-0.21027955173902194,1.5688671990348615,0.9984737625921691,-0.03648886065070457,0.00018983320982544108,-0.04145687430092308,0.10581488275784068,0.07118348923076841,4458.658359160415
1684727528314464092,25,1684727528314464092,camera_1,29,0,-0.11324309281162101,-0.2082321199840666,1.5544582357383514,0.9965333594156279,-0.03915427474561552,0.0575448318776915,0.045571906533696874,0.0026181881403317675,0.0017428320130358748,4463.460300542183
1684727528321169376,26,1684727528321169376,camera_1,30,0,-0.11321942936858734,-0.20782455236368513,1.5539876570539028,0.9968765143576077,-0.03781450238010304,0.042379081907907824,0.054875239850175526,0.00020232185488566756,0.0001347735160306351,4465.144916470278
1684727528327717542,27,1684727528327717542,camera_1,31,0,-0.11313932729943721,-0.20755256850018255,1.5537230716924642,0.9958374446158068,-0.0356247536703361,-0.007912310619723898,-0.08352278831339906,0.015486563730519265,0.010312237827684334,4464.220505738049
1684727528334418058,28,1684727528334418058,camera_1,32,0,-0.11337758965710523,-0.20768823836066508,1.5565064672187374,0.9966039295336846,-0.03752741608410498,0.05638305474162113,0.04683216648920684,0.0017794294690247625,0.0011873877189107849,4453.341389983949
1684727528341011762,29,1684727528341011762,camera_1,33,0,-0.11337733811944417,-0.2071386088697182,1.5567153879670317,0.9968964976643927,-0.03890049643017946,0.044427389817708336,0.05206084282777631,0.0009776801598491147,0.0006530016896153568,4454.659653165758
1684727528347778320,30,1684727528347778320,camera_1,34,0,-0.11326975909223327,-0.20666748048526187,1.5557873141092526,0.9967387647654747,-0.037909100686996614,0.047009115922780335,0.053524554356457164,0.00155804464884568,0.0010391419698042594,4457.863109632802
1684727528354495286,31,1684727528354495286,camera_1,35,0,-0.11324174039670165,-0.20627426387751457,1.5556606805581634,-0.9962691844022544,0.035729078414939025,0.002202652127126201,0.07852575048793259,0.0007990236481418833,0.0005330701106453036,4464.480039757326
1684727528361157417,32,1684727528361157417,camera_1,36,0,-0.11300048586975626,-0.20512726144400895,1.5524642371419934,0.9961440971352631,-0.038558292891219696,0.04464227813358854,0.06494045576472247,0.005378584683057852,0.0035743372877016,4466.098209501708
1684727528367785453,33,1684727528367785453,camera_1,37,0,-0.11298467027363626,-0.20471035693962808,1.5527508099501641,0.9962692189733902,-0.038249602082007776,0.03851066777928604,0.06709351484243893,0.0049723741540219635,0.003307490035364691,4465.209744766877
1684727528374465703,34,1684727528374465703,camera_1,38,0,-0.11329904993858783,-0.2047802680784469,1.5571435965898972,0.99684082795159,-0.0388292256501246,0.03832143817382788,0.05772453846060288,0.006133574090199545,0.004098249439635433,4454.070924901026
1684727528381081104,35,1684727528381081104,camera_1,39,0,-0.11313382875057547,-0.2040868853681154,1.5549278011304162,0.996672184441342,-0.038791872997102655,0.048780712879705014,0.05253750471090294,0.0014785781677346679,0.0009838581828775176,4469.293038686446
1684727528387687683,36,1684727528387687683,camera_1,40,0,-0.11313808122958392,-0.20319432001520327,1.555831498797341,0.9968637084955857,-0.037766161966072916,0.046016844642200266,0.05214320381369094,0.0005547435430344194,0.00036946550604380395,4468.578833405191
1684727528394769430,37,1684727528394769430,camera_1,41,0,-0.11304814200890728,-0.2025557337330187,1.554673677366777,0.9961551845180603,-0.03814113615208199,0.036093687473071984,0.07012380348650316,0.0025866008509183303,0.0017242665680008325,4456.851467222763
1684727528401108264,38,1684727528401108264,camera_1,42,0,-0.11310512146691198,-0.20177386792682483,1.5565459939214945,0.9963205713277848,-0.03854894465585509,0.04856285627178772,0.05916880094882623,0.011797155195381492,0.007861525724650237,4458.290258622963
1684727528407845735,39,1684727528407845735,camera_1,43,0,-0.11307141203971793,-0.2010909149158632,1.5562741648866607,-0.9957583241816125,0.0346581595900185,0.001974811618624384,0.08520722924688251,0.0012394817604217676,0.0008265048669554976,4461.752568887779
1684727528414398670,40,1684727528414398670,camera_1,44,0,-0.1131084155888619,-0.20072167911872715,1.557250651823031,0.9970541916813284,-0.037548737321652315,0.03769574001547666,0.055245473669145694,0.00972475387970917,0.0064867025946167296,4466.862129186077
1684727528421779394,41,1684727528421779394,camera_1,45,0,-0.11313215248813768,-0.19973793614157082,1.5580568492446483,0.9972795647235474,-0.0379158355228894,0.03054507326709867,0.05534309081105524,0.0040818106645019725,0.0027263105242931905,4466.818216354382
1684727528427912235,42,1684727528427912235,camera_1,46,0,-0.11306977910960246,-0.19916265544677914,1.5572547848476135,0.9967646518467279,-0.03828846516108741,0.042516028719882096,0.05645006258960064,0.002619552571559325,0.001745810600700435,4467.2287381466
1684727528434511661,43,1684727528434511661,camera_1,47,0,-0.11309335962396402,-0.1986743537215369,1.5578864619086574,0.9969573929070432,-0.03846087530096463,0.03610616901833435,0.05738521027141765,0.0018334938504267484,0.0012234511921884823,4466.279208165883
1684727528441134929,44,1684727528441134929,camera_1,48,0,-0.11309007201755716,-0.1977191215059306,1.5585441982976873,0.9968705805760555,-0.038893489962177494,0.03860501270061791,0.056973634383854256,0.0028541103965835646,0.0019047313895571994,4464.590970926569
1684727528447744369,45,1684727528447744369,camera_1,49,0,-0.11299572657000205,-0.1970519172121833,1.557737284971772,0.9964906670535079,-0.03783873333905153,0.04128738931418321,0.06220877926924897,0.0016254687361652032,0.001083664818754674,4462.945450782456
1684727528454581260,46,1684727528454581260,camera_1,50,0,-0.11267901064680345,-0.19605821868141748,1.553294325209916,0.9958682437161062,-0.03867465653794253,0.038888109149531176,0.0723769788416505,0.0002002592373173684,0.00013289898305427446,4476.227345273044
1684727528461168527,47,1684727528461168527,camera_1,51,0,-0.11300370490549913,-0.19579409115774654,1.5590073122013715,0.9966775534472374,-0.03566342006312365,-0.008301550112131309,-0.07275341359390808,0.010727397821028717,0.007153905594537615,4467.8638690782245
1684727528467720746,48,1684727528467720746,camera_1,52,0,-0.11297949406363825,-0.19535926074026766,1.5590448984285143,0.9968955515168545,-0.035128265647200244,-0.015729383663908407,-0.06868661301942232,0.013089356667478569,0.00872230766170152,4468.776112171357
1684727528474484205,49,1684727528474484205,camera_1,53,0,-0.1130179565715156,-0.19499484865461805,1.5593967017243733,0.9969532172923806,-0.03836299699589847,0.042549549218698475,0.052934854804274914,0.005399899324402213,0.003601760062431364,4469.30618608347
1684727528481131315,50,1684727528481131315,camera_1,54,0,-0.11323950116590584,-0.1946719893651353,1.5632360611980638,0.9962829297399203,-0.0353709127448527,-0.006024533375279215,-0.0783130093793323,0.03291545412503183,0.022024273644326336,4465.410121653809
1684727528488121747,51,1684727528488121747,camera_1,55,0,-0.11282835984394335,-0.19363417916261633,1.5573734491315605,0.9964099543478805,-0.03796891452957533,0.046933579693738334,0.05935320971128736,0.0003083484625676647,0.00020507232365308368,4473.780602102925
1684727528494859695,52,1684727528494859695,camera_1,56,0,-0.11288232955875867,-0.19341233521813406,1.5582341690738124,0.9965416816562254,-0.03788122658417082,0.042722378539396,0.06036959305973291,0.001564205449540168,0.001041708727220738,4470.3647221594
1684727528501180171,53,1684727528501180171,camera_1,57,0,-0.11294451500919414,-0.19301195977202626,1.5593347248551495,0.9969200611710625,-0.037907702125384,0.0473527976823438,0.04971026358724128,0.002995075366925448,0.0019949854363707302,4475.260172345672
1684727528507923603,54,1684727528507923603,camera_1,58,0,-0.11284569751470777,-0.19262874549355466,1.5585631828065007,0.9970035459553112,-0.03835865009224397,0.03712843909400603,0.05598233941234616,0.0004943637177348137,0.00032931588541748076,4477.7988968222035
1684727528514471769,55,1684727528514471769,camera_1,59,0,-0.11289078778706516,-0.19252010878474546,1.5592913340057575,0.9970220022973608,-0.03851349256176925,0.039613196282624226,0.05380178905882404,0.0012696151970885694,0.0008461325468179455,4475.6485927913445
1684727528521136283,56,1684727528521136283,camera_1,60,0,-0.11302817953448104,-0.19247906886553395,1.5616733314955416,-0.9974754541346719,0.03598442459555305,0.009200398555555328,0.06052431124578056,0.003868573941872455,0.0025837328959439484,4470.51146185078
1684727528528076887,57,1684727528528076887,camera_1,61,0,-0.11287019604621656,-0.19214452067239415,1.559454189393184,0.996450844090672,-0.03913455208001921,0.03698056031560247,0.06470425258997746,0.009512989447102882,0.0063471911587063366,4463.196688191268
1684727528534443378,58,1684727528534443378,camera_1,62,0,-0.11290843384202051,-0.19210754236051794,1.559775301162528,0.9965901827762144,-0.03825646012706911,0.04644688483249416,0.056454740651028144,0.0006707837601425126,0.0004471369590910903,4467.781271954649
1684727528541247606,59,1684727528541247606,camera_1,63,0,-0.11279348175060988,-0.19185710872382,1.5582551543328482,-0.9965983012927903,0.038010491701834105,-0.039536960113465226,-0.06151306500163906,0.0013105914695188403,0.0008726684457538179,4473.625477309454
1684727528547924280,60,1684727528547924280,camera_1,64,0,-0.11259739296502352,-0.19159603397415456,1.555662192332676,0.9961856064891117,-0.037959446975611946,0.043256215213851576,0.06559129252118488,0.002486683093593456,0.0016503345879365073,4481.4915196084185
1684727528554555177,61,1684727528554555177,camera_1,65,0,-0.11279534034526617,-0.1919309075733083,1.5582247817795316,0.9965243039664309,-0.03913799608874064,0.03980763645192636,0.061829450478631635,0.00010088022099807858,6.717434992542286e-05,4473.077621096803
1684727528561129570,62,1684727528561129570,camera_1,66,0,-0.11282326406408708,-0.19207208935823242,1.5586677673007736,-0.9970050791423353,0.03536654301160869,0.00988384413354633,0.06806165899342687,0.0009527075017103925,0.0006339750596724142,4479.884378349291
1684727528567993402,63,1684727528567993402,camera_1,67,0,-0.11279165996181659,-0.19231636206975875,1.5583081569590418,-0.9967647749480447,0.034914140611504677,0.016521583684602298,0.07048420731402764,5.054345820099115e-06,3.36147696787451e-06,4475.074979344616
1684727528574667453,64,1684727528574667453,camera_1,68,0,-0.11277448624577219,-0.19247919309233097,1.5574631277116509,0.9962578722396039,-0.03836225247085629,0.04740086848344225,0.061251508169144785,0.004777832611580379,0.003177133110485314,4473.237302765076
1684727528581176757,65,1684727528581176757,camera_1,69,0,-0.11285551891724457,-0.19276261461138583,1.5587203075785327,0.9963973055253812,-0.035484137542432716,-0.00034975586648723313,-0.07702702899283988,0.006624330417253077,0.004415982252991243,4472.173463688292
1684727528587864637,66,1684727528587864637,camera_1,70,0,-0.1128776415914929,-0.19336036845182109,1.558737902092584,0.9966571251226115,-0.03836848014382549,0.041281175758459035,0.059146421715798946,0.00895810400834307,0.0059691977353677084,4469.826096538745
1684727528594477653,67,1684727528594477653,camera_1,71,0,-0.11287475408416625,-0.193595832593118,1.5582218012425924,0.9963638739799585,-0.038029490261110105,0.044405643227852294,0.061975215591800546,0.00018334943160880357,0.00012211714138686956,4467.197110618584
1684727528601224184,68,1684727528601224184,camera_1,72,0,-0.11292307931128323,-0.19434954849683522,1.5588328485818463,0.9965104620030589,-0.037853962593386914,0.04096593647175842,0.062094836205763636,0.00011747407552320512,7.834685336576806e-05,4463.5290464167465
1684727528607816934,69,1684727528607816934,camera_1,73,0,-0.11286314697528749,-0.19463934912793465,1.5579784556005178,0.9964476872127813,-0.038284476528252294,0.039591688586728756,0.06370874115934456,0.010258307345793582,0.006836240354828896,4465.9231922272
1684727528614407062,70,1684727528614407062,camera_1,74,0,-0.11302765228603501,-0.19527047326499491,1.5598315934807827,0.9967121189996572,-0.03751323751524839,0.037429418119593404,0.06129231199397254,0.0007202191045507789,0.0004812303356099587,4458.3786827581935
1684727528621365785,71,1684727528621365785,camera_1,75,0,-0.11320009215433402,-0.19637493028103037,1.561407495585396,0.9973927813618806,-0.03755692230868237,0.045253638669125025,0.04182374279181083,0.0009925386548275128,0.0006635664525182965,4465.416982288415
1684727528627970218,72,1684727528627970218,camera_1,76,0,-0.11289642870515687,-0.1962668962010705,1.5569316582915393,0.9963137300467965,-0.038035439927897985,0.0338987538227076,0.06901544116353905,0.0040805700700730085,0.002721231702170399,4462.465493553201
1684727528634454011,73,1684727528634454011,camera_1,77,0,-0.11416592720072688,-0.19896333309969294,1.5745894837052152,-0.9990440129492589,0.03580819693638251,-0.01705856872480727,0.0183803823536789,0.14558797220524866,0.09813312561941863,4463.845961982617
1684727528641066789,74,1684727528641066789,camera_1,78,0,-0.11302871352396207,-0.19744189876002094,1.5583366913270291,0.9972453897107657,-0.039301314010931086,0.04138267661921536,0.04737629674707406,0.004575326121994294,0.0030500590424237138,4475.987146739324
1684727528647799253,75,1684727528647799253,camera_1,79,0,-0.11322968855323373,-0.19874186484428563,1.5604970116975738,0.9970220049868792,-0.03754723595448815,0.046823730921575296,0.048423804752469095,0.003074615335208364,0.002055527538646431,4457.656387380035
1684727528654773235,76,1684727528654773235,camera_1,80,0,-0.11304175032195218,-0.1988867340481109,1.5577968799376574,0.9969696899011165,-0.03819158157951153,0.04206216353716394,0.05313769766841656,0.002793181483866647,0.0018622022015508692,4469.015582912951
1684727528661283493,77,1684727528661283493,camera_1,81,0,-0.11354407806697221,-0.20073632519169474,1.5640872299925617,0.9963616485576977,-0.035698673397714396,0.018538500220123846,-0.0751358370594146,0.04977154919470195,0.03334832025843763,4463.723681242089
1684727528667748689,78,1684727528667748689,camera_1,82,0,-0.1131719746508365,-0.20057608811634312,1.5585084695827296,0.9968433952527048,-0.03836212578278522,0.03429131560150316,0.06046237111463371,0.00418147626623977,0.0027959556972347896,4454.985938876693
1684727528674420833,79,1684727528674420833,camera_1,83,0,-0.11310987704622476,-0.2009766195983152,1.5572706562445038,0.9965295770762617,-0.03720158190458261,0.05430369627597882,0.05095049447031937,0.00038058125937823206,0.00025356830306705336,4462.7650444388855
1684727528681297063,80,1684727528681297063,camera_1,84,0,-0.11353017267536328,-0.20272841992381269,1.5627359439316681,0.9969005791712365,-0.034864117469618545,-0.0034684053609733327,-0.0704393265539214,0.022625177167356014,0.015149237656707296,4460.750115701669
1684727528687872886,81,1684727528687872886,camera_1,85,0,-0.11319259042525184,-0.20258269343581126,1.5574132554027835,0.9968210316841687,-0.037877249230656856,0.05583591549223655,0.04237328549891088,0.0024956607521744445,0.0016635946880947453,4466.060324033839
1684727528694646120,82,1684727528694646120,camera_1,86,0,-0.11330507061294509,-0.2032353217680262,1.558746498634246,0.9970957636812767,-0.038181824077543135,0.038005294570641286,0.05383106857161426,0.0032360418554162607,0.0021645299746532736,4454.173624270714
1684727528701261043,83,1684727528701261043,camera_1,87,0,-0.11315189197784993,-0.20387066005369514,1.556005674152751,-0.9970042627843893,0.03930745772771359,-0.04607088539534025,-0.04811337938276893,0.001624291151529178,0.0010820528289815336,4470.413463714152
1684727528708017826,84,1684727528708017826,camera_1,88,0,-0.1132389545711987,-0.2044728101120335,1.5571246043613025,-0.9964279898106219,0.036283877302015,0.009823384214422427,0.07561906170054898,0.0010408784146420658,0.0006946678377470493,4459.7522603372345
1684727528714547634,85,1684727528714547634,camera_1,89,0,-0.11299179958775289,-0.20448779684468013,1.5535897262673914,0.9955800689787926,-0.035061934675986145,-0.011164256299736396,-0.08640802260342047,0.012138174803112634,0.008071714792080655,4465.054292858171
1684727528721092462,86,1684727528721092462,camera_1,90,0,-0.11318085736717465,-0.20519767153565346,1.5558362894258237,0.9959338724587593,-0.03549734305242966,-0.007443900918988027,-0.08246362024933321,0.0033402145199943334,0.0022277648823077366,4458.444457040402
1684727528727711439,87,1684727528727711439,camera_1,91,0,-0.11336288552733373,-0.20631044427804918,1.5579023362543905,0.9967043553581932,-0.03955747730685452,0.05161619669485515,0.048491259396763485,0.007415448984829711,0.0049547718004000095,4450.533495949813
1684727528734434366,88,1684727528734434366,camera_1,92,0,-0.11309021316363954,-0.2061743806611839,1.5540115372837593,-0.9960270403978095,0.035994389583498605,0.017421407906711043,0.07956779035162198,0.00406961738190148,0.002706794229804765,4464.791109367623
1684727528741033077,89,1684727528741033077,camera_1,93,0,-0.11321375769915197,-0.20672912312241531,1.5550899329475119,0.9964318943152806,-0.03918859263722434,0.048009200317324606,0.05729616813772639,0.009283219333156012,0.006187287814545784,4456.2088291579275
1684727528747708320,90,1684727528747708320,camera_1,94,0,-0.11415003075966751,-0.20901486358469365,1.5677826587456045,0.9978585187590508,-0.036750963342873186,0.05179241008903307,0.015661720548308247,0.09014925955852959,0.06060350619861545,4454.221179769753
1684727528754428148,91,1684727528754428148,camera_1,95,0,-0.11325486074184948,-0.20757147942799659,1.555098702698175,0.9967901106189416,-0.03826678311167961,0.047923121461821205,0.051463609588888584,0.0017824789101723582,0.0011880211004688095,4461.174764604075
1684727528761153459,92,1684727528761153459,camera_1,96,0,-0.11324485695184722,-0.20780477487185692,1.554844009079114,0.9969747274150105,-0.03796905736472416,0.043467794668296665,0.05206048794695234,0.0158031573810149,0.010533428080722516,4463.44377866885
1684727528767725706,93,1684727528767725706,camera_1,97,0,-0.11334549641954253,-0.2082992299336138,1.5555887584840362,0.9967577760996704,-0.03727051340327751,0.049639892874763863,0.05119302345903545,0.0064077193674165756,0.004274744348994161,4456.022376730194
1684727528774435758,94,1684727528774435758,camera_1,98,0,-0.11324203980390593,-0.20831523715520267,1.554628855905021,0.996424614638796,-0.038963891093130046,0.045601330995646526,0.059500597847712645,0.0035240463039372116,0.0023497932253990377,4452.935175652966
1684727528781273603,95,1684727528781273603,camera_1,99,0,-0.11322201212024191,-0.20832462285419454,1.5543538567466872,-0.9963272133369137,0.03555719383944267,0.010146444024063818,0.07723224458884376,0.0015586980880470946,0.0010383747414434675,4465.838935861306
1684727528788052797,96,1684727528788052797,camera_1,100,0,-0.1132399568358749,-0.20848811957942937,1.554389247922981,-0.9964064255045332,0.03416137000329711,0.008747713077433637,0.0770111260058708,0.0014676315477117896,0.000977854201280735,4466.253217181134
1684727528794889450,97,1684727528794889450,camera_1,101,0,-0.11333438152142536,-0.2086690911968111,1.5555162338803823,0.9967960565039863,-0.038633942889279155,0.04653089641243582,0.05234420573458723,0.0022453138371929526,0.0014982220967204817,4455.733083800762
1684727528801163673,98,1684727528801163673,camera_1,102,0,-0.113216959368509,-0.2084674604110267,1.5540830280405176,0.9964782941006997,-0.03921036058376315,0.04088956499261535,0.06181909481515783,0.012405188550474122,0.008271716348392555,4454.462411953544
1684727528807871818,99,1684727528807871818,camera_1,103,0,-0.1132843851001265,-0.20839787854890768,1.5547349369068517,0.9965856588454377,-0.038635125854063,0.04225161816922184,0.0594907757213499,0.0015906377375358716,0.001061158175926387,4453.738090791389
1684727528815006971,100,1684727528815006971,camera_1,104,0,-0.113238314465234,-0.20818568161671802,1.5541596680529477,0.9969675700108949,-0.03841674909208103,0.049755833176817185,0.045871285142760204,0.00031450112874154,0.00020934415804945477,4469.913984523242
1684727528821123838,101,1684727528821123838,camera_1,105,0,-0.1132660454870108,-0.20807853306333826,1.554779666550122,-0.9959059982161244,0.03534691248239261,0.004545159314274352,0.08307334122277096,0.0006985683139646426,0.0004659320586028866,4459.55304365349
1684727528827786684,102,1684727528827786684,camera_1,106,0,-0.1131927742824031,-0.20755883178332935,1.5537018781844258,-0.9964203176510309,0.03875952818684482,-0.04418676240122518,-0.06076001625616595,0.0016934992163442075,0.0011278520865969158,4458.994847201537
1684727528834623575,103,1684727528834623575,camera_1,107,0,-0.11328351466249457,-0.20753918076566594,1.555279794945231,0.9965327473005328,-0.03928154283837303,0.04515581651047268,0.05779616064378561,0.0032894799223868176,0.002194393163681065,4453.911083592626
1684727528841782331,104,1684727528841782331,camera_1,108,0,-0.11311763921406343,-0.20698918254048115,1.553386093728417,0.996349841600246,-0.038356363603896944,0.043776580439596834,0.06244512406317876,0.010884204675676301,0.007245071978928567,4460.082164768567
1684727528847999811,105,1684727528847999811,camera_1,109,0,-0.11326606370068701,-0.20667521685513468,1.5558081468707523,0.9967373025586146,-0.03846803754750409,0.04190765054703367,0.05726000874125424,0.007916091097285971,0.005283270153824143,4455.513618033787
1684727528854628801,106,1684727528854628801,camera_1,110,0,-0.11308735190270118,-0.20593146534575063,1.5530685386076808,0.9961906042224441,-0.03874444617233207,0.04087833787675933,0.06657408987101844,0.0007304552127607167,0.00048619878931498465,4460.120883312486
1684727528861261606,107,1684727528861261606,camera_1,111,0,-0.11345324300392623,-0.2058574593612162,1.5587277304916278,0.9971586529754632,-0.03776342288374497,0.04267572603347458,0.049267911420913336,0.0012432561634341253,0.0008320013907739518,4451.1312713653315
1684727528867828369,108,1684727528867828369,camera_1,112,0,-0.11334019924558306,-0.20531165129262252,1.5577081040751015,0.9967963942811029,-0.03511742299299028,-0.009129587540071628,-0.07127668329735758,0.016123408349812962,0.010770468724294189,4460.098652614249
1684727528874433040,109,1684727528874433040,camera_1,113,0,-0.11326494440897886,-0.20479774326292338,1.5572901493594915,0.99667518243683,-0.038875619098027885,0.03731829594836503,0.061111469805324836,0.018861574732000008,0.012610365164596163,4449.153735891101
1684727528881057977,110,1684727528881057977,camera_1,114,0,-0.11325782049153568,-0.20431557847718812,1.5568877634990086,0.9968706835837691,-0.03747403595269393,0.038822477137533756,0.05776982005815015,0.0023453297035302967,0.0015662945054727897,4456.422972335769
1684727528887666940,111,1684727528887666940,camera_1,115,0,-0.11323460838345895,-0.20334282112111302,1.5569489842518287,0.9970728597908983,-0.04019186193358666,0.03793234434755049,0.05283430471776916,0.01933947800716851,0.012910128990558517,4464.740960351364
1684727528894325494,112,1684727528894325494,camera_1,116,0,-0.11318567987174097,-0.2028134862100687,1.5570938847155298,-0.9962450732190358,0.03524084091425891,0.012769450996921483,0.07804343879975491,0.00031152673182077706,0.00020776509290849657,4458.440690441727
1684727528901090621,113,1684727528901090621,camera_1,117,0,-0.11319642178948014,-0.20230398119977638,1.5570869110323564,0.9966089849100584,-0.03828325771584043,0.042750923467508424,0.05896848241120774,0.00482424913207069,0.0032191907527594054,4457.2350981449745
1684727528907747030,114,1684727528907747030,camera_1,118,0,-0.11303755602977593,-0.20106586226561587,1.5556290566410178,0.9963753489704061,-0.038450453351883504,0.03756231955611084,0.06593025671647831,0.002362782834097743,0.0015749298355969728,4460.981742995882
1684727528914997577,115,1684727528914997577,camera_1,119,0,-0.11317419944568419,-0.2007843190350589,1.5577518561458132,0.996820566205716,-0.03768636968461554,0.03312793779293505,0.06189536385625112,0.0025493148277746513,0.0017035530514633744,4457.08581738628
1684727528921337604,116,1684727528921337604,camera_1,120,0,-0.113117693271405,-0.20021219495712186,1.5573663723629065,0.9967530023365215,-0.03788967676282761,0.03979288050273501,0.058858740975608975,0.0034049380046781152,0.002271556947916161,4462.250786689079
1684727528927780151,117,1684727528927780151,camera_1,121,0,-0.11293905967362236,-0.19888191668363647,1.5554575693445383,0.9961451570407177,-0.03867628163275268,0.03724904809973659,0.06936483085145917,0.0004714232200058177,0.0003140043570086653,4462.5928594416455
1684727528934378862,118,1684727528934378862,camera_1,122,0,-0.11299466504453712,-0.19846373778169513,1.5565278621300815,0.9968320683475985,-0.03846154589681206,0.03808279927600223,0.05827724599172414,0.0043727151496568695,0.002912619726347373,4472.368198402286
1684727528941213369,119,1684727528941213369,camera_1,123,0,-0.1129376005791348,-0.19790757535488637,1.5561597054127603,0.9968970033996196,-0.03741110357307613,0.03974349336188935,0.05672061951086973,0.00012230902211740613,8.138905153690055e-05,4477.025076630407
1684727528947740077,120,1684727528947740077,camera_1,124,0,-0.11307044700173549,-0.19712232249954034,1.5584456276715177,0.9970881850227,-0.037397165614625236,0.03424092535711077,0.05695754842704301,3.145323717035353e-06,2.0993683913306494e-06,4468.033842002187
1684727528954588413,121,1684727528954588413,camera_1,125,0,-0.11304086914860467,-0.19671815225642228,1.558555684731105,0.997009759263732,-0.03911533343910877,0.03605031251492459,0.05605270368500179,0.002641172119183466,0.0017623755870320836,4468.826836712426
1684727528961059093,122,1684727528961059093,camera_1,126,0,-0.11301517622237853,-0.19618291696703116,1.5584481777142338,0.9968895846185171,-0.037598512000426,0.0418260495538577,0.0552095060038819,0.00025869152159430087,0.00017245805558189936,4469.531346337722
1684727528967752456,123,1684727528967752456,camera_1,127,0,-0.11299775360459839,-0.19532465260507614,1.5586076676579985,0.9967519567631372,-0.037794840754787985,0.044516509685807455,0.05545599216109027,0.0007904501544544473,0.0005268150547397229,4469.107431379554
1684727528974730253,124,1684727528974730253,camera_1,128,0,-0.11290666718681586,-0.19472900230196644,1.557948326053484,0.9960418902738767,-0.03592888149792578,0.0010925384225122365,-0.0812925252021738,0.014755674128537066,0.00983969781846473,4468.619163975584
1684727528981125831,125,1684727528981125831,camera_1,129,0,-0.1128558773220029,-0.19438249746273747,1.5575877117286387,0.996376298197439,-0.039428397778801264,0.03307423246313454,0.06771830613607684,0.0034844906185753644,0.0023235163194000106,4465.353136963792
1684727528987774372,126,1684727528987774372,camera_1,130,0,-0.11303180823436584,-0.19393303625560343,1.5599932811638888,0.9971656234209629,-0.0374138311472843,0.0390611108528997,0.05229870290267675,0.00184313599311281,0.0012301040812961472,4470.605538169153
1684727528994364261,127,1684727528994364261,camera_1,131,0,-0.11282450925832185,-0.1933153441733167,1.5576681893846838,-0.9961670135772613,0.03559064878149345,0.002682261543107097,0.07985857657689376,0.0013829109375365078,0.0009208668703471757,4472.843204266043
1684727529001100063,128,1684727529001100063,camera_1,132,0,-0.11311409744305284,-0.19351100688081033,1.561615169069426,0.9973891281478604,-0.03850286284308559,0.03691038886123126,0.04868346535991515,0.0018470685463398695,0.0012349153848829754,4467.292528565624
1684727529007983207,129,1684727529007983207,camera_1,133,0,-0.11279134141173516,-0.19254292197284473,1.5577560029056943,0.9964502646454786,-0.038477528306344724,0.04265730696660979,0.061536201261912,0.00093094575277064,0.000619487157458778,4473.460007260845
1684727529014632463,130,1684727529014632463,camera_1,134,0,-0.11279479288495445,-0.19239186899364,1.558192452684368,0.9964188836763249,-0.03827512082728786,0.04639933810056481,0.059426633782440966,0.010259662754833698,0.006826726899890204,4472.2447227956745
1684727529021142005,131,1684727529021142005,camera_1,135,0,-0.11276406105414166,-0.19217478573965188,1.5579830800555847,0.9963713009111226,-0.0356429393198521,-0.0031021090011704917,-0.07722815883512751,0.016658451364492066,0.01109105073920248,4475.8610940315975
1684727529027845382,132,1684727529027845382,camera_1,136,0,-0.11266340427011268,-0.19176588026043773,1.556675329612559,-0.9955151837088259,0.03489221415495886,-0.004407233825949105,0.08782157301341517,0.0037402333109639585,0.00249038212432097,4471.882490808957
1684727529034405469,133,1684727529034405469,camera_1,137,0,-0.11367949212607692,-0.19342841558382953,1.5706002422244245,0.9985500537687048,-0.037428729887173585,0.007794413739114424,0.03789627174292282,0.10385018243687227,0.06970757465023109,4473.146590657472
1684727529042008399,134,1684727529042008399,camera_1,138,0,-0.11302398194922833,-0.19230406063377853,1.5617142501402714,0.997565945851651,-0.03768661545499825,0.031734091024138836,0.04934420087020934,0.0015882168081589043,0.00106191563445312,4470.181596514072
1684727529048114776,135,1684727529048114776,camera_1,139,0,-0.11272569490472639,-0.1918558199933607,1.5577737084566583,0.9965086068498048,-0.038614974180000455,0.038250257688535225,0.06337505842285171,0.007290518027730286,0.004852566684315005,4474.3053299735775
1684727529054623842,136,1684727529054623842,camera_1,140,0,-0.11264640442905399,-0.19171554278323075,1.556392029234842,0.9960032301631638,-0.03748992419037195,0.03712541347279175,0.07206784833209572,0.00031571586441714317,0.00021000558246631913,4470.648328705687
1684727529061605215,137,1684727529061605215,camera_1,141,0,-0.11293525276676276,-0.19228714199924268,1.56032020168212,-0.9967127852851708,0.035387516602301466,0.00402336487980145,0.0727678490326796,0.0021131332614459097,0.0014102729270483994,4467.749865500722
1684727529068361520,138,1684727529068361520,camera_1,142,0,-0.11282446060356238,-0.19236133759972326,1.5584335151114463,0.9966198727132721,-0.03772165273865021,0.04166248592956914,0.05991780614988024,0.0001640746631892398,0.00010926228254208075,4472.6467882244615
1684727529074655055,139,1684727529074655055,camera_1,143,0,-0.11286758121621233,-0.19264329088141985,1.559014199025402,0.9968979201158517,-0.03883194692431473,0.04100527291737909,0.05481956183450828,0.005402241091360338,0.003598977840759516,4475.149684248028
1684727529081310749,140,1684727529081310749,camera_1,144,0,-0.11274016793816599,-0.1926298411603463,1.5572492399668507,0.996444119884083,-0.039482266606650995,0.0355645320976037,0.06538677717027407,0.00495784888335038,0.0033003742038946993,4473.680671935434
1684727529088005065,141,1684727529088005065,camera_1,145,0,-0.11291701444803424,-0.19345380513801202,1.5593541699633486,0.9969074898925467,-0.03836053125267222,0.04813403321034146,0.048857354462354737,0.005105193529743701,0.0034008671344206414,4474.619072006489
1684727529094486474,142,1684727529094486474,camera_1,146,0,-0.11289596758041641,-0.193686824548091,1.5591995185020233,0.9963343158378154,-0.03489262492268769,-0.008669721289789415,-0.0776226239105219,0.003799862344749272,0.002533597116015287,4463.990881687029
1684727529101435899,143,1684727529101435899,camera_1,147,0,-0.11287949276252368,-0.1939680670682949,1.5582760521129404,-0.9968833363992804,0.03807298373017804,-0.048821459322023295,-0.04889301206705337,0.0026961391122313216,0.0017941469111894487,4479.005742119915
1684727529107850790,144,1684727529107850790,camera_1,148,0,-0.11293984234026105,-0.19473777399703693,1.5590759351867707,-0.9963937968772069,0.03473839480638988,0.0007033178723914393,0.07740898407077355,0.0037134160666028038,0.0024781568200366506,4466.649242689891
1684727529114580392,145,1684727529114580392,camera_1,149,0,-0.11297472025484716,-0.19523456014067558,1.5592264442707453,0.9967928527524202,-0.03708480740899489,0.05187085868682689,0.04835431501139106,0.001013984452583827,0.0006757146412794439,4469.784383921071
1684727529121047019,146,1684727529121047019,camera_1,150,0,-0.11307257250727745,-0.19575500065199755,1.5601924922285442,0.9971002237445316,-0.03801806676485022,0.04201944104164273,0.05079504880021782,0.002481553194229491,0.0016570749995615838,4465.861240323631
1684727529127751588,147,1684727529127751588,camera_1,151,0,-0.11302344029994041,-0.1965233251329398,1.558954878870208,0.9967754054707169,-0.03851853619524463,0.03192396959281376,0.06273733803326988,0.0012205897510284558,0.0008156434887664485,4459.966514684958
1684727529134473562,148,1684727529134473562,camera_1,152,0,-0.11303710775344827,-0.19698251781816445,1.558705884723452,0.9968568389787895,-0.03790296826518726,0.04178344472120843,0.055623298402142314,0.001655879954341799,0.0011045898371500717,4465.791361028911
1684727529141056537,149,1684727529141056537,camera_1,153,0,-0.1129675272778572,-0.19734766492755035,1.5575569447850581,0.9970049466624973,-0.03756115206504243,0.04195598827036816,0.053009350442302185,0.004175984489847906,0.002781551323198178,4474.142070628181
1684727529147786855,150,1684727529147786855,camera_1,154,0,-0.11310255852212407,-0.19851294397743433,1.558470381990147,0.9970996173684418,-0.036477303969046325,0.044955809903004476,0.04940379028801159,0.005420338799012825,0.0036152689668806463,4469.109360786648
1684727529154516696,151,1684727529154516696,camera_1,155,0,-0.11312259373100597,-0.19903936279285456,1.55878946407315,0.9972002295727705,-0.03748438189267827,0.03915471366479615,0.05151244172008704,0.005428238524473272,0.003623871270624936,4466.309355150617
1684727529161992549,152,1684727529161992549,camera_1,156,0,-0.11313099888656834,-0.19954055779079294,1.5585245913806571,0.9967915270335166,-0.03793734297037896,0.03948383905241712,0.05838181306041397,0.0023334046272793785,0.0015584436262558632,4458.308742887867
1684727529167842149,153,1684727529167842149,camera_1,157,0,-0.11313883472321784,-0.20052723808171763,1.5579191155670729,0.9967952653261672,-0.038338725455108545,0.04038285016140051,0.057433148674397486,0.0007937331392895429,0.0005298730640925583,4460.016873268296
1684727529174776554,154,1684727529174776554,camera_1,158,0,-0.11298142606453254,-0.20073595412020007,1.5555305619837774,-0.9953282033445567,0.03368569564985728,-0.001033112493549454,0.09047637378928139,0.0014368459960678592,0.0009579772298871946,4460.100792118117
1684727529181030750,155,1684727529181030750,camera_1,159,0,-0.11319477993363794,-0.2016582219976616,1.558415908861111,0.9969667634537733,-0.03809538375061417,0.042696500807228345,0.05275436592567512,0.018863543664338067,0.012597779854840573,4459.166742525122
1684727529187747478,156,1684727529187747478,camera_1,160,0,-0.11331381878427033,-0.20283589021335216,1.5592977735587936,0.9974439816147657,-0.03785853241972005,0.04148821581865885,0.04416970694596759,0.00835046659631189,0.005583078299006739,4461.3588145292015
1684727529194380044,157,1684727529194380044,camera_1,161,0,-0.11316377983853441,-0.20302900082350633,1.5569010586788439,0.9965776232483999,-0.03858258424694845,0.04589152906950588,0.05690687650064935,0.009888365413644351,0.006595878332237428,4457.496632458177
1684727529201170921,158,1684727529201170921,camera_1,162,0,-0.1132734157527297,-0.2036689848491269,1.55785223734411,0.9966093835212059,-0.03896306721622112,0.049718164024783795,0.05272305223136353,0.0007755237456876785,0.0005177868760633003,4453.77423582421
1684727529207854509,159,1684727529207854509,camera_1,163,0,-0.11314407486940933,-0.20433735761940708,1.5556796394921906,0.9964754458603825,-0.038033638109954915,0.049411450330620374,0.0561127146527197,0.008929618255933747,0.005948875501624382,4459.924195959379
1684727529214691162,160,1684727529214691162,camera_1,164,0,-0.11324608452198169,-0.20496169300162836,1.5568722721480661,0.9969447707218279,-0.0380918441648484,0.0457255860457279,0.05058958706391758,0.0003990558470832184,0.00026628864545330164,4460.435605393228
1684727529221165657,161,1684727529221165657,camera_1,165,0,-0.11322819497685727,-0.20530000906600804,1.5562319524139854,0.9967412665588008,-0.03833662130100232,0.039651746575130244,0.05886331624639349,0.006762885575881228,0.004514555382039064,4455.695476880471
1684727529227720737,162,1684727529227720737,camera_1,166,0,-0.1131625043226542,-0.20597536755708123,1.5548910000458165,0.9965056640294069,-0.03739794876111772,0.047754569986640565,0.057422609059175136,0.016761709659476765,0.011167190561147507,4459.2400875770545
1684727529234488010,163,1684727529234488010,camera_1,167,0,-0.11334636936307829,-0.20663130043272013,1.557011157661061,0.9970121322758797,-0.03752722880193967,0.05180899779632204,0.04329368245473662,0.003158530525979586,0.0021081411373259926,4459.963232603797
1684727529241064786,164,1684727529241064786,camera_1,168,0,-0.1133596577229895,-0.20700454747275182,1.5570256049359512,0.9969536831687703,-0.038280524834821555,0.05631853811918991,0.03802863787609539,0.006532098239404149,0.004359721309012573,4461.079662056757
1684727529247677326,165,1684727529247677326,camera_1,169,0,-0.11319257768774221,-0.2072483060433054,1.5544838240186842,0.9966583183074987,-0.03757557650953681,0.046570985795572846,0.05560050251996951,4.4265660108067095e-05,2.9488983954935995e-05,4461.077461013397
1684727529254453897,166,1684727529254453897,camera_1,170,0,-0.11336231905350458,-0.20782082119519962,1.5567822001887375,0.9972351119155004,-0.03785492786932044,0.04245932454231346,0.047815706188433914,0.005533885749173351,0.003696808797894426,4458.258488445717
1684727529261130571,167,1684727529261130571,camera_1,171,0,-0.11327598079488026,-0.20789007684882005,1.555412682402733,0.9970448169841797,-0.03776673459584358,0.03997386742506652,0.05364137028482725,0.01123146949976217,0.0074950201271101234,4459.754527369048
1684727529267716646,168,1684727529267716646,camera_1,172,0,-0.11339929832306338,-0.20847068446698566,1.5569102914607618,0.9972886876748293,-0.038194187508260015,0.042374644758790866,0.04648512620147556,0.012757602220517583,0.008525322548355191,4457.35797609208
1684727529274677276,169,1684727529274677276,camera_1,173,0,-0.11346769931871398,-0.2086723781339413,1.5574499862839009,0.9971822749703992,-0.038586738468617494,0.051764451839548274,0.038197063041082384,0.002436734430375509,0.0016282400303664348,4457.407489750126
1684727529281424045,170,1684727529281424045,camera_1,174,0,-0.11325459555972725,-0.20840740698486926,1.554671229371407,0.9969292380688713,-0.038721784389384326,0.04249431837404437,0.05316907562716509,0.008826665944070555,0.005884783924132705,4461.883695366095
1684727529287970542,171,1684727529287970542,camera_1,175,0,-0.1132500188372255,-0.20847586515041755,1.5542412550843776,0.9964092547733209,-0.0386202464976655,0.04552340629867607,0.06003909594173151,0.0005287239036988467,0.00035244530666647,4453.949980030536
1684727529294437170,172,1684727529294437170,camera_1,176,0,-0.11332938078026702,-0.20863531849293204,1.5552605420785848,0.9969608080522038,-0.038511104185074176,0.048029518643678486,0.04774104524620341,0.001517151336884126,0.001011599220980544,4461.716219457623
1684727529301131248,173,1684727529301131248,camera_1,177,0,-0.11331038066129204,-0.20851598562061513,1.5549777565528902,-0.9957807969373121,0.035752278358715424,0.008179807583635127,0.08411581177725941,0.0021954806870780885,0.00146451589047354,4454.782300504329
1684727529307814836,174,1684727529307814836,camera_1,178,0,-0.11331424799928648,-0.20846721039882146,1.5555598718800692,0.9969932247839527,-0.036011045724101264,-0.016849790625461204,-0.06651164466940733,0.004395647469209507,0.00293028778307583,4466.393658221406
1684727529314423799,175,1684727529314423799,camera_1,179,0,-0.11323007877129956,-0.2081558150586624,1.5542696408081258,-0.9968736829124235,0.03542465440504982,0.013375631774054137,0.0693472901528871,0.001524421400972642,0.0010147042682495584,4473.393253154005
1684727529321062564,176,1684727529321062564,camera_1,180,0,-0.11339409036732218,-0.2083273890992377,1.5564544242715426,-0.9970198637651424,0.03825868141650564,-0.045666756117399225,-0.04901236517167096,0.0013852027186658233,0.0009250964296696054,4455.922543326393
1684727529327716112,177,1684727529327716112,camera_1,181,0,-0.1131934534500927,-0.20756716209402398,1.5540322762844059,0.9962285352568696,-0.035189913243795994,-0.013663810516307811,-0.07812602529260577,0.010928808260359801,0.007274351497166268,4466.0876176350575
1684727529334363460,178,1684727529334363460,camera_1,182,0,-0.11332176090579167,-0.207598176216486,1.5560701372473094,0.9968114388027493,-0.03907763267190224,0.04363881447240742,0.05418069737642673,0.003990240307757631,0.002663734863604276,4454.975669574109
1684727529341034412,179,1684727529341034412,camera_1,183,0,-0.11297694982098609,-0.20674119848699213,1.5519300003324308,0.9952771088742303,-0.034978711415121704,-0.013608480942209818,-0.0895252788051312,0.016703812245395966,0.011094659815034534,4464.629912740027
1684727529347798347,180,1684727529347798347,camera_1,184,0,-0.11340505255534657,-0.20687570195748595,1.558010890081963,-0.9965965836325443,0.035177045804304384,0.008673486146531463,0.0740445513085806,0.005018545285565779,0.0033562696574799987,4452.801459694454
1684727529354596614,181,1684727529354596614,camera_1,185,0,-0.11324441229691662,-0.20624705724392028,1.5554282884350494,0.9967196399240731,-0.038591445432532366,0.044302369393108235,0.05565931903293924,0.001507848224719055,0.001005387162949092,4459.6190106087015
1684727529361316919,182,1684727529361316919,camera_1,186,0,-0.1132328899793984,-0.20585406089956598,1.555565450902896,0.9965827553428532,-0.03836941258797149,0.04277745552340926,0.05933539609578449,0.0026628145860740915,0.0017761373827570757,4455.9604075445695
1684727529367738008,183,1684727529367738008,camera_1,187,0,-0.1132078121734488,-0.20503847399158173,1.555867965799915,-0.9966932524294758,0.03556317313506258,0.00865113807939536,0.07254639266049039,0.002143007208360359,0.001428217955010998,4469.621487400319
1684727529374506711,184,1684727529374506711,camera_1,188,0,-0.11321641023426837,-0.20461912111835562,1.556032793557371,0.9969280542447305,-0.038739098623722164,0.03010446575784028,0.06105291179847272,0.0018316101341042668,0.0012236878443912182,4458.5406921137765
1684727529381348609,185,1684727529381348609,camera_1,189,0,-0.11328590380447921,-0.2043377825987672,1.5573827961620341,0.9968241512891689,-0.038192364074722394,0.04601010529965802,0.05259301230512002,0.003098116736509837,0.0020683397749288717,4456.7955850336
1684727529387962102,186,1684727529387962102,camera_1,190,0,-0.11322209833526266,-0.2032582549848797,1.5567064288184742,0.9974207465254683,-0.03792387697980799,0.039973972450682585,0.04599690730810048,0.002026976391789504,0.0013514711379414128,4473.158729235379
1684727529394533872,187,1684727529394533872,camera_1,191,0,-0.11330611321028909,-0.20300160624968044,1.558390451182825,0.9971332674735419,-0.036290439339797045,0.05430230831660882,0.03820353676756332,0.0093346020730678,0.006230713080783404,4464.725858909078
1684727529401434183,188,1684727529401434183,camera_1,192,0,-0.11304741842077223,-0.2020294103781347,1.5552816667614024,0.9963963678387265,-0.03884825333161053,0.03392384766618235,0.06733694328077158,0.0031957171304384246,0.002131157496051373,4459.60088674503
1684727529407719612,189,1684727529407719612,camera_1,193,0,-0.1130686376658717,-0.20108141792695433,1.5561202772841152,0.9967497884458726,-0.03767535070881188,0.04263865924552826,0.05702957057369417,0.001958506560185924,0.0013045402301299813,4467.981085715786
1684727529414541721,190,1684727529414541721,camera_1,194,0,-0.11315414478152751,-0.2007557958595329,1.5578345784780725,0.9967319581440902,-0.03567403306972855,-0.011922857884759502,-0.07148854760482642,0.008605691749835387,0.0057387312910127854,4465.824392844136
1684727529421083927,191,1684727529421083927,camera_1,195,0,-0.11308140659523916,-0.20022352850881903,1.5574413234076525,0.9970079223004675,-0.03819427906477075,0.039188921729011936,0.05459513101499801,0.0082410628820071,0.00549680258945453,4467.207695378311
1684727529427674055,192,1684727529427674055,camera_1,196,0,-0.11304706947271312,-0.19902496866715508,1.5567998864147978,0.996803657235584,-0.0376253407478571,0.03341277240793322,0.06205150518228971,0.0023102131963241845,0.001540980601014993,4466.251881215312
1684727529434545040,193,1684727529434545040,camera_1,197,0,-0.11300177829328552,-0.19846553310482687,1.556684097671386,0.9967887598936648,-0.03721194038790432,0.045839760942821696,0.05409395492032167,0.003939165631891228,0.002621723067109764,4473.2388886240105
1684727529441103696,194,1684727529441103696,camera_1,198,0,-0.11310220338047593,-0.19813192445642167,1.558209669388211,0.9971075054759616,-0.037259094158788,0.044314728720365466,0.0492400979326036,0.006922785149072297,0.004615194582628695,4471.8845417780085
1684727529447692394,195,1684727529447692394,camera_1,199,0,-0.11381566780278367,-0.19845320305015818,1.5691482518651545,0.9979327159648368,-0.03737670841159438,0.04541067544466959,0.025906497853200462,0.09193723340285942,0.061728136647631424,4471.51300966338
1684727529454443454,196,1684727529454443454,camera_1,200,0,-0.1129437698848686,-0.1964654599013129,1.5570653414180735,0.9967432007015865,-0.03884032205815278,0.0439327641420912,0.05535642214243268,0.0002106342581100762,0.0001401808240205294,4475.267517659376
1684727529461035490,197,1684727529461035490,camera_1,201,0,-0.11301497106191448,-0.196221726635478,1.5587948786368053,0.9970293491103362,-0.03824377743327894,0.038788352443993646,0.054455066017165446,0.004158528754487634,0.002773873320312344,4469.611497055448
1684727529467766046,198,1684727529467766046,camera_1,202,0,-0.11294002869609131,-0.19523170379471497,1.558068534036912,0.9966988281208978,-0.03733839687652987,0.04488963989591277,0.05641108376139539,0.0006779558025300503,0.0004515366831503392,4470.9549134124545
1684727529474455118,199,1684727529474455118,camera_1,203,0,-0.11300774316126223,-0.19501379181471817,1.5596839391692072,0.9971445998602164,-0.03829098547178545,0.04077782030597759,0.050730826647137205,0.02119924630096648,0.014143172656712298,4470.852698877687
1684727529481089353,200,1684727529481089353,camera_1,204,0,-0.112962942604551,-0.1944736651633504,1.5585339789679848,0.9963438958049874,-0.038256629661340434,0.046384493612819676,0.060693906871924,0.017814028498833068,0.011872393599748935,4464.154489506036
1684727529487900495,201,1684727529487900495,camera_1,205,0,-0.11279621437369587,-0.19348255585526278,1.5568795353470903,-0.9967095534841381,0.03497820754048792,0.0075763177273483135,0.07272682036497237,0.0003096265863860026,0.0002057811715442326,4483.636210884085
1684727529494790077,202,1684727529494790077,camera_1,206,0,-0.112928244647227,-0.193501204684614,1.5591206239138702,0.997014182726588,-0.03755189463718008,0.04038173191104693,0.05405451303135268,0.002492516185157001,0.00166131410660576,4473.839992061954
1684727529501176834,203,1684727529501176834,camera_1,207,0,-0.11272619213825848,-0.19284491389689415,1.556219726235971,0.9962007053709577,-0.03836280658221442,0.03387455991342776,0.07046249981524612,0.0048137831763597205,0.0032035807475824137,4472.319120009196
1684727529508101701,204,1684727529508101701,camera_1,208,0,-0.1127645205853343,-0.19246017904948176,1.5572388938699429,0.9964232812482626,-0.03856556051892249,0.03678138484094178,0.06557798302395239,0.0007331669476116076,0.0004880157431495465,4473.524761362174
1684727529514840841,205,1684727529514840841,camera_1,209,0,-0.11284454604436991,-0.19241020232186543,1.5585702605456984,0.9964801515090648,-0.03858128784955038,0.04513825846547566,0.0591720330818975,0.0027908720658160746,0.0018581128017658044,4471.106799032017
1684727529521190166,206,1684727529521190166,camera_1,210,0,-0.11285646562450657,-0.1923215879165187,1.559327353959534,-0.9969239563852811,0.03487770362873587,0.003408041564957747,0.07010389595019521,0.011527313443366438,0.007683603556214762,4476.43221921497
1684727529527738571,207,1684727529527738571,camera_1,211,0,-0.11290257478254669,-0.19216554414376744,1.5597590438923732,0.996843542819367,-0.037943277125779766,0.05170839730762615,0.04679209877923797,0.00466745492303744,0.0031087146343802413,4475.255073766223
1684727529534452438,208,1684727529534452438,camera_1,212,0,-0.11286339997237202,-0.19201281920852423,1.558994271522152,0.9968959201032586,-0.03842666910039372,0.034074620787817804,0.059672739182082,0.0036665684456238523,0.002444986690159574,4473.349998046353
1684727529541360139,209,1684727529541360139,camera_1,213,0,-0.1128432112098371,-0.19197751290156212,1.5590043349835656,0.9965760864124112,-0.0383002152489183,0.0438839868761201,0.05868043284320022,0.004469232590054162,0.0029768036134913967,4470.885105622233
1684727529547825098,210,1684727529547825098,camera_1,214,0,-0.11286110288514928,-0.1920206000100181,1.5591961260239686,0.996777293347829,-0.03817547853064919,0.04261474147152773,0.056228499130306746,0.0018084126058965924,0.0012048361625631296,4473.2229597300775
1684727529554586172,211,1684727529554586172,camera_1,215,0,-0.11284867350557909,-0.19207685290655965,1.5591262285061909,0.9967299353956088,-0.03862208050851262,0.036803750829937254,0.06068982376236893,0.005397953500505537,0.003599308283402995,4470.336766585009
1684727529561152935,212,1684727529561152935,camera_1,216,0,-0.11288471332660416,-0.19225735509009134,1.5596670320839052,0.9969295780307312,-0.03761455222786803,0.04295443809378154,0.053586175047417306,0.001980666085728444,0.0013201829528977894,4473.004642899557
1684727529567837715,213,1684727529567837715,camera_1,217,0,-0.11275944324472327,-0.19228163223516698,1.5579368764560158,0.9959271740156396,-0.034192073900833536,-0.008356160163607781,-0.08300687156436115,0.010170468012802303,0.006770811926461809,4466.183744359527
1684727529574576377,214,1684727529574576377,camera_1,218,0,-0.11289661858542335,-0.19274904868247456,1.5597575751045505,0.9968377773326296,-0.03784095401822846,0.033401817716338524,0.06137447722610646,0.0035315342829562724,0.002357986349518886,4465.610913632553
1684727529581443548,215,1684727529581443548,camera_1,219,0,-0.11280925662656377,-0.19273539401438045,1.5581534617542145,-0.9960671047759966,0.03572909666849175,-0.0039774423411709095,0.08098107425096193,0.0014197851996868847,0.0009465390822766197,4471.6200859838855
1684727529587834119,216,1684727529587834119,camera_1,220,0,-0.11287065348657757,-0.1933578697190172,1.5583149529831417,0.9967361109832304,-0.038312114379875875,0.04333112812904774,0.05631802809787188,0.0055103725753724575,0.003668761205085139,4474.646105383755
1684727529594538927,217,1684727529594538927,camera_1,221,0,-0.11284343128272606,-0.19358778464538856,1.5581962006186922,0.9968951023263616,-0.03515024820370876,-0.004788406372500971,-0.07029712777448496,0.009134407286182977,0.006081738810254425,4480.064883715009
1684727529601133584,218,1684727529601133584,camera_1,222,0,-0.11319929483672472,-0.1945313568826063,1.5629848293685762,0.997713394795391,-0.03622517576708412,-0.011055260060074406,-0.05597767154414649,0.006039354659151286,0.004041966159930586,4463.157367510837
1684727529607803821,219,1684727529607803821,camera_1,223,0,-0.11292352987531523,-0.1947688717045169,1.5589959195873984,0.9965940891591544,-0.03551825162405786,-0.005881499295003143,-0.07418950883142801,0.008420861442573369,0.005615303984389146,4468.9154017887195
1684727529614531040,220,1684727529614531040,camera_1,224,0,-0.11292955038070017,-0.19516930645330077,1.5583343136505532,0.9968658932434166,-0.037198288138690166,0.03224519217216118,0.0619267779666962,0.0020470484741963446,0.0013660924127129233,4467.484987487259
1684727529621224880,221,1684727529621224880,camera_1,225,0,-0.11320176251026676,-0.19599590755305685,1.5619191752610966,0.9975070863086121,-0.0376300277394698,0.0379189145556784,0.046105853157153,0.009435475105419755,0.00631435744427265,4462.425970450801
1684727529627856731,222,1684727529627856731,camera_1,226,0,-0.1129751261265762,-0.19645060526648161,1.5578677580071425,0.9967015110180747,-0.03786787326225824,0.03970218119216802,0.05979848591281211,0.005378633577493019,0.003585699392263547,4467.327072196871
1684727529634515047,223,1684727529634515047,camera_1,227,0,-0.1130091938771833,-0.19701715458142657,1.5587360129299108,0.9971663181302381,-0.03839237513147802,0.03259336559531493,0.055884094673876575,0.012087618713849224,0.008069673264487542,4468.386385707769
1684727529641264200,224,1684727529641264200,camera_1,228,0,-0.11305815702449057,-0.19749494894020497,1.5584898370255602,0.9970181518664828,-0.03707933706799383,0.03972809598573405,0.054786914502367834,0.001224249805090949,0.0008167098899407512,4467.618299765743
1684727529648638010,225,1684727529648638010,camera_1,229,0,-0.11302145394616787,-0.1983827348701773,1.5574631208608156,0.997011532973662,-0.03724193426632868,0.038594091698354246,0.05560159652015287,0.0038119275850476693,0.002541425533637014,4470.565346467571
1684727529654661655,226,1684727529654661655,camera_1,230,0,-0.1130736127899091,-0.1989569993454322,1.5578287979478744,0.9967026046690036,-0.038741944188742994,0.035147193247475055,0.06202946407413753,0.00025660159008111805,0.00017133594338604514,4460.3237507882295
1684727529661115407,227,1684727529661115407,camera_1,231,0,-0.11297589432915824,-0.1993322155855324,1.5565941514936692,0.9966347354277112,-0.037916134935662704,0.037303445628720754,0.06237005527255679,0.010390931172878481,0.006926465690513454,4464.936265183205
1684727529667746782,228,1684727529667746782,camera_1,232,0,-0.11319909263860234,-0.20063183003924787,1.5586583271526946,0.9971319516077383,-0.0377839781481718,0.03529667635693452,0.055266506279984924,0.0001842108031269163,0.00012312614169343467,4460.237040954963
1684727529674512863,229,1684727529674512863,camera_1,233,0,-0.11315426494457163,-0.20107474404176676,1.5578103907588436,0.9970106703026043,-0.03788318564636736,0.03587762662282439,0.05698581802473411,0.0015480801521334797,0.0010338833148234598,4461.482351813174
1684727529681066274,230,1684727529681066274,camera_1,234,0,-0.11314452480673798,-0.20159568174166737,1.5575855763574702,0.9969200875953741,-0.03782960667855393,0.04204384528369082,0.05432839847757975,0.015115858797798865,0.010087035594884762,4462.2514783838415
1684727529687690973,231,1684727529687690973,camera_1,235,0,-0.11314544680453942,-0.20258995326998236,1.5568948488647603,0.9966107903363477,-0.03906800274515366,0.04474282089384797,0.05690961012980256,0.003752358810743317,0.0025027424543105758,4459.182857356877
1684727529694555759,232,1684727529694555759,camera_1,236,0,-0.11332950376918126,-0.20330971587949268,1.5588555816389404,0.9972560901388801,-0.038081084804191284,0.03527512021839464,0.05278056038569244,0.0036850803589913994,0.00246584031960369,4455.535662808076
1684727529701059579,233,1684727529701059579,camera_1,237,0,-0.1132507661743645,-0.2036846132907912,1.5576613510037294,0.9968796795142133,-0.037246242579671726,0.04378072847122718,0.0541005526761461,0.004738048228318803,0.003164227808750642,4456.233087678616
1684727529707759618,234,1684727529707759618,camera_1,238,0,-0.113300376012427,-0.2046048567341599,1.557476577739422,0.9970266034102045,-0.03856006999942676,0.04131721463892212,0.052382829900945005,0.0020079090463696048,0.0013412338769787265,4458.020653178013
