%time,field.header.seq,field.header.stamp,field.header.frame_id,field.image_seq,field.transforms0.fiducial_id,field.transforms0.transform.translation.x,field.transforms0.transform.translation.y,field.transforms0.transform.translation.z,field.transforms0.transform.rotation.x,field.transforms0.transform.rotation.y,field.transforms0.transform.rotation.z,field.transforms0.transform.rotation.w,field.transforms0.image_error,field.transforms0.object_error,field.transforms0.fiducial_area
1684313532307588338,17,1684313532307588338,camera_1,32,0,0.15975883713286634,-1.4312896391030845,6.624235226497851,0.6984481368788583,-0.7097284719434895,-0.07949162161204239,0.04622529931432444,0.005868614302016795,0.0038029523786565623,5465.728981177092
1684313532320846080,18,1684313532320846080,camera_1,34,0,0.1626623390834248,-1.4289850307192777,6.614343897839352,0.6980831564267943,-0.7089648186544361,-0.08681458863877513,0.05012005409979685,0.006724282880895771,0.004354256126563376,5465.434952004638
1684313532334137916,19,1684313532334137916,camera_1,36,0,0.167235303758069,-1.4301799238984376,6.62076876015111,0.6982049940553493,-0.7091878534852066,-0.08436600620892326,0.04944443084484402,0.010931640994385816,0.0070854589804292415,5462.783511872576
1684313532340825557,20,1684313532340825557,camera_1,37,0,0.16862377913359095,-1.4307021725864655,6.623532204696718,0.6979942420048071,-0.7097667345445539,-0.0816497049942843,0.048667713491001297,0.0033626093063503504,0.0021794146691294838,5464.927339452318
1684313532347427845,21,1684313532347427845,camera_1,38,0,0.17117290845586444,-1.4301380187890336,6.621371676934436,0.6978377781614644,-0.7096906613082516,-0.08306217389088232,0.04962132496264265,0.009481610512011684,0.006143495938003512,5466.088227437342
1684313532354320049,22,1684313532354320049,camera_1,39,0,0.17228654263171153,-1.4298033590973984,6.620028130396595,0.6980845317081473,-0.7094984171424868,-0.0846149314129594,0.04615513020350889,0.009038000513100997,0.005856705876032701,5470.924346533548
1684313532360991001,23,1684313532360991001,camera_1,40,0,0.17357736211635766,-1.4308601812506576,6.625391409363861,0.6981256746672855,-0.7099608246081185,-0.08037780014149164,0.04599542516949353,0.008973284813691862,0.005816025604194357,5470.465449219804
1684313532367625236,24,1684313532367625236,camera_1,41,0,0.175502465999561,-1.4307382175836907,6.6248641147861385,0.6977817511393916,-0.7103147720215528,-0.07918508564678171,0.047783623093330466,0.016009803919587284,0.010371096964709395,5471.95063547324
1684313532374214649,25,1684313532374214649,camera_1,42,0,0.17635931682238273,-1.4305729023503702,6.624429656729758,0.6976786276885742,-0.7100189859009352,-0.08138101261578033,0.04994700103535512,0.006076086850953288,0.0039379977773288674,5466.377783563629
1684313532380900382,26,1684313532380900382,camera_1,43,0,0.17695950437549313,-1.4293732322960457,6.6190284777246315,0.6979070279493383,-0.7099378405002436,-0.08057597273196193,0.04920930382631236,0.0027512153174029663,0.0017797366063343019,5478.156327235455
1684313532387467145,27,1684313532387467145,camera_1,44,0,0.17828468470204015,-1.430124338230934,6.622764735627032,0.69781437744536,-0.7097469179099287,-0.08283248254720289,0.049529657610052194,0.009487115428783,0.006148241034109877,5468.209069650213
1684313532394248485,28,1684313532394248485,camera_1,45,0,0.17899753802353857,-1.4317687099944143,6.630729845174776,0.6981032479933532,-0.7102637476415776,-0.07816218437587842,0.045474573784296285,0.006836681568529457,0.004434894075819858,5469.004238008987
1684313532400904893,29,1684313532400904893,camera_1,46,0,0.17938110861366532,-1.4319136958539718,6.6311791213995495,0.6982910580755219,-0.7101418536564615,-0.0768741771025514,0.046674476879107786,0.01572962106729392,0.010200793926436835,5468.94311839377
1684313532407565593,30,1684313532407565593,camera_1,47,0,0.17966588832588837,-1.430628648790411,6.625500441842721,0.6982139342707453,-0.710044720432193,-0.07732727407624479,0.04852102287126357,0.012537110087578185,0.008117731124266883,5475.305475621425
1684313532414294958,31,1684313532414294958,camera_1,48,0,0.17978590139009895,-1.430795032875815,6.626347917095162,0.6982031012576433,-0.7098973158438575,-0.07906718957045275,0.0480271786109266,0.0010346243652747944,0.0006704210714351912,5471.76016765868
1684313532420886278,32,1684313532420886278,camera_1,49,0,0.1794542943730453,-1.42861276353636,6.6162376956413045,0.6976825263279105,-0.7095688426183451,-0.08275411940140225,0.05387862065852418,0.005130831501446664,0.003318322188103464,5473.544450608839
1684313532427497386,33,1684313532427497386,camera_1,50,0,0.1792700657801858,-1.4296818313391544,6.620782223507116,0.6982289891401583,-0.7097935992355522,-0.07930270691899856,0.04878940339738198,0.013014294745516963,0.00841971695177765,5479.209523203026
1684313532434169530,34,1684313532434169530,camera_1,51,0,0.1790581269503806,-1.430416378886082,6.624147903805353,0.6982162977913282,-0.7097990315099312,-0.07908395304808767,0.04924494630338238,0.009497045204625465,0.006150018046463843,5473.229874084355
1684313532440777063,35,1684313532440777063,camera_1,52,0,0.17864734352328024,-1.4306689226442222,6.6253147674867705,0.6982047593430059,-0.7098205258392085,-0.07946289410078647,0.0484828174640477,0.004758140901685692,0.0030827348528255287,5471.506474087251
1684313532447565793,36,1684313532447565793,camera_1,53,0,0.17738105716022148,-1.4297452397450872,6.620758590595227,0.6978127233211753,-0.7099822366963657,-0.0803260423355884,0.050302620900028884,0.010472945083165541,0.006777735055086241,5474.354169554717
1684313532454310178,37,1684313532454310178,camera_1,54,0,0.17682135105876107,-1.4312244532053802,6.627539364077893,0.6980801479882429,-0.7102171651173407,-0.07738189376627366,0.047830198353613504,0.011252477037487552,0.007290947102718941,5471.211131285295
1684313532460841178,38,1684313532460841178,camera_1,55,0,0.17559767858320188,-1.428006436825721,6.612436618613879,0.6976171559180482,-0.7093137353112636,-0.08496129834670975,0.05464344837981816,0.007658484944840893,0.004951597801838601,5472.563739461535
1684313532467440843,39,1684313532467440843,camera_1,56,0,0.1738483467769566,-1.4294473852029332,6.618602141484649,0.6973417383513388,-0.7100115394980319,-0.08435574499614587,0.04982190300372703,0.01908633486891631,0.012361505308128747,5469.534563866153
1684313532474203586,40,1684313532474203586,camera_1,57,0,0.17307337274753173,-1.4306751117299221,6.624373503394986,0.6981882906425118,-0.7098057541771762,-0.08049285635324332,0.047220781683004046,0.012061031040502712,0.007815408087183137,5470.003409313678
1684313532480750560,41,1684313532480750560,camera_1,58,0,0.17189802272840934,-1.4301305731554956,6.621501052835803,0.698163702666126,-0.7094698978661584,-0.08360710911105608,0.047220330445689136,0.002874277561204508,0.0018627713710956215,5468.656599802724
1684313532487565279,42,1684313532487565279,camera_1,59,0,0.169289208325763,-1.4287845002567867,6.614781816370212,0.6979055372809019,-0.709372033004371,-0.08473102802382393,0.050396753009765365,0.0068624518607975915,0.0044402950172195785,5471.896133703646
1684313532494139432,43,1684313532494139432,camera_1,60,0,0.16820653107077413,-1.4316930864518755,6.628150700032672,0.6984106751860797,-0.7096870920623186,-0.08030131854085985,0.04602671383939781,0.006622291708481498,0.00429659798255155,5462.973120671931
1684313532507282018,44,1684313532507282018,camera_1,62,0,0.1638029240633116,-1.430864715440259,6.623301115786023,0.6981627825565724,-0.7097351623157929,-0.08065941453249333,0.04836100983969362,0.004037545673782006,0.0026163101443262044,5464.718571450503
1684313532513790607,45,1684313532513790607,camera_1,63,0,0.1622274690699902,-1.4293800645949228,6.615950282159789,0.6981728433726436,-0.7095297846989921,-0.08343095203378723,0.04649130719495935,0.004242971073836088,0.0027458143051984976,5473.763968220564
1684313532520355939,46,1684313532520355939,camera_1,64,0,0.16065990109221154,-1.4307363107855327,6.621711708306081,0.6981553130088868,-0.7099804121338261,-0.0804422308362066,0.04512228719646465,0.011288951354799792,0.007311920742380271,5470.292016832216
1684313532527115106,47,1684313532527115106,camera_1,65,0,0.15763055814191893,-1.4309187640144532,6.6217547988225265,0.6983007888399381,-0.709912440955938,-0.08059181634219384,0.043649669187385526,0.017887373411213048,0.011587092944785701,5470.123892040051
1684313532534174919,48,1684313532534174919,camera_1,66,0,0.15592117966979008,-1.4308701822315106,6.621387095832201,0.698632197915745,-0.7096692353477762,-0.08067495306021859,0.04212102070284758,0.008107221801765263,0.005251765824404185,5471.608423486181
1684313532540766000,49,1684313532540766000,camera_1,67,0,0.15461847162673534,-1.432579635471121,6.629104617666095,0.6983084420704362,-0.7104321760465402,-0.07496460325424587,0.04507495124647191,0.007306106868782081,0.004736019855835227,5463.574553684334
1684313532547134399,50,1684313532547134399,camera_1,68,0,0.1510590164042647,-1.4303350762655607,6.618105450667783,0.6986046837083628,-0.7093148278648737,-0.08080404714716337,0.04790278526768465,0.01744284140659147,0.011290349843443438,5466.253461770917
1684313532553740024,51,1684313532553740024,camera_1,69,0,0.14940743108254248,-1.430219752114926,6.616801760872115,0.6982892995544958,-0.7091846339122062,-0.08430409128808448,0.04839451769148847,0.031496538289502496,0.020402049579437777,5460.55458844756
1684313532560772895,52,1684313532560772895,camera_1,70,0,0.1481800654508544,-1.4336669456248372,6.632906207261499,0.6988676694672177,-0.7101271178961102,-0.07417690805676848,0.042441056927951415,0.016455573819257552,0.010679248951678707,5458.105222012789
1684313532567389249,53,1684313532567389249,camera_1,71,0,0.14487390596868913,-1.432643799810569,6.627394116815487,0.6984813409368847,-0.7100870885616847,-0.07919085516392739,0.04036027105220821,0.004939173093589488,0.0032049923598438455,5459.891351291095
1684313532573921442,54,1684313532573921442,camera_1,72,0,0.14306370695527673,-1.4293468522441417,6.61171529744014,0.6987127211534228,-0.708719695284258,-0.08643645050816738,0.04522904860946089,0.027272092633211287,0.017654351700382705,5465.825662345711
1684313532580623149,55,1684313532580623149,camera_1,73,0,0.14159382296315454,-1.4293899030996777,6.611297994771098,0.6981888469131897,-0.7094775873007945,-0.08433245360171883,0.04540841808947196,0.010807206028403016,0.006990125396768412,5469.207498500616
1684313532587331533,56,1684313532587331533,camera_1,74,0,0.13894373380125866,-1.430043154260914,6.613949220438232,0.6984332319176514,-0.7093955485099633,-0.08426928055404631,0.04298447001203998,0.00512739709301968,0.0033194061694311505,5466.588694747163
1684313532594155550,57,1684313532594155550,camera_1,75,0,0.13751627204027103,-1.430312548807498,6.614650552060069,0.6984041528704729,-0.7094628200766804,-0.0820589494274207,0.046480910070578606,0.02427004208220751,0.0157051384500197,5463.617961296464
1684313532600779294,58,1684313532600779294,camera_1,76,0,0.13640923826015544,-1.4310003442038306,6.617663929709937,0.6986950098903068,-0.7091835431217004,-0.08447410099628741,0.04181042430548487,0.02150908556359354,0.013942450600599062,5459.985266700094
1684313532607197761,59,1684313532607197761,camera_1,77,0,0.1340510560045752,-1.430818539275705,6.616239724873797,0.6983874643079081,-0.7092075282110948,-0.0873625148413147,0.04058845435441926,0.015351991867646575,0.009957490568668759,5457.29410191183
1684313532614089488,60,1684313532614089488,camera_1,78,0,0.13315269359185553,-1.430705165837866,6.615685201388541,0.6983013813533069,-0.7095071794774109,-0.08320876536411274,0.045288458095333176,0.019767612848227145,0.012802008564443466,5458.931138987654
1684313532620637416,61,1684313532620637416,camera_1,79,0,0.13201733067816526,-1.4300053621568511,6.612391871292843,0.6984794472492908,-0.7094282685586915,-0.08306082885769192,0.044032854207005416,0.007022668003628496,0.004543539151220907,5465.718273019302
1684313532627490282,62,1684313532627490282,camera_1,80,0,0.1304655144858579,-1.4309250661606765,6.616129016376298,0.6980791136783672,-0.709773883103719,-0.08366264986199026,0.043670893372631026,0.016886492583580548,0.010940598408849521,5457.964954524099
1684313532634148359,63,1684313532634148359,camera_1,81,0,0.12957811717995382,-1.4290050969007153,6.607119931151468,0.6986582877182157,-0.7087239552902337,-0.08673500433957562,0.04543117016577475,0.013236052633146757,0.008561037851947388,5464.514610188635
1684313532640859127,64,1684313532640859127,camera_1,82,0,0.12926218146379553,-1.4311284735798053,6.616840344022018,0.6987147900724943,-0.7094295400431293,-0.08288768124406298,0.040459883169961956,0.013210956054535927,0.00855928746959449,5461.563301081187
1684313532647672414,65,1684313532647672414,camera_1,83,0,0.1282960810339012,-1.4308863395621234,6.615725776323162,0.698591976901193,-0.7092229157859302,-0.08341023126448127,0.044886956388156866,0.017956105009943713,0.011632443660751661,5456.111623802457
1684313532654040813,66,1684313532654040813,camera_1,84,0,0.12794897558099977,-1.4301747953293606,6.612160908860559,0.6981846830588947,-0.7094172772055596,-0.08486030171249141,0.0454313145029495,0.012252344884473132,0.007932263926856913,5458.524996600869
1684313532660838365,67,1684313532660838365,camera_1,85,0,0.12787439516335933,-1.4312756564272489,6.617297715309559,0.6985299412005094,-0.7097177094513365,-0.08088568546947844,0.04259342700105211,0.015441757208463969,0.010000198985044348,5460.630957529938
1684313532667405128,68,1684313532667405128,camera_1,86,0,0.12776177368636066,-1.4310677724353529,6.616417824897655,0.6983955386960068,-0.7093933542048556,-0.08416768543591928,0.043823980511346415,0.008973977517598541,0.005816097351728783,5454.77662917797
1684313532673843145,69,1684313532673843145,camera_1,87,0,0.12788380292983562,-1.4313688983624915,6.617812934850914,0.6984075188544117,-0.7096929686667867,-0.08189460030805658,0.04308250541614279,0.013766061838396126,0.008919419757714769,5457.444086999283
1684313532680675506,70,1684313532680675506,camera_1,88,0,0.12792438935821987,-1.4296215528908547,6.609921542999219,0.6983995422354687,-0.7092726003804057,-0.084416246260157,0.04521454547211106,0.01585424812947167,0.010255872680005513,5463.348186105781
1684313532694209098,71,1684313532694209098,camera_1,90,0,0.12903182716712244,-1.427503833016978,6.600207253799913,0.6982152350061733,-0.7085686523607209,-0.09018101670573826,0.04788877449784622,0.015181950439000502,0.009810470737251383,5465.858160824254
1684313532707477807,72,1684313532707477807,camera_1,92,0,0.131276814720612,-1.428616012702792,6.6059515077332644,0.698382866216754,-0.7089617660880195,-0.08662800683969692,0.04615381708168294,0.01015165794888162,0.0065628547320364175,5466.748938678093
1684313532720830678,73,1684313532720830678,camera_1,94,0,0.13329645239074078,-1.4303048287070401,6.613743065328034,0.6983110305643696,-0.7092645329734357,-0.08474040066142695,0.046093289683458626,0.02384209474621457,0.015439024855176894,5458.415704134472
1684313532727524042,74,1684313532727524042,camera_1,95,0,0.13560310661069308,-1.432394968003893,6.624210945230783,0.6986366981156277,-0.7097595931134497,-0.08136402114192079,0.03908938593967031,0.009043216155987466,0.0058680613581059355,5457.520295288269
1684313532734364271,75,1684313532734364271,camera_1,96,0,0.13675221566579063,-1.4310394777580226,6.61815085090454,0.6985560754504297,-0.7096228631404246,-0.0829113998606652,0.03975551952653531,0.0035305591591168195,0.0022877328306292405,5464.806346342987
1684313532740875005,76,1684313532740875005,camera_1,97,0,0.13799516337920667,-1.4320628904943482,6.623173279297699,0.6985010638979104,-0.7100075287424299,-0.08015138296098284,0.03951365171680378,0.00742957588590798,0.004817306897962194,5462.212660638119
1684313532747491836,77,1684313532747491836,camera_1,98,0,0.14055832383687125,-1.4305923809683754,6.616917692164799,0.6986552157378666,-0.7091219575452854,-0.08358638258132016,0.045169187466531986,0.009768945998075651,0.006328174411047163,5460.899139453017
1684313532760906934,78,1684313532760906934,camera_1,100,0,0.14382430851738157,-1.4321371921155295,6.624625482761896,0.6986968707521723,-0.7094150445766628,-0.08298129876221921,0.04082990797379952,0.013933942682342604,0.009044845726633405,5456.757395698252
1684313532774429798,79,1684313532774429798,camera_1,102,0,0.14837905866277543,-1.4315587971750476,6.622941840746331,0.698501937477824,-0.7097387610641176,-0.08103955849128296,0.04240901251427181,0.015592920892231632,0.01010923082249446,5463.598132298475
1684313532787483930,80,1684313532787483930,camera_1,104,0,0.1531283459529643,-1.43111775965812,6.621836572166404,0.6980260340967435,-0.7098487755816325,-0.08191713816033677,0.046518319015732765,0.027156340729561634,0.017602265713686976,5461.2414935061215
1684313532794290781,81,1684313532794290781,camera_1,105,0,0.15494086259178416,-1.4309011044493236,6.621284935708216,0.6984273961946887,-0.7096528193290401,-0.07986759158254232,0.04704483051150739,0.023066101188305765,0.014937995204339494,5466.009170555391
1684313532800841808,82,1684313532800841808,camera_1,106,0,0.1565207500993205,-1.4314190551123727,6.624061601483071,0.6985352314907175,-0.70968991043975,-0.0805626507535476,0.043570869738750954,0.018209096073405817,0.01180425736048005,5465.817007974663
1684313532807432174,83,1684313532807432174,camera_1,107,0,0.15971329508266777,-1.4298080598973444,6.617471207966205,0.6983247477359333,-0.7091097438517517,-0.08567471450733677,0.046537739181602186,0.0009409598569618538,0.0006096933409522317,5465.695902717941
1684313532814276456,84,1684313532814276456,camera_1,108,0,0.16124922599890598,-1.4301162129407057,6.619255202937012,0.6980238452092578,-0.7096116338797605,-0.08301705182994643,0.048189310923100005,0.004902991669951007,0.0031756656541773055,5466.1058227100875
1684313532820739984,85,1684313532820739984,camera_1,109,0,0.16281547339049743,-1.4295433924293681,6.617040795964514,0.6981714332848629,-0.7093879159620213,-0.08382551460890794,0.0479449427215464,0.010534900720813312,0.0068203864064664095,5469.588003242505
1684313532827468633,86,1684313532827468633,camera_1,110,0,0.1657923001212737,-1.4299216817885796,6.619209233971146,0.6980315388697721,-0.7094648242597484,-0.0830921873373147,0.05007316930935007,0.008225356068578549,0.00532695312109726,5465.94108691899
1684313532834256172,87,1684313532834256172,camera_1,111,0,0.16725857913477943,-1.4299920453220831,6.619836825854977,0.6982319828223643,-0.709393520139784,-0.08187017942735725,0.050301147781814916,0.015063263374031521,0.00975310819494393,5467.535069342762
1684313532840855121,88,1684313532840855121,camera_1,112,0,0.16859915095293815,-1.430548216415494,6.62286495192969,0.6981831698068223,-0.7096468237060691,-0.0808760074633204,0.04899712664206119,0.014007049117935821,0.009074789157786698,5466.874377096714
1684313532847514867,89,1684313532847514867,camera_1,113,0,0.1713393657514972,-1.4315307966278121,6.6278374365613635,0.6979907527404672,-0.7099607848704331,-0.08080746141670621,0.04727311301725561,0.01028081624826882,0.006669876511206672,5462.654518516616
1684313532854192495,90,1684313532854192495,camera_1,114,0,0.1723071374469135,-1.4297495423865958,6.619929141031693,0.697989556188741,-0.7097761093881244,-0.08125503207023031,0.04925519014852543,0.007532488496508449,0.004875742501529061,5472.837572777293
1684313532860814571,91,1684313532860814571,camera_1,115,0,0.17375225549996176,-1.431743745093689,6.629028665123257,0.6978729296894924,-0.7104566672096134,-0.07865425081516336,0.045146504324463106,0.01742947564343922,0.011303596049779313,5468.490245959314
1684313532867521286,92,1684313532867521286,camera_1,116,0,0.17551130521780514,-1.4305418536731178,6.6240287450415,0.6979026406792422,-0.7100685969283841,-0.07867983800405605,0.050437831840317804,0.009906040868372656,0.006414434613041118,5470.485880052612
1684313532874188184,93,1684313532874188184,camera_1,117,0,0.17631857180791968,-1.4302740215077128,6.623053688592641,0.6983133975254598,-0.7097833680868484,-0.07864206719778502,0.04879953371291404,0.012106157912057824,0.007836541848104166,5474.939250231254
1684313532880851507,94,1684313532880851507,camera_1,118,0,0.1769546527193594,-1.4294074415081488,6.619286422914047,0.6975638440116699,-0.710335238393379,-0.07796340259802302,0.05244273524161866,0.007285270025022328,0.0047093676360161615,5477.520570996393
1684313532887588024,95,1684313532887588024,camera_1,119,0,0.17815112097759403,-1.4294553674598378,6.6194770125222195,0.6977039628694992,-0.709926544907523,-0.0816088190768172,0.05053198670892093,0.01133455395756755,0.0073356674799197824,5474.320771126133
1684313532894230127,96,1684313532894230127,camera_1,120,0,0.17874704159104582,-1.4296262091115128,6.620375935073824,0.6974841613402899,-0.7101966790222403,-0.08060377357754803,0.05137658484439299,0.009102340103709139,0.005890281316126225,5473.70453013899
1684313532900714635,97,1684313532900714635,camera_1,121,0,0.1794103080884368,-1.4321465590298756,6.632232042312378,0.6981224067828936,-0.7105007064727505,-0.07638367556183334,0.04449028384992635,0.01510870229685679,0.009799892461838362,5470.902373569318
1684313532907402992,98,1684313532907402992,camera_1,122,0,0.17951209131239218,-1.429399943975395,6.619867156942148,0.6977719483269635,-0.7100593385129417,-0.07875412562362842,0.05222864746300721,0.007966808916535228,0.005151782721569424,5476.945714723319
1684313532914201498,99,1684313532914201498,camera_1,123,0,0.1797046671342702,-1.4299182012162237,6.622308948199517,0.6976960121114218,-0.71013473441369,-0.0796832579674518,0.050788897041669,0.0044804293429479,0.002900130070632638,5473.516310978156
1684313532920699596,100,1684313532920699596,camera_1,124,0,0.1794086828735054,-1.4284925399320967,6.615360180064188,0.6976073204109973,-0.7099671189877221,-0.08117125025609921,0.051980232753649054,0.005630648258375004,0.00363886062719791,5480.56976002583
1684313532927526235,101,1684313532927526235,camera_1,125,0,0.1794845430048685,-1.4313972895898839,6.62880244437327,0.6978010338778695,-0.7105847848377659,-0.0772348296118773,0.046666495163732134,0.013784957423922606,0.00893390320352552,5472.39260721195
1684313532934129714,102,1684313532934129714,camera_1,126,0,0.1788354806299737,-1.428964938215625,6.617487538740065,0.6978586904019889,-0.7094599256319092,-0.08392177327837835,0.051156603900173396,0.006806063553085551,0.004405243096217141,5473.001901078096
1684313532940803766,103,1684313532940803766,camera_1,127,0,0.17840726570318874,-1.4289290961600847,6.6171714561803014,0.6976393483441928,-0.7096126394714853,-0.08415234953395344,0.05164904270281473,0.014482000100542791,0.00937330296614469,5472.144470343598
1684313532947520971,104,1684313532947520971,camera_1,128,0,0.1770363428187576,-1.4271902484695005,6.609007306176223,0.6977627532957354,-0.7091562982777516,-0.08630352113967385,0.05268953373342004,0.0020579485135385767,0.0013296612774076101,5479.5741968473885
1684313532954162597,105,1684313532954162597,camera_1,129,0,0.1767478801975601,-1.430942135078565,6.626099378277335,0.6980772929492604,-0.7101013486383286,-0.0785527152353692,0.04768268721255879,0.011949623542022891,0.00774205778103904,5471.790214527169
1684313532960816621,106,1684313532960816621,camera_1,130,0,0.1758092324469406,-1.4301620642802921,6.622375362282573,0.6978832720159655,-0.7102584580158131,-0.07901059073949097,0.04742560498597911,0.007847822707844898,0.005079665274617605,5477.083411472095
1684313532967486858,107,1684313532967486858,camera_1,131,0,0.17409108311781263,-1.4315250926084926,6.628188845019563,0.6978489967907766,-0.7105330885879692,-0.07738162543723968,0.04649292144443822,0.03037786560889799,0.019688815379382437,5470.397943401476
1684313532974086999,108,1684313532974086999,camera_1,132,0,0.17288637575682317,-1.4297568645188827,6.62009862178841,0.6977776414382026,-0.7101200921321855,-0.08066027504407827,0.048267358420873714,0.006566395008121617,0.004249768200973272,5475.3116854170785
1684313532980905294,109,1684313532980905294,camera_1,133,0,0.1716703444463469,-1.4297781667335334,6.619776745437728,0.6976925105866267,-0.7100564831975362,-0.08119346793766505,0.04952345004876078,0.010511920525459573,0.006803893076198543,5472.445465169845
1684313532987493991,110,1684313532987493991,camera_1,134,0,0.16945992482702843,-1.4306464589161332,6.623379859730833,0.6983065299679947,-0.7093824560640775,-0.08338574679809789,0.046811734249852674,0.006421148558729328,0.004163880039222372,5465.113537664293
1684313532994107723,111,1684313532994107723,camera_1,135,0,0.16834366295298503,-1.4332151082197462,6.634896652933606,0.6985761429542598,-0.7100238616637353,-0.07719758393242149,0.04356628740509185,0.0034984607627848163,0.0022722448182293676,5460.254361215109
1684313533000966310,112,1684313533000966310,camera_1,136,0,0.16685410570443068,-1.4314231887498918,6.626459858887376,0.6978514148355038,-0.710260568294017,-0.07853756791150865,0.048633099482666586,0.009781873799511231,0.006339856547047708,5464.4125336924335
1684313533007386207,113,1684313533007386207,camera_1,137,0,0.16365074189561793,-1.4293617612636498,6.616005784927589,0.697977369949549,-0.7094668771510861,-0.08525570028082431,0.04707235742367945,0.008965676082880236,0.0058051124164667685,5470.369859787289
1684313533014106035,114,1684313533014106035,camera_1,138,0,0.1620284827549428,-1.429342340413878,6.615641424091619,0.6983289290330571,-0.7091518110404595,-0.0833097941928474,0.04999893964000892,0.01660774818446953,0.010746510328749534,5469.396818326902
1684313533027475357,115,1684313533027475357,camera_1,140,0,0.15741299391283448,-1.4300256688649884,6.617806197360732,0.6980664131416314,-0.70959063733086,-0.08230055174867708,0.04910223455021655,0.011892120150150731,0.007698510719692602,5466.2050340243695
1684313533034100055,116,1684313533034100055,camera_1,141,0,0.1556950297921809,-1.430100292534091,6.61767575909601,0.698429968746412,-0.7092283462590162,-0.08475377291359865,0.04480546391342237,0.012606728138052858,0.008168136000078149,5466.970905684399
1684313533040766716,117,1684313533040766716,camera_1,142,0,0.1542430641122601,-1.4305685960978254,6.619633697300155,0.6981521251933881,-0.7097861392402665,-0.08094002690984733,0.047285924694204826,0.015203331888187677,0.009844712941118968,5466.21419680066
1684313533047582626,118,1684313533047582626,camera_1,143,0,0.15077478391734533,-1.4287622600613343,6.610412856542916,0.6981527325393613,-0.7091501038439512,-0.08468382173759414,0.050175119350648625,0.023161247321695555,0.014975087598813105,5468.7774323579815
1684313533054208278,119,1684313533054208278,camera_1,144,0,0.14946260237464745,-1.431215758020779,6.621561604437646,0.6983667404155612,-0.7095336996791697,-0.08344372038869388,0.043393207171488014,0.014605941927584354,0.009472012226212592,5461.081375325332
1684313533060866355,120,1684313533060866355,camera_1,145,0,0.14803823677963485,-1.4335661531831676,6.632275705420893,0.6983126897931912,-0.7104710169324492,-0.07806426403175006,0.03868193446495439,0.013251867891085567,0.008608243136599057,5457.556487435388
1684313533067397594,121,1684313533067397594,camera_1,146,0,0.14477805456181822,-1.4315966332641379,6.622212005470132,0.6982959666156286,-0.7100262772484685,-0.08094480980791043,0.041150533291653295,0.012295165888644988,0.007969625534751995,5464.447870878152
1684313533074226856,122,1684313533074226856,camera_1,147,0,0.14330522575274005,-1.4321545282520303,6.62466420023742,0.6986568248715179,-0.709522190757649,-0.08052400116072735,0.044416068263441445,0.01613313207781175,0.010464871696217768,5455.958298720886
1684313533080869913,123,1684313533080869913,camera_1,148,0,0.1416874375299388,-1.4310167179573168,6.618994103380126,0.6987830397855451,-0.7093990840483676,-0.08097638989771548,0.04356635328488575,0.015156855806708336,0.009816370043223012,5464.7556250613425
1684313533087534666,124,1684313533087534666,camera_1,149,0,0.138955209355516,-1.4307145001977477,6.616805047070616,0.6984761966867183,-0.709809795230876,-0.0803039950298062,0.043038652843828656,0.01520362510200357,0.009838667090036786,5468.572592629234
1684313533094246625,125,1684313533094246625,camera_1,150,0,0.13755305047008054,-1.4312464852221296,6.619077832776977,0.698586841553455,-0.7097406668265145,-0.08019478256898603,0.042584122742351994,0.010153209852433065,0.006575133767279706,5464.738607388397
1684313533100929498,126,1684313533100929498,camera_1,151,0,0.13637935916946026,-1.4313957240389312,6.619523201888319,0.6988439952286692,-0.7093780163089587,-0.08321349783403162,0.03841111933573553,0.014416869591514114,0.009346834454066335,5463.358500405389
1684313533107594251,127,1684313533107594251,camera_1,152,0,0.13383461038627553,-1.4287784009706979,6.607057760232082,0.6986140503867441,-0.7087540362820978,-0.08752434445999868,0.044109112243505874,0.010034295486548217,0.006490545758045427,5467.582796103408
1684313533120709419,128,1684313533120709419,camera_1,154,0,0.13193692493003634,-1.4297901370750128,6.611076778341663,0.6983635208035646,-0.7091762653695367,-0.08504509269359474,0.04609500684568506,0.02003377147775609,0.012964754837044836,5461.471397835383
1684313533134262800,129,1684313533134262800,camera_1,156,0,0.12966481446980765,-1.4305842877762796,6.6146413091210885,0.6988685825593434,-0.7091674083446503,-0.08356122014452277,0.0410099224723106,0.004933294640068198,0.003194800107441503,5463.639937312837
1684313533147571563,130,1684313533147571563,camera_1,158,0,0.12836288890038192,-1.4319115085092062,6.6203383442242405,0.6986394206550783,-0.7095127386581146,-0.083124083149443,0.03981231454165004,0.011269284885202069,0.007310045062372878,5455.634068660147
1684313533160936117,131,1684313533160936117,camera_1,160,0,0.1277984365466709,-1.4300607160991665,6.611559278192552,0.6980501574270728,-0.7094456504684566,-0.08581649346505377,0.04525899023166336,0.010899033841269556,0.00705690122214317,5457.96870643247
1684313533174263000,132,1684313533174263000,camera_1,162,0,0.12792284212226007,-1.4313239635046047,6.6175728059999885,0.6987793118512219,-0.7092014133413975,-0.08298931015037497,0.043053490498007184,0.015770905683893943,0.01022115550044062,5455.9971072804765
1684313533180993080,133,1684313533180993080,camera_1,163,0,0.12797515824707226,-1.4301295743610918,6.611947797626722,0.6983737752306122,-0.7093599557394584,-0.08389788778526022,0.0452069429250415,0.019277138431789353,0.012475728391448419,5460.8770807410465
1684313533187433719,134,1684313533187433719,camera_1,164,0,0.12858445020072565,-1.428269990293074,6.603730301982578,0.6985756372255899,-0.7086909614953131,-0.08716338146895238,0.04638690656432615,0.005060970317572355,0.003270495891615796,5467.496813462843
1684313533194202899,135,1684313533194202899,camera_1,165,0,0.12932693759261202,-1.4301037684152278,6.612192077908801,0.698347845104278,-0.7094184541108502,-0.08401371433761183,0.04446841585193977,0.01313838019996183,0.008503271557448046,5462.130747910502
1684313533200898408,136,1684313533200898408,camera_1,166,0,0.12989973503416932,-1.4302064571931763,6.612807283821244,0.6984768139648483,-0.7094481272838175,-0.0835463651612648,0.04281938714343984,0.013581295297626639,0.008790177537496455,5464.480834563934
1684313533207490921,137,1684313533207490921,camera_1,167,0,0.13159388515826137,-1.4314714485123863,6.618957421236428,0.6985817934650074,-0.7094965684968363,-0.08271384574992852,0.04191082022204881,0.011261302599450573,0.007299828609650283,5457.919005431002
1684313533214330196,138,1684313533214330196,camera_1,168,0,0.13215433890842737,-1.4289998255852654,6.607609149344066,0.6982119198066746,-0.7089822528809798,-0.08798573301076879,0.04585619834052755,0.017497882967290934,0.011322544998934658,5462.391975013947
1684313533220921993,139,1684313533220921993,camera_1,169,0,0.13332577397142809,-1.430929797429239,6.616781451308056,0.6985597263508476,-0.7094917789954023,-0.08213277409264186,0.04347334445859298,0.02491541278504883,0.016136203965979576,5461.507540005726
1684313533227508783,140,1684313533227508783,camera_1,170,0,0.13570754314152672,-1.432653488692575,6.625143549937641,0.698466956686723,-0.7099558302021854,-0.08020808553431823,0.040905899252215626,0.023557892363896826,0.015285514148071649,5455.659150350431
1684313533234390974,141,1684313533234390974,camera_1,171,0,0.13685956799722623,-1.4313117336730203,6.619281559562241,0.6987374487036394,-0.7093814776997147,-0.08246776894735137,0.041748819870077884,0.012340879886323819,0.00799824378138001,5461.185697068985
1684313533241056203,142,1684313533241056203,camera_1,172,0,0.13813854048487537,-1.4318769048446869,6.622297868417407,0.6983271799415126,-0.7101606139308368,-0.07975252963990705,0.040627406911430713,0.007923432342067827,0.005135278648871022,5463.037753246463
1684313533254200458,143,1684313533254200458,camera_1,174,0,0.14223626446704557,-1.431124359220795,6.620201910961636,0.698604384577664,-0.7095533472732566,-0.08200035931799601,0.04197501987968898,0.010970193328830646,0.007109978684177929,5463.509983934786
1684313533260955572,144,1684313533260955572,camera_1,175,0,0.14361026565293197,-1.4291324924179365,6.610932607714225,0.6985460101244237,-0.7089013402675897,-0.08591342663814999,0.045948282115383536,0.01796392501637456,0.011623740242150798,5467.461694692087
1684313533268023252,145,1684313533268023252,camera_1,176,0,0.14702219375795447,-1.4322571634680241,6.625850988510068,0.6986428397334429,-0.7096492215145557,-0.08077763136977474,0.04208490422069283,0.024131356785801472,0.015658195820367562,5458.802297282205
1684313533274382591,146,1684313533274382591,camera_1,177,0,0.14838965681975502,-1.4310819580310492,6.620701372832373,0.69829641641907,-0.7096592302236745,-0.08311761369497228,0.043097030852248475,0.02222015557345003,0.01440509444047489,5462.829266247836
1684313533280860185,147,1684313533280860185,camera_1,178,0,0.14974262758729998,-1.429471331169681,6.6137244644073245,0.6982618593754427,-0.7092363791187715,-0.08477946283150391,0.04718661842138605,0.01750563140740269,0.011330445226453571,5466.794393937746
1684313533287006378,148,1684313533287006378,camera_1,179,0,0.15318920061579375,-1.4308611957326152,6.6205660704177145,0.6979876940213328,-0.7098781461608237,-0.08192919909994355,0.046624059592621676,0.02553769182486576,0.01654709921592171,5463.211602776369
1684313533293711185,149,1684313533293711185,camera_1,180,0,0.15496573934114657,-1.431110694390674,6.622501608257388,0.698599380817871,-0.7095889870557759,-0.07931954283854935,0.0463765532777985,0.015960677643306553,0.010338455851405654,5465.885586769786
1684313533300148725,150,1684313533300148725,camera_1,181,0,0.1564367606089205,-1.430043401402782,6.617521860365774,0.6979023149232041,-0.7094869593189148,-0.08423890229347214,0.049642932242405985,0.02119118646078277,0.01372641897890517,5461.86093418801
1684313533306801319,151,1684313533306801319,camera_1,182,0,0.15999289479085993,-1.4314614934776644,6.625060795469284,0.6983390867493888,-0.7099837687385544,-0.07956436498588673,0.04376162554363103,0.006286640782491304,0.004074851684809891,5467.6548624091665
1684313533320110321,152,1684313533320110321,camera_1,184,0,0.16300819002422096,-1.4300871268760642,6.619522006831216,0.6981601339238546,-0.7096115083187705,-0.08252402357213526,0.047050188038422654,0.004140798118896782,0.0026816621496314774,5469.126770283562
1684313533326657056,153,1684313533326657056,camera_1,185,0,0.16447445117043477,-1.430884941812493,6.6238294534384705,0.6980232127296613,-0.7099160726691086,-0.08096144984022492,0.04720177853004925,0.0030481152643915266,0.0019755592520757643,5465.368655255821
1684313533333549499,154,1684313533333549499,camera_1,186,0,0.16736662187896303,-1.4302525545292761,6.62127620093351,0.6978038289771711,-0.7097193006740776,-0.0826535285251318,0.05036590848820457,0.0060293579153949395,0.003906504632970968,5463.797131315396
1684313533340210199,155,1684313533340210199,camera_1,187,0,0.1688135343513488,-1.4313030783267489,6.626145463633213,0.698313686185529,-0.7096664121839102,-0.07967674563486687,0.048817981410867684,0.013188504803110845,0.008549409135108762,5463.813895079889
1684313533346995115,156,1684313533346995115,camera_1,188,0,0.17133960091264142,-1.430912905798501,6.625015124479084,0.6980980552439734,-0.710238140690104,-0.07825738140167407,0.04578942050080196,0.0132904811471235,0.00860824271466037,5473.696834131435
1684313533353989601,157,1684313533353989601,camera_1,189,0,0.17254528554031592,-1.431144622618117,6.626410598729146,0.6978833252519124,-0.7102112196621199,-0.07907220357045212,0.048025768332119995,0.011423576273955405,0.007403782328468879,5467.6500248645325
1684313533360749721,158,1684313533360749721,camera_1,190,0,0.17343941511423794,-1.4287092209710563,6.615243474286414,0.6979686394615535,-0.7095020887236725,-0.08357472583962584,0.049616828050222196,0.011324746839818545,0.007325169946035623,5476.628566171743
1684313533367631435,159,1684313533367631435,camera_1,191,0,0.17548257786580207,-1.4298780879143005,6.620889828218857,0.6978367014079683,-0.7100614720743056,-0.07957382696017343,0.05004647946288303,0.00892512897553388,0.005775405682610222,5474.73324874352
1684313533374320745,160,1684313533374320745,camera_1,192,0,0.17636914353251001,-1.4304796024730115,6.624081145990924,0.6981273518038,-0.7098714330032199,-0.07995081423482563,0.04804806523218911,0.012590640631970018,0.008155793689702706,5472.0905158659425
1684313533387629270,161,1684313533387629270,camera_1,194,0,0.1783746372579774,-1.4307563165614714,6.625647752613541,0.6980556693834129,-0.7100407240523112,-0.0790035881533746,0.04815480960233276,0.01680809749814216,0.010889458359410593,5472.018137866749
1684313533394302129,162,1684313533394302129,camera_1,195,0,0.178807433167054,-1.4299129436264717,6.62194476648446,0.6979094581950545,-0.7101063194931023,-0.07948862376967014,0.048507338301019234,0.009858656878350303,0.006380675265215972,5477.146241087349
1684313533400956392,163,1684313533400956392,camera_1,196,0,0.17923414454361497,-1.430739044947427,6.625817888957795,0.6976615309534753,-0.7099942248879275,-0.08160835664014648,0.050166372999637214,0.015241737142787315,0.009882822021076371,5464.902439088913
1684313533407561779,164,1684313533407561779,camera_1,197,0,0.1795038338393775,-1.4291954151594781,6.618900695550711,0.6976554715278898,-0.7100843840727782,-0.0804104573718807,0.05090352530450218,0.005986199277685955,0.003871764850875878,5477.654992890952
1684313533414320468,165,1684313533414320468,camera_1,198,0,0.17954649490592103,-1.4293141937264728,6.6192669513085605,0.6982464055070283,-0.7094254468927731,-0.0807478977091677,0.051451623036145755,0.008465337043162435,0.005476599077835812,5475.620429245058
1684313533420747280,166,1684313533420747280,camera_1,199,0,0.17968139026228425,-1.4303047594621854,6.623730662097836,0.6983089763351373,-0.7097654465784846,-0.07805709467132264,0.050046722015424414,0.009719816691358574,0.006291506876346633,5474.8558449447155
1684313533427407979,167,1684313533427407979,camera_1,200,0,0.17934763812687213,-1.430564694341383,6.625065603063078,0.6979081562055877,-0.7101409933956748,-0.08000169936674968,0.04715615653500214,0.010564188822172582,0.0068447455806934865,5473.214423344063
1684313533434184551,168,1684313533434184551,camera_1,201,0,0.17885352779670766,-1.4296003467231848,6.620462658249271,0.69786240748415,-0.7099072227912974,-0.081853572590662,0.04816417655601302,0.010456165604409762,0.006769334795209646,5475.998058034107
1684313533440794706,169,1684313533440794706,camera_1,202,0,0.17862454345037398,-1.431170252648364,6.6276281092319325,0.6982804040282526,-0.7100109400496999,-0.07876587492727036,0.0456604786092222,0.010642270281095989,0.0068982951593127865,5472.647201798566
1684313533454164266,170,1684313533454164266,camera_1,204,0,0.1765205215524686,-1.429760025012045,6.620579373923215,0.6978248021421171,-0.7097667355573872,-0.08226410146058205,0.05004342336819454,0.012559817361761816,0.00813353404120634,5471.134127951284
1684313533460709333,171,1684313533460709333,camera_1,205,0,0.17596885616807137,-1.4317093165425607,6.629560020150521,0.6980570787951603,-0.7102282672332164,-0.0777052410051323,0.04747650668704094,0.012445640764781274,0.008069825049296557,5467.324446990795
1684313533467521905,172,1684313533467521905,camera_1,206,0,0.17387642111071253,-1.4295801412027236,6.619218242590949,0.6977300460772781,-0.7098030476194424,-0.0819853473954858,0.05129151200337867,0.013266922498587519,0.008587150790720642,5470.64725093276
1684313533474201202,173,1684313533474201202,camera_1,207,0,0.17267025689271104,-1.4287400972114694,6.615373448019562,0.6977289910135294,-0.709593983112038,-0.0834633545897075,0.051812186511167035,0.008463715043035336,0.005474705489973284,5473.041435347987
1684313533480710506,174,1684313533480710506,camera_1,208,0,0.17169415390046144,-1.429820755949304,6.620192767147843,0.6981208982317145,-0.7096247534016905,-0.08187071337483622,0.04855004740707733,0.004272365316865034,0.0027662394047535516,5471.987647018628
1684313533487166404,175,1684313533487166404,camera_1,209,0,0.17048970688840956,-1.4303432951850787,6.622274836227568,0.6981887195484766,-0.709691002790351,-0.08138533038714654,0.047409075623341394,0.006391968883690424,0.00414093647152506,5470.259958262091
1684313533493983983,176,1684313533493983983,camera_1,210,0,0.16784873346959983,-1.429928898620662,6.619772552986758,0.6982777896582514,-0.7091284730667884,-0.08474101165604209,0.04861993520627612,0.009477345112827606,0.006142055711495162,5465.266854123796
1684313533500462532,177,1684313533500462532,camera_1,211,0,0.16652318763417837,-1.4296235877042702,6.61805563732781,0.6983272438995832,-0.7092222118367536,-0.08343357649133218,0.04880320664526059,0.010685985238524154,0.006918728669793102,5469.47491154936
1684313533507563114,178,1684313533507563114,camera_1,212,0,0.16363275624125814,-1.4304908883545997,6.6213333331678,0.6981494190200905,-0.7097765953642214,-0.0815619512126433,0.04639204144538981,0.008175454815500416,0.005295854657478669,5469.0123141777
1684313533520729780,179,1684313533520729780,camera_1,214,0,0.16052884817330812,-1.4305312636394172,6.620940918398229,0.6982644493893421,-0.7099139417280582,-0.0795182134731931,0.04610648311422185,0.00594413882936351,0.0038478777471881364,5471.793137835861
1684313533527343034,180,1684313533527343034,camera_1,215,0,0.15753336811543114,-1.4322781892611172,6.628128004406082,0.6984987746881796,-0.7099010641403022,-0.07868720704839309,0.04413914746006797,0.022807355358963832,0.014794920124127598,5462.039583654783
1684313533534128665,181,1684313533534128665,camera_1,216,0,0.15560651733498523,-1.4305670694826154,6.6200773519264375,0.6985650676101708,-0.7095525641376056,-0.08106811569167487,0.044384295181380554,0.008706289227120578,0.0056383879392502495,5470.018062274207
1684313533547313928,182,1684313533547313928,camera_1,218,0,0.15244601230774021,-1.4308059568354623,6.620250320359953,0.6981097055080769,-0.7099616870227776,-0.07983846769927803,0.04714934899475512,0.02091446023041499,0.013541549441655826,5466.1674138594535
1684313533560667276,183,1684313533560667276,camera_1,220,0,0.14766214325713536,-1.43110477457972,6.62076206699172,0.6986435729976819,-0.7093738140662779,-0.08137358272461363,0.045434456755367864,0.012485792165534804,0.00809059130449792,5462.235628447641
1684313533574068307,184,1684313533574068307,camera_1,222,0,0.14304203933141554,-1.4301688291112638,6.61556854491882,0.6983831911097308,-0.709384411226157,-0.08350724565459433,0.04540061021496458,0.007363278131379047,0.00476742188498746,5464.487200259318
1684313533587454557,185,1684313533587454557,camera_1,224,0,0.1399887989230599,-1.429455051251749,6.6116142448294415,0.6985308295622444,-0.7092099678716834,-0.08418890524762013,0.04458844980189032,0.01356701215627254,0.00877639117272006,5469.110461901874
1684313533600676298,186,1684313533600676298,camera_1,226,0,0.1361524714785408,-1.430257802355866,6.614185173325995,0.6981023732666018,-0.7094261984813636,-0.0860791508011372,0.044248447940850796,0.018890726918471046,0.012239088861314152,5459.551718169388
1684313533613977670,187,1684313533613977670,camera_1,228,0,0.13314740455289417,-1.4320611182868586,6.621941727771604,0.6988967285346838,-0.709910147369476,-0.07793757500428937,0.038686947512256875,0.021881484033656307,0.014175818403534003,5465.919499820797
1684313533620511054,188,1684313533620511054,camera_1,229,0,0.1318982713705738,-1.4301286695389537,6.6129052932719565,0.6983262703903061,-0.7093757950746065,-0.08459724423640097,0.04438138925993392,0.017986633687542053,0.01164488211924768,5461.601779984019
1684313533627124309,189,1684313533627124309,camera_1,230,0,0.1309180329758621,-1.4295829209704898,6.610290423587541,0.6986099122953566,-0.7091578413741944,-0.08350346346290077,0.04545897106036517,0.019267753119493136,0.012460680572084062,5465.807001885256
1684313533634131669,190,1684313533634131669,camera_1,231,0,0.12947549364979788,-1.4288961661121056,6.606492728957234,0.6982185118461119,-0.7092288127841136,-0.08600551941200331,0.04569957836686492,0.018855073263694067,0.012190162415808262,5466.442179209901
1684313533640695571,191,1684313533640695571,camera_1,232,0,0.1291573404454239,-1.4306420214626674,6.614699619274348,0.6986062074362063,-0.7093140471634767,-0.0827435909034894,0.044457255792115596,0.009403323078004178,0.0060881374919980495,5460.089758460443
1684313533654048442,192,1684313533654048442,camera_1,234,0,0.12799295388025062,-1.4309833085425954,6.615777071326485,0.6985630815989029,-0.7094068376875912,-0.08228991020770819,0.044496408249918636,0.014367875272000674,0.009304608137801517,5458.266754716665
1684313533667314767,193,1684313533667314767,camera_1,236,0,0.1276936603500528,-1.4301025978113973,6.6117340347222875,0.6984917694626546,-0.7092024798590572,-0.08490070593246887,0.04396544878495237,0.011627689404122066,0.007527221737725336,5460.988268496381
1684313533680744171,194,1684313533680744171,camera_1,238,0,0.1280440313090216,-1.4304254912694958,6.613401396526254,0.6984581841921691,-0.7094240257602039,-0.0843323747476427,0.041973410375937534,0.0160391382414673,0.010386323294945857,5462.085165071476
1684313533693906068,195,1684313533693906068,camera_1,240,0,0.12925378164033902,-1.4294469730613628,6.609351968728204,0.6986256873156155,-0.7089943295378324,-0.08476078338271005,0.045440062789711536,0.007780187246680725,0.0050322687452620495,5464.190321906761
1684313533700680494,196,1684313533700680494,camera_1,241,0,0.1298816546244094,-1.4298166221029707,6.611244823048861,0.6985879443540975,-0.7092442180769262,-0.08446548730728871,0.04258056577252454,0.008449305114481831,0.005467755251051734,5465.8178359745925
1684313533707677841,197,1684313533707677841,camera_1,242,0,0.13056510406433644,-1.4300158900428548,6.61199637028289,0.6982269729940421,-0.7095456668883262,-0.08342900580776824,0.045427324084796446,0.022010294433130184,0.014241116973411858,5462.909436286454
1684313533714446783,198,1684313533714446783,camera_1,243,0,0.13241148580936252,-1.4309629817863974,6.61670629087741,0.6981318300869569,-0.7095925683125752,-0.08389469698075451,0.045299168132613275,0.015543328656349331,0.010072191085390847,5455.577540767262
1684313533721361637,199,1684313533721361637,camera_1,244,0,0.13344175241172632,-1.4310890471963187,6.617545349162811,0.6983787339891183,-0.7098989299745087,-0.08070800658712615,0.042389512919312755,0.022325675483443774,0.014455707595100672,5464.176859061845
1684313533727574348,200,1684313533727574348,camera_1,245,0,0.13455755133126523,-1.4313462743066845,6.619028177632199,0.6988575485971873,-0.7093689328446253,-0.08244672955363572,0.039954732754921375,0.018788269451761153,0.012177058553163568,5462.523457362782
1684313533734100341,201,1684313533734100341,camera_1,246,0,0.13698412984826838,-1.4314131881347218,6.619936987430273,0.6985269932508501,-0.7097034702641571,-0.08173951136490297,0.04122713034843009,0.007749845812213607,0.005022520636970284,5462.13795604193
1684313533746925354,202,1684313533746925354,camera_1,248,0,0.13955352310200106,-1.4319483181877548,6.622598153059603,0.6987017307977013,-0.7099028966802688,-0.07920798325358304,0.03974750374753399,0.010998803219990805,0.007127923468744838,5465.315335352265
1684313533753640651,203,1684313533753640651,camera_1,249,0,0.14203828585191106,-1.4290822819345106,6.610393612664596,0.6985329750125678,-0.7088345279115155,-0.0864261907528169,0.04621480728628098,0.00976572838408174,0.006319156413400559,5466.13867212509
1684313533760452032,204,1684313533760452032,camera_1,250,0,0.1438693079639269,-1.4306900383153645,6.61789119674311,0.6987156667271163,-0.7091844772200097,-0.08283114527087672,0.04464074051108413,0.016945688392297598,0.010976619744199877,5463.262444626336
1684313533773979902,205,1684313533773979902,camera_1,252,0,0.14876950702364353,-1.4331611035293201,6.630482884462365,0.6987189717057951,-0.709873258513523,-0.08069121034697564,0.03688745042056255,0.01895001036245958,0.012312174591609406,5458.661186878426
1684313533780526161,206,1684313533780526161,camera_1,253,0,0.1500250033470224,-1.4308843084504503,6.620465233541419,0.6985114381144201,-0.7097035878070526,-0.08075283923082667,0.0433770357825705,0.008520293809851864,0.005518909134548714,5467.981172712489
1684313533787209033,207,1684313533787209033,camera_1,254,0,0.15174963173094397,-1.4303222618625224,6.618248230349683,0.6982392072455444,-0.7094915780429015,-0.08303580839679105,0.04678423532770996,0.01938819781935308,0.01255849474233043,5464.136488147777
1684313533800279140,208,1684313533800279140,camera_1,256,0,0.1565599661755959,-1.430197943767277,6.618472208966269,0.6984089865071362,-0.7093950688231991,-0.08196339907135088,0.04759753258388362,0.011819038147223182,0.007652286715349302,5467.305493637511
1684313533807088136,209,1684313533807088136,camera_1,257,0,0.15814856762936955,-1.4303587664554491,6.6198465103599595,0.6985402661943205,-0.7094827023212009,-0.08170804811453282,0.04471673607819845,0.004461623117094859,0.00288953631331609,5470.373900902574
1684313533814148664,210,1684313533814148664,camera_1,258,0,0.16140297311803342,-1.4303431301986376,6.620431977511637,0.69814233036276,-0.7097562427612036,-0.08308905597927921,0.0440405630484717,0.0007351913518505171,0.00047636831112286403,5469.767003459738
1684313533827034950,211,1684313533827034950,camera_1,260,0,0.16427408217298367,-1.4283857356008018,6.611905822530677,0.6976542599010874,-0.7092668261898227,-0.08555540600434447,0.053845848604265716,0.00969944016833324,0.006272941938697745,5467.20973838144
1684313533833996057,212,1684313533833996057,camera_1,261,0,0.16747534955122448,-1.430240029362528,6.620955818875344,0.6980309028378696,-0.7096639448659139,-0.08219302855178365,0.048726277286322936,0.019187260724720545,0.012428663817542113,5467.466291805205
1684313533840560674,213,1684313533840560674,camera_1,262,0,0.1688139925487008,-1.4315272707464564,6.6274753194371145,0.698171655838501,-0.7100248518948118,-0.0792729286482372,0.04622609067407603,0.005172968580154702,0.0033544389280139053,5465.928378441779
1684313533853888988,214,1684313533853888988,camera_1,264,0,0.17245159461089335,-1.4299092372373232,6.620623266951405,0.6977406850126529,-0.7099065273476477,-0.0814745912599328,0.05052276601992923,0.00956406288605649,0.00619236829449892,5469.560932866648
1684313533860550880,215,1684313533860550880,camera_1,265,0,0.17369879584010398,-1.4305509830094156,6.623712912835946,0.69801407873143,-0.7098495700077097,-0.0823836851530159,0.04585697627615228,0.010282049857778475,0.006665398173634608,5469.956435429573
1684313533867594957,216,1684313533867594957,camera_1,266,0,0.1744238376879582,-1.429475036282089,6.619167957222087,0.698016091854324,-0.7099201450030473,-0.08024653924869289,0.04845014107178841,0.009298853401560336,0.006015723271056182,5478.16807202628
1684313533874228477,217,1684313533874228477,camera_1,267,0,0.17657458428946976,-1.4313243663478945,6.627947854881703,0.69793158625111,-0.7102006960323732,-0.0776529923387815,0.049764294920906955,0.01669063215376809,0.010816291085624619,5467.250044390268
1684313533880779743,218,1684313533880779743,camera_1,268,0,0.1772450964009132,-1.4312625437135025,6.6280239238427825,0.6981714287352939,-0.7100089893398474,-0.07971416447732053,0.045711520823637344,0.0067134437849745154,0.004353609474058462,5469.608651027897
1684313533887450456,219,1684313533887450456,camera_1,269,0,0.17801135186558034,-1.4312657203788732,6.627906562119511,0.6982032748285234,-0.7101338920187064,-0.07801414685135794,0.04621509835697044,0.014300169437774459,0.009268244109270362,5472.366567402087
1684313533894097089,220,1684313533894097089,camera_1,270,0,0.178845913111031,-1.4300829883637203,6.622482799771422,0.6979156129688008,-0.7097622730169477,-0.0823517369012848,0.0486775554597847,0.017751128834788688,0.01150108364416226,5470.9817241057735
1684313533901106119,221,1684313533901106119,camera_1,271,0,0.1790379153289596,-1.4290733105478057,6.618121610307679,0.6979077668735953,-0.7097016249459221,-0.08210231732819748,0.05007556266253208,0.008533635074854828,0.005521126377057389,5476.8882633514
1684313533907686471,222,1684313533907686471,camera_1,272,0,0.17947308417855967,-1.430523423116956,6.624966346323547,0.6980922610704653,-0.7099854610684586,-0.07786203837819645,0.05025279180827595,0.009821317755267955,0.006359118562527386,5472.770128867997
1684313533914425849,223,1684313533914425849,camera_1,273,0,0.17952562663523122,-1.4292265745867623,6.619143278560964,0.6979141064796013,-0.7099332312387368,-0.07862636605406208,0.052236019381636856,0.00629995166673325,0.004072920581197081,5478.375889056479
1684313533920950889,224,1684313533920950889,camera_1,274,0,0.179452902014978,-1.4283130200973297,6.614812782542448,0.6975355328749485,-0.7099092409066778,-0.08216820523230899,0.05216738541528815,0.0024879431148292497,0.0016080286705605414,5479.538117554035
1684313533927653551,225,1684313533927653551,camera_1,275,0,0.17961319875923284,-1.431347800711169,6.62875876037567,0.6980494934055078,-0.7101250056698837,-0.07914386025697141,0.04675072686372762,0.006051867821952328,0.003924555000417072,5469.232075606471
1684313533934207439,226,1684313533934207439,camera_1,276,0,0.1789551828245447,-1.4302550942636385,6.6237355876698,0.6982183567766749,-0.7095711614693682,-0.081077843715691,0.04925724646695279,0.008315302271512337,0.0053873130219799425,5470.466247607489
1684313533940568685,227,1684313533940568685,camera_1,277,0,0.17843322885921026,-1.4297009255410649,6.621182415028108,0.697922085296557,-0.7099907939609678,-0.07935424760767008,0.050206959005707125,0.002645389176905155,0.0017116512859574819,5476.115767778945
1684313533947316646,228,1684313533947316646,camera_1,278,0,0.17804590496445355,-1.430738867710467,6.6255129482145545,0.6981983014315264,-0.7098449917237378,-0.07970928300344797,0.0478084700229386,0.008368781200260855,0.005422835536719601,5471.350921749661
1684313533954171180,229,1684313533954171180,camera_1,279,0,0.17673964939321524,-1.4316107501355868,6.629338873415841,0.6980793125764158,-0.710355081681012,-0.07721189340260674,0.046035364666593,0.017961311677936465,0.011643674896055708,5470.88121272088
1684313533960847616,230,1684313533960847616,camera_1,280,0,0.17558343264535442,-1.4293766906346586,6.6188761698373915,0.6978702097485794,-0.7100181465512548,-0.078168442152124,0.05235548266327978,0.004685209845774807,0.0030285573174619923,5477.226030075224
1684313533967214345,231,1684313533967214345,camera_1,281,0,0.17493795939483947,-1.430020118485895,6.621449680141854,0.6978151600058439,-0.7098440485929898,-0.08095387795876825,0.05120448014156995,0.00875691715918947,0.005669785142836297,5469.458379616553
1684313533973877429,232,1684313533973877429,camera_1,282,0,0.17273430654329786,-1.429515144216098,6.618851124842105,0.6979369295915102,-0.7097560705177194,-0.08187562321041646,0.04926200360853763,0.007568601999082602,0.004898393262534418,5473.763866615187
1684313533980620622,233,1684313533980620622,camera_1,283,0,0.17159141188844712,-1.4293850008061593,6.6176362825405235,0.6980373337459724,-0.7096380044276098,-0.08279406166963676,0.047988818708715346,0.01903227601724211,0.012316959148396377,5475.2339157192055
1684313533987360239,234,1684313533987360239,camera_1,284,0,0.17057680145285573,-1.431332502814636,6.626959653518903,0.6980559787880174,-0.7098658695763264,-0.0820944856500142,0.045483987455023064,0.002380268939305097,0.0015445191694417007,5463.914216288598
1684313534000507831,235,1684313534000507831,camera_1,286,0,0.16638345586016193,-1.4300347301276812,6.6200553202928045,0.6981338552447935,-0.709514528959178,-0.08194696730074144,0.04982918730110647,0.012494887632783502,0.008091333252092202,5467.255003531231
1684313534014094114,236,1684313534014094114,camera_1,288,0,0.1618844485722265,-1.4285092965877855,6.61187624348276,0.697697564588847,-0.70919858938414,-0.08592562038447268,0.05359344123940134,0.014215161208994687,0.009195254682135395,5465.559309041126
1684313534027544260,237,1684313534027544260,camera_1,290,0,0.15909855319330832,-1.4325588417705826,6.62981416494073,0.6985190592001372,-0.7101235001530835,-0.07644276507709202,0.04418418418232198,0.014549315150361508,0.009435974909429193,5463.793837344855
1684313534033941268,238,1684313534033941268,camera_1,291,0,0.1555239779251398,-1.430205449840944,6.618120378659418,0.6982461908891637,-0.7095825161356059,-0.08217417991411313,0.04682215136961414,0.015455002736416645,0.01000659921794727,5467.969651026128
1684313534040416240,239,1684313534040416240,camera_1,292,0,0.15435677896442263,-1.4324422480299592,6.628206348968663,0.6984322168171625,-0.7098273057458059,-0.08003042810451068,0.043963224482778986,0.013711022911593318,0.008898991296938961,5458.055052602315
1684313534047380208,240,1684313534047380208,camera_1,293,0,0.1524680834684043,-1.4311506077308553,6.621891140087333,0.698433753919011,-0.7095172404140414,-0.0811800497215836,0.04674801032175773,0.02561051131124259,0.016596802292321862,5461.710753378575
1684313534054046869,241,1684313534054046869,camera_1,294,0,0.14943374830005096,-1.432131755650095,6.625603892136638,0.6987719451079006,-0.7095066111588613,-0.08030198047957812,0.04324036751748335,0.018333788979361998,0.01189262660974462,5459.927870265411
1684313534067339420,242,1684313534067339420,camera_1,296,0,0.14609679860299682,-1.4307186249821155,6.618854969636875,0.6983230241303172,-0.7095848648288193,-0.08359342506883148,0.042969906453427006,0.01129010755175841,0.007317088518251132,5463.947128915459
1684313534080635070,243,1684313534080635070,camera_1,298,0,0.14149333445214807,-1.4302464979278164,6.61568002007521,0.6986302625406875,-0.7091773888029115,-0.08273128884573694,0.04624631140899366,0.015010445658845128,0.009717166976380892,5463.551827774614
1684313534087251663,244,1684313534087251663,camera_1,299,0,0.1400538517573097,-1.4304163532500458,6.61586460205808,0.6982349836502563,-0.7096197843782512,-0.08359577569307672,0.0438111345683214,0.009686569232144393,0.006272784575794404,5464.162689145013
1684313534100515365,245,1684313534100515365,camera_1,301,0,0.1361258969152455,-1.4306775522364068,6.616069410824189,0.698113602740312,-0.7097890683652707,-0.08197495105890129,0.04601068894282707,0.02074056760466192,0.013427660068458613,5461.227887985765
1684313534107276201,246,1684313534107276201,camera_1,302,0,0.13509426626438018,-1.4308619148734594,6.6168653352708935,0.6985412538370265,-0.7095324271477744,-0.08247156534846858,0.0424534147337585,0.011864945110573899,0.007684834382541002,5463.2272859181685
1684313534114073514,247,1684313534114073514,camera_1,303,0,0.13285229129051007,-1.4302987234196571,6.613855463850024,0.6986332146778856,-0.7090509638710837,-0.08448262355279108,0.04495607077990701,0.017759480251697823,0.011500456426913361,5460.003870662855
1684313534120697259,248,1684313534120697259,camera_1,304,0,0.1319164963881284,-1.430246306658482,6.613390510568701,0.6983089576288868,-0.7096926136220459,-0.08237827124374614,0.04375859107031213,0.013784166869299952,0.00891903596134048,5465.523365276658
