%time,field.header.seq,field.header.stamp,field.header.frame_id,field.image_seq,field.transforms0.fiducial_id,field.transforms0.transform.translation.x,field.transforms0.transform.translation.y,field.transforms0.transform.translation.z,field.transforms0.transform.rotation.x,field.transforms0.transform.rotation.y,field.transforms0.transform.rotation.z,field.transforms0.transform.rotation.w,field.transforms0.image_error,field.transforms0.object_error,field.transforms0.fiducial_area
1684747148512217283,13,1684747148512217283,camera_2,15,0,0.7489090582084195,-0.17978143230261456,1.5108632204344261,-0.9697327233599476,0.08149546540706466,0.22932871127390062,-0.019628462712025826,0.0012950426462339237,0.0011686350184362882,2961.97660130635
1684747148521955490,14,1684747148521955490,camera_2,16,0,0.7482045590522682,-0.17942271552208242,1.5094234410884892,-0.9695387858047073,0.08132383533019606,0.230167549897245,-0.020096656483619663,0.001990861783269793,0.001794381970371968,2965.0713251670823
1684747148531995296,15,1684747148531995296,camera_2,17,0,0.7485191242960465,-0.17917265924725012,1.5100285377284606,-0.9696894091695337,0.08094480816316528,0.2297172142118754,-0.01950357071421388,0.0014637276326538995,0.0013192855722702257,2964.7759933148045
1684747148542086124,16,1684747148542086124,camera_2,18,0,0.7488370365134511,-0.17881575406699887,1.5106153501515138,-0.9696885746742178,0.08089600377775792,0.2296013415439171,-0.021050621850825083,0.004508740617893636,0.004069576810032932,2962.645111884224
1684747148552224874,17,1684747148552224874,camera_2,19,0,0.7487599240604457,-0.1777809288462622,1.5104258786124893,-0.9695583858701011,0.0811576903725015,0.23010697517474948,-0.020512085664128158,0.0016877764865057543,0.001522383596042697,2963.5164355949955
1684747148562268495,18,1684747148562268495,camera_2,20,0,0.7488763670946716,-0.17728460335302318,1.5106874665028678,-0.9694438787265852,0.08157064590050479,0.23045630770569736,-0.02036383965723445,0.008887359537766315,0.00801889099216468,2962.287278435892
1684747148572009325,19,1684747148572009325,camera_2,21,0,0.7491939327532745,-0.17687110240687848,1.5113440774411089,-0.9696887237994063,0.08120340414203463,0.22967458419774633,-0.018957095389762736,0.009832809766521677,0.008865846745532245,2963.4821002093377
1684747148582157850,20,1684747148582157850,camera_2,22,0,0.7486453055007196,-0.17628073091380247,1.5102551713614734,-0.9695044837133159,0.08132410391626171,0.23034396382809816,-0.01972573217788679,0.011420278664445505,0.010289268548303136,2966.0121610924834
1684747148592042207,21,1684747148592042207,camera_2,23,0,0.7486816128434475,-0.17568310938262177,1.5103302205645077,-0.9694885856599862,0.08173332325762318,0.23026437823577356,-0.01974492998106418,0.0075492345640668646,0.006800375501493572,2966.8205648650173
1684747148602112770,22,1684747148602112770,camera_2,24,0,0.7491206597498153,-0.17565902225480726,1.5112593214597634,-0.9696157250207941,0.08204490152904763,0.2296601175905703,-0.01924085013127652,0.008261937022325583,0.007446231414567966,2965.511899783274
1684747148612121820,23,1684747148612121820,camera_2,25,0,0.7492258991680381,-0.17566574282790987,1.5115020764993736,-0.9698400379825787,0.08168339092676942,0.22893935915871022,-0.018024821792574208,0.005984809598885477,0.005389210209688328,2967.349644153728
1684747148622112751,24,1684747148622112751,camera_2,26,0,0.7486979893469045,-0.17567572897999262,1.5104320804980942,-0.9695441644523248,0.0817783571078899,0.23006937826469745,-0.019091743505332215,0.004017091705463827,0.0036171925976798127,2967.4044069360243
1684747148632165670,25,1684747148632165670,camera_2,27,0,0.7492138313778605,-0.17639155958026373,1.5115284614208582,-0.9699851366045442,0.08145979504106568,0.22833891520739,-0.018827542591745756,0.00877638376550749,0.007906023075483503,2967.7753606430483
1684747148641959190,26,1684747148641959190,camera_2,28,0,0.7487279617753374,-0.17673592608852845,1.510573209502289,-0.9695072264220231,0.08121433445757333,0.230471371740404,-0.018518007511236115,0.008103605840005912,0.007300600998546684,2964.4760220702747
1684747148652055978,27,1684747148652055978,camera_2,29,0,0.7489695062890601,-0.1772956187010233,1.5110462827949296,-0.9697619044124984,0.0815637949168747,0.22922475252983077,-0.019110440514027743,0.0064525350608164445,0.0058155687243597745,2965.487885074923
1684747148662052631,28,1684747148662052631,camera_2,30,0,0.7489766813015114,-0.1778315587743269,1.511083836463442,-0.9697992707840352,0.08095136375002167,0.2293744356697426,-0.01798942341912307,0.0056685127929085866,0.0051073326855858485,2964.6214009970417
1684747148672181606,29,1684747148672181606,camera_2,31,0,0.7488416995224848,-0.17882152141891558,1.5107734336471113,-0.9698121980053406,0.08107878764615402,0.22894990761708622,-0.021736388752688022,0.003450647825957276,0.003114950905211648,2963.8925646124408
1684747148682042360,30,1684747148682042360,camera_2,32,0,0.7493470461705215,-0.1793628778272557,1.5117748207208046,-0.9701001729363781,0.08013264724447738,0.2282828958360622,-0.019269996966870234,0.0019223221024731174,0.0017346357837872404,2962.5017993677175
1684747148692070484,31,1684747148692070484,camera_2,33,0,0.7487818866342466,-0.17956234391199494,1.5106465803254463,-0.9698719945510647,0.08140000063273847,0.2287309466893095,-0.020112386957846833,0.0005068285681772977,0.0004571218555740887,2964.75003478455
1684747148702137947,32,1684747148702137947,camera_2,34,0,0.7495901810764842,-0.17994440619101928,1.5122663757633887,-0.9701382291059905,0.08136206850435489,0.22757593890273423,-0.020523700161629497,0.0008531305065844208,0.0007707895225192085,2961.4392961080894
1684747148711981773,33,1684747148711981773,camera_2,35,0,0.7485120018577724,-0.1796975333879619,1.5100623406459546,-0.9695406686621413,0.08170204424877968,0.23018906239345113,-0.018129074167271164,0.0005717565072700381,0.0005152561598294804,2963.14689393749
1684747148722138881,34,1684747148722138881,camera_2,36,0,0.7479382261872589,-0.17935425016579937,1.508912810871206,-0.9695321151625255,0.08130235073990656,0.2301483065336613,-0.020716235959573823,0.001266016421141103,0.0011406711661749525,2966.8751602737466
1684747148732156515,35,1684747148732156515,camera_2,37,0,0.7493668870565362,-0.17938523530894032,1.5117811137157604,-0.9700647699776962,0.08061862575100727,0.2282328504131173,-0.01961492346256383,0.0010019497276516631,0.0009043292169296135,2962.4281815321883
1684747148742129325,36,1684747148742129325,camera_2,38,0,0.7485932584243528,-0.17877213526919206,1.5101962674973861,-0.9696702836290252,0.08111291846498453,0.22966012206491676,-0.020407445651680164,0.004750931242597289,0.004284369821816275,2964.513903288637
1684747148752082347,37,1684747148752082347,camera_2,39,0,0.7488955366678007,-0.177824293209575,1.5107874050523749,-0.9698496139348978,0.08076011764316439,0.2291404466003796,-0.01908364431576688,0.00799620259203948,0.007205411748957501,2965.8355693314224
1684747148761990308,38,1684747148761990308,camera_2,40,0,0.7489352105628901,-0.17730898264279177,1.51088667223947,-0.9698208412402398,0.08161561432946716,0.22894317585952934,-0.019273028331065208,0.004530538295512088,0.004082247657741455,2966.7672792364624
1684747148772078514,39,1684747148772078514,camera_2,41,0,0.7495212018778689,-0.17692913167020632,1.5120841622691519,-0.9699329033338733,0.08128269133913116,0.22859993399651812,-0.01911432174518354,0.015962399018462747,0.014397874836259827,2963.945466217003
1684747148782002925,40,1684747148782002925,camera_2,42,0,0.7484972822940041,-0.17624418444457873,1.5100263178617577,-0.969360491877297,0.0814795310706135,0.23099771624927304,-0.018476414466510264,0.012487731772125699,0.011244267813214524,2965.53839217883
1684747148791992664,41,1684747148791992664,camera_2,43,0,0.7500133307812806,-0.1759906399721283,1.5131531095823048,-0.9700959234209431,0.08203988064179549,0.22760540259942993,-0.01947146768734497,0.008394093456445262,0.007575478004914437,2964.2256983135603
1684747148802077293,42,1684747148802077293,camera_2,44,0,0.7489286739803419,-0.1756023234766617,1.5109727383133509,-0.9696965470773479,0.08202702545916969,0.22943853081365587,-0.017836318528800747,0.004702868944150396,0.0042327762463955825,2968.069400755222
1684747148812083482,43,1684747148812083482,camera_2,45,0,0.749152921631918,-0.17564737054697477,1.5114485968894427,-0.9698860908968019,0.0822229847102124,0.22852940789121842,-0.018293747542645268,0.0019075067393714562,0.0017173630682009665,2968.828593710554
1684747148821949958,44,1684747148821949958,camera_2,46,0,0.7494177729836908,-0.17583856853268312,1.5119883414317612,-0.969852365157006,0.08256073223689459,0.22845595195123578,-0.019442050044274586,0.0022525679814862087,0.0020308481835900035,2966.2777682698793
1684747148832302570,45,1684747148832302570,camera_2,47,0,0.7481598303032484,-0.17615048546098294,1.5095442097460399,-0.9692363841837509,0.08164695032511446,0.2315472210664688,-0.01733469046197808,0.008647860333439894,0.0077788931943708044,2966.4930858907755
1684747148842124700,46,1684747148842124700,camera_2,48,0,0.7492677840353048,-0.17686553829377016,1.5118242540443132,-0.969859279095586,0.0816773952926667,0.22896918232835303,-0.016579969670695662,0.008374341428861953,0.007541421622956921,2965.2581447392
1684747148852191209,47,1684747148852191209,camera_2,49,0,0.7480553818550371,-0.17706979819149668,1.5093682885536202,-0.9692942574561044,0.08194121826459914,0.2311046059227982,-0.018572569375306432,0.007478336745407432,0.006730994353639594,2966.7395969941276
1684747148862150669,48,1684747148862150669,camera_2,50,0,0.7480666469607637,-0.17761431061684294,1.509362921290567,-0.969718701991224,0.08114455470182214,0.229690010621648,-0.017426969654128315,0.008091105206403881,0.007272487758325219,2970.8171746989256
1684747148872222661,49,1684747148872222661,camera_2,51,0,0.7488520411138437,-0.17882483202055416,1.5110064882008247,-0.9700109460859948,0.08165961451696296,0.2281232107539518,-0.019242467243123146,0.010345910297473893,0.009324011700975056,2967.008578668234
1684747148882026672,50,1684747148882026672,camera_2,52,0,0.7495378648967027,-0.17939546487376523,1.5123431906831963,-0.9703572824709121,0.0809154516383896,0.22704328072074953,-0.01762903064212001,0.0019337616686243564,0.001743274902445735,2965.0818618939948
1684747148892020463,51,1684747148892020463,camera_2,53,0,0.7494594551922783,-0.1796882288265766,1.5121906413316708,-0.9703713599674586,0.08177547903158126,0.22645835782818627,-0.020218975093255608,0.002160387593903579,0.001949691672295002,2965.8689580552737
1684747148902007818,52,1684747148902007818,camera_2,54,0,0.749270169312518,-0.17984911997322772,1.5118082232836842,-0.9701221758898103,0.08141020837243844,0.2277013792181261,-0.0196830821199105,0.0033293507440248504,0.0030048008448518492,2963.5307930731215
1684747148912156105,53,1684747148912156105,camera_2,55,0,0.748751819552141,-0.17973943290183259,1.5107873032703352,-0.969863973941394,0.08159255650438368,0.22874080712294653,-0.01960025332563369,0.0009930906962836161,0.0008956245804314095,2964.4057066027317
1684747148922034978,54,1684747148922034978,camera_2,56,0,0.7492740989701632,-0.1796458133977661,1.5118172131502097,-0.9699590372496119,0.08120512354315068,0.22849233952309145,-0.019402184088708065,0.0033117200509877875,0.0029896208776919236,2961.5008695140714
1684747148931990861,55,1684747148931990861,camera_2,57,0,0.7494183370446772,-0.17934695160551872,1.5120972406615063,-0.9700203655548431,0.08063551762241379,0.22855180999661046,-0.017957557013339287,0.00479936100600753,0.004330018188022627,2961.320136010647
1684747148942123413,56,1684747148942123413,camera_2,58,0,0.7491221535989019,-0.17887352698830772,1.5114592545488363,-0.9698028878845518,0.08125312858722533,0.22920976654769712,-0.018524866118857126,0.009475264130742289,0.008546978363252238,2962.101522181183
1684747148952328920,57,1684747148952328920,camera_2,59,0,0.7491417057360562,-0.17786513361152806,1.5114784338179146,-0.970137831283725,0.08128820524250625,0.22786363147295283,-0.017406362414974147,0.016347566852346063,0.014718283361490819,2968.0808355610343
1684747148962245464,58,1684747148962245464,camera_2,60,0,0.7490675487149109,-0.17732622868428818,1.5113031055610426,-0.9696919377626814,0.0817637942529145,0.2295050101163311,-0.018430358621738478,0.010689452712540515,0.009635590189879395,2964.0082949219513
1684747148972213268,59,1684747148972213268,camera_2,61,0,0.7492117234305833,-0.17685822921659278,1.5116601536441363,-0.9695414652785028,0.08154441654235471,0.23035924291720922,-0.016567270112813812,0.00835339080367703,0.007527597780048629,2961.54698505951
1684747148982158422,60,1684747148982158422,camera_2,62,0,0.7486931513686965,-0.1762866679392728,1.5106325880518574,-0.9695593774070088,0.08212067353565276,0.23007718657723347,-0.016592072712269732,0.009921766759362072,0.008925981306884687,2967.117577767116
1684747148992018222,61,1684747148992018222,camera_2,63,0,0.7491702298271616,-0.17579936686486475,1.5116155045078508,-0.969754342810603,0.08198324382117039,0.22920656032168954,-0.017877780567894266,0.00233937194570899,0.0021070401347380334,2966.2165832414757
1684747149001938104,62,1684747149001938104,camera_2,64,0,0.7490977506411306,-0.1756516296446928,1.5115399324215835,-0.969863989638731,0.08196250790660284,0.2288002626988315,-0.017217104537334642,0.003962195594795048,0.0035657781731090192,2968.3318806786556
1684747149012319087,63,1684747149012319087,camera_2,65,0,0.7492086286225638,-0.17563912904049128,1.511725891749808,-0.9699008847756878,0.08168759270904788,0.22874345963303616,-0.017200016972328265,0.00646663895167876,0.005820780451150751,2967.7642043645037
1684747149022300720,64,1684747149022300720,camera_2,66,0,0.7492859871669221,-0.17581671882315467,1.5119644622543087,-0.9695721447958612,0.08217155071152717,0.22986269842671295,-0.01846164027400698,0.0021807789016747847,0.0019664961308171894,2962.7540992443683
1684747149032272577,65,1684747149032272577,camera_2,67,0,0.749371094197446,-0.17643414073640135,1.5121698635267888,-0.969920937286505,0.08206061334494524,0.22861168744638186,-0.016003984305065635,0.00730508822016418,0.0065765209121437344,2966.0509907063088
1684747149042184114,66,1684747149042184114,camera_2,68,0,0.7489429462806451,-0.1767787376620453,1.511313149643178,-0.9699134054217189,0.08198156969715445,0.22873478408831274,-0.015080011979709013,0.010418339181342162,0.00936636885955048,2968.80129153328
1684747149052401065,67,1684747149052401065,camera_2,69,0,0.7483701521869134,-0.17713888832216604,1.5101410240492195,-0.9695424082114915,0.08242856717617456,0.23000523245898233,-0.017048256046702296,0.010660352141712792,0.009589809735465566,2967.989484917023
1684747149061900377,68,1684747149061900377,camera_2,70,0,0.7479579143705574,-0.17758519047610596,1.5093154037768646,-0.9696394281109015,0.08169237126466321,0.2299841638523978,-0.015265002686985291,0.01083503375411965,0.009728150471262853,2971.2461657918757
1684747149071987152,69,1684747149071987152,camera_2,71,0,0.7489887245292812,-0.1788612586071082,1.511387546313768,-0.9699792608786749,0.0819052832921792,0.22827912369150008,-0.017899712867201666,0.008135139447404072,0.007330429531573804,2965.7626288139722
1684747149082134962,70,1684747149082134962,camera_2,72,0,0.7503415110635525,-0.17959402241621897,1.5141263123992075,-0.9704512485553081,0.0811526223744484,0.22664412377665366,-0.016464119068654373,0.007517817852203734,0.00678704461333629,2960.0297999233007
1684747149092544555,71,1684747149092544555,camera_2,73,0,0.7481609618779123,-0.17938855245923113,1.5096780021529832,-0.9695329184504873,0.08186890969016133,0.23019515853466407,-0.01770849102058112,0.00294736803334672,0.00265362173635504,2965.5612399209053
1684747149102497577,72,1684747149102497577,camera_2,74,0,0.7491864249321286,-0.1798407841265348,1.5117375888896116,-0.970189148132731,0.08141801302998491,0.22748726821097975,-0.018806030991167396,0.0011121835850644857,0.0010029962962119553,2964.963815465685
1684747149112197160,73,1684747149112197160,camera_2,75,0,0.7489962185072337,-0.17980044697975756,1.511304363327751,0.9699733179269917,-0.08150017969595579,-0.2283469263399383,0.019161535698701045,1.128298754338175e-05,1.01772924728849e-05,2963.7976704465686
1684747149122046232,74,1684747149122046232,camera_2,76,0,0.7488162712431723,-0.1795624392762048,1.5109055846303947,-0.969667581362072,0.081710584887704,0.22960034254847886,-0.018757523140335696,0.0005683359486283734,0.0005126420847762873,2961.9555791756143
1684747149132041215,75,1684747149132041215,camera_2,77,0,0.7498142676463254,-0.17947471322740088,1.5129215673452379,-0.970106175296789,0.08074480258428673,0.22821319658886022,-0.01711789734034553,0.0037977002357365564,0.003427768996685638,2959.4750923698302
1684747149142055988,76,1684747149142055988,camera_2,78,0,0.7491231452866722,-0.17888827354458556,1.5115355854355377,-0.9697270886444833,0.08191705797024265,0.22930839875242354,-0.018347409195685532,0.011537244092323817,0.010408002030494624,2961.6963332726154
1684747149152068376,77,1684747149152068376,camera_2,79,0,0.7486091453785509,-0.17775178094414468,1.510486449294679,-0.9695457537372176,0.08141393569896994,0.23041014393312503,-0.016247093797085464,0.0118459225341212,0.010661398614947378,2964.715089786331
1684747149162037134,78,1684747149162037134,camera_2,80,0,0.7479308226132563,-0.17707205963002354,1.5091237886943838,-0.9692037389151015,0.08239177905138143,0.23140519483972666,-0.017531201297240173,0.009643807788961567,0.008674319854681001,2967.2226941136178
1684747149172112941,79,1684747149172112941,camera_2,81,0,0.7492115577272984,-0.17684831328676232,1.5116948757391433,-0.9694024289304941,0.08200456436208106,0.23082329591144066,-0.015962088585874147,0.012168779576313682,0.01096624469256832,2960.2965289911954
1684747149182091712,80,1684747149182091712,camera_2,82,0,0.7494909585033326,-0.17648380974708483,1.512312808799839,-0.9698063782622628,0.08206723110934527,0.22906128375737184,-0.016476848706684716,0.004358648453489877,0.003926998312654576,2963.756142518715
1684747149192140340,81,1684747149192140340,camera_2,83,0,0.7497897647017215,-0.1759444551835813,1.5129276136622603,-0.9700145734594213,0.082632490069038,0.22781715702866945,-0.018518688525431183,0.0035881454969057813,0.003235841063348482,2965.16295488784
1684747149202118635,82,1684747149202118635,camera_2,84,0,0.7499181314981564,-0.1758302715811749,1.513207256942946,-0.970169903290243,0.08176795066831218,0.22755012159988022,-0.01747292629140653,0.005638173432089388,0.005081889828944941,2965.533738193336
1684747149212191820,83,1684747149212191820,camera_2,85,0,0.7487760326831175,-0.17555013141264494,1.5108995797220612,-0.9696323001296978,0.08116212590655422,0.23015724663698242,-0.0159233691159731,0.004138448639423587,0.0037214664576757793,2967.2056804574095
1684747149222255706,84,1684747149222255706,camera_2,86,0,0.749226997217314,-0.17578735547548072,1.5118315821429458,-0.969754546295938,0.08205486138263733,0.22923691184426365,-0.017133531741610843,0.0022088479017838836,0.0019891718725990435,2965.7639800274032
1684747149232253789,85,1684747149232253789,camera_2,87,0,0.7490521745491499,-0.17634781350389922,1.5115215914399165,-0.9697171556379114,0.08175284078405305,0.22962170821556477,-0.015459049175869152,0.0043390077335061505,0.003904061955472757,2965.701835107409
1684747149242207765,86,1684747149242207765,camera_2,88,0,0.7496232099141388,-0.1769293629375238,1.512715620183925,-0.9698322855631493,0.08219269579573707,0.22895608223558925,-0.015773745418183986,0.005897506925975904,0.005314585094317151,2962.398758170545
1684747149252196788,87,1684747149252196788,camera_2,89,0,0.7482416000251266,-0.1771049667651044,1.5098976111629665,-0.9695574877082015,0.08213784270384084,0.23001956347504174,-0.01739693201892123,0.006711602851282805,0.006036634635781228,2968.7536409769673
1684747149262107372,88,1684747149262107372,camera_2,90,0,0.748478861245496,-0.17771518065897862,1.5103807978543287,-0.9697881001181358,0.08187669567419001,0.22917322126479725,-0.016937598113345467,0.00982815443421714,0.008840368617686936,2968.8819730489035
1684747149272046804,89,1684747149272046804,camera_2,91,0,0.7493963102587774,-0.1789404035968602,1.5121864818747635,-0.9700444593732618,0.08148526511943796,0.22807476752806696,-0.01886263037514369,0.007270346948644146,0.006560512781624493,2962.8042884767046
1684747149282186269,90,1684747149282186269,camera_2,92,0,0.749456425407623,-0.17938699605811625,1.5122561852990406,-0.9701370766654348,0.0808862115746531,0.22803594143955372,-0.017061144976852082,0.0035205864114686847,0.003174340775098864,2962.7319735278143
1684747149292293787,91,1684747149292293787,camera_2,93,0,0.7489418507666629,-0.17957150487741919,1.511205166151944,-0.9699533288382606,0.08161080092113834,0.22840527572573616,-0.01900650070997073,0.0038181975251063704,0.003443160232693297,2964.433195819147
1684747149302134990,92,1684747149302134990,camera_2,94,0,0.7485093950782035,-0.1796863993681506,1.5103251392638275,-0.9696421127495096,0.08147668862987108,0.2297544751324917,-0.01919905073621814,0.0024054232926573604,0.0021689214809281865,2963.3155140666076
1684747149312389612,93,1684747149312389612,camera_2,95,0,0.7489591193820284,-0.17979229336160527,1.5111616895013285,-0.9697243981760573,0.08152578970304307,0.22938363416472896,-0.019268771957771522,0.001159937251941301,0.0010468728319830624,2961.0533788363687
1684747149322161197,94,1684747149322161197,camera_2,96,0,0.7489348326431726,-0.1795849671234581,1.5110905484468213,-0.9698085020623239,0.0817407537654057,0.22881300082934897,-0.020845362864749407,0.00157238329120446,0.0014196211585680895,2962.6178709317464
1684747149332247018,95,1684747149332247018,camera_2,97,0,0.7495279723122932,-0.17937791560571859,1.5122566230916084,-0.9700401806797304,0.08079956814316078,0.228359674186584,-0.01858324137797768,0.008694804564584047,0.007848336867945309,2960.9381065185867
1684747149342117786,96,1684747149342117786,camera_2,98,0,0.7495371963441687,-0.17898270022716892,1.5122605853622604,-0.9698127163735468,0.08151620428798888,0.22903289278200234,-0.019035168046254956,0.005409957855590619,0.004886121823513374,2959.229740386247
1684747149352284431,97,1684747149352284431,camera_2,99,0,0.750011541028592,-0.1780914149025594,1.5131890046022074,-0.9702878474585297,0.08153674123410759,0.2270925350593964,-0.01795086135849971,0.0071717465471010655,0.006470596402350676,2963.401540797204
1684747149362375736,98,1684747149362375736,camera_2,100,0,0.7483131601368316,-0.17715537083741073,1.509752877207064,-0.9695530118498175,0.0820648952329034,0.22992666544867535,-0.01913213785789332,0.007895954244304448,0.007107924010301251,2968.4322257252643
1684747149372168540,99,1684747149372168540,camera_2,101,0,0.7486615630690716,-0.17673142513498086,1.5104748037107356,-0.96941406602577,0.08163224120678118,0.23081313868980807,-0.017258064639510396,0.011950870641157962,0.010760343992557698,2964.409226776217
1684747149382088422,100,1684747149382088422,camera_2,102,0,0.7492481851703641,-0.17641588390320817,1.511640858432572,-0.9695989980012305,0.08190462587379188,0.2299165471100888,-0.017544135785451234,0.011260007639066316,0.010148117200352713,2963.1017365106372
1684747149392211914,101,1684747149392211914,camera_2,103,0,0.7491583551506846,-0.17578786466244575,1.5114740054850673,-0.9694447673513873,0.08224895019627705,0.2303819401590569,-0.01833343653474974,0.004004936694400385,0.003610405670476428,2962.8453024970368
1684747149402127504,102,1684747149402127504,camera_2,104,0,0.749614820589103,-0.1757702415149832,1.5124224256978553,-0.969929664939116,0.08203726123723931,0.228448460709425,-0.017822279295341085,0.0018096884159604087,0.0016308266766939658,2965.49011600169
1684747149412034273,103,1684747149412034273,camera_2,105,0,0.7489319252200789,-0.17558120054401183,1.5110736610399866,-0.9697429329377274,0.08156718882190123,0.22946839758900364,-0.01702034761577669,0.007809476548573002,0.007026111969462027,2968.0633617991116
1684747149421978950,104,1684747149421978950,camera_2,106,0,0.7493882573991486,-0.17583304912502123,1.5119968115194025,-0.9698916182633958,0.0821642976524197,0.22848534795422512,-0.01880751934553222,0.0021833805658388883,0.001967713107168409,2966.49940823298
1684747149432341098,105,1684747149432341098,camera_2,107,0,0.7497476645555224,-0.1765224776527517,1.5127158833281735,-0.9700287639354178,0.08220113309660769,0.227931215389467,-0.018290213411536145,0.006685042491881177,0.006028312139276435,2964.759827738163
1684747149452393054,106,1684747149452393054,camera_2,109,0,0.7486011864288699,-0.17719342034278968,1.5103930928893607,-0.9696042869008851,0.08156046635118547,0.22987754381603864,-0.019280352722619746,0.009552763905958273,0.008606427001229561,2966.098334702896
1684747149462285518,107,1684747149462285518,camera_2,110,0,0.7487099960946845,-0.17775677097033118,1.5105587651255692,-0.9697529124236552,0.0817376125786422,0.22927826215097624,-0.01815847022220237,0.010475412418600172,0.009432809417592199,2966.9765684666363
1684747149472234010,108,1684747149472234010,camera_2,111,0,0.7491953261125904,-0.17891021865051726,1.5115476698826447,-0.969998071407053,0.08143102751646074,0.2281581356816678,-0.020410642970687946,0.001581594638992101,0.001427399987039548,2964.0008982374575
1684747149482072830,109,1684747149482072830,camera_2,112,0,0.749568319451204,-0.1794216520370004,1.5122779441412286,-0.9701347385937115,0.08040901339458179,0.22809447220342138,-0.018598152834730767,0.0017252102989004927,0.0015570384069166733,2961.4882069414016
1684747149492538452,110,1684747149492538452,camera_2,113,0,0.7483255351753585,-0.17943352708197058,1.5097500163376365,-0.96964271204955,0.08163320967124663,0.2296289662003322,-0.019989195324737384,0.0028027579828631133,0.0025261980978388836,2965.6485334952586
1684747149502023935,111,1684747149502023935,camera_2,114,0,0.7484961193352778,-0.17968932862676915,1.5100846817234421,-0.9695628989505355,0.08142142110007115,0.2300413297008948,-0.01998308770242576,0.0003440957225393504,0.0003103829123694653,2962.7182798048016
1684747149511929273,112,1684747149511929273,camera_2,115,0,0.7497927954966337,-0.179996488786413,1.512687707863641,0.9701491605775415,-0.08205774102972012,-0.2273038331317102,0.02025094593895852,0.0012700908409897238,0.001147823179393127,2960.802079856512
1684747149522060632,113,1684747149522060632,camera_2,116,0,0.7483703406849777,-0.17944923375593247,1.509748812880057,-0.9696203629609575,0.08172485170229517,0.2296132970885571,-0.020859869266630304,0.0029157977551221848,0.002629490361041219,2965.1538970489055
1684747149531906604,114,1684747149531906604,camera_2,117,0,0.7491785700968804,-0.17933644413853259,1.511388782693277,-0.969983603970839,0.08077668829631636,0.22857257516925628,-0.019013483008569025,0.0015486123302252965,0.0013968701862833589,2963.198387111189
1684747149542276144,115,1684747149542276144,camera_2,118,0,0.7496780185407284,-0.17902577759394403,1.5123763534276382,-0.9700698721193028,0.08139056849287288,0.2277432103528874,-0.021749682871412247,0.004433477879501879,0.004007842285764105,2961.2028954250277
1684747149552018404,116,1684747149552018404,camera_2,119,0,0.7491576839732337,-0.17788716144142697,1.5112907441991095,-0.9697434044860598,0.08060049277137606,0.22962947531644207,-0.01927677583760075,0.00997984452988021,0.00900255511769267,2962.2390837902212
1684747149562080144,117,1684747149562080144,camera_2,120,0,0.7487065136113714,-0.17725344586593328,1.5103783373680133,-0.9696241592993137,0.08175516858775587,0.22970783352331983,-0.019478021724739586,0.010479717020643875,0.009442599542100987,2966.2653079332094
1684747149572274684,118,1684747149572274684,camera_2,121,0,0.7490888222242361,-0.17685419358869964,1.5111739674435314,-0.9698405592911482,0.08084469636154369,0.22925648555761574,-0.017745096613250064,0.00839683240337763,0.007561843645459739,2965.9925485611902
1684747149582287311,119,1684747149582287311,camera_2,122,0,0.7490363019811909,-0.17637086438153626,1.511075354239174,-0.9695305687001873,0.08137217543428599,0.23026676679044977,-0.019137960519757642,0.011669083454762585,0.010520757714499831,2963.3424606223134
1684747149592064619,120,1684747149592064619,camera_2,123,0,0.7486810174314247,-0.1756854611948312,1.5103736554340532,-0.9692265714429313,0.08219275664035618,0.23123494809691647,-0.019354656893260214,0.009046483697602525,0.008153094719339856,2963.895470386837
1684747149602017641,121,1684747149602017641,camera_2,124,0,0.7489175287867272,-0.17559619968297568,1.510851547876418,-0.9695361276657908,0.08155383560448425,0.23030293475204475,-0.017584859783797507,0.008231275976868346,0.007410375444960616,2965.8476210047957
1684747149612044095,122,1684747149612044095,camera_2,125,0,0.7493703580760119,-0.17569503269046008,1.511786734276258,-0.9699505453130087,0.08156407935505308,0.2285636360583293,-0.017375410146397274,0.008548371435608715,0.007695884707732747,2967.6638580666618
1684747149622141838,123,1684747149622141838,camera_2,126,0,0.7491102982586505,-0.17576711162042852,1.5112898887374207,-0.9695041756205144,0.08195427045060569,0.2301928133115372,-0.018879081254535447,0.007248716094181874,0.006534325411490531,2963.8127728195404
1684747149632134914,124,1684747149632134914,camera_2,127,0,0.749224075208113,-0.1764045312707121,1.5115538493185632,-0.9698825349367884,0.08158667233807011,0.22875171431752597,-0.01855091690948294,0.0076905474124941975,0.006928935892330493,2966.5247909206655
1684747149642225503,125,1684747149642225503,camera_2,128,0,0.7490022183684977,-0.17680343643463775,1.5110853509199562,-0.9697996547972807,0.08121001784881074,0.22927292113143394,-0.01809669008217753,0.005603645171504468,0.005046798903611273,2966.287478923216
1684747149652494430,126,1684747149652494430,camera_2,129,0,0.7479907794082258,-0.17707077118762435,1.5090811673697562,-0.9694103326560336,0.08159237635699261,0.23069196015797647,-0.019170565422220173,0.0053266563336364925,0.004793018944110109,2968.647443147608
1684747149662354230,127,1684747149662354230,camera_2,130,0,0.748768949061123,-0.17778319690383798,1.5106682452120554,-0.9698468320760517,0.08104984709131248,0.2291172003460928,-0.01825796001995159,0.006115406664321199,0.005506937131124794,2966.926324441911
1684747149672092676,128,1684747149672092676,camera_2,131,0,0.7491736991748802,-0.1789135045968704,1.511517874777166,-0.9700437494418945,0.08132384717985458,0.22803008190294802,-0.02009571585969508,0.004867850759183057,0.004391950117472448,2964.670700630407
1684747149682027578,129,1684747149682027578,camera_2,132,0,0.7486742506084295,-0.17920281747368705,1.5104685069971528,-0.9701923284019784,0.08020722243223033,0.22786527074220217,-0.019263067492927752,0.0013264862936921418,0.0011945647647087316,2968.966305983835
1684747149692049980,130,1684747149692049980,camera_2,133,0,0.7488280757005936,-0.17955578076519624,1.5108093857185465,-0.9697001805829727,0.08167563112469932,0.22933838357462621,-0.020360669859066732,0.001634726839256473,0.0014755000223931245,2962.2593468711707
1684747149702380895,131,1684747149702380895,camera_2,134,0,0.748925794389389,-0.1797849634107287,1.5110172061156026,-0.9699634244151994,0.0812061522030573,0.22831655568111076,-0.021167582361426424,0.001609509257832542,0.0014529145948449452,2963.874293033149
1684747149712452411,132,1684747149712452411,camera_2,135,0,0.7485301146837222,-0.17968885973360121,1.5101734719511557,-0.9695776309156208,0.08145032856322852,0.23001889940916329,-0.01940019380294369,0.0027275690372334793,0.0024597869028359382,2962.763458540546
1684747149722016096,133,1684747149722016096,camera_2,136,0,0.7481918923734193,-0.1793970377819959,1.5094875108448178,-0.9695962820203216,0.08141988217396653,0.22996391053057777,-0.01924714349276066,0.001122403162298724,0.0010110647289525783,2965.988065209356
1684747149732244014,134,1684747149732244014,camera_2,137,0,0.7485843563999995,-0.17917853567859646,1.5102649100624461,-0.9695672745072799,0.0805080026323093,0.2304107893815648,-0.019199735759782514,0.0017107155435951427,0.0015426593011181858,2961.974824338102
1684747149742070436,135,1684747149742070436,camera_2,138,0,0.7495949731834626,-0.17899722030450263,1.5122722005091016,-0.9700989002301836,0.08074564999725878,0.22807200323578408,-0.019272392656987967,0.004158890311373398,0.003754307373525933,2961.8492158377776
1684747149752194881,136,1684747149752194881,camera_2,139,0,0.749530739064709,-0.17797378592111024,1.5121660417843064,-0.9702754276193692,0.08121735190300931,0.22720198119160914,-0.018670727102088433,0.007050305051961914,0.006355364916734852,2966.6811183241653
1684747149762133836,137,1684747149762133836,camera_2,140,0,0.748437632848387,-0.1771882870053792,1.5099457053359149,-0.9695643802573111,0.08134695192330839,0.23007092547062383,-0.019873479869765984,0.010392475087428465,0.009362113444566908,2966.7844971820014
1684747149772164106,138,1684747149772164106,camera_2,141,0,0.7488426016524282,-0.1767766595600725,1.5107578990162203,-0.9694960042375225,0.08156814103903082,0.23039962520729607,-0.018443124443875723,0.006503962285933085,0.005860709670828671,2963.9322677307073
1684747149782140970,139,1684747149782140970,camera_2,142,0,0.7486363281696278,-0.17626991777379272,1.5103726463452052,-0.9694702564297629,0.08123489819384838,0.23073152846566372,-0.017066780169190884,0.010357200022554025,0.009320649579192326,2965.6927615972227
1684747149792111635,140,1684747149792111635,camera_2,143,0,0.749243986356149,-0.17581842970982098,1.5116291892794058,-0.9697921434148574,0.08231970005053246,0.22887014762624264,-0.018577434697739495,0.004194402965367772,0.0037789221617602754,2966.755486734678
1684747149802302122,141,1684747149802302122,camera_2,144,0,0.7485276744792647,-0.1755051021234729,1.5101997284225,-0.9695695626386891,0.08196981359501247,0.23005572492994406,-0.017034561654997483,0.0038137707306304947,0.003428782848529531,2969.5791126092654
1684747149812152862,142,1684747149812152862,camera_2,145,0,0.7490144385273863,-0.175617119314817,1.5112441050785546,-0.9695986394239117,0.08156085376110415,0.2301198712841847,-0.016466645110932415,0.004335346180596389,0.003901764696020453,2965.5848099624272
1684747149821999311,143,1684747149821999311,camera_2,146,0,0.7493074606690915,-0.17581636619804247,1.5118519579777563,-0.9699052945390503,0.08196122442923709,0.2285613879596254,-0.018049078900260435,0.0019417210714891553,0.001748889972342676,2967.174389456166
1684747149831977128,144,1684747149831977128,camera_2,147,0,0.7493119773838607,-0.17641884226035906,1.51192045339231,-0.9700554200706266,0.08195294886484472,0.22795531025515575,-0.01767972540601377,0.005060132534708828,0.004556469786878449,2968.1666781583335
1684747149842192173,145,1684747149842192173,camera_2,148,0,0.7490257220161245,-0.17679778720755407,1.5113361601154824,-0.9699212298718676,0.08218508365162502,0.2284899959063551,-0.01705114775412462,0.009706064534839243,0.008735133917188501,2968.4788230678528
1684747149852080583,146,1684747149852080583,camera_2,149,0,0.7479508792192883,-0.17705419260713426,1.5091376248681039,-0.9693448706894192,0.081578243981271,0.2310411534570408,-0.018316582276337146,0.009599801633157767,0.00863605575352941,2967.9125169166364
1684747149862023591,147,1684747149862023591,camera_2,150,0,0.7486802875958913,-0.1777539452537642,1.5106286278138163,-0.9699336326099021,0.08139786428055486,0.22874552868271025,-0.01669188816136461,0.008649301715195179,0.007779487764158908,2969.117646462284
1684747149872010946,148,1684747149872010946,camera_2,151,0,0.7496000494516264,-0.1789965995687898,1.512493533640005,-0.9701972210245188,0.08138389239192295,0.22741953714310245,-0.01934860462818957,0.00632778590079397,0.0057116389828240745,2963.234066747594
1684747149881972312,149,1684747149881972312,camera_2,152,0,0.7494331807751909,-0.17938191270721715,1.5121268912865904,-0.9702336450744946,0.08092533726223634,0.22748906962836699,-0.018614160042093403,0.0019773753883782774,0.0017835877747204947,2964.0994044902036
1684747149892257452,150,1684747149892257452,camera_2,153,0,0.7493999605640291,-0.17967869634129574,1.5120745380101264,-0.9703081689716564,0.08151928311180108,0.22680982731857727,-0.020346152941693504,0.00423056360159535,0.003818440550798753,2965.192542484029
1684747149902168989,151,1684747149902168989,camera_2,154,0,0.7491211243640226,-0.17982189369227847,1.5114916692868139,-0.9699440521177475,0.08130211073941591,0.22854838177513104,-0.01908244582566237,0.0014031309547135606,0.0012660742242723145,2962.413621691522
1684747149912016630,152,1684747149912016630,camera_2,155,0,0.7489846882079126,-0.1797826820660381,1.5112290922566365,-0.9699438764423943,0.08101304914109637,0.22858182081548498,-0.019902603182531092,0.0021222420618869364,0.001915137475431144,2962.9775457873475
1684747149922199010,153,1684747149922199010,camera_2,156,0,0.7495614482194344,-0.17971625480351214,1.5123577805531851,-0.970171850151059,0.08132797292561343,0.22748392373069892,-0.02008498041739979,0.004416172931087203,0.00398859876861984,2962.09770320053
1684747149932075977,154,1684747149932075977,camera_2,157,0,0.7482724354015768,-0.179103955342557,1.5097423664923741,-0.9696015288658938,0.08086392086997975,0.2302200578674272,-0.018238050278843582,0.0031180962832877412,0.0028079683633208787,2965.2081292100484
1684747149942132234,155,1684747149942132234,camera_2,158,0,0.7490283130865911,-0.1788610162680344,1.5112555383414483,-0.9697158075459471,0.081783616344241,0.22933160482921655,-0.019227785094121094,0.005346421108697541,0.004823826772635216,2962.2033893056214
1684747149952316522,156,1684747149952316522,camera_2,159,0,0.7486327879626961,-0.17775502092751158,1.510421304611913,-0.9695263641048959,0.08181839464588019,0.23021990989644214,-0.017977004488677166,0.006403899940778501,0.005768337939962478,2964.6959457176267
1684747149962006330,157,1684747149962006330,camera_2,160,0,0.7485309445792996,-0.17720070232898766,1.510251540645068,-0.9693033549907948,0.0821477389745183,0.2310272945192543,-0.01814233094388733,0.005722135567339137,0.005155093274079455,2963.5960208808538
1684747149972220659,158,1684747149972220659,camera_2,161,0,0.7494344238032731,-0.17690673178012,1.5121116803766455,-0.9697389592956518,0.08172463330659334,0.2294227980099687,-0.01710598983883454,0.011391094070859253,0.010268340134454958,2962.456761482406
1684747149981951475,159,1684747149981951475,camera_2,162,0,0.7492971219586082,-0.17642704982211513,1.511846260763468,-0.9695687409963867,0.08218747632911431,0.22998672413213647,-0.01696413688643795,0.007125358635676093,0.006421524101934373,2962.472058931831
1684747149992198228,160,1684747149992198228,camera_2,163,0,0.7495108238764956,-0.17587364613900308,1.5122820529469563,-0.97005637998437,0.0816922161246177,0.22802808480265924,-0.017893965952233606,0.0045981207804288715,0.0041419980882152355,2967.1951930247014
1684747150002091884,161,1684747150002091884,camera_2,164,0,0.7499809037315355,-0.17584095967474725,1.513284372639849,-0.9702437725346634,0.08167040209870431,0.22719831391575063,-0.01838187783063062,0.005756640661275014,0.005190686136407471,2965.8532731309533
1684747150012108087,162,1684747150012108087,camera_2,165,0,0.7488147587645687,-0.17556962322456954,1.5109340820967037,-0.969597807033537,0.08189057549575296,0.22992418960127048,-0.01757535993740722,0.0028481270419433713,0.002563471974583098,2967.067239691153
1684747150022159337,163,1684747150022159337,camera_2,166,0,0.7499128039995459,-0.17595919630505003,1.513179304747571,-0.9700673062437531,0.08213151209230939,0.22785399379105206,-0.017504102144542184,0.0034471178805688396,0.003107828422303076,2964.5132492529215
1684747150032075881,164,1684747150032075881,camera_2,167,0,0.7492513243458153,-0.1763909796949928,1.5118707824456856,-0.969783522981076,0.08238433571749693,0.22907004536129322,-0.01611378605339496,0.00657088594743982,0.005915557959871888,2965.728753722389
1684747150042095899,165,1684747150042095899,camera_2,168,0,0.7483381495950173,-0.17663836658459525,1.5100446958918934,-0.9695592621437984,0.08165606285023456,0.23034396527203085,-0.015125549700069811,0.007644385419553146,0.006868017929647242,2968.7215475387648
1684747150052102565,166,1684747150052102565,camera_2,169,0,0.7478097072476765,-0.17701646609534644,1.5089506766074983,-0.9694751737470297,0.08190033308895084,0.23035952429339046,-0.018566434644502038,0.005907576080062427,0.005311509221962552,2970.7831393708475
1684747150062017440,167,1684747150062017440,camera_2,170,0,0.7479043250585078,-0.1775745159620382,1.509153384423467,-0.9695155818774245,0.08166552787506698,0.2304311905842341,-0.016484673478668794,0.00953435078554321,0.008566886493656178,2969.927414947306
1684747150072530269,168,1684747150072530269,camera_2,171,0,0.748850503184302,-0.17882365825628696,1.5110599965659754,-0.9699772552979011,0.08173491132562856,0.22827051291154124,-0.018870649444147666,0.007372531646979041,0.006643947001336412,2966.5741393760554
1684747150082591295,169,1684747150082591295,camera_2,172,0,0.7496907961205852,-0.1794268463008892,1.5127443548162873,-0.9702895002285452,0.08068251167834792,0.22745409152120574,-0.017124669508529106,0.008742430276470259,0.007884965281930167,2962.6085941634365
1684747150092939376,170,1684747150092939376,camera_2,173,0,0.7491199018141007,-0.17961203160668066,1.5115705579839351,-0.9700986757217784,0.08188778771613539,0.22766704821158204,-0.019252655516426,0.005556699121370912,0.005011780769679664,2965.170669894549
1684747150102367162,171,1684747150102367162,camera_2,174,0,0.7492647892625509,-0.179837694185867,1.5118246288304769,-0.9699756656430522,0.0810695294877299,0.22849334423385395,-0.019124097097269158,0.002084745588945225,0.0018818325417315738,2961.3331179942475
1684747150112526416,172,1684747150112526416,camera_2,175,0,0.7491247240382152,-0.17981717555078877,1.5115061925927655,-0.9699870379061112,0.08140380861191196,0.22832712871841612,-0.01911252282687213,0.002034006130998023,0.0018351450157039007,2963.0381101442035
1684747150121984004,173,1684747150121984004,camera_2,176,0,0.7483416943851249,-0.1794222619019465,1.509914076894275,-0.9696254259857195,0.08122829117227658,0.22989532573918656,-0.019407142976675316,0.0043113342399010435,0.0038857684689647637,2964.6290888183294
1684747150132049083,174,1684747150132049083,camera_2,177,0,0.7493598761114506,-0.17936034707326745,1.5119438611649547,-0.9701165958187381,0.08055602801173442,0.22818239357795894,-0.01781325711567954,0.0040323077264474705,0.0036361659938333375,2963.023074908414
1684747150142021179,175,1684747150142021179,camera_2,178,0,0.7491439193759605,-0.17890766248864357,1.5115060526495852,-0.9698674272397659,0.08136815460923824,0.22885497298965277,-0.019020997153401456,0.005283230799250305,0.004766219166570269,2962.751725156093
1684747150152040719,176,1684747150152040719,camera_2,179,0,0.7485409049471948,-0.17774346490492468,1.510285654478959,-0.9696185934764653,0.08163662159166203,0.22995982989553485,-0.017138314801566953,0.007864865081501193,0.007078321191345552,2966.4388546888954
1684747150162185430,177,1684747150162185430,camera_2,180,0,0.7482972505846608,-0.1771451646098519,1.509794083664303,-0.9693711576047382,0.08194191156642545,0.2308316810381485,-0.01793925756525222,0.011379684001440182,0.010243206761527162,2966.1040237145517
1684747150171964168,178,1684747150171964168,camera_2,181,0,0.749873733427953,-0.1770143752481534,1.5130115243436828,-0.9698836549582596,0.08181709919690486,0.22879367571566409,-0.01688526210418852,0.006832750455942005,0.006163390629750403,2960.960677478113
1684747150182019472,179,1684747150182019472,camera_2,182,0,0.7485125296015921,-0.17625108924413702,1.5102517194359943,-0.9694417283556167,0.08162092993489917,0.2307686510459212,-0.01632754769960412,0.009089022249099799,0.00817477289377294,2966.5255960278437
1684747150192224979,180,1684747150192224979,camera_2,183,0,0.7495924278879968,-0.17589574610631353,1.5124336648462142,-0.9698774242086422,0.08223030296526827,0.22857544015340067,-0.01814462574232225,0.002250339981401339,0.002028601592836922,2964.815091367576
1684747150202271699,181,1684747150202271699,camera_2,184,0,0.7489455217115751,-0.17559258155613972,1.511134082317706,-0.9696420741377397,0.08177730699480418,0.2299117307589419,-0.015726289516837976,0.005353055690648034,0.004814432747181584,2967.005848060129
1684747150212491750,182,1684747150212491750,camera_2,185,0,0.749351004715272,-0.1756783060072239,1.5119787178420847,-0.9695996840632238,0.08199965662801724,0.22989541578700792,-0.017338015385344203,0.0032862784719327465,0.002961534978952351,2963.1424911820804
1684747150222323656,183,1684747150222323656,camera_2,186,0,0.7493496194461288,-0.1758206563462028,1.512032056516115,-0.9696768971127826,0.08178723877011305,0.22955989263911944,-0.018434165877593722,0.003909768478479236,0.0035251353753756065,2963.362703212071
1684747150232123613,184,1684747150232123613,camera_2,187,0,0.7492947985808246,-0.17640308781786893,1.5119569193951203,-0.9696672821136703,0.08232947298371897,0.22952111732704455,-0.01694923530594224,0.0073123607580782846,0.006588755721609752,2963.650232038112
1684747150242131710,185,1684747150242131710,camera_2,188,0,0.7493494456797299,-0.17687372610658258,1.5120490266841966,-0.9698264640370613,0.08173471480252376,0.22915598080847707,-0.015607770796167687,0.005974739207886159,0.005379680838586271,2964.2872492476613
1684747150252186775,186,1684747150252186775,camera_2,189,0,0.747727929357261,-0.17699839020638175,1.5087573862141008,-0.9695230117305463,0.08210665706607163,0.23011833443271848,-0.01814328383388048,0.005579653618042357,0.005013574396160138,2972.4539613337256
1684747150262144327,187,1684747150262144327,camera_2,190,0,0.7482691415684528,-0.17766702098528808,1.5098389668146441,-0.9698096892678917,0.08152256623681428,0.22917576130289904,-0.017369750358492395,0.008701048864168115,0.007822909730488695,2970.6547420354327
1684747150272248744,188,1684747150272248744,camera_2,191,0,0.7496389983645689,-0.17901065047257228,1.5125778031267756,-0.9700529278206448,0.0812826040280559,0.22812105411255598,-0.018741402818083324,0.004677071949117817,0.004222527200814868,2961.0341594733763
1684747150282133102,189,1684747150282133102,camera_2,192,0,0.7495852969547266,-0.17941332056955311,1.5124196115149935,-0.9703022518971259,0.08049880442921058,0.2274593821688856,-0.017196276113828783,0.0021870194759685546,0.0019717843173854928,2963.6528925821176
1684747150292173862,190,1684747150292173862,camera_2,193,0,0.7486580335444188,-0.17950336728414554,1.5105623870024087,-0.9699577890960938,0.08148499999175206,0.22836860905238415,-0.019744886620117183,0.00632769227377139,0.005703678885181248,2966.6380172518557
1684747150302135705,191,1684747150302135705,camera_2,194,0,0.7490816445606039,-0.17981380951085119,1.5113822288176304,-0.9700843348830452,0.08129804528750613,0.22791373219660305,-0.019553560370570974,0.0014520921686198565,0.0013098943479983988,2964.5272707957774
1684747150312169313,192,1684747150312169313,camera_2,195,0,0.748889126007324,-0.17977077095463925,1.5109389557081818,-0.9698690965867223,0.0816763300798005,0.22881087351192025,-0.018124479398387416,0.00020602311997208744,0.00018570548785693525,2964.114637161023
1684747150322220325,193,1684747150322220325,camera_2,196,0,0.7486721074684356,-0.1794989174738264,1.5104738829686848,-0.9698152462549501,0.08128252220320469,0.2290004577198361,-0.020256605832219592,0.0032608784968033433,0.002941027129172094,2964.6560655623907
1684747150332082986,194,1684747150332082986,camera_2,197,0,0.7492422800771811,-0.1793334076780599,1.5115878827140115,-0.9698968549386058,0.08083348730830157,0.2289501130171721,-0.018651644946330505,0.0006516379362437874,0.0005879382766272437,2961.544540660456
1684747150342040777,195,1684747150342040777,camera_2,198,0,0.748848873597085,-0.17881500507904446,1.5107649765234117,-0.969727564307826,0.08151339544616522,0.2292927314771615,-0.020220303563269062,0.0033610003301873803,0.0030322020465659467,2963.600728205639
1684747150352150440,196,1684747150352150440,camera_2,199,0,0.7489849480173711,-0.1778331847886445,1.51104731221296,-0.9697124458041286,0.0816024268090542,0.22939640350289714,-0.019393464140893116,0.007471796008758247,0.006737720773671147,2964.042132940026
1684747150362000465,197,1684747150362000465,camera_2,200,0,0.7487700686693384,-0.17724806725118905,1.5106245826453084,-0.9695761378013487,0.08169782521088587,0.22990906351437315,-0.01973324291584348,0.012132285235566087,0.010937520489977688,2964.7394536875663
1684747150372281551,198,1684747150372281551,camera_2,201,0,0.7489887081393665,-0.17680632488087403,1.511073714030864,-0.9698171058990409,0.08162681140985553,0.22903206064789564,-0.01833466552863451,0.007947800651891157,0.007158051637874358,2967.0017543763397
1684747150382229328,199,1684747150382229328,camera_2,202,0,0.7486176565404611,-0.17628399181356855,1.5103332364925834,-0.9694095612562643,0.08175211039636368,0.23078161602509206,-0.017364927167283436,0.007669281418202445,0.00690311787245533,2965.554912430699
1684747150392225980,200,1684747150392225980,camera_2,203,0,0.7491421950828294,-0.1757945576397179,1.511429843787093,-0.9696660368056348,0.08218322802209996,0.22947205650843494,-0.01833764923076849,0.003952826955355704,0.003561167888878226,2965.793040745426
1684747150402318477,201,1684747150402318477,camera_2,204,0,0.7492087987580068,-0.17567050927857672,1.5115609100475957,-0.9700336794120301,0.08190993266470978,0.22806668237905978,-0.017635535881582436,0.002894860808737576,0.002604897489443009,2970.071224561077
1684747150412254095,202,1684747150412254095,camera_2,205,0,0.7490609648749307,-0.17562615932251416,1.5112908385149204,-0.9697843960800075,0.08166353136260342,0.22925769041173819,-0.017035379426347398,0.008508772298227996,0.007656817919668379,2967.7793255113065
1684747150422231435,203,1684747150422231435,camera_2,206,0,0.7497138257200836,-0.17590368400849654,1.5126111257811472,-0.97002693699078,0.08253869515837402,0.2277301997567575,-0.019340667842289782,0.00271849830460269,0.002451643356808814,2966.1337388458187
1684747150432160854,204,1684747150432160854,camera_2,207,0,0.7489395270410679,-0.17632154268428196,1.5110843028933447,-0.96976612664915,0.08196199414672649,0.22917704563846472,-0.017713635195012192,0.008541698814951815,0.007689384398011616,2967.6054796107346
1684747150442157983,205,1684747150442157983,camera_2,208,0,0.7490414842903106,-0.17680843599371251,1.5112779809729258,-0.9700139239446816,0.08137063334201222,0.2283831085651199,-0.017116165022977914,0.005603750716545619,0.005042396362272294,2968.845785582439
1684747150452377080,206,1684747150452377080,camera_2,209,0,0.7482094318059529,-0.17712975964270444,1.5096072562224525,-0.9693604563504965,0.08130457029579598,0.23107729975060737,-0.01825250812741192,0.007753625468467362,0.006979404256868812,2965.893486282437
1684747150462312221,207,1684747150462312221,camera_2,210,0,0.7488346590570896,-0.1777995975655869,1.510833634031876,-0.9701049143073255,0.08146733365079645,0.22778578457238288,-0.01931748253139029,0.0076702642982127145,0.006907046917318181,2969.943078861339
1684747150472187757,208,1684747150472187757,camera_2,211,0,0.7496765157366843,-0.1790223008528062,1.512511503491488,-0.9702545247326972,0.08120708898937393,0.2270477708793466,-0.021468015099665273,0.002382787424721755,0.00215293342211787,2963.08940715203
1684747150482203483,209,1684747150482203483,camera_2,212,0,0.7491986535715692,-0.1793291343460865,1.5115547418703312,-0.970224691537581,0.08086044723092578,0.2273354754871733,-0.021076470042239122,0.002913807940785773,0.0026297297250572524,2965.5318894032393
1684747150492253065,210,1684747150492253065,camera_2,213,0,0.7481686314493047,-0.1793982363957587,1.5094534166217533,-0.9696544378115465,0.08153807128990857,0.22961984340662553,-0.01991335422806123,0.0012446009495761245,0.001121270908856361,2966.887805170496
1684747150502217054,211,1684747150502217054,camera_2,214,0,0.748987422844594,-0.17980210177071956,1.511077462219271,-0.9697972619217768,0.08180021858616578,0.22885506191694419,-0.020672581920792143,0.0004412286798469722,0.00039838717658975507,2962.1674048608397
1684747150512018918,212,1684747150512018918,camera_2,215,0,0.7485930504401995,-0.17969040992229704,1.510253629556194,-0.9694632790341892,0.08145481946937985,0.23054368782317458,-0.018859241617289788,0.00048722035717219114,0.00043944794139677535,2961.0179695311253
1684747150522054672,213,1684747150522054672,camera_2,216,0,0.7492450724149333,-0.1796694507752571,1.511577629193225,0.9700343128587527,-0.08167472023737714,-0.22793550666487808,0.02020090968791489,0.00044906476978212595,0.0004053443114352434,2963.5039472172502
1684747150532029628,214,1684747150532029628,camera_2,217,0,0.7489746091624726,-0.1792779534887728,1.511021463760726,-0.9700579269109759,0.0804040136076774,0.22840300161872845,-0.018838308961031242,0.001280124022741802,0.0011538210677632112,2965.2937044630517
1684747150542204856,215,1684747150542204856,camera_2,218,0,0.7497494757578762,-0.17903252172908543,1.5125466873297977,-0.9701433234120662,0.08068305190069054,0.22778732219861675,-0.020618269097221663,0.0015364853461505845,0.0013883228684683077,2960.943875514553
1684747150552185058,216,1684747150552185058,camera_2,219,0,0.7493802905430031,-0.17793402476120906,1.511787225000852,-0.9699858666082459,0.0811030148116804,0.22847414248036257,-0.018689189029215538,0.009061698001460172,0.008171280555013285,2964.1832102942276
1684747150561936855,217,1684747150561936855,camera_2,220,0,0.7498681833792412,-0.17751031479884002,1.512736714258661,-0.9700375865236904,0.08209960286836805,0.22777697843920952,-0.020109302157308436,0.009673362961621024,0.008735729336304983,2962.6982052477524
1684747150572288036,218,1684747150572288036,camera_2,221,0,0.7497726462713681,-0.17698968303970905,1.5126197515093294,-0.9701367587824467,0.08114719010623869,0.2278233497966078,-0.018609784641511865,0.012827635000576265,0.01156930347224686,2964.461385761622
1684747150582161426,219,1684747150582161426,camera_2,222,0,0.7487141425438445,-0.17631456880749619,1.51047387262543,-0.9697757310935413,0.08144471569827891,0.22926929046668182,-0.01836796438689856,0.007578412652947009,0.006819815467677645,2969.153488931479
1684747150592227935,220,1684747150592227935,camera_2,223,0,0.7494321424793464,-0.17586435111984394,1.5119558898925132,-0.9697346987640625,0.08247578683333653,0.22897971898799885,-0.01951017404771631,0.00426784782030154,0.0038491716308265964,2964.6614201378543
1684747150602117538,221,1684747150602117538,camera_2,224,0,0.7492842840538272,-0.1756844222580392,1.511681341025811,-0.969722720642293,0.08214206702227346,0.22930170515536774,-0.01764238952802395,0.006480802578153089,0.005837389666114925,2965.7960302323336
1684747150612429380,222,1684747150612429380,camera_2,225,0,0.748989617270055,-0.17560687038549233,1.511124929499164,-0.9696550244765634,0.08163253516929618,0.2297996932903127,-0.017244235931672514,0.008223493059631437,0.007401892863116781,2966.6505781647297
1684747150622128725,223,1684747150622128725,camera_2,226,0,0.7493352269270008,-0.17581393067466317,1.5118366463837971,-0.9698253192960253,0.08214800290654974,0.22871043985602227,-0.01954713205800163,0.0032631602371111512,0.0029419176583397205,2966.046421875247
1684747150632203817,224,1684747150632203817,camera_2,227,0,0.7487841640722753,-0.17628968384841515,1.510733775341811,-0.9696871986144349,0.08191644088428814,0.2295633641867107,-0.017236454955131757,0.006956076074857265,0.006259014669148594,2967.934043614891
1684747150642274141,225,1684747150642274141,camera_2,228,0,0.7490164106222726,-0.17681556679416244,1.5112191191792241,-0.9699743943094987,0.0813538169130721,0.22848137709834646,-0.018096717294544,0.008188793741283007,0.007372461279935528,2968.332038745748
1684747150652233362,226,1684747150652233362,camera_2,229,0,0.7485633722472801,-0.1771983235032591,1.5102904214932638,-0.9699113881019276,0.08142504210953204,0.22859896730698473,-0.019605455716023294,0.007451068115187809,0.006707758250672062,2970.2272136351103
1684747150662418365,227,1684747150662418365,camera_2,230,0,0.7487386898429034,-0.17778410238919443,1.5106623505481924,-0.9699423531899845,0.08094676021234261,0.2287941371637654,-0.017683220829053003,0.0093766708887415,0.00843899133321524,2968.2660232873163
1684747150672385931,228,1684747150672385931,camera_2,231,0,0.7488167621085043,-0.17882363753707173,1.5108419462041267,-0.9700636346013962,0.08112782199932633,0.22796307703132054,-0.020679865376421875,0.004485267651034519,0.004044159259153474,2967.2983399352524
1684747150682253837,229,1684747150682253837,camera_2,232,0,0.7491798158467333,-0.17933992927106263,1.511554343297242,-0.9702591233308694,0.0804182266090523,0.22752520121618755,-0.019037469206838253,0.0014953968493500724,0.0013481513625779923,2965.9219810168715
1684747150692265748,230,1684747150692265748,camera_2,233,0,0.7488978884638665,-0.17956842959062902,1.5109965475740883,-0.970317535338004,0.08167121867524271,0.22667486241536328,-0.020789406067950943,0.0033128567301901057,0.002986486916890115,2969.5281201830367
1684747150702220916,231,1684747150702220916,camera_2,234,0,0.749136000566816,-0.17983190271683958,1.5114741250742854,-0.9701133769082967,0.08133707916845444,0.22763546244423413,-0.021128457911676647,0.0009396052482770756,0.000848304165273429,2964.227006567527
1684747150712338447,232,1684747150712338447,camera_2,235,0,0.749350388542678,-0.1798747014147211,1.5118779668916758,-0.9702672401195152,0.08160874487672326,0.22693747970740616,-0.020515258091377594,0.002919574690167792,0.0026353072834943174,2965.0713961475994
1684747150722128391,233,1684747150722128391,camera_2,236,0,0.7477247804429166,-0.1792674431263614,1.5085838622653902,-0.9693157806257472,0.08135948732350963,0.2311294897128122,-0.01966494946469018,0.0029254036489874125,0.0026346031552268003,2965.8141537753395
1684747150732445955,234,1684747150732445955,camera_2,237,0,0.7494844076086045,-0.17938298244521414,1.5120865354256587,-0.9702479832218546,0.0804862303622717,0.2275270576898718,-0.019293931558526777,0.0024827696179272607,0.0022402680984919703,2963.660647799377
1684747150742123842,235,1684747150742123842,camera_2,238,0,0.7489774144075557,-0.17885381135427975,1.511087665141364,-0.9697921221287007,0.08141083281513672,0.22915587257165815,-0.01905524136238732,0.003113559403573163,0.0028079792075517127,2963.3663341680076
1684747150752127885,236,1684747150752127885,camera_2,239,0,0.7492103962097675,-0.17788822322264392,1.511554593669518,-0.9699258614166817,0.08154029851775121,0.2286312389599282,-0.017965512639289315,0.007060942327370867,0.006363148096989658,2965.098416591645
1684747150762122869,237,1684747150762122869,camera_2,240,0,0.7485004746456284,-0.1772043890062488,1.5101344218732031,-0.969784670840967,0.08146174380906866,0.22930000909351267,-0.017412131609250144,0.007128576296963729,0.0064112551510058634,2969.5972076887247
1684747150772094964,238,1684747150772094964,camera_2,241,0,0.748708841827768,-0.1767461172003087,1.5105751058244279,-0.9696151857310329,0.08158948458030561,0.23000818948692395,-0.0169050399183861,0.015026374268927611,0.013521637433469225,2966.662375576328
1684747150782198429,239,1684747150782198429,camera_2,242,0,0.7487702884123311,-0.17631243886235073,1.510741040423396,-0.9695968079836328,0.08180856430274043,0.22998746045869087,-0.01718012766067508,0.01459511843859218,0.01313582013029613,2966.6380570655465
1684747150792157649,240,1684747150792157649,camera_2,243,0,0.7490518330776891,-0.17576580239240464,1.5113199437103213,-0.9697202809041491,0.082126648621698,0.22921451704261048,-0.01893397914515681,0.0015956660063238817,0.0014375321564608018,2966.837935312534
1684747150802145242,241,1684747150802145242,camera_2,244,0,0.7491832215249904,-0.17563534025749725,1.5115973531070157,-0.9697952749947556,0.0814265197670818,0.22929134814958893,-0.017097489295556736,0.004773602966452017,0.004297356965222685,2966.524938337155
1684747150812422513,242,1684747150812422513,camera_2,245,0,0.749369162996328,-0.17569224140755924,1.512012518146104,-0.9700769420739692,0.08173699627442478,0.22801171434905845,-0.016746582220120012,0.0033213191345566884,0.00298864649785249,2969.0108065768145
