%time,field.header.seq,field.header.stamp,field.header.frame_id,field.image_seq,field.transforms0.fiducial_id,field.transforms0.transform.translation.x,field.transforms0.transform.translation.y,field.transforms0.transform.translation.z,field.transforms0.transform.rotation.x,field.transforms0.transform.rotation.y,field.transforms0.transform.rotation.z,field.transforms0.transform.rotation.w,field.transforms0.image_error,field.transforms0.object_error,field.transforms0.fiducial_area
1684726121870539188,14,1684726121870539188,camera_1,17,0,-0.09196197580807142,-0.20194409222199672,1.5569133098775876,0.9965703480477272,-0.038144556829302546,0.03775480707015996,0.06298498804813246,0.005310149761498906,0.0035417339605402476,4458.1982417826075
1684726121876995086,15,1684726121876995086,camera_1,18,0,-0.09213292852431786,-0.20186932576253178,1.5600847727231963,0.9974624472159958,-0.03798559422539039,0.03805951744949948,0.04666084179193748,0.00014989799819886684,0.0001002210009737709,4460.970005044654
1684726121883483171,16,1684726121883483171,camera_1,19,0,-0.0918777472690853,-0.20046042528551172,1.5564485663378382,0.9966663763676644,-0.038129100261893534,0.04009892584798541,0.059953165697944795,0.0018836361268768087,0.0012542415922308942,4467.673585681507
1684726121890205383,17,1684726121890205383,camera_1,20,0,-0.09193522589802658,-0.20014491520285746,1.557861519043007,0.9967799652978987,-0.03819498487246985,0.03973779656803479,0.058238745137832316,0.002344483131309971,0.0015633258501320966,4463.144103931263
1684726121896862506,18,1684726121896862506,camera_1,21,0,-0.09188552204154954,-0.19953749621742248,1.5571118544021478,0.9965133058811992,-0.03778537432109053,0.04606460064269718,0.05840846905002175,0.0011666253849398345,0.0007765878394773488,4465.69058757508
1684726121903465270,19,1684726121903465270,camera_1,22,0,-0.09192775782589557,-0.19874191030824567,1.559075811548448,0.996569300700085,-0.03758919219124684,0.04714094469298995,0.05669579231306011,0.0038638363766949624,0.002577031116333979,4458.578351033852
1684726121910105943,20,1684726121910105943,camera_1,23,0,-0.09190924036375916,-0.19810558733407296,1.5586630218936177,0.9966915419028989,-0.03774049499881208,0.04659124903164901,0.05487149396669961,0.004322011649492197,0.0028800863528357958,4464.86751112045
1684726121916702032,21,1684726121916702032,camera_1,24,0,-0.0918646452276089,-0.1975608782204703,1.5582269969136064,0.9965302395813108,-0.03804584060612887,0.044176140140032405,0.05940087756015284,0.005302398116327822,0.0035329387538087114,4464.1682604228245
1684726121923370122,22,1684726121923370122,camera_1,25,0,-0.09187454508168683,-0.19660318472485747,1.5595127652597773,0.9970120071326215,-0.03795501031082953,0.046603763732539445,0.04852385013215661,0.002913232077844441,0.0019416273863126683,4470.98404027219
1684726121930043697,23,1684726121930043697,camera_1,26,0,-0.09183912254870735,-0.19606944221259393,1.55949923293046,0.9969094912382412,-0.037262547720881,0.03821141397905445,0.0576442248467374,0.0072477633657399565,0.0048344829720596404,4466.041653491673
1684726121936738967,24,1684726121936738967,camera_1,27,0,-0.09191830071898895,-0.19571539487331818,1.5610729680680335,0.9968872940944199,-0.0381383454617871,0.0319250339691269,0.061171739264246267,0.00265453384781722,0.001775700034955409,4455.3425876364345
1684726121943334341,25,1684726121943334341,camera_1,28,0,-0.09165987491731495,-0.19428956660200286,1.5577497482057812,0.9964230970105676,-0.038511321874331,0.036394792015010204,0.06582787362162677,0.00451515348686371,0.0030061612738687834,4469.243798292417
1684726121950020790,26,1684726121950020790,camera_1,29,0,-0.09168641845791053,-0.193854130715151,1.558416038799573,0.9964908304456446,-0.03758556161890561,0.038038292209482384,0.06439284681800526,0.0025931634299922734,0.001727300363220799,4468.04486448964
1684726121956769943,27,1684726121956769943,camera_1,30,0,-0.0925425006996102,-0.19528376642765916,1.5735830648392166,0.9988291426750816,-0.03647159795118025,0.009802684829572798,-0.030233651052774424,0.11727669995161705,0.07876387384835075,4475.268891672053
1684726121963553905,28,1684726121963553905,camera_1,31,0,-0.0916597108870715,-0.19252407810334177,1.5593562687290485,-0.9966181211378289,0.034249162191372313,0.009020479344796203,0.07414813862318598,0.0011840335937449709,0.0007880513392743213,4474.449977154434
1684726121970042705,29,1684726121970042705,camera_1,32,0,-0.09176224914487566,-0.19234644488595048,1.5611125928933707,0.9968951489768705,-0.0377617802114683,0.044060061350128896,0.053224251008979685,0.005219579325057566,0.003481312584260577,4468.119231027786
1684726121976723432,30,1684726121976723432,camera_1,33,0,-0.09167999467341503,-0.1917703666643741,1.5599369014157989,0.996833048592043,-0.03828203754663536,0.034532462032736536,0.06054641113996078,0.0015654413145966828,0.0010438621038603483,4470.767518819193
1684726121983383893,31,1684726121983383893,camera_1,34,0,-0.09162891303563536,-0.19099869013593396,1.5597179227445188,0.9964610086595084,-0.03872856080416595,0.04060259563319969,0.06258582928395538,0.0017352175345877185,0.0011558662830894672,4468.935767825343
1684726121990017652,32,1684726121990017652,camera_1,35,0,-0.09159911470534697,-0.19065491754349737,1.5599257115422966,0.9970648312920006,-0.035657557747542826,-0.014819294122476562,-0.06611088637922558,0.030919996512238868,0.020568797405192952,4479.832963200808
1684726121996640443,33,1684726121996640443,camera_1,36,0,-0.09165485429900244,-0.19047215394142064,1.5607830742846425,0.9964461004642338,-0.03784299000233293,0.036010735224834244,0.06607801393710648,0.0022993333550402895,0.0015345037870287711,4461.4272446722025
1684726122003356456,34,1684726122003356456,camera_1,37,0,-0.09159062956840477,-0.18981966283006718,1.559838400805904,0.9965202083024824,-0.0387135215217322,0.04265697815038512,0.060242177178791906,0.000807248754426837,0.000537349065600053,4473.053796949331
1684726122010362863,35,1684726122010362863,camera_1,38,0,-0.09168153884192204,-0.1898445438437005,1.5623795643758358,0.9966029746510651,-0.03558334952514372,-0.00960833970975801,-0.07364791891996607,0.010503659024834633,0.007011504909125865,4461.969419045084
1684726122016628026,36,1684726122016628026,camera_1,39,0,-0.09152686171414914,-0.1892547708775462,1.5590625106988418,-0.9954532399909417,0.03553131935269097,-0.0025479586461096657,0.08833957348398044,0.00615380187809933,0.004100445468330509,4466.745532485658
1684726122023316621,37,1684726122023316621,camera_1,40,0,-0.09163637432313365,-0.18920715957098208,1.5613480108109645,-0.9962742582961913,0.03591166352672821,0.0009593309001910129,0.07840302521804199,0.0004799820017069578,0.0003202336067101814,4466.520032407774
1684726122029991388,38,1684726122029991388,camera_1,41,0,-0.091702976973464,-0.18929615919088066,1.562429395023923,0.9970021451429001,-0.03940020828130105,0.04453159627222765,0.049510434266860956,0.00550460752856452,0.0036719386005009645,4471.408025022305
1684726122036688089,39,1684726122036688089,camera_1,42,0,-0.09152693627865402,-0.18893213262722178,1.5598456477694551,0.9963537338507661,-0.03782946777014073,0.04502110822887383,0.061816407398917965,0.0008977650431916118,0.0005973704169438972,4471.901032730705
1684726122043345928,40,1684726122043345928,camera_1,43,0,-0.0916277751999663,-0.18912414432356547,1.5620885218149982,0.9971353468698905,-0.03469937522808107,-0.01334297329488707,-0.06587122623039755,0.0020211517257848755,0.0013473602796866845,4471.247270029505
1684726122050063371,41,1684726122050063371,camera_1,44,0,-0.09156541131492617,-0.1889718927704114,1.5598915713164527,0.9964327656504955,-0.037525420156470674,0.04391135709778095,0.061525434561782354,0.010645899397786707,0.007086053558387344,4472.461829979615
1684726122056762695,42,1684726122056762695,camera_1,45,0,-0.09161754540361289,-0.1891423901821362,1.5611050776738598,0.9968270290508653,-0.03773437802955922,0.053918692103963425,0.044774607872607806,0.0005808944260934368,0.00038665958802460966,4478.474784121148
1684726122063394069,43,1684726122063394069,camera_1,46,0,-0.09145975698784353,-0.18915584912368558,1.5593025350482979,0.9970303654884077,-0.035820628717900524,-0.01674739335467992,-0.06608220386859248,0.008164047205355018,0.005423050690618361,4484.413116678481
1684726122070059776,44,1684726122070059776,camera_1,47,0,-0.09160889447056716,-0.1895526447988124,1.5611126904358277,0.9970335089370347,-0.03836546834343931,0.03509973497410694,0.056747524177181756,0.00137082306900993,0.0009141852179020871,4473.726967340335
1684726122076635122,45,1684726122076635122,camera_1,48,0,-0.09159320021145953,-0.1897324292889654,1.5606675155632286,0.9967812675626563,-0.03884999630575269,0.03260610380632667,0.06208562166716621,0.00539538508746773,0.0035989137409547746,4469.911307621165
1684726122083399772,46,1684726122083399772,camera_1,49,0,-0.09162029477607112,-0.19022240769726811,1.5609175960587167,0.9969628373350767,-0.0346432695125067,-0.010352411635827712,-0.06897660780003242,0.011064885999076068,0.0073710388632691835,4474.399388959513
1684726122090065002,47,1684726122090065002,camera_1,50,0,-0.09158207282375658,-0.1903339108733333,1.5592418882191752,0.99673051188963,-0.03826942281652026,0.044960168791769346,0.05515724039273656,0.0013850554241798818,0.0009210297488423906,4480.18905768398
1684726122096637725,48,1684726122096637725,camera_1,51,0,-0.09167825123151976,-0.1908374639114861,1.561344849265247,0.9965937693936455,-0.035240941179829025,-0.0032245782251132853,-0.07448850223890512,0.010675372919649817,0.00712323156630591,4468.0696565649705
1684726122103588342,49,1684726122103588342,camera_1,52,0,-0.09172948928813117,-0.191575334536723,1.5615440488213925,0.9968461074778387,-0.03445357622035698,-0.0014997196031978225,-0.07147405076684342,0.0019465942168608308,0.0012992861652431804,4469.988357610886
1684726122110104560,50,1684726122110104560,camera_1,53,0,-0.09178157073902803,-0.19211695129855655,1.5622402020138901,0.9967321243126795,-0.038227079433165584,0.036571359542481724,0.061043414242310905,0.004367103756521828,0.0029199149305851797,4456.145116651314
1684726122116714477,51,1684726122116714477,camera_1,54,0,-0.09167762180225747,-0.1922770969105998,1.5604194216342915,-0.9965923706146802,0.03516066544119039,-0.004760246289706462,0.07446283968266261,0.001223305065650493,0.0008162759044960735,4473.561900795673
1684726122123364925,52,1684726122123364925,camera_1,55,0,-0.09179561554813884,-0.19332409004273726,1.5615147622134478,0.9969289702626849,-0.038513221884549934,0.04501573840248176,0.05121467843434979,0.000670502966386266,0.00044748444375875256,4465.5008729590645
1684726122130074739,53,1684726122130074739,camera_1,56,0,-0.09167670098626107,-0.19350585193053105,1.5593590881723258,0.9967950175626586,-0.03894340721739324,0.033158853485529334,0.06151092937100443,0.0009760811808519065,0.0006509395846997705,4469.017980488248
1684726122136674404,54,1684726122136674404,camera_1,57,0,-0.09179712612179086,-0.1942100469655871,1.5608181138570263,0.9966837469725373,-0.03721370275983812,0.04421431164793528,0.05728650358666622,0.000271486074780114,0.00018118381390631942,4460.667465603182
1684726122143258094,55,1684726122143258094,camera_1,58,0,-0.09177719780816591,-0.1950413817754133,1.5595447305229249,0.9970661585904167,-0.038592867616728886,0.03890166181280271,0.053444613115542154,0.00013603265688288957,9.06843445360129e-05,4472.414285609993
1684726122150488138,56,1684726122150488138,camera_1,59,0,-0.09171803087744754,-0.19538193859282987,1.5578105796259136,0.9966535141300684,-0.03667710925100406,0.040459085959778346,0.06082454103792854,0.007191764103481546,0.004787514223678557,4471.502063897321
1684726122157138109,57,1684726122157138109,camera_1,60,0,-0.09176592179391735,-0.19597765386791957,1.5593054587918658,0.9964934527719789,-0.035176552603214756,0.0007759258840735934,-0.07591315214477455,0.0056920105998869985,0.0037967079871900665,4471.082127058705
1684726122163937807,58,1684726122163937807,camera_1,61,0,-0.09192291220050988,-0.19729538795770274,1.5606343388934976,0.9974830289991796,-0.03836445604663463,0.0386720575911642,0.04538994748326262,0.006229383157915436,0.004159330773557479,4470.013175922154
1684726122170499563,59,1684726122170499563,camera_1,62,0,-0.0919463729863882,-0.1977812585904175,1.5604550234792556,0.9969642392848189,-0.03768005137766682,0.041056928184819576,0.05437690652699308,0.0002307894901605323,0.00015417663732680852,4459.093613965437
1684726122177118062,60,1684726122177118062,camera_1,63,0,-0.09196596562644219,-0.19833184197228915,1.56053526640477,0.9972067158699262,-0.035074966350976615,-0.015988599921736964,-0.06397559872277213,0.008896224986528978,0.005936832819558067,4465.552564747808
1684726122183825969,61,1684726122183825969,camera_1,64,0,-0.09197326701912764,-0.19930194944997656,1.5597686957455452,0.9969060666842896,-0.03787695759736058,0.03194271493866151,0.061018794265162185,0.003591391840018332,0.002401968736417928,4453.881335908167
1684726122189991950,62,1684726122189991950,camera_1,65,0,-0.09200339033163102,-0.19975710421003132,1.5592022440037419,0.9970600994907707,-0.03728549285690412,0.045625454510591926,0.0489823225926888,0.0025631244207033888,0.0017099199866356081,4465.1776452693775
1684726122196611881,63,1684726122196611881,camera_1,66,0,-0.09197887096579738,-0.2002745037312616,1.5592081360773598,0.9971774669518585,-0.03778601151968282,0.03515750871918282,0.05452766561636572,0.011741820693714544,0.007843618767448267,4461.676311985096
1684726122203323125,64,1684726122203323125,camera_1,67,0,-0.09200525750001975,-0.201207197938227,1.55897898342068,0.9969471903263863,-0.03820113339801558,0.05380114267292612,0.041742186748164295,0.017604254084290005,0.011738679935494102,4465.594681473913
1684726122210147142,65,1684726122210147142,camera_1,68,0,-0.09191311126487638,-0.20146002865832344,1.5569265146902025,0.9966078616599601,-0.03774298498345019,0.04561585660754635,0.057161444943780025,0.008475843249470927,0.00564453225616986,4463.63479431864
1684726122216758251,66,1684726122216758251,camera_1,69,0,-0.09197878460648834,-0.20196564866503736,1.5574470816749584,0.9970649885728073,-0.03737164636062368,0.03971274796799032,0.05373701014603501,0.004821145412279293,0.003214424353156559,4466.360564217785
1684726122223737001,67,1684726122223737001,camera_1,70,0,-0.09205674930935151,-0.20291079751048263,1.5582358254519104,0.9968110375553472,-0.03785095120750397,0.04849524352744124,0.050825901425688186,0.004713794347480871,0.0031442782857647416,4458.995793051088
1684726122230263710,68,1684726122230263710,camera_1,71,0,-0.09196638187055095,-0.2031414731270077,1.5570612422331231,0.996828259745417,-0.03760090966516308,0.04226664236223507,0.055974307576769314,0.011905041945283301,0.007936543422700502,4461.6406953818805
1684726122236785650,69,1684726122236785650,camera_1,72,0,-0.09210434069109044,-0.20377956447784215,1.5593136314349278,-0.9970689692943452,0.03460465200696034,0.021518893251355885,0.06475280505913417,0.0010559507791185752,0.0007050132782679612,4457.709685167067
1684726122243367195,70,1684726122243367195,camera_1,73,0,-0.09205820931403519,-0.20410816195852333,1.5568611004922053,0.9969436582122103,-0.03800305561072194,0.037568021902652016,0.056989067767650906,0.0010300870781065898,0.0006872678283928468,4460.843052006325
1684726122250213861,71,1684726122250213861,camera_1,74,0,-0.09211206075732335,-0.20454755152042237,1.5579732552237386,0.9968017670708426,-0.037463552933324436,0.04450249709897997,0.054792765197725836,0.00013350452354643494,8.91393974195689e-05,4453.585004635563
1684726122256696939,72,1684726122256696939,camera_1,75,0,-0.09220259149893578,-0.2049793339635953,1.5590485231516655,0.9973866603477727,-0.03695505964141092,0.0526438510662134,0.03290590026324797,0.01379754752269946,0.009214790964571513,4464.697089612833
1684726122263653278,73,1684726122263653278,camera_1,76,0,-0.09205614112064323,-0.20503229324018046,1.5561787411833266,0.9967556333136275,-0.038710794252215644,0.05195068364474825,0.04775780914945105,0.003942960887798108,0.0026252281029428303,4466.092874143798
1684726122270500659,74,1684726122270500659,camera_1,77,0,-0.09224060990112008,-0.20560459266308298,1.5593027940321553,0.997176449544735,-0.03835746593952441,0.03513079664619275,0.05416327544617803,0.005998445412842557,0.004016198184718916,4448.1023059989075
1684726122277113676,75,1684726122277113676,camera_1,78,0,-0.09194907845086606,-0.20512166352727162,1.5545197026451898,0.9963874659142743,-0.037901164905204454,0.05031329346532066,0.056956930819979934,0.004435434326296672,0.0029486924628996268,4464.861971192759
1684726122283695220,76,1684726122283695220,camera_1,79,0,-0.09208595775516018,-0.2055560556685345,1.5564154354942394,0.996998465753625,-0.03835517673384723,0.04298948087814609,0.051718896319051536,0.0062515238096239045,0.004167075866585372,4463.7009280426155
1684726122290069103,77,1684726122290069103,camera_1,80,0,-0.09220414231548921,-0.20580614572129297,1.5582683926464964,0.9969476453060304,-0.037246784063304235,0.04979155525213956,0.04721091633590629,0.004335546196671203,0.002894942768236013,4454.764516672673
1684726122296725511,78,1684726122296725511,camera_1,81,0,-0.09225711544330345,-0.20596501169079937,1.55926530643868,0.9972424202103841,-0.038387896280556104,0.03957685545315858,0.04967491584822821,0.0023212257801787928,0.0015532279887996968,4451.108543939076
1684726122303348779,79,1684726122303348779,camera_1,82,0,-0.09215504376844888,-0.20560220045980854,1.5573451044544944,0.9972617464873248,-0.038110221602331636,0.03894662276574351,0.049997805727998605,0.00020103712449781597,0.00013419707806115407,4462.273604334503
1684726122310381174,80,1684726122310381174,camera_1,83,0,-0.09206981637275571,-0.2053610843106488,1.556265750441577,0.996313651897275,-0.03827238530191713,0.05634185471728721,0.052152919126674864,0.0015364348946604878,0.001023101706206432,4456.901721084024
1684726122316774368,81,1684726122316774368,camera_1,84,0,-0.09222647572182843,-0.20556226920386628,1.5590233969102611,0.9968015534414013,-0.03799225896178677,0.05936605777412413,0.037668587711104484,0.001792804934666492,0.0011973505986747038,4454.637327390023
1684726122323956251,82,1684726122323956251,camera_1,85,0,-0.09209223267162073,-0.20493812425421928,1.5567574693201491,0.9967176030672534,-0.03722927830758444,0.04605717378430877,0.05519725822509257,0.0011834127071779221,0.0007890544289580877,4457.862844926742
1684726122330054759,83,1684726122330054759,camera_1,86,0,-0.09207006565833628,-0.20472228811650733,1.5569353948391726,0.9967713642808245,-0.03805617293530265,0.042077239647428176,0.05681620327789479,0.006294209058978595,0.004198734501509965,4457.262362548967
1684726122336873292,84,1684726122336873292,camera_1,87,0,-0.09206504155475535,-0.20450058441651328,1.5573711146883211,0.9967037494273226,-0.03811704453375588,0.04662930366830555,0.05435471307014218,0.013539691164623946,0.009030408642446327,4456.387242716972
1684726122343311071,85,1684726122343311071,camera_1,88,0,-0.09217158718309662,-0.20416992968373793,1.5591863384221099,0.9972224151807838,-0.038102343162986725,0.0503049748160914,0.03956103657952953,0.007426534706610255,0.004959476631141102,4461.4483381873015
1684726122350035190,86,1684726122350035190,camera_1,89,0,-0.09215855772295453,-0.20383123962457853,1.5594554724818976,0.9972047380219746,-0.039327949642711704,0.04130370594632546,0.04827035030456186,0.012541514210170135,0.008383334387537513,4456.398523051001
1684726122356644392,87,1684726122356644392,camera_1,90,0,-0.09204820480179551,-0.20325649370018958,1.557367778519424,0.9968196268745803,-0.038510423994780524,0.03965643898019004,0.057401616429988984,0.005507608657353558,0.003675016962786699,4458.9865616751185
1684726122363371849,88,1684726122363371849,camera_1,91,0,-0.0921537112943912,-0.20272687686028057,1.5597703425648477,0.9967861199030837,-0.03834507094839361,0.05022032371539577,0.049244347781636104,0.008859268942615017,0.0059200873176375336,4451.977178073489
1684726122370066642,89,1684726122370066642,camera_1,92,0,-0.09206244083157064,-0.20221424444895578,1.5591297341430022,0.9973733302014393,-0.03773505630746921,0.04113091051731898,0.0461600902119936,0.015365395593107678,0.01025925278033697,4464.567907030693
1684726122376770496,90,1684726122376770496,camera_1,93,0,-0.09200557173360911,-0.20158046428093657,1.5580541262762926,0.996541945451234,-0.03765729674721525,0.03588459021420873,0.06479486972839837,0.0009896314440993592,0.0006611398562935384,4451.166112848296
1684726122383454322,91,1684726122383454322,camera_1,94,0,-0.09184731997915277,-0.20041068925268735,1.5564389740571603,0.9965038247578437,-0.03892951942463604,0.03173630939973205,0.06676396053291156,0.012374944708426483,0.00825171700034879,4461.217193663933
1684726122390059709,92,1684726122390059709,camera_1,95,0,-0.0920904213063383,-0.20033131695715967,1.5598035353173914,0.997163038095927,-0.0381394885081619,0.04023906319729406,0.05091240187460001,0.0006609505799133331,0.00044156114696283376,4460.801734597626
1684726122396642923,93,1684726122396642923,camera_1,96,0,-0.09220739504301566,-0.20023492049567015,1.5627906592704273,0.997616464313753,-0.03762842365836513,0.04473759924615092,0.036661138509379854,0.008556239394238219,0.005730458466378958,4457.12245666876
1684726122403349399,94,1684726122403349399,camera_1,97,0,-0.091923393641652,-0.1986529025619772,1.5587773464276116,0.9968233692538322,-0.03895209193632987,0.03973363755414902,0.05698370898719376,0.0025400346639798954,0.0016942918443090048,4463.445822315989
1684726122410187244,95,1684726122410187244,camera_1,98,0,-0.09190872628673738,-0.1981355899024647,1.5589637248215673,0.9965305941485071,-0.03804358432792092,0.04437165973859236,0.05925045509994454,5.695289291907102e-05,3.798530926671908e-05,4458.876460351629
1684726122416734933,96,1684726122416734933,camera_1,99,0,-0.09196288839043883,-0.1977904878329782,1.560464217634242,0.9968986282844883,-0.03706742867008587,0.04391762133121621,0.05376219110956874,0.0060523188731167465,0.004042310425572311,4458.483050509355
1684726122423523664,97,1684726122423523664,camera_1,100,0,-0.0917975353764569,-0.19642881236246176,1.5584048997970057,0.9967504183704586,-0.0376141109957289,0.031243391572682248,0.06401275353671974,0.005669983584084549,0.0037828499920516596,4464.503841672964
1684726122430052518,98,1684726122430052518,camera_1,101,0,-0.09184033025556665,-0.19606845297567232,1.5594897296854373,0.9968527196539108,-0.03802013270253116,0.03840330819083539,0.05800267879920023,0.0033502071310067554,0.0022348387383906345,4465.07502695272
1684726122436841487,99,1684726122436841487,camera_1,102,0,-0.09174706960187987,-0.19533615140484398,1.5580732389508298,0.9964685758656047,-0.03739925985419847,0.04071701481979705,0.0631964981537452,0.004947604233166203,0.003295082248889055,4466.965812170702
1684726122443494796,100,1684726122443494796,camera_1,103,0,-0.09176300515987082,-0.19451596605916982,1.5595162975083783,0.9968099223012278,-0.038353175929454364,0.038768424432972404,0.058275397595634514,0.008467232983093709,0.005645362902678712,4468.073141441945
1684726122449979543,101,1684726122449979543,camera_1,104,0,-0.09179582182223811,-0.1940786843765796,1.5608322272795903,-0.9962500992310345,0.035881694710421096,0.0009227389293496094,0.07872351821235146,0.0021489417558768764,0.0014352810776329333,4461.7454725858115
1684726122456662178,102,1684726122456662178,camera_1,105,0,-0.09196844861764428,-0.19397619569144642,1.5633857747803002,0.9977279253607382,-0.038067669974682715,0.031536133495936876,0.04577457528128894,0.0035733179829549044,0.0023894962034178516,4469.379870167819
1684726122463503122,103,1684726122463503122,camera_1,106,0,-0.09161077324736866,-0.19238969448340823,1.5585834153334635,-0.9959365176945839,0.034979311123527076,0.0013407312058134231,0.08297652050756903,0.0038859571795910597,0.00258771813480415,4471.12051231775
1684726122470105409,104,1684726122470105409,camera_1,107,0,-0.09160498899779024,-0.19197009535425938,1.5582310710437814,0.9962378100803794,-0.038421010980450615,0.04136041846392927,0.06575231909202038,0.002328010799828917,0.001548869681863291,4470.343071279463
1684726122476790189,105,1684726122476790189,camera_1,108,0,-0.09150850041940534,-0.19136982346286693,1.5567485127148002,0.9959868818486044,-0.03804392625348889,0.04236534590592923,0.06905047666008013,0.00014593382366001606,9.691028900026382e-05,4474.819413887454
1684726122483411312,106,1684726122483411312,camera_1,109,0,-0.09178777475500265,-0.1913035195884947,1.5622479780872047,0.9967466402169111,-0.03846116208800613,0.04962809381831801,0.05053638818811766,0.00090814103896264,0.0006060063765728537,4464.327413679332
1684726122490029573,107,1684726122490029573,camera_1,110,0,-0.09170878409120342,-0.19084994192057608,1.5618148285105442,0.9974570387615013,-0.03546378989166551,-0.01850789304039118,-0.058985026293646166,0.017768194447853602,0.01184447541874736,4473.6540284839575
1684726122496794700,108,1684726122496794700,camera_1,111,0,-0.09167809092164307,-0.19049679514452697,1.5610673871436196,0.9966309928426021,-0.038414551139138296,0.044641587153028434,0.05707990069022711,0.0025392871466465294,0.0016926311009191732,4467.751961557659
1684726122503378391,109,1684726122503378391,camera_1,112,0,-0.09175667939031665,-0.19013742928669125,1.5625419062364263,0.9973006893621341,-0.03886470303593033,0.03409752941608957,0.05213663149322452,0.0013770060613751411,0.000919849143808833,4470.2013149478
1684726122510131359,110,1684726122510131359,camera_1,113,0,-0.09148666907906436,-0.18937399995052506,1.5584872055103653,0.9961799760614028,-0.03814157412113419,0.040814135829452945,0.06711841725160002,0.00042559788562357426,0.0002830123858513069,4473.248055957261
1684726122516737461,111,1684726122516737461,camera_1,114,0,-0.0916082445919994,-0.18951046335484378,1.5609842932189033,0.9965169840490746,-0.03777561487411785,0.04052645537750606,0.062325836032528635,0.007323930520215072,0.0048831074246865475,4465.749465284869
1684726122523397922,112,1684726122523397922,camera_1,115,0,-0.09150342463560791,-0.1889780690397471,1.5591491818219487,0.9966020513527208,-0.03844485723065381,0.04541348798459134,0.056955766179879,0.0005351881991373375,0.00035568309454618086,4481.3720934125
1684726122530371904,113,1684726122530371904,camera_1,116,0,-0.09139935600575626,-0.188671571087249,1.5573690663982624,0.9961050841744774,-0.03845427212845366,0.0439877333131758,0.06603794026767626,0.0028493116260506213,0.0018908959147538905,4481.014089043718
1684726122536770582,114,1684726122536770582,camera_1,117,0,-0.09154582967282401,-0.18897585282678106,1.5602351784033175,0.9964066157826875,-0.03821274675190539,0.04625306479968775,0.059785416338792016,0.0007192820339696482,0.0004787296837119809,4471.595972875131
1684726122543505430,115,1684726122543505430,camera_1,118,0,-0.09139965908160753,-0.1886704715382272,1.5577180954267296,0.9964489679514409,-0.03792406395551745,0.04140366912354857,0.06274516574776068,0.00324660942715127,0.0021554965578464104,4484.57368661568
1684726122549999952,116,1684726122549999952,camera_1,119,0,-0.09147987330743737,-0.18881150544980269,1.5587924515205036,0.9963394599239662,-0.037573408160288466,0.04439471788211845,0.06265004885717895,0.00021373295749071985,0.00014204528259682746,4477.1884856898105
1684726122556715965,117,1684726122556715965,camera_1,120,0,-0.09157504851963749,-0.18913496275269973,1.560784899829373,0.9967966822707145,-0.038272871144853865,0.03881708495589989,0.058521752058120935,0.009686335048172623,0.0064552674124943405,4473.01881306048
1684726122563367128,118,1684726122563367128,camera_1,121,0,-0.09130221837327807,-0.18876865152626315,1.5557975867229443,0.9960193143377978,-0.03990455912968028,0.029715033246724736,0.07396058697627533,0.0013846944348188117,0.0009193786756923358,4482.95258701453
1684726122570011854,119,1684726122570011854,camera_1,122,0,-0.09163598564759962,-0.18960850976816468,1.5614292973797972,0.9969250411136158,-0.03813988241544854,0.04307116270338734,0.05320419826789588,0.0014908587909303606,0.0009937516573002248,4472.912039529765
1684726122576737880,120,1684726122576737880,camera_1,123,0,-0.09163390736123361,-0.1898124977303965,1.5611336865985286,0.9967450030138928,-0.037437868579554036,0.04932278251145075,0.051624297461400785,0.005589388194493949,0.0037230238471168357,4472.646186105088
1684726122583330154,121,1684726122583330154,camera_1,124,0,-0.09178534680827365,-0.19055138057561455,1.5634036767376716,0.9968036359946736,-0.038705668130756626,0.04982980840573506,0.04900380308300392,0.003577545576263219,0.002389865736474037,4461.142235453473
1684726122590031862,122,1684726122590031862,camera_1,125,0,-0.09175067483482521,-0.19073363657715794,1.5626897860372,0.9975758909162643,-0.035875605603642335,-0.017612887179780868,-0.056965507022984536,0.0033319697249680758,0.002223123700486692,4471.408945285543
1684726122596879959,123,1684726122596879959,camera_1,126,0,-0.0915216824104539,-0.19063631905309233,1.559023277412858,0.9962956430898309,-0.038107023427391834,0.04181478763702579,0.06476395494868332,0.008072360898950137,0.005372012048095757,4470.153158489673
1684726122603528976,124,1684726122603528976,camera_1,127,0,-0.09160952038355075,-0.1913576583715513,1.559345304497147,0.9963397102880116,-0.03836440895483549,0.04566618284058661,0.06123686449776302,0.0023702370381215587,0.001577390973638421,4469.604616561148
1684726122610013246,125,1684726122610013246,camera_1,128,0,-0.0916205495028059,-0.1918057156715029,1.5595892368012696,0.9965288136240945,-0.03821678754420635,0.041384064209401786,0.061295676815479115,0.00578674983989913,0.00385421919079753,4469.132219646128
1684726122616814851,126,1684726122616814851,camera_1,129,0,-0.09153231103217022,-0.1919619564647508,1.5574899174117116,-0.9960620269181489,0.03838086523008028,-0.0426072472943079,-0.0676163456118497,0.0018197003664681688,0.0012095634151929947,4471.282990936305
1684726122623469352,127,1684726122623469352,camera_1,130,0,-0.091728203596878,-0.19319912171301667,1.560236869484752,0.9965744874533318,-0.037950728438357215,0.03765582895116547,0.06309573451611346,0.001717090213787742,0.0011458441750449683,4461.5309384004795
1684726122629972457,128,1684726122629972457,camera_1,131,0,-0.09195283586515937,-0.19405854956219376,1.5636560937329202,0.997195880492639,-0.03739195090238129,0.04249304995124196,0.04895465904350331,0.000560000553377904,0.0003748716776209764,4455.845987703011
1684726122636635065,129,1684726122636635065,camera_1,132,0,-0.09166833675924532,-0.19393489520946083,1.5588707422867318,0.9962181172603337,-0.034800817216811164,-0.00665749592531294,-0.07933500936738189,0.007429508565110154,0.0049476526738177025,4469.738850578087
1684726122643409490,130,1684726122643409490,camera_1,133,0,-0.09172216382627807,-0.19489974103754606,1.5582341430804292,0.9963677253914579,-0.03807372233940869,0.03915227121408901,0.06533641499387886,0.00487083793268539,0.003245183268506922,4464.845474977277
1684726122650103092,131,1684726122650103092,camera_1,134,0,-0.09171193350197684,-0.19540916502920544,1.5580864043065332,0.9965964502761656,-0.03841155495044257,0.045263844331098695,0.05719486112934663,0.0001321377931162715,8.791930954001037e-05,4472.2923093500995
1684726122656811952,132,1684726122656811952,camera_1,135,0,-0.09185869252346734,-0.19619388976983038,1.560396826049928,0.997072204724158,-0.03763355127256815,0.03611126972896092,0.05591699726991733,0.004605382797308266,0.0030758799919496527,4463.16466348173
1684726122663303613,133,1684726122663303613,camera_1,136,0,-0.09195280984953264,-0.19733676027339625,1.5608422308566954,0.9969944793615386,-0.037207558467166245,0.05010180465364108,0.04590658869895975,0.0003499453014228493,0.0002335924604535173,4462.901072498731
1684726122669984579,134,1684726122669984579,camera_1,137,0,-0.09201134703186464,-0.19792940320902064,1.5614200464112087,0.9970761079269025,-0.03793285193260022,0.03761449166783807,0.05463958054533143,0.000567883049370721,0.0003799680981604377,4454.533636606413
1684726122676671028,135,1684726122676671028,camera_1,138,0,-0.09184901294671065,-0.19810159661977617,1.5582547807640452,0.996709998415018,-0.038578647814719244,0.04252673409556825,0.05720440437140922,0.0009250053117284551,0.0006164147631705525,4466.169696689814
1684726122683325290,136,1684726122683325290,camera_1,139,0,-0.09177883396186926,-0.19892977417529967,1.5567028547715782,0.9961919953495691,-0.0377024127327096,0.03439577266375655,0.07068923042755366,0.0046392073563765734,0.0030930850927255497,4457.180168794933
1684726122689987182,137,1684726122689987182,camera_1,140,0,-0.09193072685500356,-0.19971502653707635,1.5588935643376833,0.9967203819037834,-0.035582054939831353,-0.009939265639551362,-0.07199728232635963,0.0029376227175816894,0.0019587734741571402,4467.176202067493
1684726122696810722,138,1684726122696810722,camera_1,141,0,-0.09201400309968691,-0.20032769922680474,1.5596738389313474,0.9968165644401262,-0.03799569740029113,0.04738569446408639,0.05164939299745634,0.00041349280218128115,0.0002760675897126552,4457.3167633223065
1684726122703352928,139,1684726122703352928,camera_1,142,0,-0.09186180244853814,-0.20093336806346154,1.5568996246679008,0.9963619262057604,-0.03454613888439241,-0.009388715182293766,-0.07733904785393342,0.009326056009740569,0.006208718367713537,4470.199779577671
1684726122709979534,140,1684726122709979534,camera_1,143,0,-0.09202410874987312,-0.20165548176230164,1.5587620790431351,0.9971223208456679,-0.037510441696757615,0.03806964525557393,0.05376565953448162,0.0025267884193453938,0.0016873240284242883,4460.637324804848
1684726122716710329,141,1684726122716710329,camera_1,144,0,-0.09203184208131987,-0.2020130935955604,1.557976500235762,0.9963752307363978,-0.03811328257200615,0.04632710264306047,0.06031232732432053,0.0008023436239454895,0.0005352732286290943,4452.20864669018
1684726122723347425,142,1684726122723347425,camera_1,145,0,-0.09218049221202651,-0.20324906020510172,1.5608666101529585,0.9974545492973236,-0.034972347463918946,-0.015987064358143115,-0.060048070511420214,0.004967065659002401,0.003322177409666757,4458.074861247557
1684726122730122327,143,1684726122730122327,camera_1,146,0,-0.09221755551945762,-0.20365512295790056,1.5611808387557988,0.9976628534127083,-0.034437308687512276,-0.018833556320320063,-0.055930312417356784,0.004553075195872225,0.003046458944484315,4457.107836875075
1684726122736805200,144,1684726122736805200,camera_1,147,0,-0.09217198905982626,-0.20380879711848943,1.559181959432045,0.9973121491184654,-0.03816236249002939,0.042833534920999596,0.0455784992738821,0.005786364228697494,0.003865989238222353,4460.202859839541
1684726122743544578,145,1684726122743544578,camera_1,148,0,-0.09200542085353597,-0.2040344681881899,1.5558898677699675,0.9966314091398278,-0.03860080269751872,0.03878815520303644,0.06108429718850397,0.012667727452935651,0.008443613546146629,4460.436434588454
1684726122750033855,146,1684726122750033855,camera_1,149,0,-0.09207294489402251,-0.20455052938989465,1.5576203895031138,0.9967975248302557,-0.03782347222264578,0.03796751157134256,0.059351053119372325,0.011860031008836813,0.007921923491547172,4452.395988010567
1684726122756911516,147,1684726122756911516,camera_1,150,0,-0.09198605712262084,-0.20451333156208956,1.555502042791605,0.9964531207945786,-0.03824889007286517,0.05219379960086421,0.05379598265822352,0.006698526703985408,0.004456056525106567,4463.951496841619
1684726122763424396,148,1684726122763424396,camera_1,151,0,-0.09201012685526033,-0.20498498216261418,1.5556312739594524,0.9964462191672325,-0.039212610283835526,0.0472271713113034,0.05767926656943851,0.004675597927416675,0.0031132265086883846,4459.98691234624
1684726122769991397,149,1684726122769991397,camera_1,152,0,-0.09208276481671619,-0.2052712982696344,1.5566558307728984,0.9966011822977359,-0.03841279032576214,0.05364347859612298,0.04932462048765956,0.006459401600295678,0.004303636579286859,4460.081875723233
1684726122776812314,150,1684726122776812314,camera_1,153,0,-0.09199429225730962,-0.20524065133522656,1.5551917933366164,0.9969862966305365,-0.037966282121763575,0.04488517894713573,0.05061824239997121,0.00963453964504879,0.006410273758398625,4471.522449633483
1684726122783452272,151,1684726122783452272,camera_1,154,0,-0.09209151397072121,-0.20563361893696314,1.5571760524898086,0.9964907195511604,-0.03891176798571383,0.043939943650058995,0.0596774791078366,0.006941949453903362,0.00463418552491199,4448.996630561598
1684726122790084362,152,1684726122790084362,camera_1,155,0,-0.09222975806151291,-0.20587546305990112,1.5587872255694475,0.9971320558664658,-0.03875585457989336,0.042999999864456816,0.04875086574569219,0.010052567304228432,0.006719466436793251,4453.515016962539
1684726122796875476,153,1684726122796875476,camera_1,156,0,-0.09223283786777808,-0.20589317015590333,1.558671801755274,0.9970085044499636,-0.03847446970349309,0.04867779310314325,0.04608936638846016,0.0034009603114100173,0.0022719774953546554,4454.195622666973
1684726122803344011,154,1684726122803344011,camera_1,157,0,-0.09202700536882619,-0.20541123885006693,1.555790640083878,0.9968317746645814,-0.03803688661732518,0.034642372892374915,0.06065899995802524,0.016518179589184,0.011017562175539597,4459.3247716246115
1684726122810217618,155,1684726122810217618,camera_1,158,0,-0.09218516971777402,-0.20559912938569083,1.5582529324086491,0.9975548813272341,-0.038817027939078784,0.038679857401504154,0.043374712835752095,0.005307857893058099,0.0035451233950398765,4464.638449082209
1684726122817060708,156,1684726122817060708,camera_1,159,0,-0.09202130778749432,-0.20515021374497544,1.5557417916377863,0.9967694362627899,-0.03857659283663409,0.04143381072461671,0.056971718828846836,0.0042493359942454845,0.0028314171252971855,4462.617796008999
1684726122823470592,157,1684726122823470592,camera_1,160,0,-0.09223950168544887,-0.205312720827143,1.5598502214691468,0.9970155048480882,-0.03859367751485433,0.04821706955129996,0.04632197483135438,0.006430953944800422,0.004301350530842427,4449.33598208227
1684726122830144405,158,1684726122830144405,camera_1,161,0,-0.09271744993942288,-0.20620924199683183,1.5682877505552204,0.9990546971000538,-0.036827759145710605,0.021229381451818626,0.009096247676848343,0.05245645824470558,0.03522592105799645,4466.572078792263
1684726122836890935,159,1684726122836890935,camera_1,162,0,-0.09206334860292803,-0.20447192741753767,1.557165911032152,0.9967426111608453,-0.038684849320585114,0.043083343486759046,0.05613799999381509,0.009720848029246554,0.006484055819197907,4457.618349095632
1684726122843409776,160,1684726122843409776,camera_1,163,0,-0.09213110383870562,-0.2040608288252034,1.5585519090202165,0.9968354418239002,-0.0376855092994558,0.04649672911620316,0.052315948754513064,0.000984205151326023,0.0006572305554475654,4453.717699179542
1684726122850058078,161,1684726122850058078,camera_1,164,0,-0.09210440393657637,-0.203640697618752,1.5581122787857853,0.9969165572740247,-0.037405899600080325,0.05002966274680752,0.04748904456246516,0.008389916911255568,0.005595834117430941,4460.693969231565
1684726122856963634,162,1684726122856963634,camera_1,165,0,-0.09207800938123775,-0.20330882749277912,1.558028146597794,0.9967791868690741,-0.03893582991601885,0.044868339250151094,0.053871011743905343,0.005408222306868993,0.0036092220182417757,4457.362127659872
1684726122863391399,163,1684726122863391399,camera_1,166,0,-0.09210054483777172,-0.20262714086802822,1.559255153136477,0.9972186141097206,-0.037749082497049995,0.03747124048487764,0.05221061750490556,0.020023270713863894,0.013382399813813737,4457.5519092141185
1684726122870064496,164,1684726122870064496,camera_1,167,0,-0.09218276529020236,-0.202383871090839,1.5605873986645105,0.9972724870957286,-0.038451189496572405,0.03704137020700538,0.05096105769493202,0.005321578661096282,0.003562348499321471,4452.5755291329115
1684726122876852273,165,1684726122876852273,camera_1,168,0,-0.09212817238549313,-0.20188007385742301,1.5605012529681552,0.997429796173611,-0.03756130928772144,0.04094304605192877,0.04523954829185157,0.021348428912460804,0.014274518454708613,4459.041872258764
1684726122883418083,166,1684726122883418083,camera_1,169,0,-0.091957034307098,-0.20057299994624617,1.5576726777454115,0.9969854184018173,-0.03735766878349506,0.04156606081774632,0.05382139598070127,0.004198142472887412,0.0027980553851358722,4467.796877556134
1684726122890149831,167,1684726122890149831,camera_1,170,0,-0.09198537299555165,-0.20016741755559556,1.558544624321955,0.9968248229536107,-0.038207660034139744,0.04439156858162575,0.0539428929246589,0.0065017496526706955,0.004336550339096564,4462.646388604948
1684726122896911621,168,1684726122896911621,camera_1,171,0,-0.0918950289640273,-0.1995337436220812,1.5578307250271046,0.9961243100940294,-0.03444436805802813,-0.0057015907827263745,-0.08073063985454024,0.007804722583387046,0.00520197670835277,4465.120994266472
1684726122903431177,169,1684726122903431177,camera_1,172,0,-0.09200299742283108,-0.19886136291159034,1.5606343464050014,0.9973741412863624,-0.037427678822723534,0.03967147574388694,0.04764625025683003,0.002737760034506209,0.0018292768700162157,4463.6387243038635
1684726122910392284,170,1684726122910392284,camera_1,173,0,-0.09178083131235307,-0.1978411238386086,1.556703990072068,0.9966282508644803,-0.03786750469890332,0.036797993023204884,0.06280198544751174,0.009112160507356748,0.00606629564729787,4470.262513708558
1684726122916883230,171,1684726122916883230,camera_1,174,0,-0.09182110714995356,-0.1974364037738095,1.5580345064488133,0.9963993568518718,-0.03799742436920989,0.03812446692060013,0.0655060487932436,0.0005505820008693263,0.0003671177419173794,4459.948425381562
1684726122923419237,172,1684726122923419237,camera_1,175,0,-0.09187845997982255,-0.19655066557709652,1.559904925946821,0.9963063915286793,-0.03422275435040436,-0.006037530348892337,-0.07852340740861977,0.009605095910956152,0.006410329559853686,4461.191212958305
1684726122930229187,173,1684726122930229187,camera_1,176,0,-0.0918705346225772,-0.19607999344680094,1.5599306754634752,0.9970304720479022,-0.03720172295428387,0.0427415907718819,0.05214811631745609,0.00035600535920821136,0.00023744819055294261,4467.847007630191
1684726122936789512,174,1684726122936789512,camera_1,177,0,-0.09188490354866935,-0.19560660902449686,1.5602509043767854,0.9970493165423546,-0.0378556146989175,0.04393672101331363,0.05029092726117416,0.0009487198840361089,0.0006327811413708752,4468.713727850874
1684726122943380832,175,1684726122943380832,camera_1,178,0,-0.09175331970110104,-0.19448378684950268,1.5597435647259172,0.9967489717301674,-0.035538669870522406,-0.013901484074440883,-0.07095941825590303,0.006081749699660577,0.004050993818673557,4470.227276884485
1684726122950205802,176,1684726122950205802,camera_1,179,0,-0.09176513746888043,-0.19397517943457843,1.559867230562889,0.9968086567012157,-0.0377999415304958,0.033289386911112356,0.06193127695188696,0.008506055877660401,0.005677119881503103,4464.619629486435
1684726122956717014,177,1684726122956717014,camera_1,180,0,-0.09184791135134483,-0.19369920459515316,1.5612704553909595,0.9970740062521359,-0.03754160077653745,0.038482819769267394,0.05434267982034797,0.0022260820551309735,0.0014864161731393455,4465.29568632273
1684726122963310480,178,1684726122963310480,camera_1,181,0,-0.09158869984731824,-0.19222024604628243,1.557021742883067,0.9961972681257913,-0.037131611098265724,0.04923607625631677,0.06154717890236421,0.011408750317059457,0.007572986516683287,4478.068910635077
1684726122969983339,179,1684726122969983339,camera_1,182,0,-0.09159904714919677,-0.19200092089700155,1.5585624735143526,0.996398548165815,-0.03854477683287296,0.03803140987261381,0.0652521666694786,0.005155119011760689,0.003431804464404946,4470.408403392531
1684726122977051019,180,1684726122977051019,camera_1,183,0,-0.09173590981139647,-0.19184113706687841,1.560871020030447,0.9968278053947602,-0.038720995485120986,0.04012773222072061,0.05678711127825908,0.0006294774502748623,0.0004198535462680037,4468.151204518625
1684726122983465909,181,1684726122983465909,camera_1,184,0,-0.09170250110250827,-0.19111793071825015,1.5606991472298248,0.9971598677051242,-0.03745139125013336,0.03319517418479643,0.0562820747891334,0.00159604505461175,0.0010646441146749876,4473.666145112366
1684726122990311861,182,1684726122990311861,camera_1,185,0,-0.09169376135366575,-0.19082075846355956,1.5612286694844077,0.9970436771856769,-0.038056606895070046,0.04169648222127189,0.05212488682068276,0.004188723512925208,0.0027927862491917343,4473.150026214366
1684726122996927261,183,1684726122996927261,camera_1,186,0,-0.09164563947979744,-0.190435160063487,1.5605668091342542,0.9966890287059463,-0.038835414587652835,0.039855281038925265,0.059281929829510666,0.022636635127128102,0.015086301396664198,4470.011595013551
1684726123003509998,184,1684726123003509998,camera_1,187,0,-0.09155400371695477,-0.189725376925159,1.5593277466392963,0.9968502912955302,-0.03847709224955953,0.04291061339254885,0.05447650295596199,0.0008846557466313244,0.0005882363693195693,4482.801845311653
1684726123010427713,185,1684726123010427713,camera_1,188,0,-0.09162063733810619,-0.18960772535558948,1.560252350839237,0.9965494383674143,-0.03843785462683404,0.04282199242229333,0.059816596244374486,0.004036200582049787,0.0026880589734202707,4471.73614626145
1684726123016882658,186,1684726123016882658,camera_1,189,0,-0.09159814712129435,-0.18939828306486006,1.5607089324569152,-0.9968046025561111,0.03501542188212702,0.011659460947887439,0.07084180632772327,0.0010325947223464027,0.0006875125979283888,4474.07932816114
1684726123023401021,187,1684726123023401021,camera_1,190,0,-0.09157910913268837,-0.18914463769521958,1.560819638473623,-0.9963513777309517,0.0358127401172226,0.005129928762684736,0.07729853536659174,0.0015089416556293145,0.0010056300883881104,4469.297407041771
1684726123030197143,188,1684726123030197143,camera_1,191,0,-0.0915385607408269,-0.188941990398045,1.5594605294744888,0.9966068690991114,-0.0374818303894645,0.03778874007494346,0.0627843290851348,0.005498917671502568,0.003660452836443859,4475.839224572641
1684726123036940336,189,1684726123036940336,camera_1,192,0,-0.09151322845739444,-0.18882236417969783,1.5590924618652624,-0.9963247489277989,0.03792399930174422,-0.038530519502632254,-0.06643917532433147,0.002194061948102899,0.001460042402925984,4473.028553137089
1684726123043550491,190,1684726123043550491,camera_1,193,0,-0.0915846856814668,-0.1889993197255671,1.5606516761326146,0.9965822791574106,-0.03823560350937028,0.04246252255482991,0.059655122763898116,0.0007477449398720637,0.0004980826898230252,4471.242815509553
1684726123050168514,191,1684726123050168514,camera_1,194,0,-0.09151684754029846,-0.1889108237162006,1.5593608814751823,0.9964635990254713,-0.0384540186263083,0.04035057016114665,0.06287619387624087,0.003984071212471463,0.0026510310508107314,4475.305550065123
1684726123056843042,192,1684726123056843042,camera_1,195,0,-0.09146401076090643,-0.18888264799850352,1.558794513345768,0.9961737786032404,-0.03810176199154735,0.03889552278695845,0.06836078454502365,0.0020629222417483106,0.0013724583466682913,4471.690918507287
1684726123063367128,193,1684726123063367128,camera_1,196,0,-0.09159076722885394,-0.18936126938392658,1.5604911192933366,0.9969046334688751,-0.03798041203313384,0.03808534258253512,0.05734236436049797,0.0030283776141004637,0.002017447142722141,4475.856619404398
1684726123070271015,194,1684726123070271015,camera_1,197,0,-0.09156881368866032,-0.1894836387286794,1.560205483136539,0.9963939260980074,-0.037825046677162674,0.04424055412659638,0.061734781520962484,0.009499147243332118,0.0063254479952350035,4469.155478211294
1684726123076894283,195,1684726123076894283,camera_1,198,0,-0.09151363442354996,-0.18947847091592207,1.558939675741176,-0.9961112581571584,0.03493491402104568,0.01010465258908477,0.08024842148577614,0.0036945664905942976,0.002456013278321238,4473.239045258786
1684726123083458662,196,1684726123083458662,camera_1,199,0,-0.09170230953806749,-0.19039302642622746,1.5620210439452924,0.9968277114138747,-0.037603895576131266,0.048326307697995,0.05084317829517579,0.0008440656965831295,0.0005629627334108763,4467.947728379455
1684726123090295553,197,1684726123090295553,camera_1,200,0,-0.0916045494099747,-0.19047173904566586,1.5600753061208634,0.9966660466192814,-0.03815466702996408,0.0447488006229365,0.05655579318632243,0.011035572970286012,0.007346133596454565,4473.778753176856
1684726123096825122,198,1684726123096825122,camera_1,201,0,-0.09160096302823253,-0.19069420007597546,1.5594833218446065,0.9967382212448133,-0.037655969354643264,0.046751588044074956,0.05393732749260789,0.0041451537545071915,0.0027571567122847075,4478.564000137731
1684726123103466510,199,1684726123103466510,camera_1,202,0,-0.09168352513556946,-0.19156922180243235,1.5607449769604476,0.9970998039750645,-0.03733261213688084,0.04812112062809503,0.045635673912211606,0.0028400851442711428,0.0018915458715882505,4477.830108921042
1684726123110009193,200,1684726123110009193,camera_1,203,0,-0.09153891977080313,-0.19157277759151625,1.5582194656509298,-0.9956655972611976,0.0354262449123193,0.0018818784433859057,0.0859735897554565,0.004763187724165618,0.0031704226990841196,4470.065233768604
1684726123116641759,201,1684726123116641759,camera_1,204,0,-0.09188693861971256,-0.19269971825597706,1.5632243138392785,0.9975131914481723,-0.03806719905833126,0.0461463145938673,0.037267128842178324,0.0011470136232674122,0.0007665008231048222,4470.508635829085
1684726123123450279,202,1684726123123450279,camera_1,205,0,-0.09182248053346259,-0.19342626833365945,1.56192410576993,0.9971561927568234,-0.038130978530481884,0.047005827811903926,0.04489997633342705,0.0006239286158233881,0.00041646589739636385,4468.60163939686
1684726123130089759,203,1684726123130089759,camera_1,206,0,-0.09178386797412513,-0.19378065601364886,1.5611273561498318,0.997070359695712,-0.038223190342899185,0.041784125718932426,0.05141762707650479,0.0052808666514465585,0.0035238811538334867,4467.8218747614865
1684726123136762142,204,1684726123136762142,camera_1,207,0,-0.09165396660701738,-0.193828948616262,1.5578437283690365,-0.9960706781421926,0.03770052246718564,-0.037618879298992575,-0.07075800075851256,0.0023903271212475374,0.0015921095528844173,4462.490668220036
1684726123143307209,205,1684726123143307209,camera_1,208,0,-0.09175302070822931,-0.19503523103632303,1.5595972851303181,-0.9966344779088874,0.03446070914510514,0.010459630073982549,0.07363948062833868,0.002242789152660407,0.0014943696888022643,4468.99399004673
1684726123150007247,206,1684726123150007247,camera_1,209,0,-0.0917766475760251,-0.19558296628033922,1.5591894243750894,0.9968270932308705,-0.038167883039191,0.041269606513546275,0.056354045847811764,0.001295813563046977,0.0008636136069190306,4468.721520701393
1684726123156737089,207,1684726123156737089,camera_1,210,0,-0.09196064818389028,-0.1964683284948826,1.5624268891889928,0.9973601037522442,-0.03440657954193887,-0.01599894641938412,-0.06191158567672774,0.0056951977603603154,0.0038069652150283626,4460.017492785525
1684726123163378953,208,1684726123163378953,camera_1,211,0,-0.09177429843506887,-0.19703245800300823,1.558205439913159,0.9964375807074051,-0.0378122070274759,0.03528712726804159,0.0666123367166603,0.0038250722136581317,0.002551559191061886,4459.396310617507
1684726123170140266,209,1684726123170140266,camera_1,212,0,-0.09179163395275852,-0.19753190708277646,1.5580401741449081,0.9965989185700672,-0.037368470622193686,0.031560625424738656,0.06631832198669035,0.003869015912641771,0.002581974325870956,4460.517717938055
1684726123176778554,210,1684726123176778554,camera_1,213,0,-0.09184989243939165,-0.1981389663654354,1.558671255108826,-0.996339077076404,0.03489294441965312,0.006808127252992831,0.07774686696950191,0.0005620774754788727,0.0003746742040285066,4466.009896327159
1684726123183368921,211,1684726123183368921,camera_1,214,0,-0.091844212438663,-0.1990720049206599,1.5577230285636545,0.9969161860038751,-0.037511245239872364,0.03297614608825621,0.060527666014866296,0.004498500013141893,0.003000290094486117,4465.875572674675
1684726123190037488,212,1684726123190037488,camera_1,215,0,-0.09204485973885101,-0.20002811017748007,1.5611118931470387,-0.9972333249738567,0.03496699415791036,0.01422071190895684,0.06403730345626238,0.008963560656411573,0.005991176491901746,4460.121404764504
1684726123196779489,213,1684726123196779489,camera_1,216,0,-0.09222298226240286,-0.20077646675198635,1.5630126807304503,0.9977548926719301,-0.037745033244043734,0.044883728811983686,0.03234095704464838,0.004163383651757613,0.0027897782577692965,4458.1491972666145
1684726123203350782,214,1684726123203350782,camera_1,217,0,-0.09195075295716282,-0.20116044065387712,1.5580118391762632,0.9967650001562216,-0.03836742310208396,0.043866189291337676,0.05534647906714276,0.011081322998506948,0.007389071492234736,4461.5664156755665
1684726123210255146,215,1684726123210255146,camera_1,218,0,-0.09193005234719503,-0.20148738515402909,1.556965623666266,0.997032819171332,-0.037842248624584844,0.03819481296676126,0.05508791134845539,0.004032990400446579,0.002687591918819788,4469.10234450348
1684726123216858625,216,1684726123216858625,camera_1,219,0,-0.09205873228926525,-0.20215888601128817,1.5587848749785966,0.9968120671158521,-0.038424189866160384,0.04052037225194516,0.056985822078082365,0.0011456081265350804,0.0007652687578291402,4454.351596915803
1684726123223475217,217,1684726123223475217,camera_1,220,0,-0.09209450384772792,-0.20311842424005438,1.559577909996832,0.996842817476728,-0.038888458019134105,0.054212003657404924,0.04304815602789989,0.010280594069627114,0.006865234397515793,4456.106032123847
1684726123230037212,218,1684726123230037212,camera_1,221,0,-0.09202229688151364,-0.20321879014555144,1.5572985148164904,0.997098287579387,-0.0374725894333444,0.041516249034759325,0.051645048296018924,0.007562502592918463,0.005041933499213181,4465.720466006693
1684726123236910104,219,1684726123236910104,camera_1,222,0,-0.09217190728908942,-0.20387918415200282,1.5598550599919354,0.9971672585198917,-0.038032896755390996,0.04599942514370421,0.04577128124453412,0.001163893219199963,0.0007781398503167137,4454.696808013106
1684726123243405818,220,1684726123243405818,camera_1,223,0,-0.09211568530993099,-0.20439030394574906,1.5585518072890505,0.9971563011705906,-0.03791212725712477,0.044494888611990656,0.047562448738817306,0.007781297594192438,0.005195868442857965,4459.215428745378
1684726123250174999,221,1684726123250174999,camera_1,224,0,-0.0920212123805666,-0.20442770133936639,1.556428913181582,0.9967817770521212,-0.03819015322516545,0.04748813332200921,0.05208145857255546,0.012980965169845149,0.008647370559970724,4463.894924293271
1684726123256729841,222,1684726123256729841,camera_1,225,0,-0.09201403772479186,-0.20462340850519578,1.556006879120153,0.9967725129154317,-0.03855179960799628,0.050159121398206094,0.0494204288103684,0.004420692130224779,0.0029426030897187604,4467.274320287749
1684726123263611555,223,1684726123263611555,camera_1,226,0,-0.09215824070295195,-0.20529861516477382,1.5579341780326312,0.9967592821980575,-0.037225659386092846,0.050614884351454545,0.050232630006527,0.006470835243817419,0.004318565835073816,4454.001035778143
1684726123270389080,224,1684726123270389080,camera_1,227,0,-0.09223914242999917,-0.2055838838388382,1.55906969538964,0.9969247118858501,-0.03846365789073945,0.0470675239607442,0.049460226861429375,0.00300753656483721,0.0020106999379641364,4449.9871491951635
1684726123276983261,225,1684726123276983261,camera_1,228,0,-0.09218992011471441,-0.20568203073518823,1.5584705988109173,0.9969328752535853,-0.03873206743443518,0.045668704811085634,0.050388873690048394,0.006974456220632419,0.004660235355045285,4452.5650796162645
1684726123283564090,226,1684726123283564090,camera_1,229,0,-0.0921044464432614,-0.2056295423248963,1.5570610450175535,0.9968785676929491,-0.03889082693577024,0.04167581453957324,0.054623725039301484,0.0091394873597892,0.0060986981460953256,4457.097995961028
1684726123290039062,227,1684726123290039062,camera_1,230,0,-0.09208299490633391,-0.20564322611915709,1.5568247685378154,0.9968059190449307,-0.03870931222847971,0.03738762172793432,0.059006056005446256,0.017065002655726857,0.011392889317561692,4454.411542979011
1684726123296670198,228,1684726123296670198,camera_1,231,0,-0.09209641609862963,-0.2056402849598354,1.5571023521867828,0.9959351105841132,-0.034879574188104966,-0.007880793535662694,-0.08267142132269618,0.00400322322093416,0.0026714852202265886,4455.184867895908
1684726123303422689,229,1684726123303422689,camera_1,232,0,-0.09201719189349067,-0.20533714557790167,1.555352214145935,0.9966962718195967,-0.038133033500935755,0.04364141599300718,0.056902023751870937,0.02785036813293118,0.018543451873744125,4463.338107165183
1684726123310275554,230,1684726123310275554,camera_1,233,0,-0.09212573354941646,-0.20550489620895732,1.557335784701299,0.996909477079409,-0.038524871964365826,0.05200976886324944,0.04452317028447033,0.0128594862180762,0.008573465741695326,4462.067873103138
1684726123316837549,231,1684726123316837549,camera_1,234,0,-0.09205720730045813,-0.20522525895091634,1.5563166821678087,0.9967110507085267,-0.038167561252663115,0.04091114495871217,0.05862249467308644,0.0015087749488884583,0.0010062482076308758,4457.445807946497
1684726123323337793,232,1684726123323337793,camera_1,235,0,-0.09236173357353372,-0.20559081079796346,1.561953083871164,0.9976352529094236,-0.0386421441420045,0.04236392082051049,0.03789439353219462,0.02189788293617312,0.014664510917823089,4454.596175783954
1684726123330156326,233,1684726123330156326,camera_1,236,0,-0.09206416300777331,-0.20464368836504299,1.556547427454027,0.9966716015471802,-0.03800759004163982,0.04337168335590918,0.05761977830120844,0.001999838787014596,0.0013334420108381186,4457.977639808435
1684726123336912631,234,1684726123336912631,camera_1,237,0,-0.09223756346977043,-0.2048099523850378,1.5597500845578407,0.9976060252526164,-0.037661880748634885,0.03377403051856394,0.047149930866153975,0.012366549068246968,0.0082777351337159,4456.22289427556
1684726123343408823,235,1684726123343408823,camera_1,238,0,-0.09193166669667399,-0.20359008004257192,1.5550293732776306,0.9963131214068172,-0.03837734459992318,0.038282963447168965,0.0664963024819164,0.005653508676914498,0.003765777245490387,4458.934220040827
1684726123350099563,236,1684726123350099563,camera_1,239,0,-0.09213678864090583,-0.2037212900086255,1.5589160078981499,0.9973954907499745,-0.03845259275202116,0.03063571442886819,0.05277391537206417,0.011689815117279068,0.007818650503206275,4457.906573446205
1684726123356812715,237,1684726123356812715,camera_1,240,0,-0.09221899353651633,-0.20356640742088414,1.560695094770819,0.9970342111451986,-0.0352451904719313,-0.01061361092201828,-0.067586312355867,0.002799986250465736,0.0018733215220549956,4454.590072259133
1684726123363461971,238,1684726123363461971,camera_1,241,0,-0.09193325568380187,-0.2021696564932391,1.5560267208591898,0.9964535042277496,-0.03821557530807648,0.04303023457782222,0.06138715360960237,0.0036364304396556686,0.0024212390330252084,4462.439734571791
1684726123370121479,239,1684726123370121479,camera_1,242,0,-0.09200633290955829,-0.20200008204627637,1.5577862630861232,0.9967241344346708,-0.037515006055995066,0.042037794909409815,0.05802109922458837,0.001415478516719304,0.0009443220117507767,4458.222471679212
1684726123376828432,240,1684726123376828432,camera_1,243,0,-0.09196144739330214,-0.2014654562383143,1.5573389073768766,0.9967030056611922,-0.03780016951172253,0.03803848666985243,0.06088792345529748,0.01388465658237692,0.009260481509476884,4459.847932465607
1684726123383503675,241,1684726123383503675,camera_1,244,0,-0.09199085348532998,-0.20066004464616508,1.5584266389105097,0.9970190081280097,-0.03762145170850417,0.03754991414440874,0.055926091858203165,0.00813777577423025,0.005431268906931834,4462.496098685196
