%time,field.header.seq,field.header.stamp,field.header.frame_id,field.image_seq,field.transforms0.fiducial_id,field.transforms0.transform.translation.x,field.transforms0.transform.translation.y,field.transforms0.transform.translation.z,field.transforms0.transform.rotation.x,field.transforms0.transform.rotation.y,field.transforms0.transform.rotation.z,field.transforms0.transform.rotation.w,field.transforms0.image_error,field.transforms0.object_error,field.transforms0.fiducial_area
1683169218157854318,13,1683169218157854318,camera_2,14,0,-0.05074277691042604,0.8747392190863542,4.647364561355149,-0.7170958403812261,0.6910068056386569,-0.06388960474073906,0.0648171942857341,0.008789762970991433,0.002729031973970096,11651.646247208117
1683169218166847705,14,1683169218166847705,camera_2,15,0,-0.05074008339368242,0.8748655310484365,4.64809282135262,-0.7172895717182066,0.6910159228022767,-0.0621772280893349,0.06423906167711801,0.006288058182690293,0.0019519916460447794,11655.510352722595
1683169218176055192,15,1683169218176055192,camera_2,16,0,-0.05076288736333164,0.8751766461580422,4.6497397784665715,-0.7172803214834657,0.6911902288650823,-0.06239767428764405,0.06222168574945934,0.012660625739954412,0.003933023020351809,11652.598110786868
1683169218185498714,16,1683169218185498714,camera_2,17,0,-0.05073605745585822,0.874953185528742,4.648499460305915,-0.7172223044700737,0.6911069006660466,-0.060775775564145935,0.06534311690594975,0.00881634809775278,0.002736182333857255,11654.591404180974
1683169218194620847,17,1683169218194620847,camera_2,18,0,-0.05076103011030955,0.8752467504246858,4.650163365866102,-0.7174289122238617,0.6909411140534649,-0.06161209187345736,0.06403189010813226,0.008855674066580832,0.0027510100812556506,11647.635235784808
1683169218203972816,18,1683169218203972816,camera_2,19,0,-0.0508034655286137,0.8755176366090233,4.651421876057058,-0.7173527084724681,0.6911342501910474,-0.06129779108020306,0.06309612245424355,0.006924701621755958,0.002152146510848055,11645.101889614716
1683169218213474273,19,1683169218213474273,camera_2,20,0,-0.05076541713636364,0.8751935334409303,4.649773170971753,-0.7173643933230003,0.6910294977976653,-0.06095309363695288,0.06443043335191313,0.004323877685237676,0.0013427637887345398,11650.472094038263
1683169218222642660,20,1683169218222642660,camera_2,21,0,-0.050753462199346275,0.8746123889720644,4.646809624314375,-0.7172413002089545,0.6910417871665369,-0.06267013384880508,0.0640204653811581,0.007399092020932585,0.0022958821365627003,11660.985915735131
1683169218232102870,21,1683169218232102870,camera_2,22,0,-0.050768829032693155,0.87498331557225,4.648699085646408,-0.7172447212743647,0.6910246809648741,-0.06300274021372837,0.06384007226667725,0.009713076578918844,0.003016609745763935,11650.93220412242
1683169218241584300,22,1683169218241584300,camera_2,23,0,-0.05072614141017426,0.8747242470175389,4.64735405997664,-0.7170415556933485,0.6910036493832143,-0.06332837395661932,0.0659915221824221,0.00856372935231775,0.0026583698373877666,11649.968937275004
1683169218250880956,23,1683169218250880956,camera_2,24,0,-0.050780435389894324,0.8752467919452595,4.650143774720686,-0.7173235593637757,0.6910094264534954,-0.06154062173731762,0.06454173541422266,0.006720361532643437,0.002087597628208436,11646.399795935955
1683169218260137319,24,1683169218260137319,camera_2,25,0,-0.050758652526126845,0.8752665966484384,4.650140482343605,-0.7173506782089951,0.6910462167250846,-0.062197502587395606,0.06320285986356239,0.007929874525871128,0.002463784266399761,11648.310148041466
1683169218269319057,25,1683169218269319057,camera_2,26,0,-0.05079514422258543,0.8755262344357807,4.6515802464855796,-0.7174079901965142,0.6912549547524133,-0.059854098968098235,0.0625287931208861,0.007795868790708482,0.0024220350412714467,11650.683537597302
1683169218278502702,26,1683169218278502702,camera_2,27,0,-0.050706687205380976,0.8750632958792689,4.64912582349691,-0.7172038266684091,0.6910527801694991,-0.06224320580653257,0.0647341437196944,0.004618220205884427,0.0014342848943337384,11648.643630770499
1683169218288280010,27,1683169218288280010,camera_2,28,0,-0.05078100218544618,0.8751505379767326,4.649471810543913,-0.7172626270843486,0.6911156943729097,-0.06225737631828818,0.06338327755388257,0.006567583535797894,0.002040021484352337,11650.866976887915
1683169218297283172,28,1683169218297283172,camera_2,29,0,-0.05074889226249186,0.8748915505996392,4.648440492643409,-0.7171947947788304,0.6910801715080926,-0.06177499577793959,0.06498978986834889,0.005634237022604793,0.001749037067434683,11652.866951909153
1683169218306675195,29,1683169218306675195,camera_2,30,0,-0.05075732079060546,0.8749803290102911,4.648640159950903,-0.7171456495811146,0.6910580619394733,-0.06193016683531715,0.06561651279281851,0.005894356523640454,0.0018300747522587005,11649.278607751245
1683169218316227436,30,1683169218316227436,camera_2,31,0,-0.05073557945371096,0.8750308413063619,4.648924044706975,-0.7172356746141306,0.6911415860438619,-0.062055982021864395,0.0636030675116394,0.007066059799399227,0.0021941798974430427,11653.675196181282
1683169218325440883,31,1683169218325440883,camera_2,32,0,-0.05070974263229227,0.8749462200996889,4.648431837597243,-0.7173580478571181,0.6910085664353408,-0.061712910812674805,0.06400085098361354,0.00881673238473013,0.0027370181302666264,11656.047231751723
1683169218334673643,32,1683169218334673643,camera_2,33,0,-0.05079772194714641,0.8754585865277853,4.651262479173892,-0.7172442882398645,0.6912207670332406,-0.06144137497226477,0.06324112309871135,0.011937847477383912,0.0037099271642012277,11645.048932278762
1683169218343883275,33,1683169218343883275,camera_2,34,0,-0.05077437030806362,0.8753022789313909,4.650304225778922,-0.717434961585568,0.6909962016437519,-0.060753949638115486,0.06418942912965822,0.006097231176681817,0.0018938212355956074,11649.160535280822
1683169218353303670,34,1683169218353303670,camera_2,35,0,-0.05075363519416488,0.8749972280785279,4.648815832141901,-0.7173247861381894,0.691037151475119,-0.061552625893262596,0.06421900589855331,0.009412307175807655,0.002922180354404642,11653.982135117058
1683169218362664461,35,1683169218362664461,camera_2,36,0,-0.05073392859003222,0.8750353945582405,4.649054964899323,-0.7172325856059368,0.6910838055290629,-0.06394134866769743,0.06238666372749123,0.00244961550924927,0.0007611262708734624,11650.490577541528
1683169218372154474,36,1683169218372154474,camera_2,37,0,-0.05078173095600294,0.8752377954426857,4.6500405747505456,-0.7171545479389753,0.6913342985525871,-0.06109970177897893,0.06334878418538346,0.004023697751108557,0.0012497164227678744,11651.955584107196
1683169218381318092,37,1683169218381318092,camera_2,38,0,-0.05073566585657128,0.8747868128894424,4.647730557842928,-0.7171200334753014,0.6909587668783204,-0.06361704588555583,0.06532772409298156,0.00906216335715726,0.002813775753648215,11649.20790936146
1683169218390736818,38,1683169218390736818,camera_2,39,0,-0.05073927932612048,0.8748297804377301,4.647920671796473,-0.7171702343602611,0.6909761587242035,-0.06316071933153486,0.06503481033966149,0.0063648169743828475,0.0019762238522381043,11650.673083374748
1683169218399904966,39,1683169218399904966,camera_2,40,0,-0.05071292266886008,0.8749001332259064,4.648340514651288,-0.7172414290015019,0.6909375279443517,-0.06258367104680485,0.06521770557400164,0.010429273941554129,0.0032382241726049608,11649.944988349918
1683169218409371614,40,1683169218409371614,camera_2,41,0,-0.05077473392352747,0.8753549890144383,4.650559294944237,-0.7172200712673352,0.6911340130534992,-0.06139082968868326,0.06450047598257928,0.007574617979116738,0.0023533128614282237,11644.862052023644
1683169218418489933,41,1683169218418489933,camera_2,42,0,-0.05072711544514292,0.8748375391919685,4.648027578121764,-0.7170890900929054,0.6910626144956703,-0.06338818302154771,0.06478918095920246,0.007154905411880463,0.0022217422201978544,11650.176566605689
1683169218428031444,42,1683169218428031444,camera_2,43,0,-0.05078743708566184,0.8751534347977342,4.64970861623587,-0.7170413262949614,0.6912955709744878,-0.06249473214832444,0.0636912740485608,0.004472578584682196,0.001389471716495581,11648.065209128896
1683169218437498092,43,1683169218437498092,camera_2,44,0,-0.05074575170768825,0.8749924516780229,4.648776437139168,-0.7171133199864089,0.6910497379828126,-0.06357583552892056,0.0644737083527552,0.008372748619876802,0.0026008755785931234,11646.730498377234
1683169218446599960,44,1683169218446599960,camera_2,45,0,-0.050775279017321914,0.8751559635190413,4.6497402711003275,-0.7172208516646914,0.6910995527567002,-0.06288018705962779,0.06341719161402322,0.004686787317041308,0.0014562018207410954,11647.485625203928
1683169218455983638,45,1683169218455983638,camera_2,46,0,-0.05079102674717546,0.8755596088526756,4.651701307365693,-0.7174779959026192,0.6910372001636785,-0.06056703899850083,0.06343931882089607,0.007667065307032317,0.0023826387653611072,11645.062307246964
1683169218465462446,46,1683169218465462446,camera_2,47,0,-0.05073664799978551,0.8749377758672144,4.648505238143516,-0.7171808565575649,0.690987556931515,-0.06276561349079855,0.06517893000270569,0.007678520050831141,0.0023843921307667307,11648.625310803529
1683169218474660873,47,1683169218474660873,camera_2,48,0,-0.05076905830693459,0.875270226050908,4.650277754546744,-0.7174574021806357,0.6909824515733498,-0.06179553670146351,0.06308279731967281,0.00984682171838358,0.003059139492711855,11649.338838714173
1683169218484330415,48,1683169218484330415,camera_2,49,0,-0.05073992361544122,0.8750362017242982,4.649101318697879,-0.7173421124446827,0.6909395035569704,-0.06230408639991598,0.0643513555080179,0.00848759018117562,0.0026359711772310926,11649.742849901091
1683169218493521451,49,1683169218493521451,camera_2,50,0,-0.05078709798990796,0.8752794265366745,4.650267515182568,-0.7172158781017909,0.691136144871299,-0.06257126055591974,0.06338020829532726,0.008343611028976738,0.0025927052377836507,11645.911286725199
1683169218502850294,50,1683169218502850294,camera_2,51,0,-0.050750586152029376,0.8753368695287779,4.650717043008605,-0.7173425980751529,0.6911962080346319,-0.06069762777011611,0.06311257377429658,0.006325584836304188,0.0019649777522588786,11650.661002383567
1683169218511990308,51,1683169218511990308,camera_2,52,0,-0.05078636547054649,0.8750404853053034,4.649050640215642,-0.7170911862015349,0.6912016682226135,-0.06245827110027264,0.06418293300805586,0.005331649153959006,0.0016558804352701602,11649.943809313934
1683169218521184206,52,1683169218521184206,camera_2,53,0,-0.05072988329724169,0.8749045450662376,4.648253240873674,-0.7173073580708703,0.6909565691333801,-0.06268242712443597,0.0641879035224444,0.008763781341258436,0.0027210922421701663,11653.183437038912
1683169218530565261,53,1683169218530565261,camera_2,54,0,-0.050749379788505404,0.8750336502068191,4.649009895217833,-0.7172136093908406,0.6910920436799205,-0.0624473641473748,0.0640058776825933,0.009684718621429056,0.0030077024297181904,11650.74803955853
1683169218540056943,54,1683169218540056943,camera_2,55,0,-0.050748607814692495,0.8751335725446048,4.649552687175844,-0.7172800329867334,0.6910237888591132,-0.06217755796070662,0.06426063176929947,0.004892394063062966,0.0015196850576343784,11648.162538786884
1683169218549589157,55,1683169218549589157,camera_2,56,0,-0.05079149087685039,0.8751969497103839,4.649940386233525,-0.7173879381655422,0.6912063065393562,-0.06123207687632171,0.06195983163490573,0.004691037931479514,0.001456980079246534,11656.20720575191
1683169218558889389,56,1683169218558889389,camera_2,57,0,-0.050758853912042774,0.8751307804107233,4.649567185692355,-0.7172168992122382,0.691088708251251,-0.06252806167725053,0.06392619427813183,0.008574589504860342,0.002663658520018572,11647.948153799873
1683169218568104743,57,1683169218568104743,camera_2,58,0,-0.050760669146134856,0.8750749509256639,4.649173280221425,-0.7172329099343108,0.6910771859579725,-0.06259096277750044,0.06380946116491201,0.007714238367043436,0.0023960387322281298,11650.03239804925
1683169218577426195,58,1683169218577426195,camera_2,59,0,-0.05077863546390255,0.8752262461277707,4.6499330921966795,-0.7173199073713551,0.6911701350553262,-0.06145366191892305,0.06292409977987277,0.010523980075959116,0.0032687482254010153,11652.58173483284
1683169218586683273,59,1683169218586683273,camera_2,60,0,-0.05075615476840324,0.8752665768611045,4.650344941088849,-0.7172594984803229,0.6912267997337975,-0.06201315275126982,0.062439507167943616,0.009482537570875138,0.0029462150699663078,11650.25376431644
1683169218595907926,60,1683169218595907926,camera_2,61,0,-0.050753327686043986,0.8748156325394539,4.647837517037342,-0.7171968925415492,0.6910447964196728,-0.06351333988133191,0.06365345495067265,0.007799889077432454,0.002421972529982098,11654.128417931493
1683169218605351209,61,1683169218605351209,camera_2,62,0,-0.05076630870474915,0.8753826320043374,4.6508992326363705,-0.7171309444100328,0.6914003934687989,-0.06154050601006313,0.06246175310372055,0.0059681705897673965,0.0018545311756222997,11648.934493665583
1683169218614739418,62,1683169218614739418,camera_2,63,0,-0.050733414423266926,0.8749305969091606,4.648461095511683,-0.7173804880335842,0.6910696609218568,-0.061391846377092565,0.06339558612756958,0.0041430460987612605,0.0012860465431671442,11658.826876822157
1683169218623820066,63,1683169218623820066,camera_2,64,0,-0.050718627685229514,0.8746817168103066,4.647093841789701,-0.7171193973987582,0.6910955166680334,-0.063324528067814,0.06416198922083548,0.0048496213858015835,0.0015053008568210386,11656.963255190294
1683169218633329629,64,1683169218633329629,camera_2,65,0,-0.050767107725628535,0.8750119261360286,4.6487767719782,-0.7170264721760198,0.6912311974122843,-0.06314740306336723,0.06391303004195587,0.00587760639609769,0.001825579225191129,11649.825517361753
1683169218643406867,65,1683169218643406867,camera_2,66,0,-0.05072601803886422,0.8748931225412024,4.648321225182111,-0.7170784239287569,0.6911715739577026,-0.06226456366897253,0.06483450778555093,0.004893838078714907,0.0015193339551977042,11652.312565295957
1683169218652122974,66,1683169218652122974,camera_2,67,0,-0.05077305667646521,0.8755217509118625,4.651618387763333,-0.7175056109912039,0.6911491793816904,-0.06162204054361919,0.060837769152029965,0.00654480152297765,0.002034391356543,11649.840578173285
1683169218661337614,67,1683169218661337614,camera_2,68,0,-0.050774809683816445,0.8751015029023349,4.64938489701446,-0.7170329666200091,0.6911689146198536,-0.06282345021811395,0.06482646331564455,0.014309858088381588,0.004445242027153416,11645.0706466618
1683169218670507192,68,1683169218670507192,camera_2,69,0,-0.05077926708206916,0.8754892948458718,4.651515831081672,-0.7174741860534534,0.6910518899250134,-0.06103734431877876,0.06286907329134632,0.007783750654198229,0.0024189889662797567,11646.278802624905
1683169218679901123,69,1683169218679901123,camera_2,70,0,-0.05077769059811052,0.8749013939362896,4.6482250957675255,-0.7172592752362438,0.6910143805439066,-0.06194502370944632,0.06481567716791513,0.010912923433352262,0.0033875406884751017,11653.766161442734
1683169218689270257,70,1683169218689270257,camera_2,71,0,-0.05076868738225547,0.8754233011205124,4.650958846319443,-0.7173419328692822,0.6911449844920092,-0.06091626518862564,0.06346944457273888,0.00819229829357937,0.002545328389186499,11647.558840303216
1683169218698548316,71,1683169218698548316,camera_2,72,0,-0.05072826263920529,0.8751253919848384,4.649598408865534,-0.7172480067918877,0.6911945636504598,-0.062431724561651074,0.06251121260520226,0.00706411781720817,0.002194413960483696,11652.42880721204
1683169218708072662,72,1683169218708072662,camera_2,73,0,-0.05078452247572153,0.87548782696448,4.651382334061101,-0.717365986274998,0.6911214492453489,-0.06140519524265885,0.06298083935546743,0.009731590806040913,0.0030244537477303506,11645.35763080255
1683169218717532873,73,1683169218717532873,camera_2,74,0,-0.050799701412833694,0.8755525052815506,4.651692226385332,-0.7174918446582703,0.6911749036955827,-0.061171793308268045,0.06116140166579684,0.01107577548827976,0.00344242720241361,11649.91237041587
1683169218726539373,74,1683169218726539373,camera_2,75,0,-0.05075168940865657,0.8750342616902873,4.6491762850501255,-0.7174087366098005,0.6909917266700659,-0.06174615514196594,0.06358105562693298,0.00980571407126263,0.0030448882483441186,11653.56715284567
1683169218736048936,75,1683169218736048936,camera_2,76,0,-0.050778253532057595,0.8749735366084421,4.648735093600718,-0.7172869186737244,0.6911362140361311,-0.061803899759200295,0.06332841322749085,0.013216785562690347,0.004103350019160412,11656.261911599202
1683169218745169162,76,1683169218745169162,camera_2,77,0,-0.050797287163973505,0.8753875625947264,4.651064530296094,-0.7173560613367796,0.69121599609246,-0.06095320312526412,0.06249347996440264,0.00637949543306604,0.001982150632668666,11649.944141932303
1683169218754668474,77,1683169218754668474,camera_2,78,0,-0.05078451549729533,0.8755577297064571,4.651702267063004,-0.7173987520230878,0.6910682185255312,-0.06136212458102061,0.06323320019236986,0.005963509494904429,0.0018536890155325817,11643.129822998773
1683169218764186859,78,1683169218764186859,camera_2,79,0,-0.05074857529736681,0.8753232750618887,4.6505271581138725,-0.7174417148084639,0.6909885744542186,-0.062243190149976854,0.06275317606600858,0.00847459799842909,0.002633488236035229,11647.620733840853
1683169218773203849,79,1683169218773203849,camera_2,80,0,-0.050759583805875606,0.8748537518820559,4.648079573250062,-0.7172106028167671,0.6910028668288736,-0.06339112078115484,0.06407460532533003,0.006301347573753446,0.001956731370761719,11652.075387037825
1683169218782546758,80,1683169218782546758,camera_2,81,0,-0.0507593543339201,0.8752470549450618,4.650188063502681,-0.7172561756426395,0.6910794144045243,-0.06133543344128883,0.0647362811209,0.008034550875891,0.0024957258346798776,11646.267219936475
1683169218791985988,81,1683169218791985988,camera_2,82,0,-0.05075981513054581,0.8750893751860529,4.6491893617173705,-0.7172336170645054,0.6911541278230193,-0.06180883621720346,0.06373051005007813,0.010507179307751358,0.0032628316699761374,11652.71637815074
1683169218801169633,82,1683169218801169633,camera_2,83,0,-0.050762760744633005,0.8749866123453436,4.6487353481555,-0.7172716535468385,0.6909793841934044,-0.06284168724785699,0.0641855745610349,0.006430590176023543,0.001997139099065261,11650.254610360596
1683169218810678243,83,1683169218810678243,camera_2,84,0,-0.05072553549428993,0.8749108069059043,4.6484892266155,-0.7172981020822298,0.6910087335813837,-0.06200320393711112,0.06438917273126316,0.010129774804227054,0.003144804042156291,11653.709774974268
1683169218819767713,84,1683169218819767713,camera_2,85,0,-0.050796195011243966,0.8749257254345345,4.648423995560262,-0.7169994188637284,0.6911686491868658,-0.06251140433446635,0.06549851951313013,0.013427615049295127,0.004169098001529393,11648.788897514109
1683169218829155445,85,1683169218829155445,camera_2,86,0,-0.05074175958649029,0.8752043757977088,4.65003289828549,-0.7172067405461757,0.6911359872774228,-0.06282881633295602,0.06323035855815294,0.0045156762935221195,0.0014031974191270084,11646.798856498212
1683169218838494777,86,1683169218838494777,camera_2,87,0,-0.05077199113560183,0.875412365895654,4.650816478242276,-0.7173254178303877,0.6910190295891311,-0.06280911319405831,0.06318196720529806,0.011032407113816589,0.0034293056131875607,11642.920709949456
1683169218847661495,87,1683169218847661495,camera_2,88,0,-0.05074446825851831,0.8753448202741659,4.650666122664781,-0.7173885579022047,0.6911726147581744,-0.061103470495477506,0.062453498643006755,0.0073586156941019,0.0022861034173319206,11651.54321727902
1683169218857334852,88,1683169218857334852,camera_2,89,0,-0.05076620490382569,0.87491792741518,4.648409695906543,-0.7171676013938849,0.6911449555732607,-0.0628063529024152,0.06359751513757907,0.010186835075728595,0.003163152183361208,11653.78671784699
1683169218866733789,89,1683169218866733789,camera_2,90,0,-0.05074105795378282,0.8749411667096579,4.648572708223922,-0.7172325600935595,0.691042364922229,-0.06267112973772267,0.06411110763143084,0.008129759808070958,0.0025245187363712356,11651.900958886135
1683169218875868082,90,1683169218875868082,camera_2,91,0,-0.05075375250449023,0.8747079777913545,4.647312360310025,-0.7171532550530805,0.6910422320967183,-0.06279316656856301,0.06487573088489519,0.010824626020621508,0.0033595807225198656,11655.424687028168
1683169218885354518,91,1683169218885354518,camera_2,92,0,-0.050776866439529375,0.8752922897578188,4.650428276107585,-0.7174114755249074,0.6910596601329309,-0.06267453618839587,0.06188071941810988,0.006933673634193838,0.002154802077580585,11649.294024572708
1683169218894702911,92,1683169218894702911,camera_2,93,0,-0.05079083195229945,0.8751504816885307,4.649615317367167,-0.7171107482860636,0.6911503603073644,-0.06222100671398846,0.0647448875441154,0.010016970918513834,0.003111491947589183,11646.155400472458
1683169218904011726,93,1683169218904011726,camera_2,94,0,-0.050754129715922046,0.8750132689071731,4.648978721493067,-0.7170809566396317,0.6912372032330056,-0.0617530759494813,0.06459557339462886,0.00666103936964646,0.002068266424621683,11651.39619047381
1683169218913519382,94,1683169218913519382,camera_2,95,0,-0.05076651094867258,0.8751250168217273,4.649455057866802,-0.7174238981616874,0.6909871271669873,-0.06105246794019052,0.06412750263666021,0.007812747149728239,0.002425888876618427,11652.677037122889
1683169218922298431,95,1683169218922298431,camera_2,96,0,-0.050761382848699556,0.8748179463565701,4.647737764545206,-0.7173098933622662,0.6909058021111227,-0.06365216992739416,0.06375022162576863,0.004295415303204209,0.0013337962457275199,11653.840308849234
1683169218931674718,96,1683169218931674718,camera_2,97,0,-0.050741530365624336,0.8750340983642431,4.649091225156724,-0.7175041885181861,0.6908777258271515,-0.0617449432400143,0.06374377929688554,0.01356465567369014,0.0042119854952070886,11653.46324312897
1683169218941150903,97,1683169218941150903,camera_2,98,0,-0.05078109265002546,0.875216298726585,4.6500216992911,-0.7172756309123608,0.6912452455154943,-0.06065804191429919,0.06337414143499039,0.00823351030703634,0.002556866956412404,11653.408837651372
1683169218950557708,98,1683169218950557708,camera_2,99,0,-0.05072068649251106,0.8749063169751864,4.648287812959757,-0.7169611931598715,0.6911459893804375,-0.06386513541051361,0.0648468452980293,0.0041345321806147695,0.0012841933865546703,11647.079720540438
1683169218959933996,99,1683169218959933996,camera_2,100,0,-0.050778902638841564,0.8753157133608032,4.650510187827105,-0.717400962023344,0.6911729546652002,-0.06087846071940137,0.0625269497720298,0.00644065736560151,0.0020006861978611517,11652.796759654768
1683169218969139099,100,1683169218969139099,camera_2,101,0,-0.050780175877855514,0.8757735004580389,4.653057123492553,-0.7174459817347539,0.6913206189206033,-0.05993856549614759,0.061273432367977325,0.011681711941491812,0.003631622453929604,11646.800382944752
1683169218978502750,101,1683169218978502750,camera_2,102,0,-0.05075980288506239,0.8749307867622929,4.648463377251248,-0.7172408316058964,0.6910248295326261,-0.0627083953298829,0.06417111189498396,0.005022339406423272,0.001559541255132442,11652.119098423515
1683169218987929821,102,1683169218987929821,camera_2,103,0,-0.050744742457010356,0.874795631211454,4.647740421544859,-0.7171145602035883,0.691046936168771,-0.0642649687789351,0.06380323928776016,0.011814482044428587,0.003669035689774614,11651.634489146298
1683169218997091531,103,1683169218997091531,camera_2,104,0,-0.05075300052807514,0.8749793865490494,4.648701431033978,-0.7172646129877132,0.6908644847340928,-0.06315797229762685,0.06518289057670527,0.007097475579939783,0.002204407001373319,11646.31312750233
1683169219006431579,104,1683169219006431579,camera_2,105,0,-0.05078848057430604,0.8751436022026287,4.649544038593928,-0.7173040086647198,0.6910331865516488,-0.06137922558591877,0.06465821606161536,0.006873263686429709,0.0021344732312493205,11649.519921536561
1683169219015931367,105,1683169219015931367,camera_2,106,0,-0.05072640906872785,0.8749175404369841,4.648465935655064,-0.7172427379744147,0.6910097638864994,-0.0631382094554127,0.06388996433911949,0.006566842144820839,0.002039371830077967,11651.591735893624
1683169219025121688,106,1683169219025121688,camera_2,107,0,-0.05077755054354601,0.8751051602917963,4.649392267291202,-0.7172765260127404,0.691063979736445,-0.06145348196024449,0.06456338511016148,0.010997683624736966,0.0034151056453841965,11650.338967210611
1683169219034645080,107,1683169219034645080,camera_2,108,0,-0.05074755013195418,0.8749252514753646,4.648605650304723,-0.7171909939498188,0.6911236009622361,-0.062287624872297186,0.0640741615476223,0.0037073782877996564,0.0011511477800955818,11653.1747052893
1683169219043633222,108,1683169219043633222,camera_2,109,0,-0.05076834136798965,0.8750202428759027,4.648935728432321,-0.7173679240092171,0.6910370527311858,-0.06084332067944301,0.06441384698961045,0.005501441308297217,0.0017077889081059732,11655.079644087471
1683169219053000211,109,1683169219053000211,camera_2,110,0,-0.050747485532535996,0.8751324439634058,4.649486289899544,-0.7171808405292353,0.6910716346673018,-0.06370645000580633,0.06334923806724714,0.011089237814303488,0.0034458386141387196,11646.153324156534
1683169219062489509,110,1683169219062489509,camera_2,111,0,-0.05078875718226763,0.8750282621830932,4.649007612867997,-0.7170875920424086,0.6911612949107278,-0.06180582911552141,0.06528008305363384,0.010981564584653825,0.003409795171722371,11648.916583782993
1683169219071752548,111,1683169219071752548,camera_2,112,0,-0.05074540402424088,0.8751104698544468,4.649370723345756,-0.7172747325838563,0.691013086470208,-0.06264327239966481,0.06398197204475346,0.004139173950534314,0.0012857709074403398,11648.393283719899
1683169219081092357,112,1683169219081092357,camera_2,113,0,-0.05076193921263729,0.8750649250055509,4.649096215585143,-0.7172544534084996,0.6909490443687135,-0.06328261897744565,0.0642711232746991,0.006737595598679036,0.0020930904561653647,11646.700876035735
1683169219090497255,113,1683169219090497255,camera_2,114,0,-0.05075965371834194,0.8751611829428868,4.649724074420862,-0.7172627843016174,0.6911158237351898,-0.06243754512736239,0.06320260593670254,0.0031224446138367057,0.0009700481018377337,11649.67534571001
1683169219099653482,114,1683169219099653482,camera_2,115,0,-0.05077965846592409,0.8751933906735861,4.6499315651825635,-0.7174803964193436,0.6909995309964808,-0.06039621255502356,0.06398301669656999,0.008174281974788755,0.002538247166617093,11652.862673626747
1683169219109245538,115,1683169219109245538,camera_2,116,0,-0.05075222767337389,0.8751192683912359,4.6495681069040655,-0.7171462232153067,0.69122592310856,-0.061720405190517684,0.06402038217520221,0.009965134493540972,0.003094861606078545,11650.332559628405
1683169219118306159,116,1683169219118306159,camera_2,117,0,-0.05075505045956685,0.8753393740039533,4.650591511378268,-0.7173875901533224,0.6910206530256121,-0.061750802218266024,0.06350071662167221,0.013748620287515223,0.004271840986869289,11646.62691121082
1683169219127786636,117,1683169219127786636,camera_2,118,0,-0.05078595523352558,0.8753054291183481,4.650443773580111,-0.7172242680474123,0.6911912309805558,-0.06218698472239363,0.06306195739567778,0.005626466532703489,0.0017483634736983418,11647.268534798175
1683169219137109279,118,1683169219137109279,camera_2,119,0,-0.05075906119450102,0.8754508114400772,4.651213083510035,-0.7174023002885582,0.690973046254992,-0.06208556267479205,0.06352615049833077,0.010263177275191993,0.0031900656889514694,11642.374286054634
1683169219146416187,119,1683169219146416187,camera_2,120,0,-0.05081364529799308,0.8751756937640601,4.649922884637896,-0.7173055576238657,0.6911644373852852,-0.06148850887013079,0.06311593121173964,0.010767641011625528,0.0033443824713089067,11652.016007247148
1683169219155849695,120,1683169219155849695,camera_2,121,0,-0.05075754952217829,0.8754421840285206,4.651171354652856,-0.7174548490512338,0.6911252816008956,-0.060559706418863865,0.06274477399285983,0.008931807533372194,0.0027750154509769984,11649.877062909305
1683169219165047645,121,1683169219165047645,camera_2,122,0,-0.050778929402728906,0.8750543022470758,4.649046453299633,-0.7171214100412484,0.691189114606695,-0.0625641669844795,0.06387656940696713,0.010984431835822761,0.0034115000395284084,11650.510712283667
1683169219174303293,122,1683169219174303293,camera_2,123,0,-0.050747825209686105,0.8750815936186861,4.649221455126593,-0.7172191676625608,0.6910103288911953,-0.06304850818553352,0.06423609980909742,0.004879854270257056,0.0015159358958132371,11647.003738952337
1683169219183916807,123,1683169219183916807,camera_2,124,0,-0.05077277911892007,0.8752099608119484,4.649945236504115,-0.7174062390654001,0.691024639311076,-0.06137616128721458,0.0636097700096534,0.007870288449339569,0.0024444790075920605,11650.766519974453
1683169219193067789,124,1683169219193067789,camera_2,125,0,-0.050780510404873865,0.8751614275739173,4.649642485273672,-0.7171428339904248,0.6910368769301264,-0.06375693143405833,0.06410338581504323,0.00892559956992045,0.002773763845115213,11642.893662787044
1683169219202239751,125,1683169219202239751,camera_2,126,0,-0.05076837037848255,0.8752751377314675,4.650087354734686,-0.7174583312161396,0.6911072810709655,-0.05997497093599058,0.06346079010284046,0.008663954271469265,0.0026901708018229682,11654.915462558161
1683169219211762905,126,1683169219211762905,camera_2,127,0,-0.05073959545452345,0.8749568881592035,4.648618154299691,-0.7171420141904342,0.6911046536597395,-0.06335822242989166,0.06377636571068458,0.004053394193761051,0.0012589749379846112,11650.425649671579
1683169219220997095,127,1683169219220997095,camera_2,128,0,-0.050788494521016955,0.8753067997739791,4.650553307960452,-0.7172517464732718,0.6912157430946408,-0.061537952467503335,0.06311742299295954,0.012585947173647583,0.003910261676278877,11648.685608735776
1683169219230492353,128,1683169219230492353,camera_2,129,0,-0.05077082898450777,0.8751204144528371,4.649411245684757,-0.7173110884284347,0.6911188878104993,-0.06224598575682099,0.06280861872668835,0.005388288642279804,0.001673626060145801,11652.997367118714
1683169219240208148,129,1683169219240208148,camera_2,130,0,-0.05076789439476924,0.87543883334564,4.651054185753025,-0.7176805206154634,0.6910040684743755,-0.059838105048100595,0.06218881623918083,0.009607894578948617,0.002984378181777285,11654.365821287967
1683169219248973131,130,1683169219248973131,camera_2,131,0,-0.05074668149767569,0.8749198418916136,4.648417135656477,-0.7171843712720988,0.6908436210691026,-0.06392386706660566,0.06553936260313918,0.007342809869442135,0.002280859175148649,11644.066991418837
1683169219258368730,131,1683169219258368730,camera_2,132,0,-0.050755138368936054,0.8752000379862649,4.649804486043826,-0.717258749633118,0.691058487955581,-0.06306901268950355,0.06324833545362037,0.011102344316896051,0.003449772107435883,11646.971397697453
1683169219267914772,132,1683169219267914772,camera_2,133,0,-0.050796088963499755,0.8753367359485676,4.650647723884656,-0.7171267811157652,0.6911345116190496,-0.06234086804484985,0.06462107107634435,0.006468457460869104,0.002010244988733081,11641.008020266192
1683169219277029037,133,1683169219277029037,camera_2,134,0,-0.05074417164415422,0.8750965551163165,4.649467714813664,-0.7171057549384824,0.6913709859122386,-0.06221166021819613,0.06241158070217668,0.006958063167985529,0.0021611799595635255,11654.098020890264
1683169219286331892,134,1683169219286331892,camera_2,135,0,-0.05076521534057094,0.8749363252587183,4.6484778548695065,-0.7172483316438933,0.6910529898110247,-0.061750252307404906,0.0647109138188231,0.004756382317282259,0.0014765744240833197,11653.521247639088
1683169219295516014,135,1683169219295516014,camera_2,136,0,-0.05075517427585644,0.8752444478734172,4.650087505462568,-0.7175119353320997,0.6910333737250769,-0.06089843739784392,0.062776423732354,0.011174838873557746,0.0034706331461212474,11654.089263280384
1683169219304863452,136,1683169219304863452,camera_2,137,0,-0.05076315428967031,0.8750027937989818,4.648903714246127,-0.7171834344504812,0.6911284970990161,-0.0626192275260375,0.06378208362471541,0.0065502457437105486,0.002034314539189008,11651.404550391944
1683169219314271926,137,1683169219314271926,camera_2,138,0,-0.050766584941920344,0.8749737041752123,4.6488469484267485,-0.7172916325925071,0.6909554812340652,-0.06344416529104167,0.063624481576671,0.014446478453464806,0.004487354591147136,11649.462459187253
1683169219323408365,138,1683169219323408365,camera_2,139,0,-0.0507712673022053,0.8748019043967662,4.647841802233689,-0.7172501046146424,0.6909437800398626,-0.06334766676298242,0.06431215569545742,0.01014135091099888,0.0031487944355488733,11652.657983873502
1683169219332962036,139,1683169219332962036,camera_2,140,0,-0.05076356857335797,0.8753695104318803,4.650815944097013,-0.7175119473721171,0.6910247310542825,-0.06201938996456033,0.06176586207649551,0.008015983155928552,0.00249111508717722,11649.84663767089
1683169219342342138,140,1683169219342342138,camera_2,141,0,-0.05074609767304635,0.8751354725998758,4.649329539629333,-0.7171445862878644,0.6911028099750921,-0.06274521403697893,0.06437069611238835,0.0051141573349013925,0.001588683472117809,11646.980062010469
1683169219351616859,141,1683169219351616859,camera_2,142,0,-0.05076256925370912,0.8750467399021775,4.648912525499158,-0.7174073950520798,0.6909688092186629,-0.06123328950605859,0.0643367582941464,0.00835334655130282,0.002593336439377954,11654.10656731529
1683169219360934734,142,1683169219360934734,camera_2,143,0,-0.05072611785149575,0.8745715213745895,4.646348224584003,-0.7172620380792365,0.6908360721946716,-0.06332430847097106,0.06535076160024338,0.00846107688266784,0.0026254393158129667,11656.938698013317
1683169219370207548,143,1683169219370207548,camera_2,144,0,-0.05079199733215946,0.8752308654135693,4.650004546149872,-0.7172917417958332,0.6909795085140794,-0.062359838636255153,0.06442923630155295,0.00903330568689853,0.0028065884087624736,11644.707686590027
1683169219379570245,144,1683169219379570245,camera_2,145,0,-0.05076945850309412,0.8754161343606562,4.650929603433003,-0.7173163264477964,0.6910730950434609,-0.06238411773325567,0.06311487125181553,0.010286803939379752,0.0031972881092132742,11644.001290364191
1683169219389188766,145,1683169219389188766,camera_2,146,0,-0.05078770777883882,0.8753225198262602,4.650412147249917,-0.7174765713514156,0.690970286804086,-0.06090312701594419,0.06386111050847797,0.010557735688053071,0.0032794917140215266,11649.113837052142
1683169219398314952,146,1683169219398314952,camera_2,147,0,-0.05075398256504732,0.8751616485808702,4.649692897050341,-0.7172308251050036,0.6911321343629931,-0.0621990988050684,0.06362066077845227,0.008297704043798149,0.0025775361990828145,11649.32439820422
1683169219407761096,147,1683169219407761096,camera_2,148,0,-0.050750529847012484,0.8750771060111726,4.6491551079092766,-0.7171357674286287,0.6911090476236859,-0.06372746345714918,0.06343016450042833,0.003956603759434073,0.0012293439890787331,11647.501911364498
1683169219417180776,148,1683169219417180776,camera_2,149,0,-0.05075788595866304,0.8752108266838171,4.6500017144544366,-0.7171898770988211,0.6911992059460282,-0.062008599490585715,0.06353952687716605,0.004985701816622168,0.0015488707451360557,11648.675049644662
1683169219426206111,149,1683169219426206111,camera_2,150,0,-0.05079712461292339,0.8757229541786273,4.652740828281881,-0.7174212638584078,0.6913132212699673,-0.06039178451164535,0.06120124692067285,0.007012521324213594,0.002180066702641532,11647.134594714738
1683169219435824394,150,1683169219435824394,camera_2,151,0,-0.05076995097040809,0.8749988410949466,4.648627298842865,-0.7171433594129905,0.6911426900035776,-0.06320039678108641,0.06350507027932903,0.010600710986182094,0.0032923660558132556,11651.58473424078
1683169219444951057,151,1683169219444951057,camera_2,152,0,-0.050771935592490554,0.8750853588148072,4.649288146467687,-0.7172684975182835,0.6910228414536891,-0.06261334609463945,0.06397580752102176,0.008944646338932216,0.0027783478781885345,11648.885022974335
1683169219454373121,152,1683169219454373121,camera_2,153,0,-0.05079834791317883,0.8755399909402865,4.651719661125603,-0.7174204209674057,0.6911008822782797,-0.06027438433956291,0.06367502403313771,0.009530736424494535,0.002961521529787761,11645.230290035719
1683169219463760614,153,1683169219463760614,camera_2,154,0,-0.05076639600882444,0.8749486032859763,4.648456768986552,-0.7172270244774452,0.6911187523489364,-0.061568976797627434,0.0644168192863714,0.009663664037361741,0.002999756377659183,11655.065508511156
1683169219472824335,154,1683169219472824335,camera_2,155,0,-0.05075211426707097,0.8749128887466668,4.648347589318556,-0.7173014099416062,0.6909349887867144,-0.061649377947381206,0.0654742908689162,0.011133931169752032,0.003456039858271683,11652.120591442334
1683169219482352018,155,1683169219482352018,camera_2,156,0,-0.050752668421275196,0.8753282239884584,4.650642142710691,-0.7174760833442145,0.6911775951313146,-0.060588932838310426,0.061891704089102925,0.009590560919605196,0.002979014220141157,11654.990136069246
1683169219492068290,156,1683169219492068290,camera_2,157,0,-0.050761188501680404,0.8751198899933741,4.649402667844291,-0.717385407257225,0.6910698508264549,-0.061968396948925204,0.06277385214137751,0.0038959324592724442,0.0012100184916667373,11654.06572147855
1683169219500899791,157,1683169219500899791,camera_2,158,0,-0.050742851098873575,0.8752881900217638,4.650301417858895,-0.7172920525657875,0.6911064306002465,-0.06130825051734256,0.06407270345044756,0.005464613786898553,0.001697542227037692,11647.80814786232
1683169219510552167,158,1683169219510552167,camera_2,159,0,-0.0507607435844246,0.874799945713548,4.647715726939727,-0.7172498222097338,0.691002126211098,-0.06272532620684271,0.0642984258290381,0.010715911106672138,0.0033263510398697663,11655.378338956503
1683169219519418954,159,1683169219519418954,camera_2,160,0,-0.05075520737408027,0.8749322874651696,4.648448014821278,-0.7172422992212923,0.6909078779185414,-0.062495429642688796,0.06560571401660002,0.011955700872931631,0.0037121544088946634,11648.43104435969
1683169219528944730,160,1683169219528944730,camera_2,161,0,-0.05077158088134231,0.8752200137337529,4.649885750895712,-0.7173712660461398,0.6909676195340442,-0.06208176899555182,0.06393801189588316,0.011917949072085321,0.0037023305338007547,11647.701493815759
1683169219538380146,161,1683169219538380146,camera_2,162,0,-0.050784218169448316,0.8752314198523301,4.650180096448204,-0.7172316395499193,0.6912106404079745,-0.06223619769937119,0.06271587925922145,0.013386138714849949,0.004158962992210468,11649.4929596344
1683169219547420501,162,1683169219547420501,camera_2,163,0,-0.05077455673931486,0.8751282649469829,4.649501598145965,-0.7173757992706412,0.691002173840779,-0.0626110838747912,0.06299055916683209,0.008753781439736485,0.002719328762224609,11650.797846606469
1683169219556789398,163,1683169219556789398,camera_2,164,0,-0.05077155440536261,0.8754777537986463,4.651355941308327,-0.7173572667305701,0.691121896309438,-0.06227387891099817,0.062217684912496296,0.00859346374636516,0.0026713544649175284,11644.962553160265
1683169219566311836,164,1683169219566311836,camera_2,165,0,-0.05074943775566839,0.8749611731894346,4.648747860753229,-0.717245620379502,0.6911027335565221,-0.06304933432733267,0.06293260806614101,0.0062401347677223384,0.0019380762788999506,11653.376138967698
1683169219575484514,165,1683169219575484514,camera_2,166,0,-0.050758517392231584,0.8752331517064249,4.650097727736164,-0.7173560211304039,0.6911476462046336,-0.06153679552769538,0.0626776905280718,0.008549265447072685,0.002655688729601261,11652.299068745693
1683169219584927558,166,1683169219584927558,camera_2,167,0,-0.050763379282889654,0.8751260764063147,4.649625788249382,-0.7173589909003695,0.691135059698308,-0.06073558077318902,0.06355782137835647,0.007996997039299458,0.0024830720357330947,11654.630928898
1683169219594019889,167,1683169219594019889,camera_2,168,0,-0.05077638640278537,0.8753739936600913,4.650888073994176,-0.717322255677733,0.691210408854272,-0.06220818369715774,0.06170165380295762,0.007090193161275238,0.0022035848204850616,11649.06310401624
1683169219603550910,168,1683169219603550910,camera_2,169,0,-0.050775173694617905,0.8752208514323837,4.649968885868509,-0.7172095895953545,0.6912279894090099,-0.061674842962595185,0.06332839012307166,0.007159177854191512,0.0022238441773775857,11650.504082908154
1683169219612915277,169,1683169219612915277,camera_2,170,0,-0.05073929179224027,0.8748009228379535,4.647779180201246,-0.7171745995996182,0.6909656502388273,-0.06365872720593294,0.06461137925847371,0.006399604375474155,0.001987144585131571,11651.04386724578
1683169219622085094,170,1683169219622085094,camera_2,171,0,-0.050767912297389126,0.8755782545914741,4.6518095584660175,-0.7173795053195136,0.6911928725286219,-0.06142607369693615,0.06201528669078954,0.006575730454642326,0.0020441284181978475,11646.032075918047
1683169219631646871,171,1683169219631646871,camera_2,172,0,-0.05078578535653403,0.8753319656062859,4.650787028572979,-0.7173211174502361,0.691197707133365,-0.06062401144879057,0.06341035679903308,0.007330324617214501,0.002277108548167975,11649.644676551923
1683169219640994071,172,1683169219640994071,camera_2,173,0,-0.05076768765620566,0.8755112831709163,4.651502266277195,-0.7173302414632261,0.6913198005472135,-0.06101500345755372,0.061574567856750105,0.00581233121920377,0.0018063375403288328,11650.213388877695
1683169219650128602,173,1683169219650128602,camera_2,174,0,-0.050752377764976056,0.8748409116066965,4.648023131162893,-0.7170470689980087,0.6910576788581608,-0.06461917782619592,0.06408702824755294,0.006593884609173983,0.002048245787640395,11648.189273539929
1683169219659696817,174,1683169219659696817,camera_2,175,0,-0.05073754153288706,0.8747305675619238,4.647434008315115,-0.7171833647693376,0.6910420287797125,-0.06307362387877918,0.06427016204234107,0.008918701729271561,0.0027684797300679934,11655.761650558328
1683169219668661832,175,1683169219668661832,camera_2,176,0,-0.050755234154602015,0.8747497761329027,4.6475726377313205,-0.717058046885227,0.6909551645583887,-0.06354163205143905,0.06611489214597066,0.01064414530992508,0.0033046836716969386,11647.766223664159
1683169219678444385,176,1683169219678444385,camera_2,177,0,-0.05076006318586892,0.8751898502440391,4.650011856769474,-0.7172510375122852,0.6911563488587354,-0.06190239532612936,0.06341879904807492,0.006464512669481337,0.002008196351518319,11649.380420268513
1683169219687814235,177,1683169219687814235,camera_2,178,0,-0.05075256441169269,0.8749674639867947,4.648890399591502,-0.7171470483352727,0.6911210405262654,-0.06293001278650341,0.06396586508903711,0.006678933452349156,0.0020744066208259197,11649.969802812442
1683169219697057723,178,1683169219697057723,camera_2,179,0,-0.05076722914245712,0.8748779659446976,4.648047061508254,-0.7171579135015566,0.6910463428402989,-0.06316865016455253,0.06441429022763778,0.007161612389609218,0.0022237400557439434,11651.851246981883
1683169219706086874,179,1683169219706086874,camera_2,180,0,-0.05077504355756407,0.8756196335555135,4.652100958018397,-0.7175175365064705,0.6909420109224141,-0.06176601220462171,0.06287035934774704,0.008972299401648343,0.0027896821985499707,11640.945661626754
1683169219715526580,180,1683169219715526580,camera_2,181,0,-0.05078014604942531,0.875228352519543,4.649962718692611,-0.7173140258920327,0.691126974004847,-0.06093851559557959,0.06395773118611063,0.005378476809710264,0.0016703806197975546,11650.998855634363
1683169219724626541,181,1683169219724626541,camera_2,182,0,-0.05076565963776486,0.8751712614069286,4.649895115722063,-0.7172351224098398,0.6911583564098658,-0.06199094800714432,0.06349037652850056,0.0071341817383654416,0.002216163399821756,11649.444766292345
1683169219734287977,182,1683169219734287977,camera_2,183,0,-0.05077826952161602,0.8749894310101702,4.648766987379964,-0.7170830515581482,0.6911695950955128,-0.06278870007450368,0.06429671163063498,0.009019994759000838,0.002801268270354729,11649.909474053416
1683169219743305444,183,1683169219743305444,camera_2,184,0,-0.05077196567327354,0.8752683755511005,4.650257245881297,-0.7171686788208025,0.6913107135579254,-0.061214633965827166,0.06333523527142232,0.006572988699190319,0.0020417377073674793,11650.555160360878
1683169219752773284,184,1683169219752773284,camera_2,185,0,-0.05078774307925406,0.875426946686281,4.651098565211028,-0.717303365391366,0.6911823486259167,-0.06153859725670466,0.06289550058517282,0.004249123798217624,0.0013205146420057839,11646.623493820665
1683169219762287855,185,1683169219762287855,camera_2,186,0,-0.05079933627442653,0.8756220309001973,4.652164432521631,-0.7173882174083657,0.6912801452372234,-0.059341713129084046,0.06296401676637531,0.008525016601197422,0.0026488486566162233,11648.10335748037
1683169219771605730,186,1683169219771605730,camera_2,187,0,-0.05078844804251291,0.8754837329434908,4.65142943523658,-0.7173677996117749,0.6911982038530019,-0.060705187123495194,0.06279620471689239,0.010432650800794363,0.00324179521631889,11647.942751326595
1683169219780784368,187,1683169219780784368,camera_2,188,0,-0.05077821714939791,0.875092588091126,4.649260314324872,-0.7172071810324737,0.6910085154875465,-0.06273854655917838,0.0646913114319966,0.00778669590363279,0.0024187458293873755,11646.390671255996
1683169219790426969,188,1683169219790426969,camera_2,189,0,-0.05076759485605685,0.87469286264892,4.647141643407304,-0.716981332974974,0.6910640362738035,-0.06384369999574324,0.06551524940990537,0.009479274158366024,0.0029427372064355114,11650.736006746301
1683169219799401283,189,1683169219799401283,camera_2,190,0,-0.05074728739694477,0.8752229662710488,4.650055028323533,-0.7174392290177157,0.6909628202780745,-0.06233045833379706,0.0629781519555287,0.00891176238656044,0.0027688166611376463,11649.044716961216
1683169219808806419,190,1683169219808806419,camera_2,191,0,-0.050737711601341995,0.8748630156045607,4.648271274798452,-0.7172411589120482,0.6910526330650855,-0.062390295939709114,0.06417810583735097,0.006143807899206877,0.0019074149112494573,11654.191909335554
1683169219818091630,191,1683169219818091630,camera_2,192,0,-0.050755792752175066,0.874996511846881,4.648841501756381,-0.7171754661632913,0.6910285590342369,-0.06303450068862095,0.06454094092487614,0.010313538718037307,0.0032032864375501806,11648.013566907735
1683169219827451229,192,1683169219827451229,camera_2,193,0,-0.05075716643527263,0.8751462581137147,4.6495862440301075,-0.717257863218462,0.6909600366295556,-0.06261371441835595,0.06476811097218992,0.00657319644233212,0.00204205003714444,11644.971146960512
1683169219836973905,193,1683169219836973905,camera_2,194,0,-0.05076843817962154,0.87520061738757,4.64991924714021,-0.717179172178769,0.6911905144721512,-0.061829085032244074,0.06392864726219714,0.005320811062119901,0.0016528409095792251,11648.466714427335
1683169219846057891,194,1683169219846057891,camera_2,195,0,-0.0507698363519346,0.8751573032030461,4.649637316448326,-0.7173681172967252,0.6911494826099273,-0.06138440468579794,0.06266842774118403,0.012753605842590332,0.003960622824503568,11655.08197325049
1683169219855587482,195,1683169219855587482,camera_2,196,0,-0.05078079435401541,0.8755519055684878,4.651742866083589,-0.7175223197443112,0.6910176700578143,-0.06121603524938012,0.06252117533251207,0.004527716722805053,0.0014073664703802104,11645.573247518623
1683169219865151166,196,1683169219865151166,camera_2,197,0,-0.05070553201788676,0.8748245520834965,4.647846394933324,-0.7172373573566825,0.6908881438685434,-0.0629386901480046,0.06544361814825696,0.006034313351847231,0.001873450523386244,11650.527065394448
1683169219873933315,197,1683169219873933315,camera_2,198,0,-0.050780913706460235,0.8754610494440488,4.651252113778025,-0.7171755006276672,0.6913233274099472,-0.061585371144899356,0.06275826909052656,0.006890661839861423,0.0021415680382841904,11646.095260311384
1683169219883384466,198,1683169219883384466,camera_2,199,0,-0.05075780639754275,0.8752981057191179,4.650568739074816,-0.7173809401406179,0.6911716401037516,-0.0616248731541017,0.06203809835894441,0.008995843818411231,0.0027949510037255745,11651.621297580656
1683169219892673015,199,1683169219892673015,camera_2,200,0,-0.050762126735925735,0.8749709454395174,4.648720817443062,-0.7170869783951125,0.6911160436320015,-0.06282797650989119,0.06478830927173171,0.00649852555943653,0.0020182000153643733,11648.543341654356
1683169219902122020,200,1683169219902122020,camera_2,201,0,-0.050750387904200125,0.8750366229657686,4.649018124818529,-0.7172392766047567,0.6910233674360902,-0.06294040723927238,0.06397679961772479,0.006511227576993406,0.0020224716169294533,11649.171826613596
1683169219911508560,201,1683169219911508560,camera_2,202,0,-0.050788117789375566,0.8754267030254911,4.6511681489727215,-0.717528156413877,0.691077170138922,-0.061197777489586776,0.061810368842270424,0.018200688704382628,0.005655600235567486,11650.584333242383
1683169219920659303,202,1683169219920659303,camera_2,203,0,-0.050809032353340784,0.8756381644818785,4.652049316446613,-0.7174773813175199,0.6911646847110874,-0.0596601670128694,0.06291462769478821,0.007565880485344678,0.00235097164020422,11647.739212188408
1683169219930449247,203,1683169219930449247,camera_2,204,0,-0.05076438807039259,0.8755666227472139,4.6517594388705605,-0.7174472491228466,0.6910744716755277,-0.0611252385161415,0.06284285592487811,0.01445978123228997,0.004494377185733503,11644.772003832968
1683169219939807891,204,1683169219939807891,camera_2,205,0,-0.05076810888303604,0.8749511953942486,4.64870988112108,-0.717248716954223,0.6910839358016857,-0.06272868654547109,0.06342226414006784,0.008314646664075553,0.002582101426081925,11653.12757903105
1683169219948922157,205,1683169219948922157,camera_2,206,0,-0.05073985513660356,0.8752191769798224,4.650126993449892,-0.7172830454542238,0.6911854771876796,-0.06087471262091558,0.06373333658357141,0.005009008455090225,0.0015557103990940608,11651.184493147537
1683169219958439826,206,1683169219958439826,camera_2,207,0,-0.05078635164187813,0.8754188692539748,4.651102485918305,-0.717326653209514,0.6911789278140278,-0.06152287812218876,0.06268251597256634,0.001935100182890892,0.0006013749337963684,11647.334312634543
1683169219967484474,207,1683169219967484474,camera_2,208,0,-0.050740525517928396,0.8752127139867586,4.649918686988428,-0.7172613937664396,0.6911683880879772,-0.06256929442825296,0.06250948499901807,0.011039692384656519,0.003429971273375786,11650.299393576108
1683169219976892471,208,1683169219976892471,camera_2,209,0,-0.05076469630396357,0.8753006452552841,4.650263390470077,-0.7173331298846422,0.6911892852950902,-0.062276358522606955,0.061743079226173475,0.008861770911607891,0.0027535340894840467,11651.748997312274
1683169219986340761,209,1683169219986340761,camera_2,210,0,-0.05074757629325566,0.8750850288013253,4.649288559458574,-0.7171384857129134,0.6910980301205549,-0.06306589939978902,0.06417629940853413,0.0032651444198563695,0.001014366405802177,11646.817048339872
1683169219995501518,210,1683169219995501518,camera_2,211,0,-0.05075647551197643,0.8750069285855161,4.648783474871491,-0.7171054081034238,0.6911184858318112,-0.0625951553301903,0.06478363018198263,0.006320633634459227,0.001962889863873897,11648.970399115238
1683169220004965066,211,1683169220004965066,camera_2,212,0,-0.050750618280222454,0.8749014060049989,4.648498148654941,-0.7172961179733895,0.6908527114660273,-0.06259680442427631,0.0655015288082047,0.01014216907788068,0.00314923948627478,11648.261966965161
1683169220014112234,212,1683169220014112234,camera_2,213,0,-0.05075802630468316,0.8748416969192981,4.648064554889424,-0.7171224126572922,0.6909647825366859,-0.06423299949708461,0.06463154287360395,0.004774656030349433,0.0014830404830096732,11647.627880387936
1683169220023171663,213,1683169220023171663,camera_2,214,0,-0.050745508389676355,0.8749458730874023,4.648489384201078,-0.7172993294237134,0.6909019565038179,-0.062895996509749,0.06465486934897775,0.003126150113530457,0.000970838749575894,11649.882673675893
1683169220032939672,214,1683169220032939672,camera_2,215,0,-0.050759059953771266,0.8750898139527467,4.649178114009083,-0.717248559932744,0.6910418279047279,-0.06289305056493194,0.06371938128336144,0.00972742453450337,0.0030216103471994303,11649.243542367596
1683169220041712522,215,1683169220041712522,camera_2,216,0,-0.050766067571681645,0.8749515104297182,4.64864568573748,-0.717132786603887,0.6911850072846591,-0.061763894255509065,0.0645683626015399,0.008292937185615301,0.002574581993375885,11653.096142483879
1683169220051175832,216,1683169220051175832,camera_2,217,0,-0.05074794583123346,0.8751445373501974,4.649522728518436,-0.7172468575837674,0.691112221301402,-0.06253631723613753,0.06332497043500392,0.005104430834762752,0.0015856808372637268,11649.944732640164
1683169220060847043,217,1683169220060847043,camera_2,218,0,-0.050769965781828845,0.8753965142375911,4.650881461504824,-0.717402757910218,0.6910426277243114,-0.06122772042934389,0.06359666549213451,0.003997608844656497,0.0012421307328680045,11646.60309467046
1683169220069730281,218,1683169220069730281,camera_2,219,0,-0.05076750207831559,0.8751332502741458,4.649561563322743,-0.717271350283296,0.6910166559871733,-0.06283466636705688,0.06379338456001811,0.008340910542756319,0.0025913157912293497,11647.350639658518
1683169220079293012,219,1683169220079293012,camera_2,220,0,-0.050767514422421174,0.8753347039390201,4.650575041171683,-0.7174963591337716,0.6909834389513339,-0.06120695480290591,0.0632026139374409,0.008617077488452196,0.0026770624900579344,11649.381472420413
1683169220088889598,220,1683169220088889598,camera_2,221,0,-0.05075743871805231,0.8748071892777003,4.647778068403383,-0.7171030293589914,0.6909681743713278,-0.06391032351298265,0.06512831825387352,0.009078796138055623,0.0028192627247118304,11648.555464841189
1683169220098025560,221,1683169220098025560,camera_2,222,0,-0.0507827842960009,0.8754265879196499,4.651028593521633,-0.7175471331721525,0.6910029477497517,-0.06154599091434628,0.06207357634251805,0.014174114563502371,0.0044046100066108184,11649.345643650971
1683169220107402563,222,1683169220107402563,camera_2,223,0,-0.05074705105431745,0.8750606142617345,4.649090150056174,-0.7172373092247702,0.6910903952216442,-0.06167937800493858,0.06450086989589272,0.009330435539595783,0.002897214844147888,11651.314259238541
1683169220116638660,223,1683169220116638660,camera_2,224,0,-0.05076823536145749,0.8751017684836887,4.649365056570076,-0.7171639235518478,0.6910347959040847,-0.06308739024915451,0.06455074590638202,0.010916768631432205,0.0033914530074483466,11645.165865368679
1683169220125814437,224,1683169220125814437,camera_2,225,0,-0.05075636998242615,0.8750934330222029,4.649266762681842,-0.717340790789115,0.6909272599955678,-0.06233539480647109,0.06446712200327867,0.006897539889905602,0.0021423397687607426,11648.39904729975
1683169220135370731,225,1683169220135370731,camera_2,226,0,-0.05075601997451529,0.8749116454022721,4.6483506675448,-0.717244391743067,0.6909216466634923,-0.0632998276839744,0.06465982137390605,0.007807190471794457,0.002424571786288227,11649.203911973866
1683169220144528388,226,1683169220144528388,camera_2,227,0,-0.05073392607519606,0.8751247339403956,4.64941408067442,-0.7171898571520263,0.6910815588613505,-0.06200637805725625,0.06480892593032683,0.004480916832108051,0.0013917396245732001,11647.705702252686
1683169220154133558,227,1683169220154133558,camera_2,228,0,-0.05078786161744284,0.875637842167339,4.652107864047172,-0.7176081739099591,0.6909472129675203,-0.06040816690470982,0.06309763071021664,0.004303056630305946,0.0013374499113449096,11644.58337029279
1683169220163521051,228,1683169220163521051,camera_2,229,0,-0.050788032245151465,0.8754066161983638,4.650835633193847,-0.7175153032358742,0.6911580915381053,-0.060338929409051875,0.06189907690349767,0.013297228259034455,0.004130491779437405,11654.667202024724
1683169220172447204,229,1683169220172447204,camera_2,230,0,-0.0507772595125256,0.875654978325296,4.652343540120285,-0.7173649171520594,0.6912441690180424,-0.06115163942203347,0.06188336960745311,0.006056201411411166,0.0018828507458652907,11644.690776027508
1683169220182062625,230,1683169220182062625,camera_2,231,0,-0.050784218921644156,0.8750965702325504,4.649335850987,-0.7170003031301021,0.6912742387657785,-0.06262016102113316,0.06425891038465095,0.009459896828047931,0.0029384395324497372,11647.733392190887
1683169220191294193,231,1683169220191294193,camera_2,232,0,-0.05075024390879936,0.8751364312724274,4.649664901993137,-0.7171521632272725,0.691228738334982,-0.06266428551782753,0.0629983602866995,0.008983661595266312,0.002790951237134104,11649.843799990602
1683169220200600147,232,1683169220200600147,camera_2,233,0,-0.05076844204631173,0.8752458637288508,4.650192048054817,-0.7172558754175886,0.691086232450563,-0.061336827030606327,0.0646654633173886,0.008744842547457665,0.00271633599324317,11646.465667590961
1683169220210051298,233,1683169220210051298,camera_2,234,0,-0.05077352739793142,0.875074753591241,4.649170249493437,-0.7171683242948594,0.6910947908333144,-0.06295365392966366,0.06398767200066627,0.011182613379787654,0.003473649373638148,11648.272087627094
1683169220219219923,234,1683169220219219923,camera_2,235,0,-0.050764225204237845,0.8752944500253033,4.65036600338202,-0.7173047675520353,0.6912102881461176,-0.061154049794350275,0.06294751942556462,0.005177266546525061,0.0016082701676170025,11651.377482848948
1683169220228599786,235,1683169220228599786,camera_2,236,0,-0.050774159659340054,0.875053544529397,4.649108400485213,-0.7174750061117839,0.6909420465525772,-0.06249236960840707,0.06263711081585753,0.013048281660303473,0.00405249948952198,11654.204066037899
1683169220237957477,236,1683169220237957477,camera_2,237,0,-0.05074881436479546,0.8749394331583004,4.648511514749227,-0.7173378334325529,0.6909832387236845,-0.06301696913916575,0.06322545476097569,0.006506460893433541,0.0020206317981635346,11653.729497028511
1683169220247667789,237,1683169220247667789,camera_2,238,0,-0.050783950326647995,0.8755579859343326,4.651699173589411,-0.7173221594537502,0.6912491837480629,-0.060158463113366555,0.063280682993177,0.007576690113637596,0.00235430760538615,11646.853448034493
1683169220257129192,238,1683169220257129192,camera_2,239,0,-0.05074754797595729,0.8749294154073131,4.648432115888573,-0.7174461806059764,0.6909094666632893,-0.062012238355820856,0.06379317442365491,0.008440879639238119,0.0026204852180052697,11655.70993931242
1683169220266341924,239,1683169220266341924,camera_2,240,0,-0.0507611030729573,0.8748635482556971,4.6479706761108055,-0.7171475363472348,0.6911302224776193,-0.06239237208156882,0.06438647835658638,0.008285285031888634,0.0025719688678144752,11654.889284322737
1683169220275179147,240,1683169220275179147,camera_2,241,0,-0.05077666462743759,0.8752737414039706,4.650328725787188,-0.7172735198718195,0.6911580468851228,-0.06151924125347952,0.06351877574567327,0.012201955483760685,0.0037906349192126714,11648.646650607938
1683169220284621000,241,1683169220284621000,camera_2,242,0,-0.05077598902616551,0.8749073618067792,4.648331126144885,-0.7171542714792862,0.6909860485430572,-0.06381978413499861,0.06445980740607464,0.007480115338694304,0.0023233314432883254,11648.157097454181
1683169220293779611,242,1683169220293779611,camera_2,243,0,-0.05076389120562932,0.8753755810689617,4.650925189206911,-0.7172466502439693,0.6911807631593758,-0.062142843061929,0.0629655652591851,0.010755125433206558,0.003342535088015408,11645.354606929464
1683169220303209066,243,1683169220303209066,camera_2,244,0,-0.05076570682587796,0.8752105041172658,4.649973055576789,-0.7173521469386858,0.6909777125929714,-0.06164013143671251,0.06446853634687262,0.008319840242620558,0.0025843243852306875,11647.166159677789
