%time,field.header.seq,field.header.stamp,field.header.frame_id,field.image_seq,field.transforms0.fiducial_id,field.transforms0.transform.translation.x,field.transforms0.transform.translation.y,field.transforms0.transform.translation.z,field.transforms0.transform.rotation.x,field.transforms0.transform.rotation.y,field.transforms0.transform.rotation.z,field.transforms0.transform.rotation.w,field.transforms0.image_error,field.transforms0.object_error,field.transforms0.fiducial_area
1684375746295489549,17,1684375746295489549,camera_2,18,0,-0.48185400994572236,-1.9680724597464958,6.643145100157497,0.9872561573333182,-0.03531395334877145,-0.02267894763158364,-0.15350527626324503,0.015389061998575926,0.0103119919289578,5267.730596085311
1684375746302236318,18,1684375746302236318,camera_2,19,0,-0.4821920672787804,-1.9692285460904801,6.646452736733502,0.9887387177235476,-0.03695515337598685,0.032954120750611084,0.1412235484574245,0.002911834162659943,0.0019508620266046157,5271.495600987691
1684375746308825254,19,1684375746308825254,camera_2,20,0,-0.48268888251973474,-1.9719106460260987,6.654436361533652,0.9889886428332754,-0.036692285710659245,0.03376267846480122,0.13933851606431719,0.011936921684537083,0.008012242925934679,5264.077030451271
1684375746315410852,20,1684375746315410852,camera_2,21,0,-0.4823206586320394,-1.9706883120248289,6.649265668315173,0.9884391062062811,-0.03630209520561572,0.033467776526542016,0.14335340644777197,0.0038690955843776464,0.002595517887784107,5259.282612731446
1684375746322082519,21,1684375746322082519,camera_2,22,0,-0.4822697378117977,-1.9712640421168919,6.649437203107528,0.9886021782503036,-0.036803130628903856,0.03292803771739631,0.14222168282912742,0.00774253235431388,0.005193764913158714,5262.555078163627
1684375746328675985,22,1684375746328675985,camera_2,23,0,-0.48167622096440743,-1.9707890985212753,6.643505994138979,0.9883346998857263,-0.0364651208917298,0.03312977150267613,0.14410841127541227,0.007043460151180625,0.0047189051555658,5264.525853387312
1684375746335359573,23,1684375746335359573,camera_2,24,0,-0.4818077381118879,-1.9727864891686764,6.647200615523175,0.9888100968153705,-0.03668425091506476,0.03249598766385492,0.1409002092139293,0.01632464153226465,0.010944344454093988,5268.652848393887
1684375746342001676,24,1684375746342001676,camera_2,25,0,-0.48140159069593635,-1.9723950204780847,6.643012170465542,0.9884861299103711,-0.03666263204064576,0.031324547880600934,0.14342173854316873,0.02107338421046734,0.014122872902982418,5267.100721221415
1684375746348895311,25,1684375746348895311,camera_2,26,0,-0.4818871272115005,-1.9775454960122043,6.652653582174374,0.9891519186062627,-0.0364866107201138,0.03335584975037794,0.1383278585214793,0.015861818508710712,0.01064791648267816,5264.854746494908
1684375746355321168,26,1684375746355321168,camera_2,27,0,-0.48130490858324737,-1.9767727990899941,6.645681199377421,0.9887545140571051,-0.03645374881374938,0.03334517055808438,0.14115146024598751,0.0047157538938336074,0.0031614644492550586,5265.743689095834
1684375746362140417,27,1684375746362140417,camera_2,28,0,-0.4815194023427309,-1.979537862981076,6.651289294536216,0.9875772386359752,-0.03516355434999463,-0.025763875909271657,-0.15096670120178377,0.010089785035233945,0.006774495974076805,5256.882214248531
1684375746368828058,28,1684375746368828058,camera_2,29,0,-0.480605566317097,-1.9804184100912192,6.642819334518906,0.9887204718413913,-0.03676588385351039,0.03243738537939319,0.14152001404732648,0.005577156669460237,0.0037388949316472203,5265.546578931505
1684375746375335454,29,1684375746375335454,camera_2,30,0,-0.48069913929888614,-1.9830352482601703,6.646501266419702,0.98879968783881,-0.036708222413990826,0.03266034207311769,0.14092900976287254,0.009386380144860595,0.006299579809004691,5260.103048122024
1684375746382375001,30,1684375746382375001,camera_2,31,0,-0.4803130666365324,-1.9840325507459764,6.643855638693454,0.9886877443092662,-0.03673867979986957,0.03369071195849652,0.14146289120100544,0.012186995707452297,0.008173333113777591,5260.298164469188
1684375746388899803,31,1684375746388899803,camera_2,32,0,-0.4802155160952897,-1.98834830838176,6.646434677805747,0.989021658553558,-0.03643428458286274,0.03493067682484358,0.13888322301654293,0.00368925352813676,0.002475344467437346,5260.409025139643
1684375746395651578,32,1684375746395651578,camera_2,33,0,-0.479631647606172,-1.9889269868752915,6.6415107107622955,0.9892068284694184,-0.036591198998461694,0.03188657769167502,0.13825404452833295,0.010465737024787813,0.007017256703553448,5270.251820805717
1684375746402197599,33,1684375746402197599,camera_2,34,0,-0.47980532546155535,-1.9922827013579432,6.646865546463398,0.9891300517784131,-0.03705401847765892,0.033372157606245505,0.13832945991434756,0.0082371347816661,0.005531246119781139,5258.997315843591
1684375746408913850,34,1684375746408913850,camera_2,35,0,-0.47892793813350193,-1.9943013417235318,6.640063573978897,0.9886833520621623,-0.036590327610417944,0.031014202147947176,0.14214252194756835,0.010031324112787843,0.006735062210951487,5255.112668806454
1684375746415509462,35,1684375746415509462,camera_2,36,0,-0.4787578209026173,-1.9964974190807894,6.640709614759467,0.9888621358877187,-0.03632094787997583,0.03424723560997573,0.14021266635277374,0.009001559694297612,0.006039403280741135,5256.489176321193
1684375746422153949,36,1684375746422153949,camera_2,37,0,-0.478657134630432,-1.999148536396991,6.642910789861114,0.9869931244320381,-0.03522921754070212,-0.023834330463891596,-0.15503354232775374,0.02107374119805172,0.014161679864514616,5247.141145781963
1684375746428950071,37,1684375746428950071,camera_2,38,0,-0.4781604640730272,-2.002630532792722,6.640109683570742,0.9889342571052508,-0.03663725513201467,0.031483800906299535,0.14026944407307584,0.0030738782370463014,0.0020650393414006693,5252.967471610053
1684375746435570001,38,1684375746435570001,camera_2,39,0,-0.4782651718439285,-2.0063716419247855,6.645454981378613,0.9891646679202654,-0.036437250202328866,0.03454880091933362,0.13795639488954609,0.015001695835962892,0.01008503028537448,5247.9909638518
1684375746442018985,39,1684375746442018985,camera_2,40,0,-0.47791811223388925,-2.007514074158847,6.64291747911879,0.9890963153329604,-0.03645787060624414,0.033590963025331724,0.13867570035392035,0.006276913220062852,0.0042191333666390905,5248.51212207519
1684375746448668003,40,1684375746448668003,camera_2,41,0,-0.47746609820428,-2.011193160635436,6.641631972155939,0.9893710844539151,-0.03581601286883027,0.0357558854040027,0.13632163118023483,0.005168151066754945,0.003471215599391472,5252.668889415681
1684375746455376148,41,1684375746455376148,camera_2,42,0,-0.4766311557618814,-2.010662206822194,6.633459018993873,0.9886089059069124,-0.03670759048324966,0.032715416530625645,0.14224867480465136,0.016848933781147934,0.011312546895850312,5246.594242790192
1684375746462065458,42,1684375746462065458,camera_2,43,0,-0.47691265065763244,-2.0143641134429067,6.63900001413282,0.9891687377159292,-0.0361711148779916,0.03562825045184455,0.13772249832071412,0.003365395969012752,0.002260442025040817,5248.631167396321
1684375746468834638,43,1684375746468834638,camera_2,44,0,-0.4763767894032958,-2.017354422326454,6.636565771611261,0.9893491884828484,-0.03637739021609916,0.031766876432031015,0.13731618364616557,0.013552588192396797,0.009107589239896633,5252.5875207174095
1684375746475320816,44,1684375746475320816,camera_2,45,0,-0.47594569381574287,-2.017654584562118,6.632467485308457,0.9888819285919817,-0.03651186806409901,0.030810048748823985,0.1408195856078544,0.010032375590526499,0.006741597074154275,5246.79821447743
1684375746481972694,45,1684375746481972694,camera_2,46,0,-0.4758245158396151,-2.019835904547693,6.634112845458705,0.988920023598095,-0.03697261792515708,0.03322503154738273,0.13987962585444352,0.016653143044095486,0.011189643379183364,5244.151901531731
1684375746488683938,46,1684375746488683938,camera_2,47,0,-0.4751673944594821,-2.0210770026969347,6.628475447903802,0.9888831592666256,-0.03607957115708017,0.033509326285786276,0.1403049782290402,0.008400581718888134,0.005637691264704975,5248.583465536418
1684375746495482683,47,1684375746495482683,camera_2,48,0,-0.4745950387547298,-2.0206345468440534,6.622151703192515,0.9884074800660276,-0.03641394636181794,0.03159175619993792,0.14396749216433352,0.011352809800882824,0.00761546412133324,5246.130183326198
1684375746502326488,48,1684375746502326488,camera_2,49,0,-0.4757421907215875,-2.027403277554903,6.640155179028978,0.989611779260415,-0.036235084082516016,0.03403104935176927,0.1348978602891321,0.018080198336974718,0.012165858660014009,5244.334626027905
1684375746508711099,49,1684375746508711099,camera_2,50,0,-0.4752659647031245,-2.0284197642275665,6.635923531700826,0.989504101051494,-0.036396612695721184,0.033633050106893436,0.13574143997711063,0.012243877979926765,0.008232920549546477,5246.313485078398
1684375746515478372,50,1684375746515478372,camera_2,51,0,-0.47490731744892034,-2.0279388681509243,6.631582391592563,0.9889610498894779,-0.03717822694564205,0.031300166144752124,0.1399790014323253,0.022020855074515566,0.014809772255158055,5240.103050211037
1684375746522181987,51,1684375746522181987,camera_2,52,0,-0.4746783471958306,-2.028308246057885,6.629772167780999,0.9890235064507984,-0.03663355873522488,0.031266148762890085,0.13968863233526696,0.016773655719589442,0.011275890046997151,5243.017122819729
1684375746528800964,52,1684375746528800964,camera_2,53,0,-0.4742468009351427,-2.028261454245081,6.625466667393047,0.9890731154037538,-0.03610836672960302,0.031223411408520176,0.13948353600926416,0.011170346013386734,0.00750090258208805,5249.2330543457065
1684375746535777330,53,1684375746535777330,camera_2,54,0,-0.4740781985775301,-2.0282575836780494,6.624203125159147,0.9887810745100324,-0.03640438034445396,0.02980890278077381,0.1417678986848874,0.017642012564465404,0.011852096893850946,5244.166242551233
1684375746542159080,54,1684375746542159080,camera_2,55,0,-0.474057184712391,-2.0285983412026876,6.62394842234634,0.9890956104774362,-0.03612441478371275,0.033002462899163976,0.1389090977344233,0.02326009134412743,0.015604837751965507,5251.627725198692
1684375746549023389,55,1684375746549023389,camera_2,56,0,-0.47468084834408775,-2.0313325857963878,6.6320844018666225,0.9894448721039893,-0.03628941370289248,0.033956800468360686,0.13612075235676827,0.01590900770679582,0.01069128201959191,5246.852013740048
1684375746555419206,56,1684375746555419206,camera_2,57,0,-0.47455278187195293,-2.0309550586267036,6.631144061856344,0.9892189404311271,-0.03605843276868402,0.030998012341754116,0.13850920745367412,0.016874139677383937,0.011349672798004305,5242.606250857001
1684375746562051057,57,1684375746562051057,camera_2,58,0,-0.47467351217111964,-2.0309956668698472,6.631763013427308,0.9893623919888845,-0.03650485454492567,0.033859152946457104,0.1366858100697915,0.01660778974473942,0.011160760558643956,5245.861881592659
1684375746568927764,58,1684375746568927764,camera_2,59,0,-0.47409373124766513,-2.02715219551474,6.622178447068791,0.9887693417136719,-0.03596560288043275,0.031043045378203817,0.14169683705081731,0.010167725005885586,0.006824339392512379,5247.3839363022125
1684375746575450658,59,1684375746575450658,camera_2,60,0,-0.47447948017737934,-2.028189694681119,6.62711760750887,0.9891100247892783,-0.03604725033021893,0.03349162814269825,0.13870928393346665,0.010714346790337004,0.007192558358413947,5248.356481217777
1684375746582187891,60,1684375746582187891,camera_2,61,0,-0.4750018921144688,-2.0292042032751394,6.632785408532098,0.9894673934093363,-0.03660005973354374,0.031502702149383256,0.13646352173574422,0.011237767481361516,0.0075556819877654665,5248.527501829083
1684375746589111804,61,1684375746589111804,camera_2,62,0,-0.4749815977944008,-2.0266556069382666,6.6301728989142,0.9889647012253223,-0.03696601523532089,0.03232244646988928,0.13977693980815328,0.008255799359176308,0.005547848677646294,5243.24940728024
1684375746595509529,62,1684375746595509529,camera_2,63,0,-0.47512303647612014,-2.0257286799012904,6.630884683012719,0.9888760840380103,-0.037543126537610265,0.03206083443512478,0.14030932600064208,0.010630733100697398,0.007145252914239688,5241.678004652846
1684375746602461099,63,1684375746602461099,camera_2,64,0,-0.47507283889492447,-2.0239713392723284,6.628912143633701,0.9887840427807068,-0.03654643475257741,0.03232667531776035,0.1411575747596182,0.018226234038593248,0.012243076200215842,5243.0412207032205
1684375746608860254,64,1684375746608860254,camera_2,65,0,-0.4749447002089203,-2.0195782702972136,6.623441919436978,0.9883192672929542,-0.03631695864756233,0.03264343505238331,0.14436242779923827,0.016080373112345114,0.01078675330408111,5243.588722552293
1684375746615439891,65,1684375746615439891,camera_2,66,0,-0.47520340660731497,-2.0185029270548522,6.6243070773747075,0.9883314054875918,-0.036029654253249346,0.03277061455324796,0.14432249915766876,0.012170208981842734,0.008164310811434506,5243.612479723115
1684375746622177362,66,1684375746622177362,camera_2,67,0,-0.4756224169265985,-2.0179320450553986,6.628022675437751,0.9884536205332567,-0.03674603769096644,0.03234471695170349,0.14339800575330486,0.008488296254654415,0.005698635447745208,5242.780866207325
1684375746629099369,67,1684375746629099369,camera_2,68,0,-0.4764603139853655,-2.016769043449958,6.634828795641839,0.9889575685284329,-0.03712682505698213,0.031978254259793504,0.1398639258923277,0.021911714182351716,0.014723579659323251,5247.042338939791
1684375746635611534,68,1684375746635611534,camera_2,69,0,-0.47666215215314545,-2.0147537175823533,6.634461022571393,0.9888352655584026,-0.036848586533110496,0.032773708760116115,0.14061608468686146,0.005018103009206243,0.0033707392798420477,5246.586575500318
1684375746642160177,69,1684375746642160177,camera_2,70,0,-0.476659499805771,-2.012445298198263,6.6326165022307855,0.9888274410861994,-0.03654597875379512,0.03506901800927931,0.14019574589733805,0.005869105356396176,0.003936871466303125,5251.103156303405
1684375746648893833,70,1684375746648893833,camera_2,71,0,-0.4765368045773023,-2.006477182770837,6.6258839778527046,0.9882262654031314,-0.036757322197215135,0.03165023514367531,0.14510689248833045,0.019036516430787742,0.01276022896160544,5251.520012302093
1684375746655577659,71,1684375746655577659,camera_2,72,0,-0.47734991815498823,-2.006861769691987,6.633808800487497,0.9886763313035439,-0.03607555652288335,0.03390504494348684,0.14166197114649115,0.00960603311250452,0.006444645523969501,5250.96828966576
1684375746662363529,72,1684375746662363529,camera_2,73,0,-0.47757601425106894,-2.004796665235726,6.634097259608193,0.9885609911068036,-0.037182369486192655,0.03258517267608221,0.14248805136921608,0.012342662899754941,0.008282448441773142,5250.719445060706
1684375746668789863,73,1684375746668789863,camera_2,74,0,-0.4783945353395376,-2.002052360183833,6.6387977169161845,0.9887157219178536,-0.036911408974132455,0.03411043861144436,0.14112139135417026,0.002848612319212407,0.0019120445946170489,5250.771493851324
1684375746675288677,74,1684375746675288677,camera_2,75,0,-0.4782012182546659,-1.9988145279709861,6.635515198006241,0.9865605642718257,-0.035125788602426655,-0.02348934119557004,-0.15783752040916282,0.031169115100055933,0.020917987215461724,5248.808411353269
1684375746682173728,75,1684375746682173728,camera_2,76,0,-0.4784341686943495,-1.9969522307279333,6.636478246848611,0.9870583039191354,-0.03433158983519895,-0.024632958210620157,-0.1546947444920521,0.02456325851380825,0.016471021675682384,5258.022612287896
1684375746688941717,76,1684375746688941717,camera_2,77,0,-0.4793357701043093,-1.9946267758350826,6.641523118804708,0.9887312494591379,-0.03681946468850732,0.03279032688526323,0.14134934674692207,0.01304458302911371,0.008756472126580638,5254.392644078936
1684375746695509433,77,1684375746695509433,camera_2,78,0,-0.479318449606087,-1.9915601409804269,6.638742785059789,0.9885056136205279,-0.036728393181274875,0.03482467055320816,0.14246023759591872,0.0061664755921810865,0.0041338466115677765,5255.961907501101
1684375746702063560,78,1684375746702063560,camera_2,79,0,-0.4793777358212666,-1.9891001334933134,6.636822043998851,0.9883221382537657,-0.03700040086525665,0.0319518602214813,0.1443239411937664,0.010919550666585565,0.007321898852388426,5256.459267875062
1684375746708765983,79,1684375746708765983,camera_2,80,0,-0.4801155954864043,-1.986633116283329,6.641670705315857,0.9886837241178063,-0.036094905754052616,0.03359960879682584,0.14167821897473185,0.006674971780739725,0.004476061551503704,5260.070099387784
1684375746715300321,80,1684375746715300321,camera_2,81,0,-0.4801378279075378,-1.9844360113901007,6.640176496716551,0.988439651516949,-0.037018861802405746,0.03223573824466681,0.14344865408824203,0.010535722016356885,0.0070647608553513356,5259.129957188619
1684375746722028493,81,1684375746722028493,camera_2,82,0,-0.48048772187412003,-1.9832444740997754,6.6425318811218546,0.9885313691767665,-0.036892406069019244,0.03254053773369719,0.14277883572836597,0.018803027633111924,0.012611502549819577,5259.1544289456215
1684375746728673696,82,1684375746728673696,camera_2,83,0,-0.4813057178048573,-1.9816310585075645,6.64837458367034,0.9889302224918037,-0.0371428958928742,0.0337868532341348,0.1396276078558171,0.006093945645261556,0.004088930759245056,5262.3581183225615
1684375746735488653,83,1684375746735488653,camera_2,84,0,-0.4815106366953796,-1.9802303050306254,6.6491341704998534,0.9885545030693369,-0.037246223993479,0.03157294873104925,0.14274404424700374,0.008436021686065942,0.005667122718934879,5253.989726363797
1684375746742215394,84,1684375746742215394,camera_2,85,0,-0.4816804164447081,-1.9791256749431303,6.650175435839327,0.9887861083980167,-0.037079131879528014,0.03280499576581568,0.14089358420798054,0.008505565929226577,0.005710765772839203,5258.855122978567
1684375746748942136,85,1684375746748942136,camera_2,86,0,-0.4815098572359859,-1.9745370754435174,6.643314838532868,0.9887266081392587,-0.03620326306235754,0.031712388314277584,0.14178625648658283,0.007556790020316839,0.005064135666470948,5269.814747239461
1684375746755536317,86,1684375746755536317,camera_2,87,0,-0.4817607303172175,-1.974127881151902,6.645897692661161,0.9888091012327027,-0.03666869046111526,0.03111481409247118,0.14122264975290857,0.017835457110777497,0.011959569835409169,5268.955741372776
1684375746762145519,87,1684375746762145519,camera_2,88,0,-0.4817076070207456,-1.9726083004399675,6.644575794995143,0.9885344644140305,-0.03674029767127477,0.030413171007475356,0.1432647975671704,0.018152030766941607,0.012172628399005176,5265.874950905678
1684375746768754243,88,1684375746768754243,camera_2,89,0,-0.4823880397481986,-1.9728632575032785,6.651186897496363,0.9889997576357552,-0.03678280676872411,0.031792562680732675,0.13969873829360066,0.009984150412492454,0.00670005106486531,5267.587361057058
1684375746775338649,89,1684375746775338649,camera_2,90,0,-0.48208368211267516,-1.9706671340490614,6.646365080610453,0.988451562637351,-0.03671790215171574,0.031002356558460675,0.14371554498097333,0.0050650909543037415,0.003397391144288217,5263.454657444032
1684375746782295465,90,1684375746782295465,camera_2,91,0,-0.48221210387193447,-1.970577846479215,6.647660701756793,0.988497734198426,-0.036988460532712264,0.033610419475099136,0.14273900299044381,0.011525369249284267,0.007726520427971126,5263.382277440745
1684375746789160728,91,1684375746789160728,camera_2,92,0,-0.5024289698009864,-2.05253417900351,6.926759953615945,0.9991890692365398,-0.03663773374363919,0.015905417341951847,0.005089015968312712,2.3471197506878525,1.6401066538926914,5266.605636416818
1684375746795535087,92,1684375746795535087,camera_2,93,0,-0.48233549637672024,-1.9699007694242938,6.648656981365917,0.9885508405566802,-0.03687215933506975,0.03382208726025484,0.14235078473268045,0.010123096348252147,0.006786850277571544,5263.799285695424
1684375746802289247,93,1684375746802289247,camera_2,94,0,-0.48250134667581,-1.9705446846795618,6.650875660084159,0.988776742641946,-0.03659570033743472,0.030737833309525165,0.14155032154902178,0.008916461025364697,0.005985237930319957,5264.805047755708
1684375746808851718,94,1684375746808851718,camera_2,95,0,-0.48234686188793485,-1.9705128501643123,6.6496649776068075,0.9887967522677782,-0.0365264337501003,0.03325056762362136,0.14085880197879244,0.005774409743025899,0.0038720855809735335,5267.105859455535
1684375746815506219,95,1684375746815506219,camera_2,96,0,-0.4817847465645005,-1.9686114368753957,6.642278682098188,0.9883467555115283,-0.03649257646242621,0.03233171991188987,0.1442000090863671,0.009389422717504203,0.006288147475546451,5268.316493895952
1684375746822220802,96,1684375746822220802,camera_2,97,0,-0.48223594248131485,-1.9712811822656773,6.649610827802134,0.9887012805601977,-0.036708561980441846,0.033909876561284365,0.14132366952337402,0.010975644341669977,0.007359836615338442,5264.582835829235
1684375746828790426,97,1684375746828790426,camera_2,98,0,-0.4821741082996329,-1.972836649163371,6.650421751133133,0.9890720982744055,-0.03644081714460291,0.036083137129459715,0.13822611358131642,0.007274699455592781,0.004874791328831785,5270.511909345398
1684375746835314512,98,1684375746835314512,camera_2,99,0,-0.48189598949161655,-1.972783854497187,6.647339007041445,0.9888005682219314,-0.03634132567377711,0.03450343647679374,0.14057829563467367,0.0019665355794131756,0.0013178239079946427,5268.232212640114
1684375746842188358,99,1684375746842188358,camera_2,100,0,-0.4817523058589812,-1.9737337304584956,6.647546031068628,0.9887118768942754,-0.036247313108929834,0.03224940257552452,0.1417565970743654,0.007048747502267361,0.004727872688491022,5264.768318500838
1684375746848925352,100,1684375746848925352,camera_2,101,0,-0.4820570425487624,-1.9783523583247737,6.655200160736117,0.9894209355955634,-0.03596483860773323,0.03447292664120973,0.13625109143749867,0.015445680997800082,0.010369858722709985,5266.563849546482
1684375746855601072,101,1684375746855601072,camera_2,102,0,-0.48167386450280636,-1.9784100725745155,6.651098768530934,0.9890013651518825,-0.03671597999960713,0.0336347862173786,0.13927288930905624,0.00990223151165992,0.006646125454632471,5262.970712666866
1684375746862456083,102,1684375746862456083,camera_2,103,0,-0.4813226120987577,-1.9790795250591777,6.648476880492941,0.9887568903225101,-0.03644704501482686,0.03566628420721812,0.14056792279996472,0.005840916535817087,0.003917255752560119,5260.310922859122
1684375746868782281,103,1684375746868782281,camera_2,104,0,-0.4804503298876842,-1.9795782107790016,6.639933519430035,0.9884181515081035,-0.035888310113040084,0.03232590740566773,0.14386320821160065,0.002018838480580598,0.0013530237206855254,5262.551386024104
1684375746875436544,104,1684375746875436544,camera_2,105,0,-0.4806952795119682,-1.983050348135832,6.64628564034906,0.9890362704920461,-0.03636899793261633,0.033068652785611836,0.13925162779481648,0.0038819477194920182,0.0026040929696600807,5265.5052816141415
1684375746882170915,105,1684375746882170915,camera_2,106,0,-0.4806087254460329,-1.985102382193855,6.647303107735865,0.9890605271482126,-0.03690474877229461,0.03374286242540663,0.13877583503871993,0.0150880545261316,0.01012357694083676,5263.376383799826
1684375746888795852,106,1684375746888795852,camera_2,107,0,-0.47979759601915617,-1.9866816308989539,6.640611771589579,0.9887119071716113,-0.03614453866976849,0.03135588836829149,0.1419829046260849,0.008750402892474085,0.00586958545264444,5261.848833775497
1684375746895368337,107,1684375746895368337,camera_2,108,0,-0.47993436775093223,-1.9900902222012935,6.645309182844921,0.988831086622467,-0.035910683670322414,0.032694003416233366,0.14090637695995442,0.007386428827885538,0.004960314587531633,5255.231887630536
1684375746902083873,108,1684375746902083873,camera_2,109,0,-0.4794488617084312,-1.990640101505968,6.641698281796047,0.9871762577479786,-0.03513494560470462,-0.02258534418772737,-0.15407295013717695,0.008458107768092304,0.00567782295875224,5257.112667503304
1684375746908972263,109,1684375746908972263,camera_2,110,0,-0.4786790647628759,-1.993648177382912,6.637179396660392,0.9886068172489829,-0.035874556036928795,0.03439780625942753,0.14207873888280462,0.008923028188291937,0.005981279531719081,5257.596677331254
1684375746915575742,110,1684375746915575742,camera_2,111,0,-0.47862033202305326,-1.9959468003845788,6.638505264443986,0.9887194346836854,-0.0365839412228458,0.03337654896381898,0.14135593621296189,0.006681709783151746,0.004482004517878883,5256.714293832425
1684375746922085046,111,1684375746922085046,camera_2,112,0,-0.4785928145644489,-1.9991720117395773,6.642048163177366,0.9889143497076008,-0.036424022337054655,0.032305690731085794,0.14027844412300153,0.012457817909307778,0.008367894891403242,5253.25024856918
1684375746928925991,112,1684375746928925991,camera_2,113,0,-0.47835042832074914,-2.0035719306794624,6.643006457506762,0.9891139529232874,-0.0366297421527098,0.032155599312202944,0.1388447606327575,0.00439364236081019,0.002952906867666819,5252.489347212715
1684375746935609579,113,1684375746935609579,camera_2,114,0,-0.477993361371366,-2.0053238120828567,6.641902781111249,0.988897208004241,-0.036178340312700494,0.03431231696081742,0.13998608716017494,0.012278938433155417,0.008249786228558905,5247.261314822711
1684375746942146539,114,1684375746942146539,camera_2,115,0,-0.47812244907571333,-2.008483621657392,6.6458884779773335,0.9892664312323394,-0.036170379928940115,0.03347115510235185,0.13756203483789312,0.0071601831587031475,0.004816303839674402,5247.367121403689
1684375746948700666,115,1684375746948700666,camera_2,116,0,-0.4771770751642146,-2.010419165402939,6.638769161309679,0.9890991412414137,-0.03652440351283002,0.033489088719289184,0.13866267587307513,0.016162535597686656,0.010856362166536926,5251.15556370467
1684375746955427885,116,1684375746955427885,camera_2,117,0,-0.47714327220910396,-2.0130386393941815,6.640894725084985,0.9891107859095825,-0.03656547222791841,0.03321206324460922,0.13863541500321414,0.011422380863223225,0.007679794104603209,5246.151008583604
1684375746962119340,117,1684375746962119340,camera_2,118,0,-0.4769076579449708,-2.014671955689022,6.639971691930213,0.9890428929722219,-0.036650802822833575,0.034138501518299384,0.13887201743931302,0.010518509632674977,0.007070732404772874,5244.398987544815
1684375746968737602,118,1684375746968737602,camera_2,119,0,-0.4763513275587791,-2.0173247898269624,6.636279815079502,0.9891120041593214,-0.036664121505813586,0.03181138258006514,0.1389288355975184,0.008845448915963061,0.0059458336822676506,5247.776778282712
1684375746975307941,119,1684375746975307941,camera_2,120,0,-0.4760573100919083,-2.018379265247298,6.634696649365464,0.9887928406030358,-0.035892072836418515,0.03142263427654903,0.14146764836812262,0.023514727217843756,0.01581226529168826,5240.766918142908
1684375746982007265,120,1684375746982007265,camera_2,121,0,-0.4755654762423271,-2.0185759963907524,6.62984204000524,0.9886177070623614,-0.036656560348846755,0.0333831940843891,0.14204537380314233,0.006815901171648875,0.004576039459069508,5243.667605962952
1684375746988989353,121,1684375746988989353,camera_2,122,0,-0.47506399323597814,-2.020912207779521,6.62742521388193,0.9888912557022645,-0.03598480514457751,0.03374189209773965,0.14021648587798055,0.012826765785575844,0.008604988842668615,5250.225077469832
1684375746995505094,122,1684375746995505094,camera_2,123,0,-0.4750960013174349,-2.022998630361503,6.6295393838044125,0.9887914013082351,-0.03623440865905028,0.03386452833412772,0.14082551632688253,0.01129117091477383,0.007581870526474228,5243.356566465461
1684375747002174139,123,1684375747002174139,camera_2,124,0,-0.475326074565546,-2.025565224372848,6.633988496349833,0.9891848988231304,-0.03602095247261079,0.03481030564422021,0.13785488581909375,0.013612985523650423,0.009147029806212285,5244.1451341859065
1684375747008942842,124,1684375747008942842,camera_2,125,0,-0.4748893332830116,-2.02674265704905,6.630576843434008,0.989015670112654,-0.0371497102720241,0.03139418756502868,0.13957903956344736,0.00839235344028566,0.0056411795237456585,5243.870296890031
1684375747015490770,125,1684375747015490770,camera_2,126,0,-0.475149333288619,-2.029223026377103,6.6355912032305415,0.9892094680030346,-0.037124635044393194,0.03220222904884085,0.13801958676311152,0.009298062039306387,0.006257021598182437,5239.547438893467
1684375747022153377,126,1684375747022153377,camera_2,127,0,-0.47482739703223287,-2.029114745377673,6.632368879747796,0.9893544337813468,-0.03625423160865523,0.031095469454570108,0.1374645657144296,0.014056623054784723,0.009452965770358202,5246.193623190917
1684375747028942108,127,1684375747028942108,camera_2,128,0,-0.47440381832252665,-2.0290391380004817,6.628003426917594,0.9889695566458205,-0.03611906945481272,0.032958791730525294,0.1398154029324077,0.01252416022180114,0.008413363031048247,5243.115468893899
1684375747035373210,128,1684375747035373210,camera_2,129,0,-0.47472703864924026,-2.030905282529645,6.632639371581785,0.9894081094644571,-0.03575975801499384,0.03339573735386505,0.13666586025511132,0.01305242272792384,0.00877461630171001,5245.218745686347
1684375747042033433,129,1684375747042033433,camera_2,130,0,-0.4739897971289961,-2.027754460085082,6.6214353564599975,0.9890151302020952,-0.035660140300103484,0.03298900564195945,0.13960355343566544,0.004355171884526499,0.002920150060132402,5253.453608517767
1684375747048834323,130,1684375747048834323,camera_2,131,0,-0.47419808934704494,-2.0294709680957967,6.626225793429003,0.9891934316336116,-0.036459246915203795,0.03160596190612581,0.13844905669337074,0.016823193480377086,0.011296812191424846,5250.1847518451395
1684375747055511713,131,1684375747055511713,camera_2,132,0,-0.47405136829960504,-2.0285037972522173,6.623213401861245,0.9891418352831756,-0.03604591454538313,0.031083299351803345,0.13904297982503336,0.01416978363704402,0.009508979593752666,5253.3817276586815
1684375747062102556,132,1684375747062102556,camera_2,133,0,-0.47453729554470514,-2.030314501146081,6.629794749082169,0.989047076419411,-0.03702803245798239,0.03046654049963542,0.1395943958348279,0.015113328088773414,0.010164310596402623,5241.699750746716
1684375747068900585,133,1684375747068900585,camera_2,134,0,-0.4741859030825222,-2.027725614625423,6.623873481943435,0.9888860272595802,-0.03628403836652359,0.032065767647987596,0.14056912959724402,0.015744430202175863,0.010567276854117895,5247.754728822678
1684375747075576305,134,1684375747075576305,camera_2,135,0,-0.4740561531197509,-2.02621202403838,6.620859114529293,0.9889633708915712,-0.03607264491330772,0.033208233586933894,0.1398121187371645,0.011901018689968623,0.007976336292982729,5254.929201775813
1684375747082175254,135,1684375747082175254,camera_2,136,0,-0.4745470292166013,-2.0273583790788527,6.626980546050376,0.9890121659596983,-0.03669379268989422,0.03100002676027589,0.13981237249471032,0.01983553009631578,0.013323949750521489,5247.2652267293315
1684375747088868379,136,1684375747088868379,camera_2,137,0,-0.47533601131778597,-2.0283615117802833,6.635905082167693,0.9893644749132235,-0.03678267833580647,0.03245057053783255,0.1369376895741101,0.012218743344419636,0.008219931940903237,5243.316959545132
1684375747095487833,137,1684375747095487833,camera_2,138,0,-0.4753662684776462,-2.026660835085388,6.634196603132222,0.9891989068840753,-0.03647634499380025,0.031924209359382665,0.13833236689951472,0.019806796655757353,0.013321330879273532,5243.028331350011
1684375747102113008,138,1684375747102113008,camera_2,139,0,-0.47522488526389645,-2.0245013786591866,6.630719028831465,0.989000484971878,-0.036380434339830826,0.03397028211920783,0.13928576616214927,0.01758442004211247,0.011809342251804978,5245.278329479102
1684375747108701467,139,1684375747108701467,camera_2,140,0,-0.4755939116691609,-2.022292937300718,6.632490429790044,0.9891113023781247,-0.03612943630579855,0.03463025592266532,0.13839884650822012,0.01868699281476438,0.012547602303537641,5247.673359375214
1684375747115436553,140,1684375747115436553,camera_2,141,0,-0.475519521274489,-2.019663065915564,6.62845693209798,0.9886402735997835,-0.036791276468931794,0.03163315294566239,0.14225384011353864,0.013427258789306507,0.009016766566852477,5244.71167802485
1684375747121994495,141,1684375747121994495,camera_2,142,0,-0.4762520245250507,-2.020257606207261,6.635891455940164,0.989091631212602,-0.036412770110441715,0.02999518228833106,0.13954262530699368,0.014401360778720116,0.009688547974075673,5244.4489067748655
1684375747128662109,142,1684375747128662109,camera_2,143,0,-0.4765767287308817,-2.0169889331534234,6.636001333222368,0.9890225377238859,-0.03708903990845361,0.031056664447602966,0.1396220132581641,0.014283537631854415,0.00960279828301298,5246.64697762148
1684375747135560750,143,1684375747135560750,camera_2,144,0,-0.47680220141940244,-2.0151255783734,6.635944764880406,0.9888322558918257,-0.03672673411810533,0.03347419637135708,0.14050407426901507,0.00812563081854023,0.005459487923984085,5244.22281872778
1684375747142041444,144,1684375747142041444,camera_2,145,0,-0.47699413639765786,-2.013760743920997,6.637317003318928,0.9888699604762757,-0.036875875536601835,0.034523838603517064,0.13994454487094646,0.013648254447616637,0.009168138740952396,5244.951628039358
1684375747148849487,145,1684375747148849487,camera_2,146,0,-0.47751613862475023,-2.0105794096052767,6.63961768536457,0.9891635336417501,-0.03648657448697442,0.0333034941179605,0.13825740802976166,0.01739001333771739,0.01168322842538524,5251.2808236444835
1684375747155516147,146,1684375747155516147,camera_2,147,0,-0.4779424254612724,-2.00911315658756,6.641760023153788,0.9889317146534814,-0.03635581262618581,0.033113391914070624,0.13998507747885275,0.01070683060970623,0.007198898380607663,5244.501738273539
1684375747162154197,147,1684375747162154197,camera_2,148,0,-0.4776922682660997,-2.004907803146745,6.634747144238967,0.9887893902391078,-0.03603733430287951,0.033996198576055035,0.1408584778041187,0.005428082076832652,0.0036409354864970762,5254.222768989974
1684375747168891906,148,1684375747168891906,camera_2,149,0,-0.4783551881678708,-2.0016395380425736,6.637853668117229,0.9887312108712143,-0.036627300597905414,0.033210901456438686,0.14130134296780067,0.0013941980432718992,0.0009357827594244356,5252.387015506625
1684375747175480365,149,1684375747175480365,camera_2,150,0,-0.4785212178065105,-1.9999924289064324,6.639340888460004,0.9887848758530762,-0.036801964733644436,0.031968777284903334,0.14116685855705902,0.010498449148144573,0.007049325728160936,5253.262862836244
1684375747181989669,150,1684375747181989669,camera_2,151,0,-0.47851533853776285,-1.996940425967056,6.636023813563947,0.9886495421592196,-0.03655945019998546,0.03181916004036607,0.1422077017737285,0.010071624885313213,0.006756018352171682,5257.154060661793
1684375747188803672,151,1684375747188803672,camera_2,152,0,-0.4793365042881279,-1.9945283796777291,6.641632326294398,0.9885593283898289,-0.03690990817311574,0.03315640265871528,0.14243863905147267,0.012677736056502908,0.008511566452434038,5250.57304925099
1684375747195499658,152,1684375747195499658,camera_2,153,0,-0.4801008955930922,-1.9945048953179116,6.649015432736866,0.9891761595561975,-0.037013024255966,0.03374152283068646,0.13792052435422972,0.011135933396872133,0.007482832239814136,5255.140539945569
1684375747202298641,153,1684375747202298641,camera_2,154,0,-0.47978468562225196,-1.99055477705188,6.6420469666021695,0.9885261865396046,-0.037008530568550656,0.03393514964964931,0.14245965326673946,0.004712799214757979,0.0031623219744731207,5253.160634845963
1684375747208694696,154,1684375747208694696,camera_2,155,0,-0.48031320309911096,-1.987289334479919,6.645179326839907,0.9874850556221635,-0.03515882178998736,-0.025115584746296854,-0.1516783754398903,0.014440112980082631,0.009689181869997586,5259.975123879615
1684375747215349197,155,1684375747215349197,camera_2,156,0,-0.48042542047166803,-1.985533286574446,6.644279966596111,0.9887402532271802,-0.03712209418195616,0.03206481072262913,0.14137365272609942,0.012921959452796727,0.008671771464850292,5259.641816456103
1684375747222124338,156,1684375747222124338,camera_2,157,0,-0.48044291276576223,-1.9829619185558385,6.642091288916946,0.9885494229412594,-0.036563453332056815,0.034708481739049696,0.14222683845993325,0.014371634402778,0.009631989995255434,5260.420301735283
1684375747228803873,157,1684375747228803873,camera_2,158,0,-0.48125589790284495,-1.9812424438135252,6.647356119209644,0.9888155950922572,-0.03673357342901588,0.03363127707326052,0.14058200698489765,0.0021796312066726387,0.0014624295146157466,5261.08563026821
1684375747235400199,158,1684375747235400199,camera_2,159,0,-0.481457528749698,-1.9798769321397665,6.649054819961916,0.9874169875017703,-0.035065612890582895,-0.022980249319885227,-0.15247951904020587,0.012526374426670372,0.008413844579511161,5256.799380674491
1684375747242061853,159,1684375747242061853,camera_2,160,0,-0.4817741093736463,-1.9795250701763327,6.651729170749693,0.9889501660680202,-0.03674293047137111,0.033755807257506466,0.13959968327616412,0.009035300463438034,0.006066355524748614,5259.993878819516
1684375747249003410,160,1684375747249003410,camera_2,161,0,-0.4815544688496782,-1.9748269625584751,6.644485738913224,0.9887064024276255,-0.03621694441698157,0.03330098181810346,0.1415592714931444,0.00665082223713398,0.004456706228872254,5267.756152673975
1684375747255431652,161,1684375747255431652,camera_2,162,0,-0.48171552066707574,-1.9737315818463137,6.644664163668573,0.9887564810633429,-0.036359858581118766,0.03201909675927486,0.14146858054676573,0.01162388949887827,0.007790440275807198,5269.604073465336
1684375747262173652,162,1684375747262173652,camera_2,163,0,-0.481786408223521,-1.9728027870317602,6.6453023892317935,0.9886479198843372,-0.036829628519230974,0.032805029563026375,0.14192497668443554,0.010038515727501363,0.006727593107586921,5267.636587456218
1684375747268839836,163,1684375747268839836,camera_2,164,0,-0.48200268341074526,-1.9713756910997287,6.6462085295492,0.9886287712809732,-0.03699188939069525,0.0347415607493679,0.1415548539311806,0.013125182536896318,0.008792028684336914,5267.662898104987
1684375747275369882,164,1684375747275369882,camera_2,165,0,-0.4823299175762548,-1.9718420489409454,6.650085754545871,0.988744566157643,-0.03685241685399804,0.03270376829266658,0.14126763891710353,0.009707809193059802,0.006512668674018999,5264.378209639226
1684375747282178163,165,1684375747282178163,camera_2,166,0,-0.48239186741284296,-1.9711683882996862,6.6499891078010345,0.9888739913384716,-0.036843090197356945,0.03274287033868176,0.14035213001951186,0.00961851712781936,0.006450750142002777,5268.028509450726
1684375747288869142,166,1684375747288869142,camera_2,167,0,-0.48222209379040626,-1.9695880912570902,6.647071198945167,0.988433135715046,-0.03685296053428366,0.03216761240157466,0.14355152466192134,0.009331133682280779,0.006257054023235639,5263.315509181235
1684375747295545339,167,1684375747295545339,camera_2,168,0,-0.4820271309728524,-1.9685873972951184,6.644999558997077,0.9874952199316933,-0.035075089109868514,-0.023315319158111043,-0.1519188093309939,0.021677193057257682,0.014526793452804752,5269.606818554226
1684375747302090644,168,1684375747302090644,camera_2,169,0,-0.482785902510479,-1.9715869991293395,6.654643486878375,0.988820064995451,-0.03692745315246459,0.03146843378432778,0.1409999288695779,0.008105243789032102,0.005445176421975662,5260.230264943555
1684375747308700084,169,1684375747308700084,camera_2,170,0,-0.4819601225242075,-1.9689117171330783,6.644446926009162,0.9886087399017092,-0.036738372955718544,0.03433715557475041,0.1418591240969595,0.0016664618160575626,0.001115669679952556,5271.491751262218
1684375747315341472,170,1684375747315341472,camera_2,171,0,-0.48189069953819536,-1.9691648374289927,6.6442077557283765,0.988518133686519,-0.03644325318613927,0.03349673042806621,0.14276469353716953,0.011378560331650078,0.007620245107705661,5269.225022273489
1684375747322013378,171,1684375747322013378,camera_2,172,0,-0.4821004372886816,-1.9708982057808124,6.6483598629224705,0.9886407681319778,-0.036685770171264835,0.03267137677493017,0.1420428350674013,0.012962268956471235,0.008692462703927019,5265.057438824324
1684375747328776597,172,1684375747328776597,camera_2,173,0,-0.4820199662693886,-1.9722996457095434,6.648597761074444,0.988884924886594,-0.03677510600104128,0.032826253570266715,0.14027342580541877,0.005741496046539396,0.0038496412657808093,5269.068055962443
1684375747335303068,173,1684375747335303068,camera_2,174,0,-0.48138571930885093,-1.970914287174574,6.640967989608554,0.9883491026565278,-0.03588382540149277,0.034355280023428816,0.1438684019759147,0.002054021693766117,0.0013748375905301958,5267.745909514722
1684375747342007637,174,1684375747342007637,camera_2,175,0,-0.48202718528888966,-1.9749711711521252,6.651629786703528,0.9888753182693439,-0.036199736814575674,0.03188996738423659,0.14070612620810657,0.009252968360669911,0.0062130936437240145,5261.880678151732
1684375747348697423,175,1684375747348697423,camera_2,176,0,-0.48218419816084845,-1.978630217936832,6.6560282445739825,0.9894579252104085,-0.03590683230348753,0.03368815190059786,0.13619406027343947,0.009119656751863658,0.006125357871767586,5265.903760574757
1684375747355319499,176,1684375747355319499,camera_2,177,0,-0.481851978874412,-1.9790786331672428,6.653014221088266,0.9893351044928211,-0.036402273387622745,0.034671379066240675,0.136707062670649,0.00789387826807797,0.005297432448516132,5267.2218292921325
1684375747362148284,177,1684375747362148284,camera_2,178,0,-0.4812840751251808,-1.9787441798592773,6.647082267922704,0.9885734252057444,-0.036741651363173665,0.03419229277380025,0.14213909084752258,0.003320357413031161,0.0022273659554776547,5258.363326118444
1684375747368766307,178,1684375747368766307,camera_2,179,0,-0.4809377930402821,-1.9816345775355977,6.64655447505974,0.9887586603050688,-0.03646542277434256,0.03167397143908118,0.14150386619061092,0.009249878115952015,0.00620914063877764,5260.0807724383185
1684375747375444173,179,1684375747375444173,camera_2,180,0,-0.4808851181505241,-1.9838733508482351,6.648331407062736,0.9890882551829485,-0.03708275281652212,0.0317810701056205,0.1389937282241218,0.006158913427498192,0.004135061060683186,5263.647425476926
1684375747381999731,180,1684375747381999731,camera_2,181,0,-0.48026345446977503,-1.9837385777151968,6.642673269127609,0.988389662105702,-0.03710337784799029,0.0314056786264764,0.14395450164845872,0.017469892685767263,0.01172451316543501,5255.395323789096
1684375747388701677,181,1684375747388701677,camera_2,182,0,-0.4800846399304158,-1.9878842230868294,6.644410496349005,0.9889162872295905,-0.035991683130238504,0.03246623029500354,0.14033930129484903,0.010399286926258355,0.006979383100772576,5260.427246405741
1684375747395528078,182,1684375747395528078,camera_2,183,0,-0.47986652091620535,-1.989720654024433,6.644017073799207,0.9888264836949301,-0.03648539264156134,0.03170134928467047,0.1410178205789707,0.00875622034072876,0.005879224824653574,5257.514122535477
1684375747402189731,183,1684375747402189731,camera_2,184,0,-0.4795130291277753,-1.9911965388786597,6.643323758444764,0.9873194741167612,-0.034984444740585735,-0.02564945670164787,-0.15270379833817263,0.014220004843082279,0.009541103257668484,5257.014089589355
1684375747408885955,184,1684375747408885955,camera_2,185,0,-0.4789703443883533,-1.9949294630087957,6.64132070300074,0.9886529390679543,-0.036853114235353215,0.03137223557184981,0.14220758375936418,0.013178910478018224,0.00885122088151811,5252.457474591908
1684375747415372610,185,1684375747415372610,camera_2,186,0,-0.4947425690709952,-2.0644589942164324,6.865804524519581,0.9956919801111407,-0.034960483273126106,-0.04552831125666352,-0.0728177054416143,1.8896317256730981,1.3100653024862678,5261.117053286057
1684375747422189474,186,1684375747422189474,camera_2,187,0,-0.4785034806995479,-1.998900480572193,6.640979692818563,0.9888448628208671,-0.03648981791279687,0.03279065235915852,0.14063820099578958,0.010385960573330522,0.006973794103884261,5253.429955771775
1684375747428759098,187,1684375747428759098,camera_2,188,0,-0.47831495069123425,-2.0035852890398904,6.642956911969529,0.9890897692644908,-0.036570297535287094,0.034672584229267646,0.1384263471213535,0.005995813058689237,0.0040270073578150024,5252.281310169958
1684375747435456991,188,1684375747435456991,camera_2,189,0,-0.47802248924476326,-2.005583023089522,6.642374444511573,0.9890736534703303,-0.03620186387392262,0.035502991324452976,0.13842785366364235,0.004656429577153176,0.003127217166829506,5250.596484822223
1684375747442070960,189,1684375747442070960,camera_2,190,0,-0.4777801187096505,-2.0072118078595804,6.641463632967709,0.9892323816412218,-0.03626577723391009,0.03396966860112131,0.13765954427204322,0.007392024388536811,0.00496524237068854,5253.657670963905
1684375747448878288,190,1684375747448878288,camera_2,191,0,-0.4771370880285701,-2.0105071106827657,6.638991445362955,0.989306195094906,-0.036482284644560097,0.03334436114567818,0.13722408255747107,0.017364354920573533,0.01166125643175102,5255.483862076306
1684375747455388307,191,1684375747455388307,camera_2,192,0,-0.4769404055717311,-2.0121702119925833,6.638063451235766,0.988986822679621,-0.036597933601863336,0.03418454841234173,0.13927337316222965,0.004779601062182337,0.0032105531404462463,5247.970879067205
1684375747461990118,192,1684375747461990118,camera_2,193,0,-0.4768227534930512,-2.014254355523388,6.63823054064318,0.9888857581931825,-0.03680751602640855,0.03442193186664953,0.13987599727340022,0.005541905324207619,0.0037240205016551868,5243.611649807195
1684375747468749761,193,1684375747468749761,camera_2,194,0,-0.4766266942621531,-2.018677108582268,6.640568821643128,0.9893558953801525,-0.03646036881753377,0.03185007867834802,0.13722655089453167,0.022299652177025564,0.015003267598611968,5246.3870374644775
1684375747475551128,194,1684375747475551128,camera_2,195,0,-0.47616020086354205,-2.0191045206867377,6.6367448990024975,0.9890944849552312,-0.03607804001046464,0.03368944193863439,0.13876417535521401,0.013545174268074334,0.009103920487167086,5244.850650681066
1684375747482179164,195,1684375747482179164,camera_2,196,0,-0.4758139346963125,-2.0199032182976953,6.634025995324806,0.9889089019366668,-0.036420928531393955,0.032136777964839304,0.14035642891355518,0.016888564874534495,0.01135201018305928,5243.327739139031
1684375747488837957,196,1684375747488837957,camera_2,197,0,-0.47508227818182097,-2.021014637794616,6.627571921694393,0.9890178501630293,-0.036491818582728056,0.03367364009150367,0.1392053346621912,0.017948021952179257,0.012038312426457483,5253.271849555897
1684375747495560646,197,1684375747495560646,camera_2,198,0,-0.4748220058563193,-2.021734116928241,6.625136188777933,0.9888021346201348,-0.03669760195652803,0.03333704917945974,0.14075605043234007,0.014688810057123192,0.009851154948029956,5250.788072569239
1684375747502158880,198,1684375747502158880,camera_2,199,0,-0.4756549169412361,-2.0271336057565024,6.638776307089524,0.9894190455620028,-0.03617042117856094,0.034207381279522324,0.13627732011211016,0.014138292637653649,0.00951201390887714,5241.8982617405145
1684375747508921384,199,1684375747508921384,camera_2,200,0,-0.4752970299918505,-2.028464855745054,6.635839020722139,0.989382616128705,-0.036047207100730685,0.03438624047011169,0.13652920650501268,0.004941631355904974,0.003322789749177012,5243.414820989477
1684375747515468358,200,1684375747515468358,camera_2,201,0,-0.47432559214778114,-2.025586821111845,6.62346321501503,0.9888040369808743,-0.03656877809881785,0.03160359629965082,0.14117547102671243,0.013648598061990924,0.009158941231663551,5248.734230500877
1684375747522303581,201,1684375747522303581,camera_2,202,0,-0.4747435748915625,-2.0286647292092375,6.6308498974072645,0.9890324099559575,-0.036560837123167364,0.031069384240624554,0.13968854859462357,0.0147780358674936,0.009938168339061667,5241.403773568223
1684375747528856992,202,1684375747528856992,camera_2,203,0,-0.47468673782148496,-2.0303481277444537,6.632405385847199,0.9891074126903385,-0.036265137805440786,0.03038309609541227,0.13938519796819826,0.01771368901245296,0.011921235903736109,5239.118610831851
1684375747535380840,203,1684375747535380840,camera_2,204,0,-0.47422224554839365,-2.0288527155948124,6.626218015924547,0.9889819841166778,-0.03641632632906291,0.031227178405744918,0.14004766902076757,0.01999568702012766,0.013431628828635862,5245.859187005726
1684375747541954994,204,1684375747541954994,camera_2,205,0,-0.4743871441102382,-2.029783761036193,6.628018626808364,0.9890317719446623,-0.03630831801663876,0.029556356559134765,0.14008669427805556,0.011923204845516011,0.008017666044786997,5243.39718134323
1684375747548788785,205,1684375747548788785,camera_2,206,0,-0.47457109169574296,-2.0312290371590733,6.632152589101311,0.9895944958895446,-0.03660868199958788,0.03275889719619829,0.13523828142157138,0.025235031207557768,0.01695909611905053,5250.446621354433
1684375747555381536,206,1684375747555381536,camera_2,207,0,-0.4743760436661022,-2.0301893528345074,6.628759090529817,0.9894187274146776,-0.03629747329070914,0.03290352016678331,0.136566590476823,0.018886500751250423,0.01268315245270028,5251.502299127753
1684375747562181949,207,1684375747562181949,camera_2,208,0,-0.47453341684264927,-2.030317964463188,6.630156114013932,0.9893440219084989,-0.035783192842424684,0.03233573117155068,0.13737674444213227,0.009153750608675182,0.006151709056602715,5247.349452559312
1684375747575452327,208,1684375747575452327,camera_2,210,0,-0.4747928433169468,-2.029517031196126,6.6317257674575245,0.9893814562128475,-0.03662912782421348,0.034210676442857295,0.13642679617401066,0.01580264521180652,0.010615980534925271,5247.997563798974
1684375747582035541,209,1684375747582035541,camera_2,211,0,-0.4749822705211524,-2.0291802865545083,6.633094045630837,0.9893570003275759,-0.03675870996876388,0.032331230438297213,0.13702632842851495,0.01696250402892474,0.011404489592458454,5245.875469432331
1684375747589035511,210,1684375747589035511,camera_2,212,0,-0.4750823248659425,-2.027196802457125,6.632208462312136,0.9893624503832843,-0.03680221858137683,0.03410574866179701,0.13654426530356537,0.007152368489187211,0.0048041277578824496,5249.412197675847
1684375747595760822,211,1684375747595760822,camera_2,213,0,-0.4750921877952726,-2.025413265594532,6.630194998115073,0.9890291712683472,-0.03687947224792069,0.032073497075112756,0.13940047952691528,0.013715898647205904,0.009215250607985056,5245.839602461723
1684375747602280139,212,1684375747602280139,camera_2,214,0,-0.47523318401273285,-2.0244059235151877,6.630535617514814,0.9892257834258419,-0.036116720516237724,0.03218084605451225,0.13817497983317076,0.014516965224174783,0.009750550900600286,5250.324583307141
1684375747608865976,213,1684375747608865976,camera_2,215,0,-0.4756123444094013,-2.0220247499409805,6.631731295215221,0.9888635142676423,-0.03653749552636991,0.03298440200382453,0.14044924633247124,0.009569597677909769,0.0064293736049441715,5243.2871570182015
1684375747615352153,214,1684375747615352153,camera_2,216,0,-0.4758079679581457,-2.020888507533174,6.632702249811838,0.9889116538829249,-0.03681788529902754,0.03194219418327162,0.1402778684162402,0.02463842774159275,0.01655772183335814,5244.371173945548
1684375747622049093,215,1684375747622049093,camera_2,217,0,-0.4760959976555224,-2.0194869517836267,6.6336630571769755,0.9888253620517032,-0.03644656826745341,0.03351949813903626,0.14061470146948055,0.00865836811135523,0.005817545401167736,5242.468789911363
1684375747628698587,216,1684375747628698587,camera_2,218,0,-0.4763912725114022,-2.0160473483723074,6.633195894999273,0.9890101988307107,-0.03673958728472028,0.03250942973959571,0.13947102320192833,0.009699697780888528,0.006513187516557693,5250.8147096640905
1684375747635652542,217,1684375747635652542,camera_2,219,0,-0.4768761611892164,-2.0154427028756063,6.637312945281522,0.9890399091420451,-0.03691214145065976,0.03349010117038727,0.13898188753006233,0.007784220288158394,0.005230443375210274,5247.077991235361
1684375747642266035,218,1684375747642266035,camera_2,220,0,-0.47684835461540553,-2.013048954459054,6.635140167362307,0.9886857232427707,-0.03678505539648471,0.03407767312970735,0.14137224815875896,0.00438533969281707,0.002945178913998263,5244.069351802056
1684375747649074792,219,1684375747649074792,camera_2,221,0,-0.4771207258477182,-2.0086124249936472,6.633761082781825,0.9885804067916799,-0.03670379826645351,0.030576381901702802,0.14292199050605656,0.018117144762072712,0.012169959343874638,5247.186119007525
1684375747655506610,220,1684375747655506610,camera_2,222,0,-0.47753623911811593,-2.0072870855484384,6.635973098628599,0.9887725970669505,-0.0366778129045916,0.03239756008116851,0.14118741952029815,0.0072379072807962075,0.00485998869075391,5250.260854041261
1684375747662188768,221,1684375747662188768,camera_2,223,0,-0.4782613970263721,-2.007339983654645,6.643176446095438,0.989125899270207,-0.036502358380723424,0.0351511106532402,0.13806495806464947,0.01147388672688976,0.007708917429755965,5249.223284168866
1684375747668787240,222,1684375747668787240,camera_2,224,0,-0.4779696447466285,-2.0000317994373145,6.633148512905429,0.9882194597348891,-0.03608934567413966,0.03510004141256216,0.14452628004253346,0.004307687107939274,0.002887887192617986,5248.183310163675
1684375747675473928,223,1684375747675473928,camera_2,225,0,-0.4784805103921109,-1.9995898069185838,6.638356932850496,0.9885955181116628,-0.0363309365643156,0.0339679950810939,0.14214478508923034,0.005369399266783148,0.0036034445307026805,5250.467876475768
1684375747682167053,224,1684375747682167053,camera_2,226,0,-0.4784693946175538,-1.9968198897925602,6.636113787817461,0.9887575153483571,-0.036495639542828105,0.032911444899381956,0.1412213897790926,0.013994585431646556,0.009383117982233022,5259.717575480459
1684375747688860654,225,1684375747688860654,camera_2,227,0,-0.4788776688150508,-1.992691953638012,6.636082067521603,0.988372253499807,-0.03697943593748264,0.033252522446343635,0.14369091683336943,0.012526473263278604,0.008397853189721064,5255.3337521099
1684375747695478677,226,1684375747695478677,camera_2,228,0,-0.4796770278884033,-1.99262963585847,6.643173646815776,0.988847386233824,-0.03690653878473653,0.03434336828412459,0.14014024114566956,0.008504370285663754,0.005706300821684926,5257.036247500917
1684375747702126026,227,1684375747702126026,camera_2,229,0,-0.47989347358377615,-1.9907342193681756,6.643138592627801,0.9889034394234341,-0.036562412053325284,0.030961987346033518,0.14062195013912185,0.009385170589666814,0.006301400004714941,5259.388005781455
1684375747708858728,228,1684375747708858728,camera_2,230,0,-0.480205230893439,-1.9868664373640217,6.643341891420901,0.9886432821558726,-0.03699253986908455,0.03202101349224379,0.14209386804865146,0.013871116330847144,0.009309588212554901,5257.324483560047
1684375747715573787,229,1684375747715573787,camera_2,231,0,-0.4798934683774026,-1.983096488069132,6.63740964037429,0.9867825036903729,-0.035495458171370335,-0.022421545185853386,-0.1565172104633942,0.018427128961775452,0.012354056468051147,5259.0545706300745
1684375747722059011,230,1684375747722059011,camera_2,232,0,-0.4801623793141696,-1.9817241469618414,6.638289977899001,0.9885920642221697,-0.03684414280679298,0.035378060621594196,0.1416920340895596,0.012500124226789922,0.008365699896170998,5267.828017591962
1684375747728657245,231,1684375747728657245,camera_2,233,0,-0.4811360272512402,-1.9806983816206727,6.645647673005923,0.9886644651278127,-0.03649650737459059,0.03481074640717943,0.14141708622923732,0.0012625635717995465,0.0008466130745191847,5260.374493205452
1684375747735290765,232,1684375747735290765,camera_2,234,0,-0.4816237890852517,-1.980691149625453,6.651144939963082,0.9886948945078433,-0.0373345231054449,0.032418544551560624,0.14155414839478253,0.005834404786583036,0.00391996875095635,5254.2687891715905
1684375747742051601,233,1684375747742051601,camera_2,235,0,-0.48135873188307954,-1.9776145399680545,6.646131975598125,0.9874430439477045,-0.035167811106658335,-0.024213915049790556,-0.15209584589731484,0.008181662356946617,0.005487880437066483,5262.580297951121
1684375747749114990,234,1684375747749114990,camera_2,236,0,-0.48136991413239333,-1.97396799542203,6.641631566030719,0.9884534665158279,-0.03619867679985592,0.03367355894097546,0.14323229998513376,0.00862998451339081,0.005779458135457045,5266.62336225633
1684375747755369186,235,1684375747755369186,camera_2,237,0,-0.4814894410152891,-1.9728981104180776,6.641889529297449,0.9883020013038727,-0.0366835909580681,0.03283317014535715,0.14434490400214167,0.010823695920407772,0.007251060625373855,5264.135600475598
1684375747762098550,236,1684375747762098550,camera_2,238,0,-0.48229218318577294,-1.9746323212172372,6.651350527306343,0.9889622918090207,-0.036610656900703815,0.033145059128123745,0.13969484685034614,0.004807558609172702,0.003226118883583506,5264.965680104911
1684375747768842697,237,1684375747768842697,camera_2,239,0,-0.48213260156305304,-1.971713179354103,6.647398302613787,0.9885614312507497,-0.03632728479344699,0.03322918398722715,0.14255681798689293,0.01271677965996787,0.008526470622595646,5263.5582133729495
1684375747775353670,238,1684375747775353670,camera_2,240,0,-0.48226215247301607,-1.971383185879291,6.648410083393098,0.9886985366533169,-0.03698650586339289,0.034301153585419776,0.14117589336114234,0.0022558263153769076,0.0015120579228221553,5266.251257903061
1684375747782039642,239,1684375747782039642,camera_2,241,0,-0.4823843449869487,-1.9710480506025136,6.6491976114495035,0.9888604848433703,-0.03644421337199253,0.03208468139443075,0.14070299942378342,0.009655319445300847,0.006475545520753983,5268.460409210298
1684375747788846254,240,1684375747788846254,camera_2,242,0,-0.4825922180247598,-1.970916250496121,6.6512936099355455,0.9888498834471487,-0.036247555836173645,0.03343463229209701,0.14051387143608338,0.009032526286318898,0.006059070897773157,5265.568429788109
1684375747795615196,241,1684375747795615196,camera_2,243,0,-0.4819861146131664,-1.9681258034456621,6.642847329965361,0.9882362457058066,-0.03689097446350765,0.030365347834511662,0.14527946973786296,0.008776486094575375,0.005882263507330567,5265.598229255527
1684375747802253007,242,1684375747802253007,camera_2,244,0,-0.48224861020871473,-1.969457595376194,6.647231590160209,0.9884544967457912,-0.036835797770274646,0.030864149196507838,0.1436949413167623,0.013459982117637992,0.00902891143583745,5263.5371246938585
1684375747808917045,243,1684375747808917045,camera_2,245,0,-0.5028521227682985,-2.0548038603110688,6.934463024750644,0.9993041499417826,-0.03632041724008931,-0.00033715233683943966,-0.00848112781057081,2.4713086547562853,1.7285259874361176,5265.594417964809
1684375747815391063,244,1684375747815391063,camera_2,246,0,-0.5016060843082963,-2.0504004509220253,6.918222001078213,0.9990630220254901,-0.03549930262847995,0.012440840027547168,-0.021403341645535298,2.1882457218598574,1.5265728470418158,5264.84363644314
1684375747821959257,245,1684375747821959257,camera_2,247,0,-0.4819487994651066,-1.9701805371016898,6.646841901494747,0.9873181704927736,-0.03525019247483607,-0.023532092112995277,-0.1529918128073366,0.011265582288615406,0.007555571758733816,5262.5775800718675
1684375747828666210,246,1684375747828666210,camera_2,248,0,-0.48210943376086696,-1.9728762050646333,6.650568324483092,0.9888999766214942,-0.03674854576382662,0.033405444843376396,0.1400373410097059,0.01410311768995598,0.009459743311196237,5266.342039066367
1684375747835525989,247,1684375747835525989,camera_2,249,0,-0.48163463191909195,-1.972381129138013,6.645654178739401,0.9887006124040797,-0.0359486366883068,0.03476873631294881,0.14131500106942213,0.009390341758262366,0.006290138429338725,5268.275937528
1684375747842167854,248,1684375747842167854,camera_2,250,0,-0.48183610324128134,-1.9743976159952463,6.649744085971119,0.9887387903149413,-0.03701822243685541,0.031642228194868616,0.14150627240170655,0.010424112377222627,0.006996811336191429,5262.455572120732
