%time,field.header.seq,field.header.stamp,field.header.frame_id,field.image_seq,field.transforms0.fiducial_id,field.transforms0.transform.translation.x,field.transforms0.transform.translation.y,field.transforms0.transform.translation.z,field.transforms0.transform.rotation.x,field.transforms0.transform.rotation.y,field.transforms0.transform.rotation.z,field.transforms0.transform.rotation.w,field.transforms0.image_error,field.transforms0.object_error,field.transforms0.fiducial_area
1682465963301306962,9,1682465963301306962,camera_2,10,0,0.2806531728869325,0.3462542940408314,3.681920279307008,-0.9984720664186032,0.030197554325703015,0.027323276821479652,0.03735075418578908,0.010773559391964227,0.0020297650323202994,19233.602139089497
1682465963310496091,10,1682465963310496091,camera_2,11,0,0.28063090403008906,0.3462194786656081,3.6814125925210366,-0.9984091518763492,0.030312780977211587,0.027892702758349586,0.03850062196654955,0.014962246059440076,0.002818224944635305,19232.852419047853
1682465963319749593,11,1682465963319749593,camera_2,12,0,0.28069029655458755,0.3463053517060204,3.682320218734918,-0.9984433657726389,0.030269654518456226,0.027874224019742502,0.03765130801492815,0.014106718357652426,0.0026583758202428443,19226.689328715205
1682465963329302787,12,1682465963329302787,camera_2,13,0,0.28072297230004767,0.34631859561422995,3.682584899363598,-0.9983993066154381,0.030371437139491,0.028519701031684264,0.03824953606199428,0.015274784411303699,0.0028788333371496575,19219.822626818906
1682465963338516235,13,1682465963338516235,camera_2,14,0,0.28066360335422924,0.3462308098793958,3.6816991781171047,-0.9984466429003305,0.03044006509631114,0.029211111014937664,0.036392508999318174,0.017034028540365398,0.0032087363622543014,19233.99630296742
1682465963347826719,14,1682465963347826719,camera_2,15,0,0.2807053151993003,0.3463276942361667,3.6825156309392404,-0.9984354156797024,0.030254139218082385,0.025396528999001283,0.03957807589406062,0.015343116654548794,0.002891921377207112,19224.03674736758
1682465963357008457,15,1682465963357008457,camera_2,16,0,0.2807211258138033,0.3463214248810383,3.682524901477523,-0.998449526361667,0.030390557947839993,0.02918065200202521,0.036379208959495216,0.021098817291203886,0.0039761194209871715,19225.52227195258
1682465963366469383,16,1682465963366469383,camera_2,17,0,0.28069423924653125,0.3462777098440914,3.682230068484827,-0.9984679888289848,0.030329462996944948,0.028353650208119332,0.03657689814616491,0.01970777689712122,0.003713547790289054,19230.30163615314
1682465963375906467,17,1682465963375906467,camera_2,18,0,0.2807458652934792,0.34637714522973706,3.6831097127312336,-0.998453009160417,0.030234974536183987,0.026524477152085446,0.038391235003748976,0.011784953996539116,0.0022217889454077605,19219.450542269507
1682465963384835958,18,1682465963384835958,camera_2,19,0,0.28062116262993947,0.346214089406566,3.681356560838512,-0.9983892843286191,0.030349921648392904,0.027530782355101778,0.03923996963098245,0.012751223286613824,0.0024017331676962793,19231.612042370714
1682465963394433021,19,1682465963394433021,camera_2,20,0,0.2806268660966242,0.3462461616687573,3.6815293796886097,-0.9983443258772957,0.03016432679165749,0.02600083629157621,0.04150514293377195,0.009429268597159535,0.001776369504209686,19224.969293243717
1682465963403910875,20,1682465963403910875,camera_2,21,0,0.28077409556638677,0.34639508119112716,3.6833746762963835,-0.9985107725594949,0.030399247751507312,0.028782639337590638,0.03498117338719695,0.02293678279966116,0.004324554790832529,19222.918285892338
1682465963413080215,21,1682465963413080215,camera_2,22,0,0.2807461404324434,0.34636985219294814,3.6829918441102936,-0.9984995451812371,0.030308617946408416,0.026465634087081063,0.03714318461588815,0.02322855923557654,0.00437923677259655,19225.488603407975
1682465963422536849,22,1682465963422536849,camera_2,23,0,0.28069336242750953,0.34627855939682034,3.682115451917543,-0.9984124665768003,0.03033219458891103,0.029052109960198618,0.03752971439154395,0.01452929072547704,0.0027375309074041676,19225.88352821535
1682465963431680440,23,1682465963431680440,camera_2,24,0,0.28062518916737217,0.34619805645486634,3.681298527070512,-0.9984250136508388,0.03025262545442867,0.028561654671023704,0.03763645376346714,0.017418610746972263,0.003280566248990055,19235.43990241667
1682465963441252946,24,1682465963441252946,camera_2,25,0,0.28078014839636994,0.34639414468651414,3.6834518193011907,-0.9984952786808106,0.030369371287172216,0.026706007922332863,0.03703604839348494,0.020467553578782827,0.00385936074007805,19220.520910316147
1682465963450537919,25,1682465963450537919,camera_2,26,0,0.2806805789213214,0.3463043099050745,3.68233375758911,-0.9984322670302701,0.03008005633739963,0.027343981661631187,0.03847733138385127,0.011298176134005189,0.00212908365284761,19224.951733367292
1682465963459709405,26,1682465963459709405,camera_2,27,0,0.2807627924606611,0.34637730295183383,3.6832096014781364,-0.9984821727920818,0.030383332048784163,0.027291161500122382,0.03695126863845022,0.015750879480037838,0.0029695339656843453,19221.724598089
1682465963468914508,27,1682465963468914508,camera_2,28,0,0.2806657917024581,0.3462505907212089,3.6817119020767337,-0.9983694056089023,0.030342421794803256,0.026569717622637205,0.04039699851729826,0.01592621539020911,0.003000499074273191,19225.96789471898
1682465963478361129,28,1682465963478361129,camera_2,29,0,0.28067692606077665,0.34625152452081004,3.681900787234417,-0.9984361124820673,0.03033149586430688,0.029604571945121127,0.0364540665807828,0.011538895603735,0.002173789708241057,19230.512380430708
1682465963487609863,29,1682465963487609863,camera_2,30,0,0.2807071851435109,0.3463191971703269,3.6823521580335323,-0.9984050843647896,0.030367060001106505,0.029352559522515028,0.03746406853111331,0.010715675307437778,0.0020192784208621323,19222.733770004
1682465963497183561,30,1682465963497183561,camera_2,31,0,0.28068535463641553,0.34627043319780604,3.6822249763930293,-0.9984574334515901,0.030283170402201392,0.02740356099484504,0.03761287040969894,0.019429664593189955,0.0036611592767889145,19229.235474143876
1682465963506335973,31,1682465963506335973,camera_2,32,0,0.28065457563812196,0.3462241215142789,3.681659700885013,-0.9983822064397803,0.03030238165910699,0.03005884462736911,0.03756596052132079,0.014530123793520033,0.0027369331197170665,19227.54915985675
1682465963515541553,32,1682465963515541553,camera_2,33,0,0.2806249868654753,0.3462198863331937,3.681506738673721,-0.9983950138910213,0.0302974119173919,0.027332416743147625,0.03927342694028908,0.012630003970116377,0.0023790794656685025,19230.51377214864
1682465963525196552,33,1682465963525196552,camera_2,34,0,0.2807023714887659,0.34630731315280866,3.682448541027332,-0.9984430258309137,0.03025362912502734,0.028387327704975665,0.03728809086216419,0.012563338794279844,0.002367583146319769,19225.285432616944
1682465963534329175,34,1682465963534329175,camera_2,35,0,0.2805899034139271,0.3461550937939468,3.6808802568102497,-0.9984024926111698,0.030317879628986653,0.027710716565818975,0.038799550384174375,0.01790662674466148,0.003371937695378201,19237.792965024946
1682465963543899297,35,1682465963543899297,camera_2,36,0,0.2806612426822895,0.346230955045697,3.681790299673128,-0.998422641257891,0.030200583782310143,0.02814061299075685,0.03805601218374021,0.012975929887033999,0.0024444868000313967,19229.97282273088
1682465963553210735,36,1682465963553210735,camera_2,37,0,0.2806791596922017,0.3462605698809159,3.6820532234501724,-0.9984380621454219,0.030355322870355386,0.027856320795918207,0.03773613420113498,0.012409517308697104,0.0023380929508711504,19229.254798430244
1682465963562299489,37,1682465963562299489,camera_2,38,0,0.2807097049354357,0.3463209886340066,3.682643001796886,-0.9984528188667502,0.030365010905935817,0.02789784418861891,0.037304757060598034,0.012419004342518747,0.002340561339637081,19224.643968780987
1682465963571788072,38,1682465963571788072,camera_2,39,0,0.28069125887846247,0.34630128718863984,3.682331741646441,-0.9984823479731382,0.030091853898873106,0.02681648876977811,0.03752808341813124,0.010041658591944724,0.0018922837736516864,19230.030954973303
1682465963581154823,39,1682465963581154823,camera_2,40,0,0.2806716632193963,0.346289724630146,3.6822969877210108,-0.9984841603316263,0.030217460054953613,0.028682891773509994,0.035966350859984585,0.010382079577539116,0.0019562841403551277,19230.95262943022
1682465963590487957,40,1682465963590487957,camera_2,41,0,0.2807225488147652,0.3463169026885433,3.6826187017003904,-0.9984638771413974,0.03030438823477104,0.02695625265912998,0.037747722316213754,0.019583043875172734,0.003690926023337694,19225.827379172675
1682465963599804639,41,1682465963599804639,camera_2,42,0,0.2806888813878604,0.3462602480250708,3.682078003349665,-0.9984410060514834,0.03028172413035542,0.02869775952249702,0.037081170652821606,0.014381103101186454,0.0027096429984388155,19229.006517582573
1682465963608883857,42,1682465963608883857,camera_2,43,0,0.2807010726911352,0.34629387208914875,3.6824503217848847,-0.9984586593532078,0.03033221467317691,0.027886539466706346,0.037183373060913585,0.01113234180957079,0.0020978929254389387,19227.132622918816
1682465963618454694,43,1682465963618454694,camera_2,44,0,0.2806669589445835,0.34624083486811597,3.681676896812299,-0.9983652681568367,0.03032487907678362,0.027618901327981418,0.03980438840808004,0.02176527591655031,0.004100423425618892,19225.76107760193
1682465963628049135,44,1682465963628049135,camera_2,45,0,0.2807198385477041,0.3463226764430954,3.682550734467966,-0.9984444207006841,0.030362115927950104,0.02571949038321536,0.03905622232731741,0.015957114577759057,0.0030077240173241307,19224.826184401747
1682465963636971950,45,1682465963636971950,camera_2,46,0,0.28071711692471707,0.3463134753808102,3.6824420984925066,-0.9983673103540853,0.030331852904069773,0.027037365896694723,0.04014564934241342,0.01939192350255325,0.0036548946449112755,19218.078342632383
1682465963646393775,46,1682465963646393775,camera_2,47,0,0.28073596248702815,0.346329659852668,3.682659701320336,-0.9984536193400613,0.0303639628023965,0.02702655291850086,0.0379205119560671,0.01892916258657351,0.003567904732065027,19224.48732637707
1682465963655882835,47,1682465963655882835,camera_2,48,0,0.28064583213757294,0.34624643439511743,3.681697027783772,-0.9983842008509974,0.030345649730590257,0.026117752042193312,0.04032359187629871,0.014249336498323828,0.0026846279396191787,19227.679753035307
1682465963665072679,48,1682465963665072679,camera_2,49,0,0.280578089194008,0.34622814484619924,3.6810758483634576,-0.998334864416181,0.030198220492718617,0.025230116710493744,0.04217827854445275,0.011211144796106964,0.0021116453700152143,19228.965426545125
1682465963674490213,49,1682465963674490213,camera_2,50,0,0.2806760498027985,0.3462603492723264,3.681825302926554,-0.9983852966700798,0.03034563899295496,0.028849676863532393,0.0383879894234616,0.01621531049022451,0.003054817302495803,19226.20121136726
1682465963683577775,50,1682465963683577775,camera_2,51,0,0.2807315478751494,0.34635921876878417,3.682877185030023,-0.9985091422281854,0.030105341413696123,0.027701877702644456,0.03613540198815961,0.01703674951568246,0.00321142169811003,19227.010037454773
1682465963693334341,51,1682465963693334341,camera_2,52,0,0.2806905747870146,0.3463285520764525,3.682529865904614,-0.9984655649744949,0.030169828714621948,0.026835621575313762,0.0378965224019256,0.01639621309004724,0.003090208205662992,19226.52043600101
1682465963702242136,52,1682465963702242136,camera_2,53,0,0.2806722375702777,0.34628116975323736,3.6819484896112127,-0.9983986578030922,0.030175392347065424,0.02811309631105856,0.0387197573531907,0.01537776953773573,0.0028973006369159776,19225.772240150953
1682465963711626052,53,1682465963711626052,camera_2,54,0,0.2806745878994244,0.34626329688039004,3.68206280154155,-0.9984408426420467,0.03019369681485528,0.02788135606306713,0.03777372633162903,0.01648006960749626,0.0031050722563448524,19228.94635031257
1682465963720834493,54,1682465963720834493,camera_2,55,0,0.2807145735944724,0.34633248435849645,3.6827217721972962,-0.998439249222455,0.030182726760972445,0.026980208898318477,0.03847254794234573,0.009693490923382342,0.0018271326524655763,19221.93226508028
1682465963730713367,55,1682465963730713367,camera_2,56,0,0.28064273625948194,0.3462241362671451,3.681626396401593,-0.9984607259331645,0.030478276220068216,0.028202045545478546,0.03676816659451786,0.022724021750036627,0.004280489183588645,19236.335429996252
1682465963739741325,56,1682465963739741325,camera_2,57,0,0.28064229203943747,0.3462379836859196,3.681678878424872,-0.9984129535602936,0.030403344551714735,0.02781449557643482,0.03838703738125108,0.014842807780951262,0.002796084444219581,19230.776462165173
1682465963749468326,57,1682465963749468326,camera_2,58,0,0.2805923729787483,0.34616712599572985,3.6809291478796116,-0.998370528090577,0.03028453973815179,0.027174682990092385,0.0400083978356881,0.013385277474299073,0.0025206129900024648,19234.061756996896
1682465963758419990,58,1682465963758419990,camera_2,59,0,0.2806245926812606,0.34623589596336973,3.6813787065301007,-0.9983480307297223,0.030356410927578122,0.026804110383454274,0.040758281615311705,0.01370502362260595,0.002581535784865343,19227.35294729517
1682465963767792463,59,1682465963767792463,camera_2,60,0,0.2806776676373488,0.34628073651371716,3.6821577482855377,-0.9984491132603418,0.030157454440326577,0.025699066204176647,0.03910823656916915,0.012824872392229736,0.0024167929192306196,19228.816144626588
1682465963777274847,60,1682465963777274847,camera_2,61,0,0.28073967472115746,0.34634948017607564,3.6827309642646124,-0.9984956202748632,0.030234434050562274,0.027483419783596443,0.03656551553796721,0.01283942797454074,0.0024200129565184253,19227.528821863467
1682465963786450862,61,1682465963786450862,camera_2,62,0,0.280614040379434,0.3462337488759163,3.6815271657893356,-0.9984157147785628,0.030214844550360498,0.028493878263108494,0.03796343706167972,0.010941302927676588,0.0020608603266456453,19232.054789443973
1682465963795743227,62,1682465963795743227,camera_2,63,0,0.28067683794516085,0.3462842423320553,3.682070031361594,-0.9984036717910763,0.030300165428411224,0.027672117036630976,0.03881059221164864,0.018265363352838904,0.0034417372942748582,19225.416198075745
1682465963805091142,63,1682465963805091142,camera_2,64,0,0.2806001191041131,0.3461717684890158,3.6809667257297845,-0.9983404295329915,0.030341708445612656,0.02845034203011807,0.039828953373804606,0.021464292192831635,0.0040420213818994485,19230.738025508355
1682465963814252138,64,1682465963814252138,camera_2,65,0,0.28075841774015137,0.3463981493547138,3.683364045799998,-0.9984980018531299,0.03029005620109338,0.026048759338965024,0.03749286502178857,0.010556798544712365,0.001990543830652819,19221.512668603096
1682465963823534011,65,1682465963823534011,camera_2,66,0,0.28069863777248694,0.3463075564746507,3.682325917271602,-0.9984725522482008,0.030258906867388077,0.026743767683845995,0.037705859653741444,0.013820326887071133,0.002604460427581611,19229.5690975869
1682465963832953453,66,1682465963832953453,camera_2,67,0,0.28067464283374255,0.3462602514017149,3.6818380646238835,-0.9983898479967908,0.03050819502022106,0.02674407420952955,0.039644872912248594,0.021098810073453933,0.003975310073312195,19227.145041676245
1682465963842382192,67,1682465963842382192,camera_2,68,0,0.2806690281797689,0.346273569051748,3.681977472877049,-0.998386617573735,0.03026639866524994,0.028302566129464413,0.03882102152185241,0.012266674602869898,0.002311154800436312,19224.5735414594
1682465963852254629,68,1682465963852254629,camera_2,69,0,0.28068907523400277,0.3463095990852647,3.6822120168915746,-0.9984238192214758,0.030204828468992802,0.026650820449161488,0.039080421156214795,0.015501956979278475,0.0029212503654924846,19225.722892310467
1682465963860919952,69,1682465963860919952,camera_2,70,0,0.2807547190081183,0.3463633950851123,3.6830953657931897,-0.9984881954844285,0.03033538108688509,0.028021128510106113,0.03627539785562133,0.018338463327381756,0.003457102467672454,19223.353771135447
1682465963870207071,70,1682465963870207071,camera_2,71,0,0.2806282972594956,0.3462324265607063,3.681459967438977,-0.9983659161036085,0.03030211610258244,0.02735486996615688,0.03998737815164887,0.010213237081188709,0.001923800186001449,19228.08469524979
1682465963879579305,71,1682465963879579305,camera_2,72,0,0.2806306303794794,0.34624690995204344,3.6816686927151423,-0.9984390165035573,0.030324014184548196,0.028097133931895883,0.03755709722486488,0.015598787693306804,0.0029384450862666982,19233.229761624243
1682465963889354228,72,1682465963889354228,camera_2,73,0,0.2806996444706336,0.3463492626122531,3.682638481457132,-0.9984216623720116,0.030144617176593513,0.02397273180070492,0.0408753506602322,0.012512737186625598,0.002358785256871369,19221.300704622183
1682465963898250818,73,1682465963898250818,camera_2,74,0,0.28067167597164105,0.34623583131073543,3.6817246254185836,-0.998449133576681,0.030273980112415274,0.027737542220177467,0.037595778216604786,0.022798314748797566,0.004294917631026725,19233.47318557952
1682465963907498836,74,1682465963907498836,camera_2,75,0,0.28064683408554303,0.34626958159527393,3.6818180153866633,-0.9984021199252817,0.030232046455794682,0.02608857898429892,0.03998270053883807,0.014213426038622856,0.0026779825354859552,19227.84977135714
1682465963916904449,75,1682465963916904449,camera_2,76,0,0.28074012644155616,0.34639241301449125,3.683176245183833,-0.9984473178922614,0.03028534886814343,0.02797784715671667,0.03745652287866494,0.012591950362548232,0.0023739294295740867,19218.24513131054
1682465963926421642,76,1682465963926421642,camera_2,77,0,0.2806574142106029,0.3462622174975156,3.681801611068773,-0.9983711305692803,0.030279567280338964,0.026084070094947502,0.04071676237637885,0.017281386128161106,0.0032560977489856243,19225.09036431578
1682465963935471057,77,1682465963935471057,camera_2,78,0,0.28066707523781603,0.34626333728978875,3.681781394596668,-0.9984044269891209,0.030251100050911372,0.025913668075964937,0.040024404069063456,0.015484072093386201,0.0029173985213808004,19228.486092154402
1682465963944906949,78,1682465963944906949,camera_2,79,0,0.28062193648091355,0.3462054129558128,3.681284409625165,-0.9983848715090697,0.03023606889066327,0.028459414264449583,0.03877486582287536,0.014105089532677084,0.002656577585634979,19231.509291455164
1682465963954510688,79,1682465963954510688,camera_2,80,0,0.28071347554759324,0.3463104473757432,3.6826107834083834,-0.9984810292200949,0.030248654234813446,0.027832663174542468,0.03668781902996494,0.01818706520134583,0.003427751512632775,19227.436617923675
1682465963963450908,80,1682465963963450908,camera_2,81,0,0.2806738379635141,0.3462808358561678,3.682004285954795,-0.9984492845098136,0.030279305459242123,0.02778820010289639,0.03755004471087263,0.012200817291159183,0.002298764035874304,19230.594976590713
1682465963972962856,81,1682465963972962856,camera_2,82,0,0.2807119093780907,0.3463307989558044,3.6824709025438547,-0.9984309458566042,0.03038854819382744,0.026806326314136052,0.03864716502019503,0.01683729304932058,0.003173355023324963,19224.262288819762
1682465963982285976,82,1682465963982285976,camera_2,83,0,0.28068398954852114,0.346286539858237,3.6821422478687045,-0.9984082393751906,0.03034552818123188,0.02919189391416768,0.0375229236179457,0.011561879073269665,0.0021784583317506706,19225.228831618086
1682465963991530656,83,1682465963991530656,camera_2,84,0,0.2806982701119202,0.3462767912430731,3.6820873492733592,-0.998393523979843,0.030272087846546787,0.02795839630389597,0.03888830220819309,0.016236217110417783,0.0030593025393524996,19224.11848363769
1682465964001084327,84,1682465964001084327,camera_2,85,0,0.2807312890399911,0.3463297043711548,3.6826702067698838,-0.9984902615162771,0.030458734823758767,0.027884090774329053,0.036220720751823525,0.019919648591894656,0.003754409472047131,19228.33058734239
1682465964010215520,85,1682465964010215520,camera_2,86,0,0.280725652831469,0.3463507924582867,3.6827398248956587,-0.9984409483670196,0.030282668051283504,0.026861125841362167,0.03843322206368846,0.013548373826779425,0.0025538440230072398,19222.153773458205
1682465964019907236,86,1682465964019907236,camera_2,87,0,0.28068900724724627,0.3462826202562759,3.6821565512993364,-0.9984682269243246,0.030322451113904858,0.027559351265046845,0.037178366544138024,0.020797020581085235,0.00391878056096956,19231.061601123758
1682465964028972625,87,1682465964028972625,camera_2,88,0,0.28074220299004604,0.3463694786038637,3.6829456600878534,-0.9984676448027743,0.030097697756755488,0.026710181269785922,0.0379875912408142,0.01626227970700711,0.0030657622768695126,19222.12259796098
1682465964038103818,88,1682465964038103818,camera_2,89,0,0.2806606851513141,0.3462698951118618,3.6819914158893337,-0.9984048053466842,0.030261465420558128,0.027610890860795365,0.038855206563899555,0.011818908911664039,0.002226872392208749,19226.287848680506
1682465964047476291,89,1682465964047476291,camera_2,90,0,0.28072789451934893,0.34633265347424497,3.682707496803733,-0.998458096011609,0.03032331787818961,0.029141043587658278,0.03623156745647526,0.021064014930743724,0.003970076516828921,19224.288012109708
1682465964056706190,90,1682465964056706190,camera_2,91,0,0.2806641505506925,0.34627756598493503,3.681950888696365,-0.9984183222166346,0.030271979899482146,0.0271534606168088,0.03882203847838378,0.012697808095254004,0.0023923891344231453,19228.095672301024
1682465964066136121,91,1682465964066136121,camera_2,92,0,0.28069113965514597,0.3463109560242147,3.682424682947728,-0.9984778843795721,0.030269853718004468,0.024962293930595077,0.0387625365850452,0.019617185287643224,0.0036973931500376756,19229.324297398554
1682465964075514316,92,1682465964075514316,camera_2,93,0,0.28073484265139204,0.34633295057871333,3.682532234858252,-0.9984721841718438,0.030454911610977485,0.02752294276509171,0.03699031515714439,0.02797335881041363,0.005272370080878721,19227.85103845665
1682465964084925413,93,1682465964084925413,camera_2,94,0,0.28068528038377594,0.346317182613185,3.682366017969551,-0.9984884943772087,0.030299717232301914,0.0262177641261907,0.03762024157552859,0.013283628039062023,0.0025034075759276186,19230.9310872294
1682465964094267368,94,1682465964094267368,camera_2,95,0,0.28070516420345476,0.34629857977919487,3.6823535282178015,-0.998445924930383,0.030367085175999724,0.029127644301857242,0.03653977921731891,0.01738179085077718,0.003275311937366639,19226.89801667864
1682465964103774547,95,1682465964103774547,camera_2,96,0,0.2807449009016237,0.346393321721785,3.683175299436933,-0.9985234856180556,0.030209018204557795,0.024154451509511125,0.038142186100956176,0.01826304930727929,0.0034436511303009864,19225.937993779084
1682465964112801074,96,1682465964112801074,camera_2,97,0,0.2806793553932619,0.3462751121459715,3.6820851756252715,-0.9984430421404584,0.03021307699174202,0.028697750296980365,0.03708235035552481,0.0181958899484016,0.003428354517269175,19228.931609747
1682465964122301578,97,1682465964122301578,camera_2,98,0,0.2806562411301039,0.3462767998925718,3.682031701044853,-0.9984448343929536,0.03016890620510581,0.026467230849618262,0.038694126990645686,0.017340905556920916,0.0032674611556988125,19229.67700784235
1682465964131410360,98,1682465964131410360,camera_2,99,0,0.2806191198474587,0.34620644479649965,3.6812253227321783,-0.9983696832836133,0.030360497560817462,0.027825733911134163,0.03952144000848445,0.016546284139622003,0.003116350949010621,19231.01545711793
1682465964140800237,99,1682465964140800237,camera_2,100,0,0.2806872337891024,0.3462935288180715,3.6823684547173294,-0.9984563278948376,0.030253155028527594,0.02821437230024621,0.03706288026151734,0.014506986713968217,0.0027336964914606793,19227.50357545051
1682465964150532007,100,1682465964150532007,camera_2,101,0,0.28064634706982605,0.34624944469817825,3.681680508048221,-0.9984275782201248,0.030214642502645408,0.027289097329097085,0.03853247454935736,0.012610396486707033,0.0023755463934712865,19231.65400333167
1682465964159418344,101,1682465964159418344,camera_2,102,0,0.2806928219540632,0.3462779539434714,3.682154837766793,-0.9984296720043849,0.030277100420258697,0.028922415179239703,0.03721533489782939,0.015064824430737644,0.00283850933454184,19227.04558485048
1682465964168884277,102,1682465964168884277,camera_2,103,0,0.2806847372513246,0.3462961991206132,3.6822963831100806,-0.9984952056659122,0.030370616181171338,0.02668822040663925,0.037049815471745046,0.018608582497108728,0.003506704964646499,19232.54217974144
1682465964178248405,103,1682465964178248405,camera_2,104,0,0.2806422623592964,0.34625721308758284,3.681685023513806,-0.9983650124594925,0.030352463632673795,0.026755371539158076,0.04037548689472701,0.012850901344791055,0.002421031081501858,19225.853715943173
1682465964187632799,104,1682465964187632799,camera_2,105,0,0.2806831589812917,0.34628639233753256,3.682207119106452,-0.9984324783379896,0.03039530894595688,0.028784038651980433,0.037150915369891846,0.014983636676333845,0.0028232685351884464,19227.17180271401
1682465964196696281,105,1682465964196696281,camera_2,106,0,0.2806711066911428,0.34629762874697684,3.6820736452130904,-0.998374391990053,0.03026175914648444,0.02777041020081875,0.039517131337316276,0.010899247892666608,0.002053689128012322,19222.352571991963
1682465964205884456,106,1682465964205884456,camera_2,107,0,0.28068283570205954,0.3463204867448831,3.682377723981536,-0.998430147673192,0.030175483396512746,0.02535728611263775,0.039795583424250894,0.017527407850138843,0.003303547915236701,19224.708150588678
1682465964215502738,107,1682465964215502738,camera_2,108,0,0.2806535037921248,0.34624470560173615,3.6817568652585195,-0.9983913815944386,0.030218008767169787,0.029134943349128712,0.03811398929708461,0.015195432235486805,0.0028625705969780087,19227.178924240172
1682465964224961280,108,1682465964224961280,camera_2,109,0,0.28067964530065115,0.34630640193882123,3.6823361082247503,-0.9984747834891942,0.03026170998678123,0.028287681260608148,0.036498530570164216,0.015469121164642274,0.0029150101997214746,19229.68278395338
1682465964234139919,109,1682465964234139919,camera_2,110,0,0.2806991048774632,0.3463255373973799,3.682423195808342,-0.9984419137892933,0.030350912582941668,0.028212435888397835,0.03737145107430347,0.017325829481706023,0.003265089852076478,19225.69305552356
1682465964243500471,110,1682465964243500471,camera_2,111,0,0.280599651721095,0.34619930970743756,3.68107840958307,-0.9983583036047329,0.03024184265832157,0.027193339696664726,0.040331759845700074,0.015299523307476193,0.0028814351820545614,19231.117302258503
1682465964252877473,111,1682465964252877473,camera_2,112,0,0.280680089988663,0.34630207611544567,3.682253921141117,-0.9984574683367097,0.030206375583602115,0.026333616015665817,0.038429148628224344,0.018714505073148757,0.0035267963724683977,19228.703797276597
1682465964262142419,112,1682465964262142419,camera_2,113,0,0.2806907053864192,0.346317558700747,3.6823197288549308,-0.9983819772276874,0.030267146979266482,0.02927109292533526,0.038216887361812744,0.009656233829446137,0.0018195706930161407,19220.50283368327
1682465964271427631,113,1682465964271427631,camera_2,114,0,0.2807092350275215,0.34631322641595047,3.6825780909842933,-0.9984672466977222,0.030371983921435655,0.02909334811934537,0.03597606092602285,0.019200814072974026,0.0036185395133036895,19226.760742711373
1682465964280613183,114,1682465964280613183,camera_2,115,0,0.28062619924597454,0.34624245937895615,3.681503449651405,-0.9983953776202501,0.03029645287797074,0.029371177135776846,0.03776412110972323,0.010346266906708479,0.0019487715838831668,19230.424261665903
1682465964290287971,115,1682465964290287971,camera_2,116,0,0.28063017285106523,0.3462466368196969,3.681621340385548,-0.9984231143436457,0.030409167918969044,0.027788129526185975,0.03813642757583734,0.01565102842869237,0.00294830769083191,19232.380502698237
1682465964299505710,116,1682465964299505710,camera_2,117,0,0.280683621774993,0.34630466571778734,3.682182076379213,-0.9984374150512001,0.030286507994706162,0.02734397708244199,0.03818065710119422,0.017440767609514296,0.0032865409802756425,19227.57286255574
1682465964308686017,117,1682465964308686017,camera_2,118,0,0.28072061268266846,0.346323151368286,3.6825673092198374,-0.9984318820263345,0.0303709964253377,0.029304880179847018,0.03677775859305366,0.02311220346018672,0.004355958577808563,19223.217680518293
1682465964318221330,118,1682465964318221330,camera_2,119,0,0.2807447547824386,0.3463565825477261,3.6828581557304814,-0.9984505235560358,0.030292082630785987,0.0286276411337285,0.0368700407334498,0.01734281226526946,0.0032689940971513923,19221.83357886644
1682465964327660083,119,1682465964327660083,camera_2,120,0,0.28068518840026624,0.34632460087631844,3.6822677011146583,-0.998416625308239,0.030379997961540946,0.026505868290321165,0.03922673805123494,0.020801023638341576,0.00392012335856925,19224.9466409299
1682465964336673021,120,1682465964336673021,camera_2,121,0,0.2806513501899119,0.34625490070713577,3.6817779354225237,-0.9983982660974029,0.030156976801701794,0.028582794310495978,0.03839899573276678,0.009653584624174982,0.0018185798501971608,19227.48155198362
1682465964346171617,121,1682465964346171617,camera_2,122,0,0.2806719623661704,0.34630918210428324,3.6822095023638313,-0.9984348725416223,0.030157986978474056,0.02632648930126498,0.0390540276446754,0.01275697845267132,0.002404003962894931,19226.768432206936
1682465964355376243,122,1682465964355376243,camera_2,123,0,0.2806489088301436,0.34627045530217293,3.6817948122509865,-0.9983893240464574,0.030277963139448062,0.026934549440599403,0.03970557422599707,0.012425221735611558,0.002340924347352512,19226.865383680684
1682465964364739656,123,1682465964364739656,camera_2,124,0,0.2806591387601216,0.3462663202499367,3.681964023312735,-0.9984091729074569,0.03027347979617581,0.02663107674017529,0.03941352086451223,0.012814075802452862,0.002414358926044479,19227.146619368577
1682465964374143600,124,1682465964374143600,camera_2,125,0,0.28069915220892644,0.3463738984915502,3.682817581363427,-0.9984680466370527,0.030209647378026425,0.025830648084994585,0.038493047029208555,0.013423697208054364,0.00253053720201668,19223.94624590804
1682465964383215665,125,1682465964383215665,camera_2,126,0,0.2807260495875609,0.34634423395071695,3.682634343333291,-0.9984378494313487,0.03026155642231503,0.027209372925512045,0.038285102204420884,0.019853659090586007,0.0037420841378851795,19222.839501256123
1682465964392870664,126,1682465964392870664,camera_2,127,0,0.28064436825873523,0.34626417536141285,3.6817387196051996,-0.9983874482501182,0.030224211895904098,0.026944823687168377,0.03978663931971051,0.017505862342659384,0.0032981607885181935,19227.083839103343
1682465964402420043,127,1682465964402420043,camera_2,128,0,0.2806068722702446,0.34622612039599543,3.6813695527253243,-0.9983862131564748,0.030241208544925242,0.026943282280314708,0.039805756176459386,0.0158557259128429,0.002986627210881546,19230.89809680568
1682465964411386013,128,1682465964411386013,camera_2,129,0,0.2806835571340989,0.34629008714239784,3.682245445637154,-0.998430640514478,0.030262520200544655,0.026833657896841237,0.03873487778264295,0.012980342202354223,0.0024460077659705067,19226.292591342244
1682465964420870304,129,1682465964420870304,camera_2,130,0,0.280600203968419,0.346216238557316,3.6812961781184597,-0.9984187307637025,0.030215233768998446,0.027091124873735013,0.03889921158015793,0.013789328339044005,0.002597174631141943,19234.81768405182
1682465964430023193,130,1682465964430023193,camera_2,131,0,0.2807001287350853,0.34631558394337864,3.6823422863389506,-0.998458361309951,0.03016799318240668,0.02701883162660226,0.03795755069978533,0.016337269742507488,0.0030788076357256148,19227.670721931383
1682465964439414978,131,1682465964439414978,camera_2,132,0,0.28071887849919536,0.34632984586251336,3.6825490228300954,-0.9984520904188011,0.030318740257257153,0.02815241311056444,0.03717040171415043,0.011910091969184577,0.002244630701597258,19225.298526377417
1682465964448855876,132,1682465964448855876,camera_2,133,0,0.2806831027133526,0.3463094946885371,3.6822381933801855,-0.9984171224282593,0.030302693215897198,0.027585488620002773,0.03852320396245834,0.012706750596407801,0.002394484828851056,19225.018503098043
1682465964458030700,133,1682465964458030700,camera_2,134,0,0.28065786121825875,0.3462749814770505,3.681963258009265,-0.998431545520123,0.030295952224047816,0.02688083230230725,0.03865262014239292,0.018281482276506722,0.003444555505001777,19229.384823029162
1682465964467272281,134,1682465964467272281,camera_2,135,0,0.2806105147638409,0.3462180824603469,3.681309762579501,-0.9983973434433008,0.03018747049953608,0.028658999656946196,0.0383421826303958,0.0104698117938824,0.0019718723291726587,19232.3461394133
1682465964476785659,135,1682465964476785659,camera_2,136,0,0.2806983865023903,0.3463320340688727,3.682401301513409,-0.9984189210889272,0.030244535719042287,0.027108349803309367,0.038859534759228126,0.012115076533518733,0.0022832655197822546,19223.324724856306
1682465964485944986,136,1682465964485944986,camera_2,137,0,0.28070107415441997,0.3463412154030444,3.682558874839319,-0.9984699203026001,0.03024112288574212,0.02786764602791666,0.03696873060292465,0.018422209715936333,0.003472101150827231,19226.75637685995
1682465964495543241,137,1682465964495543241,camera_2,138,0,0.28057282400616324,0.3461494514607951,3.680888827305444,-0.998416423509363,0.03013630580092286,0.028870918614615295,0.03772159060530122,0.008115060918498784,0.0015279739760637539,19238.57273183996
1682465964504592418,138,1682465964504592418,camera_2,139,0,0.28070857302340624,0.3463486935855379,3.682674031106585,-0.9984351368299822,0.03020912672056444,0.02695558698532883,0.03857567285676357,0.012603726820088923,0.002375580021207975,19222.076127708424
1682465964514032840,139,1682465964514032840,camera_2,140,0,0.28065449889439087,0.346265710831692,3.681804226910903,-0.998390684626167,0.030316682845449465,0.02664469684596899,0.039837165096534045,0.014648298092652112,0.0027598799025039516,19227.033358152956
1682465964523440837,140,1682465964523440837,camera_2,141,0,0.2806898167698381,0.34631320001933835,3.6823102641457495,-0.9984375614046411,0.03027316208206587,0.027248446524353726,0.03825563743967379,0.016074710409156978,0.003029224153733879,19226.25490676192
1682465964532564878,141,1682465964532564878,camera_2,142,0,0.2806504428184325,0.3462404348520576,3.6816950600115836,-0.9983652068185181,0.03033252979123574,0.02944208440869789,0.03847096458827606,0.020396787964273244,0.0038422774694082096,19225.54886590223
1682465964542017459,142,1682465964542017459,camera_2,143,0,0.28061840352985457,0.346204611712975,3.6813568807407018,-0.9983766292471737,0.030336413775264023,0.02831973586777304,0.039010264452924506,0.015018338861409575,0.0028286284288267464,19230.298849593146
1682465964551409482,143,1682465964551409482,camera_2,144,0,0.28066064724003525,0.34631719057521615,3.682197929500889,-0.9984153709579072,0.030197734610436587,0.026278756216811593,0.039550863847451746,0.01412724336842075,0.002662201799084016,19225.091812096543
1682465964560869932,144,1682465964560869932,camera_2,145,0,0.2806590223066497,0.34626988959927396,3.6820668838573387,-0.9984286826472586,0.030264395685869222,0.02900603811315896,0.037187118388049244,0.015161946008447561,0.0028567354745178625,19227.867107280057
1682465964570014953,145,1682465964570014953,camera_2,146,0,0.28067532343801804,0.3462697767555975,3.6821103263952444,-0.9984533924710086,0.030174023119134613,0.028589467779900565,0.03691874488660282,0.018032179039437324,0.0033975507315640824,19229.622918947593
1682465964579166650,146,1682465964579166650,camera_2,147,0,0.2806750069637706,0.3462872508945426,3.6820929266202556,-0.9983933914648006,0.03032494830799363,0.027251642626981584,0.039349477298464094,0.013058582902885975,0.002460652013809983,19224.279783906182
1682465964588615655,147,1682465964588615655,camera_2,148,0,0.28065230974381683,0.34628369656888947,3.6819678001157667,-0.998379528601793,0.03018525561197916,0.027021986134481483,0.03996222563683198,0.012366889568511397,0.0023301290712644893,19223.84261913458
1682465964598176240,148,1682465964598176240,camera_2,149,0,0.28065033049828453,0.3462892477998361,3.682160536949725,-0.9984385626408051,0.03019751898570833,0.02738451694795428,0.03819207653948879,0.006336385675240308,0.0011939426086871648,19227.76377778198
1682465964607251644,149,1682465964607251644,camera_2,150,0,0.28058919900677065,0.34619815230350004,3.68117013691435,-0.9984054766541534,0.030182025744082255,0.02662249874525671,0.039582724382425924,0.01707881037145853,0.0032168012939308935,19234.740866776785
1682465964616678476,150,1682465964616678476,camera_2,151,0,0.2806913023505069,0.34631822104708904,3.682468408026414,-0.998406650703729,0.03021259614242974,0.026944166997201834,0.0393112036158034,0.01038651872659102,0.001957514896322193,19221.41842797165
1682465964626141548,151,1682465964626141548,camera_2,152,0,0.2806544045686297,0.3462225934700068,3.681622596414068,-0.9984017640071366,0.030351037366392445,0.027462120904953473,0.038968757660762306,0.02474575024098158,0.0046616764449432775,19230.091580903158
1682465964635212659,152,1682465964635212659,camera_2,153,0,0.28061502519185255,0.34621146062526903,3.6812956350682353,-0.9983539659522204,0.03014831986253501,0.02633900302585195,0.0410693851493215,0.015162128722295167,0.002855992043731914,19228.27204754972
1682465964644485473,153,1682465964644485473,camera_2,154,0,0.2806394119936231,0.34627921980486875,3.682028835850189,-0.9984433231015412,0.03012565385561817,0.025904932341985664,0.03914473162610993,0.010729061323218048,0.0020216467264067856,19229.515390925357
1682465964653862476,154,1682465964653862476,camera_2,155,0,0.2806737393473933,0.3462803903381361,3.682143995469851,-0.9984130182199014,0.030169317351530407,0.025842022811744993,0.03991800591922114,0.015311408089473844,0.00288543646344464,19225.39931712439
1682465964663870573,155,1682465964663870573,camera_2,156,0,0.2806004861929583,0.34620680735162346,3.681092233486124,-0.9983254351473722,0.030243466935959334,0.027305276889122886,0.0410619056975177,0.01658857986330986,0.0031243703353014693,19227.696922417956
1682465964672866582,156,1682465964672866582,camera_2,157,0,0.2806666802971425,0.34627994236308246,3.6819957133454957,-0.9983837688937351,0.03042802021049215,0.02672398039844617,0.03987247756628737,0.017274933983571827,0.0032551349010933456,19224.688312887665
1682465964682010650,157,1682465964682010650,camera_2,158,0,0.28062181072411124,0.34624430812274964,3.6816425807679054,-0.9983747540049333,0.030027744034135155,0.024942074953359383,0.041522018867470555,0.012167233566287905,0.0022924002391926804,19226.588982135057
1682465964691297292,158,1682465964691297292,camera_2,159,0,0.28064593829553275,0.346251154493683,3.681937049000276,-0.9984122581931855,0.030166682229867355,0.0270046213707247,0.03916228284268051,0.00916981796035543,0.0017276836561929787,19227.423212299596
1682465964700729131,159,1682465964700729131,camera_2,160,0,0.28070216022847655,0.34632033918164773,3.6826151733579517,-0.9984686174225835,0.03031994491386531,0.0267845322488156,0.03773207912197379,0.018387630116194487,0.0034657594808170846,19226.408963987593
1682465964709893941,160,1682465964709893941,camera_2,161,0,0.2805990084293098,0.34620132167685413,3.6812819599343687,-0.9983897684020077,0.030130489057131664,0.027718726123449052,0.03926443940077081,0.012741998652927576,0.0023999194565762242,19231.803340761457
1682465964719347476,161,1682465964719347476,camera_2,162,0,0.2807067866587434,0.34628719117501044,3.6824995245037058,-0.9984457409037404,0.03034464311117836,0.029503206879378022,0.036261079540864716,0.015381294826511294,0.0028986175774762864,19225.35541214818
1682465964728662014,162,1682465964728662014,camera_2,163,0,0.28059431091116493,0.3461981892823425,3.681119423760063,-0.9983620982003424,0.030189011758227878,0.02628416125428828,0.04087648851393727,0.017780941678211093,0.0033490496532625836,19231.028075645445
1682465964737809658,163,1682465964737809658,camera_2,164,0,0.28069441387186456,0.34632254070023394,3.682397491426014,-0.9983516202738053,0.03025626003753204,0.028417680671948765,0.03963630217914203,0.014955135993659496,0.002818411035468256,19216.671810452593
1682465964747414350,164,1682465964747414350,camera_2,165,0,0.28061786001055256,0.34619759558470287,3.6812954246336314,-0.9983976243225765,0.03026198754944211,0.029001812923059277,0.038016979151014395,0.011669035069644451,0.0021976700279986885,19232.76854801178
1682465964756473302,165,1682465964756473302,camera_2,166,0,0.2806447436716518,0.34626385627253925,3.6818618187787857,-0.9983948035638078,0.03016757465865216,0.027062985229877164,0.03956423241322366,0.015574483724776655,0.002934347087925538,19226.41417852207
1682465964765908241,166,1682465964765908241,camera_2,167,0,0.2806454824145338,0.34624729984466845,3.681809527791992,-0.9984161639381284,0.03030244580171127,0.025617374563446135,0.0398832732606414,0.01897463016211987,0.00357519492911568,19229.62876980844
1682465964775306224,167,1682465964775306224,camera_2,168,0,0.280678123203256,0.34626339416383584,3.68194355400222,-0.9983622921341747,0.030324131091242816,0.028445167601887242,0.03929444182398563,0.018474587239325047,0.003480789785911146,19222.66298532951
1682465964784693956,168,1682465964784693956,camera_2,169,0,0.2806115632182216,0.34623865448295205,3.681527344806379,-0.9983583365901314,0.03015664314005975,0.026391037306725953,0.040923364785706136,0.01289770455332473,0.0024297614806533326,19226.330018705456
1682465964794002771,169,1682465964794002771,camera_2,170,0,0.28065669430814866,0.34626215921643,3.6818044705098942,-0.9983716728700887,0.030199976839661195,0.02723806690975333,0.04000064900078867,0.014623454422689974,0.002755176784626875,19224.742128201062
1682465964803270101,170,1682465964803270101,camera_2,171,0,0.28070809111195677,0.34633243460669744,3.6829160513509263,-0.998511290348219,0.03006291574534744,0.026209814596978735,0.037208463591166585,0.016019169124774635,0.003019752138925095,19226.90009433031
1682465964812591791,171,1682465964812591791,camera_2,172,0,0.2806570650914194,0.34627148991593176,3.6821575762391916,-0.9984488161700303,0.03011797216640866,0.028680932285909868,0.03701720362830796,0.011291849077679215,0.0021275412016587766,19228.568551868666
1682465964821834325,172,1682465964821834325,camera_2,173,0,0.2806363761917152,0.3462662642330432,3.6820425502726657,-0.9984223505385622,0.030146851646983885,0.026886884875520923,0.03900093207242285,0.006411922222469002,0.0012081158820419254,19227.30978098139
1682465964831164598,173,1682465964831164598,camera_2,174,0,0.28062949619216593,0.3462159153110419,3.681527991214306,-0.9983740884317662,0.030158550264619152,0.02857745007605575,0.039025257732998704,0.01826464629266411,0.0034404397899592326,19227.714049758164
1682465964840397357,174,1682465964840397357,camera_2,175,0,0.2806989123487583,0.34630458984174756,3.6824894932118424,-0.9984675795217054,0.030263727548318596,0.027136536852149153,0.03755273367705714,0.016671384044457227,0.003141892469570778,19227.43992927997
1682465964850096225,175,1682465964850096225,camera_2,176,0,0.28069165296874765,0.3463194033456639,3.6825015225326103,-0.9984416298988227,0.0301764688153855,0.02785392364740648,0.0377869203860441,0.013800235348753631,0.0026008255370748045,19224.390097350806
1682465964859194517,176,1682465964859194517,camera_2,177,0,0.28064469219806365,0.346267723831435,3.6819668987594896,-0.9983825810401291,0.03016998507111741,0.02708390116244791,0.039855440962074246,0.015650493383873254,0.0029488284908809515,19224.150117297195
1682465964868576765,177,1682465964868576765,camera_2,178,0,0.28069649823880327,0.3462914911411012,3.682354377362513,-0.9984199218423608,0.030211497594763687,0.028947619181265285,0.03750947113879687,0.01946171117015183,0.0036674747841048882,19223.810892943293
1682465964878022909,178,1682465964878022909,camera_2,179,0,0.280552065405583,0.34614536559100273,3.6806666418449585,-0.9983359823468934,0.03016846258102916,0.0266063683805321,0.04131865654350047,0.018441802181769162,0.0034726302160877137,19233.131083098706
1682465964887287139,179,1682465964887287139,camera_2,180,0,0.2806424427988469,0.3462704007744868,3.6820889560075813,-0.9984327266692031,0.03011933654257463,0.02610600285436722,0.039286034377413154,0.014681483909953386,0.0027664643187646568,19227.83700318751
1682465964896610736,180,1682465964896610736,camera_2,181,0,0.2806764476418694,0.3462730942743201,3.682090954210359,-0.9983878721054881,0.030232048713360243,0.02954857630127106,0.037875608270185754,0.012112924479879439,0.0022822810474272147,19223.386874529533
1682465964905809402,181,1682465964905809402,camera_2,182,0,0.28060744583860964,0.34621891156191453,3.6813787179492334,-0.9983435790407822,0.030140378874776535,0.026497945799948727,0.041225169711104945,0.015864496584981676,0.00298841172545088,19226.374938617475
1682465964915286064,182,1682465964915286064,camera_2,183,0,0.2806274808320609,0.3462368538012414,3.6815864519317563,-0.9983365496673303,0.030107378744028655,0.027428867087609655,0.04080853579564089,0.015453539439477026,0.002911150849239124,19223.320798865527
1682465964924621343,183,1682465964924621343,camera_2,184,0,0.2806905122628943,0.3463232475928827,3.682513022987517,-0.9983845522139697,0.03024400361900689,0.027003225411243278,0.03980467262765018,0.013998109381645918,0.0026383271412307088,19218.850809506144
1682465964933858156,184,1682465964933858156,camera_2,185,0,0.2805713065268268,0.3461810347536302,3.6810466407981464,-0.9983557778249043,0.030016506222975258,0.027861150087517023,0.040106190963458146,0.006509683793410659,0.0012258645172347259,19230.591168164516
1682465964943181753,185,1682465964943181753,camera_2,186,0,0.28061560562549837,0.3462546986673214,3.6817801529798633,-0.9983727419795577,0.030195201401624985,0.025839543717238254,0.040895425966967804,0.013249401119537652,0.002496366117236549,19225.356943959385
1682465964952776193,186,1682465964952776193,camera_2,187,0,0.28062883048330245,0.3462576869173467,3.681690550140748,-0.998374295077007,0.030247270309763118,0.02744937683850187,0.03975426114865587,0.013820282998494804,0.002603634163323697,19226.34466617764
1682465964961844205,187,1682465964961844205,camera_2,188,0,0.28065123989420104,0.3462770010587356,3.6821334971387345,-0.9984454514253579,0.030158630484593392,0.027160515131495505,0.03820266944991077,0.0114261923590675,0.0021529974632704205,19228.644865661867
1682465964971253871,188,1682465964971253871,camera_2,189,0,0.2806024893137735,0.3461977121906849,3.681203622704346,-0.9983538126517566,0.030229041280172703,0.026298286567481108,0.04103985807233693,0.009935372392646968,0.0018713444720180907,19229.48774665478
1682465964980368137,189,1682465964980368137,camera_2,190,0,0.2806887596694242,0.34632588319375307,3.6825924167438626,-0.9984447382137401,0.030152311815893323,0.024285049917600623,0.040114575604792604,0.010206681035924703,0.0019239727116514744,19224.073015377617
1682465964989803552,190,1682465964989803552,camera_2,191,0,0.28054221516393896,0.346175145860914,3.6807990503351786,-0.9983628266334256,0.030120869946644434,0.02512726192203595,0.041629560392530116,0.011675635178107768,0.0021988053288186427,19234.459136046702
1682465964999477386,191,1682465964999477386,camera_2,192,0,0.280613966996624,0.3462091917691071,3.6814539467502296,-0.9983839977388512,0.03008589201694805,0.026266065975553313,0.04042679728474547,0.020389661425724626,0.0038410125576676217,19229.459294824403
1682465965008382558,192,1682465965008382558,camera_2,193,0,0.28069412472843625,0.3462896013129031,3.6824745672041046,-0.9984504787216504,0.030294232882763915,0.028449558617237598,0.0370070751213401,0.011359274038113654,0.0021406104205060794,19225.97198542067
1682465965017879009,193,1682465965017879009,camera_2,194,0,0.2805741103097648,0.34617734400402056,3.6809346498067295,-0.9983364382951962,0.03010099065062672,0.027652792774780482,0.04066459621916665,0.01139835233334452,0.0021464465182720388,19230.06727078441
1682465965027327060,194,1682465965027327060,camera_2,195,0,0.28070920124306353,0.346340496365553,3.682725125551134,-0.9984421521411805,0.03014122990891988,0.026876058812027488,0.03850263042959362,0.012046340911183506,0.002270651486531151,19222.062243213415
1682465965036432027,195,1682465965036432027,camera_2,196,0,0.28060118850516624,0.34623667905146926,3.681424485238368,-0.9983329374174057,0.0302164206976088,0.026351112658072627,0.04152027034402893,0.015342389058787377,0.002890257461977334,19225.068096735045
1682465965045792341,196,1682465965045792341,camera_2,197,0,0.28064854963207253,0.34624454029851437,3.6818091185658943,-0.9983872958791373,0.030258468631674258,0.02886112650776078,0.038396196164631816,0.015605313994456083,0.0029399531054532203,19226.375731929198
1682465965055094480,197,1682465965055094480,camera_2,198,0,0.2806382414676231,0.34627595498546637,3.6820574929772367,-0.9983959974778049,0.030066560534810292,0.027593640774805677,0.039243154137972774,0.013779127039015293,0.0025962377134607834,19224.220225932535
1682465965064712762,198,1682465965064712762,camera_2,199,0,0.28068285827930184,0.3463015551117793,3.6823112122798394,-0.9984093897600739,0.03035124460895583,0.028273277978324986,0.03818526079477061,0.017694721813313663,0.003334438944643604,19223.65273619908
1682465965073867559,199,1682465965073867559,camera_2,200,0,0.2806279062538114,0.34623490886571845,3.681652212369228,-0.9983825356715931,0.030176725086818405,0.025926457761388473,0.04061399410230282,0.01656977750826627,0.003121810360517598,19227.54352688976
1682465965083145618,200,1682465965083145618,camera_2,201,0,0.280631312729902,0.34625746471300783,3.6819437839782667,-0.9984005409751187,0.03017072851922864,0.02773910416602764,0.03894392149329388,0.01340246491599828,0.002525159931897966,19226.154600867296
1682465965092426776,201,1682465965092426776,camera_2,202,0,0.2806110591212485,0.3461866223435019,3.681369511612737,-0.9983707443638952,0.030226127939616515,0.027339613975944747,0.03993474046123972,0.01503627427155152,0.0028322396861802756,19229.366059320986
1682465965102047920,202,1682465965102047920,camera_2,203,0,0.28058580033928393,0.3462065106955874,3.6813285577382278,-0.9983848391136325,0.03015435561830215,0.026988086337807374,0.03987569511763189,0.009701874863822013,0.0018273713937021097,19231.012962460987
1682465965111142635,203,1682465965111142635,camera_2,204,0,0.28060368907340033,0.34622148299575767,3.681454326980785,-0.9983866517292401,0.030210506602510612,0.028049394646187036,0.03904677194953436,0.012179504439700395,0.0022941044542632324,19229.938148819376
1682465965120548963,204,1682465965120548963,camera_2,205,0,0.28058324915833643,0.34620235223010104,3.6811448947320806,-0.9983869272118824,0.030180571187419177,0.026938301375456667,0.039837226487568045,0.01365266606444493,0.002571338412583336,19233.149244056556
1682465965129806995,205,1682465965129806995,camera_2,206,0,0.2806558294710357,0.34628817797216654,3.6820907140388526,-0.998393371947504,0.030136531575459452,0.02689647452397958,0.03973718628784958,0.011510977521538734,0.0021690547236338092,19223.808792443015
1682465965139107942,206,1682465965139107942,camera_2,207,0,0.2806619123890569,0.3462765688446545,3.682071367377746,-0.9984418665544266,0.03031812138458637,0.028913509076623753,0.036860000269913096,0.010618554952088743,0.0020006140178624307,19229.311474226415
1682465965148691177,207,1682465965148691177,camera_2,208,0,0.2806698013906148,0.346305084356728,3.6822846931318187,-0.9984211407304602,0.03004972938915831,0.02741580130875795,0.03873775089914001,0.01407588116126135,0.0026525374527965897,19224.248621529434
1682465965157729625,208,1682465965157729625,camera_2,209,0,0.2806830744871969,0.346307099017416,3.6825269526785562,-0.9984138100203664,0.03023438172142166,0.02721397279444711,0.03892487388909645,0.014001847361214459,0.0026389187489991306,19221.629919624655
1682465965167059659,209,1682465965167059659,camera_2,210,0,0.2805858609564346,0.34611801187239244,3.6808793233840693,-0.9984000712666388,0.030400172989374027,0.03003709195444668,0.03702567060711713,0.00956263585248962,0.0018004341051866587,19237.88159768935
1682465965176668167,210,1682465965176668167,camera_2,211,0,0.28061716981281026,0.3462193195155975,3.681551874229495,-0.9983439026890357,0.030227624778056232,0.02710294613825721,0.04075748979671425,0.014628795499447733,0.0027557069762761174,19224.855378610548
1682465965185734987,211,1682465965185734987,camera_2,212,0,0.28065807362942097,0.3462784274609535,3.6819679699410957,-0.9983822633844259,0.030104252534567853,0.025970951349149844,0.04064603086090947,0.013641783734783529,0.002570540769309286,19223.972734352574
1682465965195118427,212,1682465965195118427,camera_2,213,0,0.28068573097016525,0.3463036977659938,3.6824119332832095,-0.9984469982377523,0.03009972570231983,0.02725777930535245,0.038139371914174575,0.013029041700065138,0.00245541918116589,19225.67474098597
1682465965204254627,213,1682465965204254627,camera_2,214,0,0.28063142862255813,0.34625247035795814,3.6818844067083676,-0.9984210784546461,0.030093374783757218,0.026971529070689337,0.03901634928045859,0.010772960376925766,0.0020296612051513333,19228.642996659735
1682465965213743448,214,1682465965213743448,camera_2,215,0,0.28062506800089426,0.3462556264477851,3.681958236391643,-0.9984549460996831,0.030147711101368248,0.027795658539017744,0.037499833210421135,0.013565898640081286,0.002555856515804446,19231.394018634463
1682465965223194122,215,1682465965223194122,camera_2,216,0,0.2806565436672543,0.3462960768851673,3.6821310146700568,-0.998374613138935,0.030142373145657517,0.025411724364265163,0.04115596488559637,0.017902713385410607,0.0033739572853996214,19221.718703901402
1682465965232351541,216,1682465965232351541,camera_2,217,0,0.2806364389992432,0.3462788078626988,3.6820560333509493,-0.998412634436193,0.030007634819676013,0.025836693367254866,0.040052696869952824,0.008935254998505116,0.0016837410493644792,19225.851677671533
1682465965241702318,217,1682465965241702318,camera_2,218,0,0.2806387429369147,0.34627332102012975,3.6818152834911024,-0.99837829877462,0.030186418651423665,0.026317403639907592,0.04045920081453096,0.014231866342015564,0.0026815078885787436,19225.360972504594
1682465965251186132,218,1682465965251186132,camera_2,219,0,0.2806375351782048,0.3462595049365994,3.6818698550693307,-0.9983562950979384,0.030255026857371914,0.026138201816670963,0.041062583868638376,0.013111178588587789,0.0024704169021174125,19222.92310824641
1682465965260333299,219,1682465965260333299,camera_2,220,0,0.280665787268757,0.34628876343483983,3.6821308493131837,-0.9983689730016951,0.03030242078280972,0.02768695373839127,0.039681099215247075,0.014460719248745589,0.002724923417808661,19221.388558626644
1682465965269896984,220,1682465965269896984,camera_2,221,0,0.2806141103267549,0.34624160084099975,3.6817770664593303,-0.9984332399272707,0.030077153609005737,0.026508152395132833,0.039035216096625046,0.01789762987755239,0.0033720096934591734,19230.956535010366
1682465965278999567,221,1682465965278999567,camera_2,222,0,0.2806253913492143,0.34624027849003525,3.6818331264541886,-0.9984074367159421,0.030027774292178226,0.027461026226507944,0.039074481697742386,0.006662597646936774,0.0012551802829611858,19227.616152674433
1682465965288183450,222,1682465965288183450,camera_2,223,0,0.2805776206916467,0.3461681882380354,3.680955059350374,-0.998340118332558,0.030233442682396267,0.027212083827191758,0.04077314759846663,0.010233084671199322,0.001927086089806353,19230.66733675729
1682465965297912597,223,1682465965297912597,camera_2,224,0,0.28062073529295817,0.3462543760311283,3.6818294321333984,-0.9984177638096482,0.030249698923176183,0.025222492760392453,0.04013415606874802,0.012013288971502334,0.0022634942527673383,19229.542917071616
1682465965306998014,224,1682465965306998014,camera_2,225,0,0.2806631922543791,0.3462643942262358,3.6819918573398702,-0.9983895989453723,0.030156843978543943,0.028922765067670643,0.0383698728143941,0.01774799224222079,0.003343918058469133,19224.390710826032
1682465965316500186,225,1682465965316500186,camera_2,226,0,0.28062987596766337,0.3462297997022922,3.6816115009452117,-0.9983557391608043,0.0302970028546546,0.02673721795386684,0.040657482445383655,0.018235590192489326,0.003435496206798256,19225.58205426787
1682465965325774669,226,1682465965325774669,camera_2,227,0,0.28064412118648774,0.3462932186266878,3.6821196416669904,-0.9984053151281251,0.030019188918755647,0.026415465778641067,0.039848440223761654,0.009568418958224356,0.001803073411652725,19224.40872592851
1682465965334990262,227,1682465965334990262,camera_2,228,0,0.2806963852175886,0.34629489382144063,3.6825384390942593,-0.9984778782782452,0.030386376720668563,0.028973277363221684,0.035765121243990394,0.018467232584953308,0.003480175296431841,19228.35149165475
1682465965344371318,228,1682465965344371318,camera_2,229,0,0.2806273230385904,0.3462257193518198,3.6817035498437924,-0.998407249413764,0.0302526210663628,0.028866691521357603,0.03787423078120618,0.014763742103241387,0.002781128412712305,19229.51868106564
1682465965353644847,229,1682465965353644847,camera_2,230,0,0.2806272187791068,0.3462501132495152,3.6817998380450603,-0.9983981746441292,0.030052646015953276,0.0270389997299603,0.03958302449679416,0.009094990848097948,0.0017134549381662306,19227.110520548882
1682465965363096714,230,1682465965363096714,camera_2,231,0,0.28061859698713243,0.34620537125213535,3.681482164619565,-0.9983874127288486,0.03017187437529709,0.027196572057533418,0.03965575077585306,0.01414476876379922,0.002664406653601093,19229.689505580813
1682465965372509956,231,1682465965372509956,camera_2,232,0,0.2806287292821435,0.3462338385643472,3.681724306156586,-0.9983792422433072,0.030235518067873453,0.028747192551804905,0.038707893577877905,0.011336630443111062,0.0021356251317148542,19226.43883252934
1682465965381677865,232,1682465965381677865,camera_2,233,0,0.28063076313747337,0.3462537038354503,3.6818559440582805,-0.998399442848166,0.030039262775366213,0.02615739720532027,0.04014954275988321,0.0172675137873739,0.003253544709006028,19226.679993706515
1682465965391074419,233,1682465965391074419,camera_2,234,0,0.28061552406201207,0.3462617440914198,3.6817835091997946,-0.99838895345168,0.029982589214364155,0.025746570846565803,0.04071432253279587,0.007115297019481659,0.0013405908964323912,19226.28907852387
1682465965400478363,234,1682465965400478363,camera_2,235,0,0.28061007981727987,0.3462517830460752,3.681609350383212,-0.9983745305440527,0.030056424682238604,0.024377686274020503,0.041840608363034236,0.015638078621122986,0.0029465062315237917,19227.06328584812
1682465965409636259,235,1682465965409636259,camera_2,236,0,0.2806971661790697,0.3463131274910151,3.6825475695570145,-0.9984433534234606,0.030237724459884218,0.02695967143775105,0.038337007446736085,0.016284689598251134,0.003069277157392408,19224.332898534827
1682465965419103860,236,1682465965419103860,camera_2,237,0,0.2806950292386045,0.34633345087456724,3.682654175187008,-0.9984156620322375,0.03013453488734437,0.025859567176737947,0.03986675809849808,0.011626338120549917,0.0021915295536830887,19220.275750252196
1682465965428288459,237,1682465965428288459,camera_2,238,0,0.28060216617067785,0.3462191614287363,3.681452233945706,-0.9983819845342782,0.030084749352586353,0.0277089301949634,0.03950362010296054,0.011176333646290004,0.002105163546426877,19229.156488696113
1682465965437661409,238,1682465965437661409,camera_2,239,0,0.28064187689524656,0.3462221841644189,3.6816165763678153,-0.9983595181127852,0.03040873076751325,0.029500162089913667,0.03851392116345704,0.019423339108470827,0.0036587206730268394,19226.06298661371
1682465965447021245,239,1682465965447021245,camera_2,240,0,0.28067232167285294,0.3462402264055404,3.681915756429503,-0.9984025996670713,0.030359893859789797,0.02896556501934677,0.03783545778718711,0.012109100352972746,0.002281295164738887,19227.11864960427
