%time,field.header.seq,field.header.stamp,field.header.frame_id,field.image_seq,field.transforms0.fiducial_id,field.transforms0.transform.translation.x,field.transforms0.transform.translation.y,field.transforms0.transform.translation.z,field.transforms0.transform.rotation.x,field.transforms0.transform.rotation.y,field.transforms0.transform.rotation.z,field.transforms0.transform.rotation.w,field.transforms0.image_error,field.transforms0.object_error,field.transforms0.fiducial_area
1684908762071300745,0,1684908762071300745,camera_1,1,0,-0.8556344725407912,-0.15399203822288648,1.9482028133078613,0.9738156187997199,-0.06019234686481056,0.21553192111092015,0.040075091301967965,0.008821663213893771,0.010794352861422527,2359.1531742713414
1684908762081336021,1,1684908762081336021,camera_1,2,0,-0.8542203914999289,-0.15377069156055323,1.9449833849818947,0.9731938025349592,-0.060415369267079695,0.21818930500479689,0.04046273650401235,0.008047411276493222,0.009822551414535792,2361.1140494649308
1684908762091431379,2,1684908762091431379,camera_1,3,0,-0.8538003219184783,-0.15368041717512204,1.9439866600382456,0.972887443754349,-0.059985822042512696,0.21984820759814938,0.03947769692995524,0.009306898748036474,0.011358321201831539,2360.4786787779294
1684908762101365804,3,1684908762101365804,camera_1,4,0,-0.8549369932801206,-0.15360068602495494,1.9465887762654617,0.9735538309426545,-0.06047236491111883,0.21681708492625099,0.0390689521617944,0.009679195180069655,0.011833186465870798,2361.028311888804
1684908762111291170,4,1684908762111291170,camera_1,5,0,-0.8536618092309902,-0.15312616513159474,1.94375763947685,0.9730310137089494,-0.0605784206997004,0.21848277707835023,0.04249914618197026,0.0036151165841147304,0.004404215037254051,2362.798123077956
1684908762121752023,5,1684908762121752023,camera_1,6,0,-0.8526493838154048,-0.15266208202529308,1.9414493864024378,0.9725272219832239,-0.06115480470436375,0.22082648779008568,0.04106768380928352,0.007711062964517623,0.00938456188703245,2364.2757461552974
1684908762131505727,6,1684908762131505727,camera_1,7,0,-0.8549332197182172,-0.15277341722220827,1.9467064828319354,0.97334854721081,-0.06083098523166743,0.216828133382104,0.043333098808910106,0.004220684408210218,0.005152868506786711,2359.1263993754974
1684908762141636610,7,1684908762141636610,camera_1,8,0,-0.8541047153462361,-0.15201055867588234,1.9448949634843928,0.9732307714649073,-0.06051064163541777,0.21748613595179775,0.043128973920643236,0.0017479154630564153,0.0021304297922829073,2362.671096708161
1684908762151642560,8,1684908762151642560,camera_1,9,0,-0.853178552712096,-0.15158055993295355,1.9428382877473023,-0.972707908375217,0.06093361218272736,-0.21979380287342598,-0.042627504138911095,0.0014905312564224005,0.0018145893758857838,2363.207697327832
1684908762161436557,9,1684908762161436557,camera_1,10,0,-0.8540387123165984,-0.15151153354596622,1.9447936126375145,0.972894966208463,-0.06107609948968645,0.21859700163111823,0.04427692034507789,0.0010442023049108684,0.0012725678228601466,2360.270639952972
1684908762171437501,10,1684908762171437501,camera_1,11,0,-0.8529763070709951,-0.1511615465186887,1.9423971239275026,0.9727084697516747,-0.060607735182389356,0.21987137283789968,0.04267920706613342,0.001178281323518604,0.0014337345657973015,2364.341200467432
1684908762181518077,11,1684908762181518077,camera_1,12,0,-0.8535688438568888,-0.1511613138758876,1.943790655767492,-0.9730242692987214,0.060683142821789514,-0.21853727779690085,-0.04222304756977935,0.004957018420100212,0.00603833477011176,2364.1434275507922
1684908762191430091,12,1684908762191430091,camera_1,13,0,-0.8529814048458763,-0.15113239990419233,1.9424655710170902,0.9728322725624947,-0.06103186313056025,0.21906328242896977,0.04340229757915959,0.000883287750184536,0.0010743357397272296,2365.5640501062153
1684908762201460838,13,1684908762201460838,camera_1,14,0,-0.8535212795116006,-0.15137860786495339,1.9436503974899115,0.9727806285082349,-0.06053344775601257,0.21981763479227237,0.04139755954431392,0.0006989373941905797,0.0008519065347073135,2362.021950775524
1684908762211347103,14,1684908762211347103,camera_1,15,0,-0.8553215062707097,-0.1518997125406828,1.9477666847983117,-0.9732439124699772,0.061007937070609045,-0.2175137124649881,-0.04197741469192979,0.0024215957382693887,0.0029612724565347246,2356.5337372930953
1684908762221268892,15,1684908762221268892,camera_1,16,0,-0.8527003529885058,-0.15199059620754224,1.9417334044105563,0.9722480119247099,-0.06116192763921608,0.22175371191400198,0.04264168345957184,0.001181061554234475,0.001437342942274205,2361.294461475103
1684908762231514215,16,1684908762231514215,camera_1,17,0,-0.8538093306440632,-0.15251747369895763,1.944357953682568,0.9777111107837507,-0.05604258634298955,-0.1933826120735764,-0.05952627750492828,0.005897970520891249,0.007191667708171631,2359.853298575151
1684908762241291284,17,1684908762241291284,camera_1,18,0,-0.8522095578479273,-0.15251108752443782,1.9405594865426303,0.9723031325462588,-0.06080259926841782,0.22182818062512924,0.041496031659445425,0.002940545615274459,0.0035759481265143487,2364.1700335022756
1684908762251183032,18,1684908762251183032,camera_1,19,0,-0.8544653685072509,-0.15319636135047932,1.9456607585515227,0.9730933945945236,-0.060181536822736956,0.2185852649313149,0.04108418159178933,0.004448933759704232,0.005433138636741259,2358.7908771866933
1684908762261470794,19,1684908762261470794,camera_1,20,0,-0.8556013106723803,-0.15387412362270037,1.9481610465942185,0.9738658254752776,-0.06001903297531487,0.2152599280265474,0.04057379743221017,0.009787304792553186,0.011972028563565225,2359.6687311292626
1684908762271477460,20,1684908762271477460,camera_1,21,0,-0.8542160857046458,-0.15373654274441956,1.9449777822217138,0.97335020097646,-0.05976665117618382,0.21771756057963668,0.0402044460417223,0.009523627173621207,0.011622781692565436,2362.3045332191978
1684908762281717538,21,1684908762281717538,camera_1,22,0,-0.853482832009332,-0.15365284708159316,1.9433591628654512,0.9733099282948537,-0.059999109601583805,0.2178690525333775,0.0400120766505847,0.006042027496732771,0.007362432026577364,2366.010755854659
1684908762291978120,22,1684908762291978120,camera_1,23,0,-0.85464090941564,-0.15382785070469193,1.94597659542657,0.9732829099311515,-0.06043821772498262,0.21785135996014787,0.04010466354043923,0.009077058581169695,0.01109062086719101,2359.637356012361
1684908762301929235,23,1684908762301929235,camera_1,24,0,-0.8541719106206132,-0.15347379917915238,1.9449228187817778,0.9732847875065193,-0.06075602546136471,0.2177945429252563,0.03988690073829347,0.013820431951899081,0.01686859832301503,2362.620115932775
1684908762311414480,24,1684908762311414480,camera_1,25,0,-0.8541387711351859,-0.15320609927604265,1.9447986268377684,0.9730493042266337,-0.0610395211005486,0.2185431917835482,0.04108651522018924,0.0015509138465858996,0.0018924524886494436,2360.850708583136
1684908762321616888,25,1684908762321616888,camera_1,26,0,-0.853006432772616,-0.15271737220427556,1.942268940669927,0.972681970709252,-0.06090449073923328,0.2199145255471403,0.04263834328790166,0.004217980720568448,0.005133204982275124,2363.444208650384
1684908762331338644,26,1684908762331338644,camera_1,27,0,-0.8543272513605563,-0.15265828551857993,1.9452981544994745,0.9730343481267637,-0.06094616401377537,0.21845739571512945,0.04202485829712667,0.0022309349733404815,0.00272245376538217,2359.7606409349246
1684908762341603279,27,1684908762341603279,camera_1,28,0,-0.8536917150977573,-0.15194114564104536,1.9439022816765328,0.972979009853527,-0.06056225791673881,0.21865130448607611,0.04284467699742678,0.0011935470975004137,0.0014540037440609963,2362.7203733782517
1684908762351373910,28,1684908762351373910,camera_1,29,0,-0.854244768699147,-0.15177383192171173,1.9452355069306346,0.9731373628813941,-0.06097414904390907,0.21800356300030332,0.0419556031036335,0.0021267374395392835,0.002594496331279721,2361.549265164068
1684908762361441135,29,1684908762361441135,camera_1,30,0,-0.8540145211054452,-0.1515085799363131,1.9447162298008094,-0.9728847412425926,0.06067537257256559,-0.21926965952942865,-0.04164847932833225,0.0017783822258934379,0.002169400585107361,2360.4231929177195
1684908762371417284,30,1684908762371417284,camera_1,31,0,-0.8522977859317447,-0.1510311214638956,1.9408528298908814,0.9722483828035318,-0.0610454791100408,0.22171150594301262,0.0430179003279363,0.00013073428999632597,0.0001589177683861373,2363.928624130786
1684908762381330013,31,1684908762381330013,camera_1,32,0,-0.8532278352847504,-0.15109670657517602,1.9429656462836962,-0.9729063272450803,0.06067693623736339,-0.21860349202231885,-0.04454324966797754,0.005604607693385333,0.006816461133245846,2364.73759882804
1684908762391337156,32,1684908762391337156,camera_1,33,0,-0.8519999363899577,-0.15098533210444928,1.940216283576521,0.9720866371952933,-0.06090107322374266,0.22267301507739604,0.04189698584486162,0.0035732187679968774,0.0043438448653309245,2363.9834861615664
1684908762401294946,33,1684908762401294946,camera_1,34,0,-0.8541613778151028,-0.15150345837629137,1.9451567825096,0.9726457136725057,-0.061185984195785616,0.21981852317135125,0.04354776553694981,0.0002541170106269419,0.0003100129324185546,2357.224780295743
1684908762411672830,34,1684908762411672830,camera_1,35,0,-0.8539069596635438,-0.1516709222393865,1.9445772907469006,0.9727532184519504,-0.06066447603433346,0.21981104980536517,0.041881973715615216,0.0028310850029811263,0.0034535508187163444,2359.4118274295474
1684908762421558856,35,1684908762421558856,camera_1,36,0,-0.8522321488544482,-0.15190602960361965,1.940679214535416,0.9720584909277149,-0.06025905646072205,0.22296491373877803,0.04192592958130293,0.002530071942601353,0.003077610617764512,2361.613827114925
1684908762431575298,36,1684908762431575298,camera_1,37,0,-0.8539763205808878,-0.15252481594446998,1.9447542612660393,0.9779952097598664,-0.05570344129126067,-0.19194999675206775,-0.0598138367098041,0.00397941010305658,0.0048512178752968945,2361.7958923476986
1684908762441545009,37,1684908762441545009,camera_1,38,0,-0.8541541998987021,-0.1528572053862482,1.9449887133268862,0.9730604083427413,-0.06061105533485251,0.21852609204722223,0.04154622463740893,0.0020825121900998056,0.0025409896489801765,2360.505702742725
1684908762451341867,38,1684908762451341867,camera_1,39,0,-0.8549150136266732,-0.15328995680653534,1.9467430007387097,0.973205159772199,-0.059705786823431514,0.21828188227096745,0.04074255618891851,0.008687601133715361,0.010620975447099742,2357.02401276189
1684908762461696863,39,1684908762461696863,camera_1,40,0,-0.855443943807617,-0.1538185338313745,1.9478627876554064,0.9735951142462386,-0.060356093792337535,0.21670221363197187,0.03885673770387277,0.0019285451853647828,0.002360788051378786,2358.274935147841
1684908762471719980,40,1684908762471719980,camera_1,41,0,-0.8548702609681109,-0.15385534134979048,1.9465395822595688,0.9735780407073488,-0.06001755975504635,0.21684885416463126,0.03899058374756403,0.005573873582761735,0.006813968645356634,2361.0036654064916
1684908762481411695,41,1684908762481411695,camera_1,42,0,-0.8545720477352942,-0.15385573300826327,1.945831446762594,0.9735410148120859,-0.05972482659690727,0.21685568360290125,0.04030446694526408,0.014619243505876511,0.017851295791179424,2361.9914286292624
1684908762491311073,42,1684908762491311073,camera_1,43,0,-0.8540447484794721,-0.153712908564068,1.9446414883858252,0.9731325377410535,-0.059938206783804265,0.21859731433162718,0.04044365864012543,0.006048427429050207,0.007380700084595747,2361.146507560159
1684908762501365900,43,1684908762501365900,camera_1,44,0,-0.8553160754882089,-0.1536840129230913,1.947535462412184,0.9738781058724271,-0.06052695236218296,0.21527270144239888,0.039440929930360594,0.01740110683022067,0.021279994157168983,2361.834347151337
1684908762511443138,44,1684908762511443138,camera_1,45,0,-0.8543879091010161,-0.15325372280949084,1.9454527819251104,0.9736259395002067,-0.0603072555371079,0.21644125896646257,0.03960740182004669,0.005132306425366551,0.006264710032335607,2364.5449627388743
1684908762523188591,45,1684908762523188591,camera_1,46,0,-0.8538360650714562,-0.15287513098814845,1.9442130491723135,0.9732351356407751,-0.06055613695358131,0.21779453456633108,0.04137469932913654,0.005741757515352219,0.006999027409183876,2363.9566422774233
1684908762532643318,46,1684908762532643318,camera_1,47,0,-0.8544882351418431,-0.1526969182341496,1.945749777454445,0.9728640824896166,-0.06061602301926215,0.2193115251954026,0.0419955910951488,0.004768961051013321,0.005824001205268925,2356.900625834125
1684908762541477441,47,1684908762541477441,camera_1,48,0,-0.854100437038318,-0.1520135561661044,1.9449239442608566,0.9728676286030473,-0.06137103779591395,0.21927244366666107,0.04100936947316866,0.0028243103879503906,0.00344728165039759,2359.8939266608795
1684908762551868200,48,1684908762551868200,camera_1,49,0,-0.855179650397339,-0.15192239971934335,1.9474564614938839,0.9731344307313158,-0.060839838257018206,0.2176341630185654,0.0440824783026833,0.0008600596920587122,0.0010507252221074054,2355.8815962185618
1684908762561676740,49,1684908762561676740,camera_1,50,0,-0.8538139007461198,-0.15149496510755628,1.9444898359112006,0.977753236957872,-0.056372705911696644,-0.19286540064751273,-0.060196867689867366,0.0020083930576220155,0.0024476719500448538,2360.7956220534397
1684908762571486949,50,1684908762571486949,camera_1,51,0,-0.8530206943268476,-0.15117822467295833,1.9425394189760465,0.972191921842956,-0.06102901536205573,0.22188113899913295,0.04344060938436527,0.0018300109077244997,0.0022282134482306203,2359.233591233962
1684908762581286907,51,1684908762581286907,camera_1,52,0,-0.853257945287041,-0.15113668061752733,1.9431328869496223,0.9724466459273962,-0.06073789868793313,0.2208485945495988,0.04340883289146144,0.008608853095211089,0.010484575344499435,2360.129124995786
1684908762591408491,52,1684908762591408491,camera_1,53,0,-0.8530627688625417,-0.15115424399960783,1.9427328018322552,0.9724236693333101,-0.060743730406494834,0.22103269688571073,0.04297619624947694,0.004106460837647319,0.0050001325871280354,2360.9307705542296
1684908762601602315,53,1684908762601602315,camera_1,54,0,-0.8529362367808369,-0.15128578646698299,1.9424169925392534,0.972581484991165,-0.061090376914164884,0.22038657457420346,0.04222533183190607,0.0017883909167721868,0.0021769952139475777,2363.3865897764927
1684908762611381769,54,1684908762611381769,camera_1,55,0,-0.8542347625774911,-0.15171778101177408,1.945401189064568,0.9726810139761002,-0.0608207163477774,0.21993356380726345,0.04268153024910121,0.004873575177043676,0.005948860550254928,2356.7760478574783
1684908762621255397,55,1684908762621255397,camera_1,56,0,-0.8528632608719515,-0.15202362390479332,1.9421748323262795,0.9722338498440528,-0.06044756565021837,0.22199221424781887,0.04274213188090717,0.004686702508479357,0.005706282383672544,2359.688796649919
1684908762631406784,56,1684908762631406784,camera_1,57,0,-0.8548272722836789,-0.15268741110652057,1.9467745488529684,0.9785005165050091,-0.055267673783339306,-0.18994445016798084,-0.05833806034136189,0.005148408003151417,0.006287655335089017,2361.8852973867906
1684908762641969442,57,1684908762641969442,camera_1,58,0,-0.8524570915108574,-0.15258419068468326,1.9412092752783239,0.9726749663956364,-0.06028374725797859,0.22061024818662506,0.04000497417596567,0.008272263105027378,0.010066729794322193,2366.0350427327207
1684908762651824712,58,1684908762651824712,camera_1,59,0,-0.8545177937534268,-0.15321970552443837,1.9458721518145965,0.9732863166201288,-0.06032019522399499,0.2179165973630689,0.039844403896457416,0.005357308371458203,0.006544973484109548,2360.377896413788
1684908762661852598,59,1684908762661852598,camera_1,60,0,-0.8554311610420287,-0.15384499868565019,1.9479193281312956,0.9739022850273971,-0.06008081150452616,0.21549901839929628,0.038272815108275245,0.006333277327939868,0.007751218234463758,2360.988984478521
1684908762671700239,60,1684908762671700239,camera_1,61,0,-0.8543507812452935,-0.15378126654870203,1.9454036989671437,0.9732380977205285,-0.05974706210437132,0.21854368760731052,0.038425906914761214,0.012233536515850574,0.014949440588000237,2360.4473680956294
1684908762681507825,61,1684908762681507825,camera_1,62,0,-0.8547771175574126,-0.15388960230488763,1.946368202403585,0.9735713487415069,-0.059557609145555,0.21708331576831139,0.0385558571107446,0.007420219597406685,0.00907123517430569,2361.135329403449
1684908762691472291,62,1684908762691472291,camera_1,63,0,-0.8549250182270397,-0.15388563256663437,1.9467158253455876,0.9734872736833183,-0.05946455589999806,0.21715584975539604,0.04037117146241861,0.010587325552478433,0.012940232192234913,2359.253462158843
1684908762701571226,63,1684908762701571226,camera_1,64,0,-0.8548155660932892,-0.15357925477694465,1.9466444119913453,0.9785491077581755,-0.05586892462142836,-0.18941390240137848,-0.05867436019595816,0.005111019127070904,0.006241258538180435,2362.6913110538144
1684908762711602210,64,1684908762711602210,camera_1,65,0,-0.8538232156117544,-0.1531539112374367,1.9442446250927319,0.9730501887563925,-0.06007035453386284,0.21875099582329677,0.04138700875445233,0.005360879877116531,0.006536920108006317,2361.705517600756
1684908762721649885,65,1684908762721649885,camera_1,66,0,-0.8542716715735561,-0.15295350500495897,1.9453079589172706,0.9735252558101686,-0.06051145976024818,0.21685764008962014,0.03949308132053901,0.004103982879314572,0.005009527069363854,2364.311107088579
1684908762731421470,66,1684908762731421470,camera_1,67,0,-0.8549993079779442,-0.152789480700108,1.9469439318863722,0.9733278256244213,-0.06065995658672534,0.21733332207105627,0.041467344377126576,0.0022943789954297245,0.002803938230160273,2358.508328438037
1684908762741540670,67,1684908762741540670,camera_1,68,0,-0.8541516453907272,-0.1520241533000133,1.9451131397764003,0.9731234160594927,-0.06089303482457736,0.2180150277285036,0.04233560098895598,0.004237345419824123,0.005168220367065752,2361.478964442737
1684908762751382827,68,1684908762751382827,camera_1,69,0,-0.855462633857049,-0.1519917026539343,1.9481726209261716,0.9734566715379577,-0.06130551539710338,0.2164668991677399,0.042021708495015894,0.0028627491556108,0.0035009326552514213,2357.7357393308775
1684908762762027740,69,1684908762762027740,camera_1,70,0,-0.853459266023779,-0.15144411988392845,1.9435961623289395,0.9726591705950753,-0.061070762385557344,0.21986549540451064,0.04317017221967383,0.0006787185557186604,0.0008267949062217936,2361.092772093484
1684908762771424293,70,1684908762771424293,camera_1,71,0,-0.8525625176885914,-0.15109904963689613,1.9416378273259687,0.9721144485561695,-0.06071967160469476,0.22265252934392005,0.04162296920340393,0.0014143467997200787,0.0017219568894802904,2360.7881232921495
1684908762781282901,71,1684908762781282901,camera_1,72,0,-0.8526190089589005,-0.15100622531947344,1.941748680838261,0.9726903733292938,-0.06025706196874511,0.22017298340365876,0.04202834156311906,0.006213987653609365,0.007558219159723615,2365.758380879415
1684908762791413784,72,1684908762791413784,camera_1,73,0,-0.8521166932105386,-0.1509941282003122,1.940652578458082,0.9723572697115531,-0.06107071405352645,0.22126722088984038,0.04280800023094922,0.002351316623389721,0.002857290096531367,2365.605850509369
1684908762801649332,73,1684908762801649332,camera_1,74,0,-0.8532785907866368,-0.1513384547463355,1.9434294525004963,0.9775916914797471,-0.05611015074064969,-0.1938432740163334,-0.05992429267214853,0.0033303002128377552,0.0040558030883268625,2361.476962741931
1684908762811942815,74,1684908762811942815,camera_1,75,0,-0.8543059550245043,-0.15173593196883797,1.9455810148435686,0.972727627337765,-0.060530628523190806,0.21978892178869022,0.04277658101572209,0.0015278783976100385,0.0018651056289150775,2356.6136665727254
1684908762821562290,75,1684908762821562290,camera_1,76,0,-0.8530424562070119,-0.1520563413699086,1.9426868386531424,0.9724548297606981,-0.05995298760769656,0.22102278976466058,0.04343005591350033,0.002847632800694555,0.0034667368743190176,2360.2548651732504
1684908762831501483,76,1684908762831501483,camera_1,77,0,-0.8552560435627888,-0.1527897900231009,1.9477031811762573,0.9737748998986135,-0.06001144138862609,0.21583890406924944,0.039681717705890365,0.010988213995005935,0.01343878077453205,2360.8753706677808
1684908762841417312,77,1684908762841417312,camera_1,78,0,-0.8534530124081153,-0.15274451154944796,1.9434988586199435,0.9730482109405546,-0.060245447151707494,0.21892653885929286,0.04023475942474944,0.007002332364208996,0.008535504245178313,2363.997791532078
1684908762851434230,78,1684908762851434230,camera_1,79,0,-0.8546218048582037,-0.1532364382028547,1.9461301194364173,0.9732454721363223,-0.0601451381845943,0.2182140708451452,0.039476988285496964,0.005760469241067767,0.007040841547179938,2359.3219992858353
1684908762861310720,79,1684908762861310720,camera_1,80,0,-0.8548961192020303,-0.15374133233363718,1.9466398389051975,0.973254902655526,-0.05979552298760269,0.2183679192789815,0.03892096758033965,0.004155824659392238,0.005083601657482362,2357.682380046695
1684908762871821641,80,1684908762871821641,camera_1,81,0,-0.8553975397494047,-0.15394960117682244,1.947769038557856,0.9739022900702788,-0.05957284181950696,0.215409397630346,0.03954993458839232,0.004668402019888163,0.005710043691606032,2360.8022934611654
1684908762881888151,81,1684908762881888151,camera_1,82,0,-0.8535268329655195,-0.15366731272411652,1.9434991766952643,0.9731693939220708,-0.05949320685415435,0.21857420364193697,0.04033864863689888,0.013255064783152193,0.016155885768995654,2364.017737350311
1684908762891405105,82,1684908762891405105,camera_1,83,0,-0.8551196054324006,-0.15392649630904987,1.947089118119197,0.9737448748152716,-0.06033089849363629,0.21595507222254443,0.03930023205144266,0.010479230782948434,0.0128131363598412,2361.36011807411
1684908762901373624,83,1684908762901373624,camera_1,84,0,-0.8549684695341023,-0.15361569414753135,1.9469558745411149,0.9784676376819142,-0.05466239236329749,-0.1907574153422597,-0.056786559697131554,0.011535225959960371,0.014104241743471932,2360.0326178983087
1684908762911751747,84,1684908762911751747,camera_1,85,0,-0.8536738121553831,-0.15311921567953038,1.9438617883214235,0.9729629585016233,-0.06027118365180613,0.2189345627640753,0.04216779615158482,0.004153201647568494,0.0050614776781366545,2361.8062095993673
1684908762921382904,85,1684908762921382904,camera_1,86,0,-0.8532377081261318,-0.1527687588864792,1.942872872205144,0.9731286510112142,-0.06085969880202324,0.21846452363049412,0.03987452266451399,0.005696629988960922,0.006939657594133119,2366.5645569699122
1684908762931641817,86,1684908762931641817,camera_1,87,0,-0.8551773514289185,-0.15281125895688358,1.9472930457789008,0.9729673739291536,-0.06061621517219095,0.21901608413034201,0.04113536945034416,0.005086842924356461,0.006223188236677457,2354.238500348526
1684908762941484451,87,1684908762941484451,camera_1,88,0,-0.8545002161921466,-0.1520855306106763,1.9458968890862358,0.9733507662281897,-0.06094524126445222,0.21718734608143875,0.041274933704550265,0.002302144654095173,0.002810297870602763,2361.8878840167304
1684908762951633930,88,1684908762951633930,camera_1,89,0,-0.855346181476693,-0.1519618985907558,1.9480050862616105,0.9783294449535183,-0.0563316728996091,-0.1904787061559116,-0.058447431649665114,0.00471381057286635,0.005764264202528516,2358.158388401732
1684908762961590528,89,1684908762961590528,camera_1,90,0,-0.8536414929508432,-0.1514598820061148,1.9439878606131598,0.97260451361017,-0.060740827848405225,0.22011233715261672,0.04360700598101284,0.0014834930771030486,0.0018077318771368722,2359.3825068958113
1684908762971665620,90,1684908762971665620,camera_1,91,0,-0.8520579383868377,-0.15101011245066717,1.9404288273689518,0.972015234446494,-0.06105730451239636,0.22267635098367572,0.04328547426334701,0.005287242121994495,0.0064260155810202365,2362.748131759232
1684908762981386423,91,1684908762981386423,camera_1,92,0,-0.8532782393890522,-0.1511045734681437,1.9432106751625766,-0.9726804957674472,0.06102797345912268,-0.2199111739622539,-0.042512529630794924,0.009052220382727683,0.011024781046446509,2362.4854183972348
1684908762991292953,92,1684908762991292953,camera_1,93,0,-0.8525636274611009,-0.15105897181013822,1.9415824365438104,0.9720883888685182,-0.060720379584630856,0.22265253852586064,0.04222613903847901,0.004138970689382404,0.005037895486602903,2360.5952423865665
1684908763001569271,93,1684908763001569271,camera_1,94,0,-0.8538401679053771,-0.15145195203340445,1.9445062270676556,0.9727611852506207,-0.060693031649063936,0.2192216753941982,0.04465298888556178,0.0013337924028746784,0.001625076955304239,2359.535905463156
1684908763011572122,94,1684908763011572122,camera_1,95,0,-0.8546908483701207,-0.15179494752948347,1.9463542752970104,0.9730543048015896,-0.060762064290049496,0.21823531034930857,0.04297255830234082,0.0006632714648731053,0.0008098574056497994,2357.894475028733
1684908763021620988,95,1684908763021620988,camera_1,96,0,-0.8531935230715731,-0.15207677778225964,1.942895622430821,0.9726318542999692,-0.06025507496465123,0.2202331761591356,0.04305752037526933,0.0025801145820878446,0.0031413807145528657,2361.579076232621
1684908763031457185,96,1684908763031457185,camera_1,97,0,-0.8547648341095998,-0.15268479799093138,1.94660739764884,0.9781681940413008,-0.05627954033061705,-0.1915225256802147,-0.0577816550751736,0.004993687791284174,0.006102682353516702,2359.2634215917196
1684908763041517257,97,1684908763041517257,camera_1,98,0,-0.8530623799218344,-0.15267939957919174,1.9425114896315834,0.9725256910244117,-0.060719925166560516,0.22107857405201484,0.04038731335934122,0.0025424303603358567,0.003098318427717375,2361.616580132047
1684908763051454305,98,1684908763051454305,camera_1,99,0,-0.8551858170897199,-0.15333375049408407,1.947313708241085,0.973252865599961,-0.06029544940693765,0.21786354290877963,0.0409731015852338,0.0035374375875107944,0.00432639867326156,2356.385798306321
1684908763061391115,99,1684908763061391115,camera_1,100,0,-0.8550524492686874,-0.1537645304988748,1.9469209285071676,0.9732617666092528,-0.06040400729478242,0.21806158988853663,0.03952255779490866,0.008833978965412827,0.010806741753072722,2357.300119000254
1684908763071279048,100,1684908763071279048,camera_1,101,0,-0.8554748960398014,-0.15396258762869947,1.9478590774810194,0.973568009147646,-0.06007649544599505,0.21675602942804298,0.039660685392538336,0.010414558637421578,0.012745889386217714,2357.629865595954
1684908763081533670,101,1684908763081533670,camera_1,102,0,-0.8542791463550542,-0.15379237137818513,1.9451048461598723,0.9731334058368964,-0.06042915129623127,0.2186628456560257,0.03932241151695365,0.011215015139896423,0.01369821279642047,2360.368384981877
1684908763091537952,102,1684908763091537952,camera_1,103,0,-0.8541532951215102,-0.15372871176572972,1.9447736856576834,0.9731155049864952,-0.05999976156296281,0.21869770659222734,0.04021884755393004,0.010624326299875975,0.012968205901028951,2360.6595685920915
1684908763101505517,103,1684908763101505517,camera_1,104,0,-0.855810585201782,-0.1537665952620298,1.9485942122933408,0.973678047435418,-0.060903147994790754,0.21580340522858224,0.040874892029522464,0.008324369962792844,0.010188521937589392,2357.386086934712
1684908763111433029,104,1684908763111433029,camera_1,105,0,-0.8538388641903182,-0.15316637368780178,1.944129492345241,0.9730037076485432,-0.06043365688739121,0.2186994951070341,0.04221479429458355,0.0085046052117832,0.01036672529501239,2361.5632416006415
1684908763121526002,105,1684908763121526002,camera_1,106,0,-0.8529053037949172,-0.15270821635737478,1.9419660606610691,0.9723511939959586,-0.060976408293343644,0.22147477136623006,0.041999509694200805,0.002853811311069876,0.003474667285132382,2361.0999634244936
1684908763131595373,106,1684908763131595373,camera_1,107,0,-0.8543837609210597,-0.15266144350189317,1.9455210902435658,0.9777619580500924,-0.056622696399083426,-0.19270084861560047,-0.06034738258925644,0.002803675422910601,0.003421328125051969,2358.0313530169665
1684908763141984462,107,1684908763141984462,camera_1,108,0,-0.8530853547654482,-0.15183855267920415,1.942485012345851,0.9727432745332828,-0.061321717737946896,0.21993075685941163,0.040504703074831526,0.001406586030498147,0.0017132541351263947,2364.5969127793796
1684908763151584625,108,1684908763151584625,camera_1,109,0,-0.853233475654712,-0.1516050046196619,1.9428291254551076,0.972483762434696,-0.06105304012306674,0.22075138958580276,0.04262255375415718,0.0002961854333989322,0.00036071605275143074,2361.073799844484
1684908763161319255,109,1684908763161319255,camera_1,110,0,-0.853844968377457,-0.1514852516236416,1.944266083015851,0.9729363828636504,-0.06028547193921183,0.2189809085772326,0.04251844837188386,0.003733210265636444,0.004550124603934865,2361.651495581493
1684908763171587228,110,1684908763171587228,camera_1,111,0,-0.8522868748267383,-0.15103966466430793,1.9407435849942996,0.9723071003231473,-0.06086693305736191,0.22187837356265866,0.0410378662526819,0.001377536857035011,0.001675521918425142,2364.8203010349534
1684908763181760311,111,1684908763181760311,camera_1,112,0,-0.8528428282520437,-0.15103230548517826,1.9420002189151575,-0.9726791019540222,0.06055326728378669,-0.22007676325197228,-0.042366079824674115,0.008398236590437591,0.010216598288944986,2365.0427933475
1684908763191915988,112,1684908763191915988,camera_1,113,0,-0.8523664819122854,-0.15104628572643042,1.9409170805476523,0.9722479883288311,-0.060924410510087415,0.22192111460874545,0.04210800737806954,0.005090280203148722,0.006190537071350718,2363.736229223433
1684908763201569557,113,1684908763201569557,camera_1,114,0,-0.853989760837809,-0.15147951495606354,1.9446105729762877,0.973028907644277,-0.060451469766084585,0.21833763809753629,0.04346309332864555,0.002144999278243631,0.0026139364792309426,2361.7079570889473
1684908763211316108,114,1684908763211316108,camera_1,115,0,-0.8527878066075775,-0.15146769521782583,1.9418199771266549,0.9722360811155516,-0.06077021619870438,0.2220715028968046,0.04181185240325894,0.0005703707574866712,0.0006944083340937618,2361.1365608687047
1684908763221373796,115,1684908763221373796,camera_1,116,0,-0.8535761201111761,-0.1521445676461119,1.9435873156763361,0.9723777821771108,-0.0608237802922025,0.22092140029777116,0.044448299964802714,0.0013480857596732678,0.0016422799134598299,2357.546506684972
1684908763231443166,116,1684908763231443166,camera_1,117,0,-0.8553100011680586,-0.15277350174207655,1.9476511497819373,0.9779178078393455,-0.05671415484252845,-0.19180136856241692,-0.06060116144737444,0.0017431254382245243,0.0021309393647243476,2354.671017962508
1684908763241430759,117,1684908763241430759,camera_1,118,0,-0.8528729492483131,-0.1526210684787896,1.941885260654732,0.9726296699211038,-0.060931581186081746,0.2203348697411047,0.04161024849119687,0.0025128976558335125,0.0030584375284670017,2364.0225650637867
1684908763251475095,118,1684908763251475095,camera_1,119,0,-0.8538902634099798,-0.15311122720543263,1.9442293639788824,0.9728289012836764,-0.060672546897538766,0.21909947198588334,0.04379717177704645,0.005984268675092608,0.007292632090703004,2359.6422107510734
1684908763261427402,119,1684908763261427402,camera_1,120,0,-0.8552388603169214,-0.15380570707566965,1.9471990535690786,0.973292920532159,-0.060875254873907145,0.21727902270318747,0.04224831924662937,0.0026260963641107082,0.003209858073644708,2356.792697723955
1684908763271346569,120,1684908763271346569,camera_1,121,0,-0.8528493275326686,-0.15349249462345682,1.9417266186698414,0.9723683992876966,-0.06060295815418188,0.22145819973145248,0.04222846553391831,0.009622023499105126,0.011712492630317374,2361.007710475706
1684908763281509876,121,1684908763281509876,camera_1,122,0,-0.8537121713146466,-0.15368726848337094,1.9436809588793071,0.9726303491578934,-0.06088619277445301,0.22059242271321391,0.040274787000575095,0.008698434627149254,0.010613421269268432,2359.1177006755024
1684908763291509866,122,1684908763291509866,camera_1,123,0,-0.8545194682642628,-0.15381959220096106,1.9455305220629038,0.9732311391566362,-0.06032956658061579,0.21785768917223777,0.04146710070169013,0.01685822370927781,0.020579813894448,2359.89731874247
1684908763301727294,123,1684908763301727294,camera_1,124,0,-0.8552577741868171,-0.15365164863446312,1.947341744198511,0.9780983027028057,-0.05646967970504657,-0.19126768290303955,-0.059594957847140036,0.004353851720225066,0.005322773721710555,2356.618292371743
1684908763311609745,124,1684908763311609745,camera_1,125,0,-0.8537078705345504,-0.15313492903877457,1.9436954850642503,0.972411858251455,-0.06173437345434895,0.22081958093895787,0.04292735421726082,0.00266041187569499,0.0032435268847588105,2357.5764737575087
1684908763322027444,125,1684908763322027444,camera_1,126,0,-0.8530481689213381,-0.15273666799677035,1.9421893976981632,0.9725967157842879,-0.060921746373754755,0.22037661388571206,0.04217009979424973,0.002575312100816518,0.0031349150961154206,2362.788827354554
1684908763332880020,126,1684908763332880020,camera_1,127,0,-0.8542679929208088,-0.15266389730562652,1.9450055341222736,0.9728096036794293,-0.06093580723581613,0.21943918218658734,0.042127754590921614,0.0019355412223376334,0.0023620615000216312,2358.2214065628355
1684908763342257261,127,1684908763342257261,camera_1,128,0,-0.8543015990089463,-0.1520450207599322,1.945132375625116,0.9729097966133362,-0.06066486854164288,0.21927381159518752,0.04105236810636272,0.002686038729734719,0.0032791095839386545,2359.25076698151
1684908763351768016,128,1684908763351768016,camera_1,129,0,-0.8546971568088075,-0.15184406604739814,1.9461139734577915,0.9732051939371684,-0.06072664054393603,0.21776055158815813,0.042003187902670984,0.0004025680245831609,0.0004915002544037858,2359.8417744090543
1684908763361752748,129,1684908763361752748,camera_1,130,0,-0.8532395297904731,-0.1513732277216786,1.9428447195725758,0.97262815732284,-0.06050294416693448,0.21999613682244265,0.04399501236629686,0.001412007724866271,0.0017183172579971798,2362.098209284478
1684908763371770143,130,1684908763371770143,camera_1,131,0,-0.8520144511864879,-0.15098468642451715,1.9400820463362631,0.9721075656422511,-0.06058556780615068,0.22253442966545703,0.04259926534780426,2.5453045964241028e-06,3.0928438639887643e-06,2364.175487614818
1684908763381386041,131,1684908763381386041,camera_1,132,0,-0.8529479768303048,-0.1510597146466604,1.9422735304417076,0.9724836003258612,-0.06040984955847168,0.221024398567194,0.04212496185854317,0.0015449956408701837,0.0018808173774781767,2362.473261921201
1684908763391371488,132,1684908763391371488,camera_1,133,0,-0.853091854168198,-0.15113119324538696,1.9425821253650668,0.9724193858597946,-0.060824167274893634,0.22123479335980567,0.04190614377892279,0.0008245733915828168,0.001004310752445758,2361.3332629923234
1684908763401447772,133,1684908763401447772,camera_1,134,0,-0.8539760746784175,-0.15148493391734366,1.9446327708228723,0.97301846624535,-0.06124973233640145,0.21836127761641663,0.04244864040215762,0.002807325916364789,0.0034225353484898884,2362.1444235546523
1684908763411463737,134,1684908763411463737,camera_1,135,0,-0.8547411458867457,-0.1518099490677055,1.94636459002866,0.9729657016377915,-0.060658190378623654,0.2187102845298432,0.04270993815665875,0.0015294657787308097,0.0018679708407425204,2356.9476650787983
1684908763421691894,135,1684908763421691894,camera_1,136,0,-0.8530496806742278,-0.15205256283049512,1.942491455308829,0.9722166655622353,-0.060800630976429654,0.22192128250126947,0.042999800568239814,0.0019190665916539729,0.0023371400303156247,2358.8799253017633
1684908763431632757,136,1684908763431632757,camera_1,137,0,-0.853553096924657,-0.15246518668746262,1.9437589785966989,0.9776149294072012,-0.05605824773864078,-0.19377655656722245,-0.05980943726182688,0.008578803157433867,0.010454520740003154,2360.3146488479115
1684908763441658973,137,1684908763441658973,camera_1,138,0,-0.8537437474734766,-0.1528091610246632,1.9440493686355964,0.9729082574829444,-0.06017768897108083,0.21911226998714944,0.04263779324354343,0.0036540880100801587,0.004453472639643386,2360.9460774986073
1684908763451369524,138,1684908763451369524,camera_1,139,0,-0.8538671978766873,-0.15310053066946078,1.9442869218780527,0.97284065658673,-0.06030319661941415,0.2195829457234656,0.04156815267468413,0.0014426347333937883,0.001759632405043107,2359.723223401001
1684908763461360931,139,1684908763461360931,camera_1,140,0,-0.8555960798209885,-0.15386475497938787,1.9481951580586063,0.9735940016605132,-0.0606725661365392,0.21614374191749153,0.04141790046563,0.008771776920184493,0.010731028639774608,2357.3085892546223
1684908763471397638,140,1684908763471397638,camera_1,141,0,-0.8546722817443974,-0.15382836008218545,1.9460431451994984,0.9733701661443515,-0.060108837677889625,0.21773349224512598,0.039109764098911544,0.014812968554906547,0.018105055999595453,2360.2301616120385
1684908763481376886,141,1684908763481376886,camera_1,142,0,-0.8546303128436167,-0.1538533823204038,1.945978934076302,0.9736269898304918,-0.0599008644025539,0.21676164044533766,0.03842866571829668,0.011468665616121143,0.014014479417029336,2362.7862768922923
1684908763491345167,142,1684908763491345167,camera_1,143,0,-0.8547385862409445,-0.1538577878875761,1.946175105045219,0.9737051752949937,-0.059967438862950695,0.21620965871740475,0.0394400983425173,0.010087692644447088,0.012323099090150993,2362.957408948685
1684908763501289367,143,1684908763501289367,camera_1,144,0,-0.8544291209199941,-0.15350497102810323,1.945509970663705,0.973487007476669,-0.05973971313586285,0.21705035233461098,0.040538346044033384,0.008156461117323488,0.009955699304676604,2362.482161382446
1684908763511402606,144,1684908763511402606,camera_1,145,0,-0.8546912865203947,-0.15330764005689462,1.9461033163042467,0.9734211898326833,-0.06038069123498642,0.21699556140376575,0.04145220913018982,0.0065622691181488335,0.008012372118464206,2360.829733995255
1684908763522066116,145,1684908763522066116,camera_1,146,0,-0.8530726960361609,-0.15273862883597816,1.9424653159872922,0.9730414432581145,-0.060554611453832376,0.21875677349407052,0.04085294095049869,0.0033935675164684653,0.004131282868577421,2366.42989845795
1684908763532687664,146,1684908763532687664,camera_1,147,0,-0.8554616724178656,-0.15287279620715302,1.948057232987162,0.9785121105546397,-0.0565456740591394,-0.18951196520867025,-0.0583253914333205,0.0044744738843292,0.005471801257880861,2359.661688830005
1684908763542811393,147,1684908763542811393,camera_1,148,0,-0.8533253679901227,-0.15188215780598344,1.943134906064142,0.9728372570235344,-0.06022482025108773,0.21911200264625616,0.0441652880551804,0.0020255919080227613,0.0024649306448277907,2362.9219526147945
1684908763551708698,148,1684908763551708698,camera_1,149,0,-0.8539611106890861,-0.15171927900293525,1.9446023000711734,0.9729507028177706,-0.06073105688940065,0.21877771098724483,0.042602603097514805,0.0005118484841659665,0.000624040209598326,2361.1071642983006
1684908763561955928,149,1684908763561955928,camera_1,150,0,-0.8532727560297193,-0.15137212943987488,1.9432160702378936,-0.9778283007538199,0.05618401450162346,0.19242175185708,0.060572602483557135,0.0010814419947564602,0.00131588813191258,2364.6394584614313
1684908763571617603,150,1684908763571617603,camera_1,151,0,-0.8526399780790624,-0.15110397519890303,1.9416449770845188,0.9727425365833613,-0.060676791366723395,0.21981084881587143,0.04211264956819286,0.0004106780397705734,0.000499416322608408,2366.6078960342566
1684908763581361293,151,1684908763581361293,camera_1,152,0,-0.8523451621319674,-0.1509446086217705,1.9409661283520088,0.9724958654274004,-0.060558780946507434,0.2208628735273888,0.04247371980541814,0.006968962436076254,0.008470938284867231,2365.8511281680558
1684908763591691255,152,1684908763591691255,camera_1,153,0,-0.8518544808228825,-0.1509399906384793,1.939913362820389,0.9722768916539306,-0.061108212543583174,0.22162643499638748,0.04272184015572724,0.0017219064757227898,0.0020912347032927864,2366.5997624814045
1684908763601531982,153,1684908763601531982,camera_1,154,0,-0.8531178262258077,-0.15132800397646537,1.9428755041227976,0.9774521068796646,-0.05597018929320037,-0.19485577056283057,-0.05904189483200855,0.0046363670262508086,0.005646854648871797,2361.0754109934205
1684908763611663579,154,1684908763611663579,camera_1,155,0,-0.8545281495139506,-0.1517802500313667,1.9459333078369645,0.9731150851624413,-0.060350297000296496,0.21821575793964854,0.042270032743014725,0.0026579334517009556,0.0032445406584326307,2359.313427126851
1684908763621496677,155,1684908763621496677,camera_1,156,0,-0.853685841120236,-0.15217317012319131,1.943949247961165,0.972674207239927,-0.06100017466414536,0.21959506108325683,0.04429305147496445,0.0021383236162364483,0.002604856527244661,2359.668110993923
1684908763631548404,156,1684908763631548404,camera_1,157,0,-0.8546542777432634,-0.15264973841427135,1.946211703948195,0.9780715797202263,-0.056693785238496865,-0.1915133730948191,-0.059029040181565656,0.004841232730541378,0.005911843225416716,2359.6111474606446
1684908763641395568,157,1684908763641395568,camera_1,158,0,-0.8531452900526907,-0.15269258287299148,1.942612733804988,0.9727011586721223,-0.06064100838476104,0.22019654367467223,0.04109265352490917,0.0027543952455744147,0.0033551376724445807,2362.869203281123
1684908763651366949,158,1684908763651366949,camera_1,159,0,-0.8527000072995111,-0.15290048323644548,1.9415392985946982,0.972426115558887,-0.06038325638867035,0.22138097247627833,0.04161462666433066,0.0010799423907883465,0.001314374768039529,2362.433804549276
1684908763661320447,159,1684908763661320447,camera_1,160,0,-0.8561068512727287,-0.15396574071016422,1.9492418873021773,0.9740712537955316,-0.060678686441574724,0.21389300325305177,0.041869711013049205,0.007258188794367015,0.008880864208429864,2359.17952499329
1684908763671483278,160,1684908763671483278,camera_1,161,0,-0.8538572959777871,-0.15367375654253185,1.9440318527314144,0.973095866132424,-0.0604552845503345,0.21857369811543087,0.04068331817920326,0.013498630025424063,0.01646155548119068,2362.4377374764317
1684908763681524276,161,1684908763681524276,camera_1,162,0,-0.8540959142949244,-0.15376749474604035,1.9446097236818476,0.9735937671044178,-0.060279472430470556,0.21657969007920663,0.03968374609493955,0.008689894049894065,0.010599483954420603,2365.7821092130616
1684908763691355705,162,1684908763691355705,camera_1,163,0,-0.854020270336198,-0.15372346993282113,1.944413842444006,0.9733361870843203,-0.06039323181418528,0.2176996676372009,0.03970112308042836,0.005374745873268694,0.006557072181869856,2363.8799389649657
1684908763701467990,163,1684908763701467990,camera_1,164,0,-0.8551274723638106,-0.15363782555825667,1.9470611300906446,0.9781755532755997,-0.05658467455229184,-0.19122920339129587,-0.05832798085067027,0.005623286706395447,0.0068754952019312605,2358.0355880481657
1684908763711439847,164,1684908763711439847,camera_1,165,0,-0.8536232775705025,-0.15312920812345707,1.9434994415498745,0.9728261869128281,-0.06081025788372084,0.21955395434653152,0.041320500040099815,0.003831337729934603,0.004670174488177744,2361.648312435952
1684908763721428155,165,1684908763721428155,camera_1,166,0,-0.853545828031328,-0.1528328638374042,1.943357286305607,0.9727572630284086,-0.06106429671576334,0.21974806199379657,0.04153610648652,0.0026734083658084273,0.0032582267500537716,2361.650108278496
1684908763731429815,166,1684908763731429815,camera_1,167,0,-0.8553287265210036,-0.15284238571453201,1.9475605425048543,0.97808995853406,-0.055992751490667764,-0.19152300477577347,-0.059361464242422377,0.0029647162882611156,0.003624959526233287,2356.0745880344175
1684908763741359949,167,1684908763741359949,camera_1,168,0,-0.8540189845173692,-0.15200071850359806,1.9444528605050977,0.973034806526394,-0.060456901857985045,0.21819413466083032,0.04404029865348725,0.0010295665706507862,0.0012542772951738273,2361.6131964190863
1684908763751306772,168,1684908763751306772,camera_1,169,0,-0.8531605788341894,-0.15157277743413167,1.9425362389860918,-0.9727164714945093,0.059996395491302965,-0.21980710116062385,-0.0436799369354587,0.0038370145484805107,0.004668056113777167,2363.220156598136
1684908763761602401,169,1684908763761602401,camera_1,170,0,-0.8547246932118351,-0.15163182518338153,1.9461159268187864,-0.9733885948196243,0.06101792607322782,-0.21686098137078547,-0.04198536568495593,0.0010604536510072649,0.0012943298813453555,2361.8587170579713
1684908763771423339,170,1684908763771423339,camera_1,171,0,-0.8534628099926002,-0.15123248990368787,1.9432686526411032,0.9728066258474388,-0.060311841973118105,0.2194713170560095,0.042919592435521674,0.0004119838704355061,0.0005016479922944524,2362.8471135647274
1684908763781433105,171,1684908763781433105,camera_1,172,0,-0.8537115973564927,-0.1512039465544778,1.9438876404112262,0.9728745143012508,-0.060543193666851514,0.2190435326614933,0.04323924054486648,0.0032621317077428102,0.003973678112165318,2362.1512160603884
1684908763791559219,172,1684908763791559219,camera_1,173,0,-0.8538868663946693,-0.15129280961275118,1.9443236147050902,-0.9729862522723084,0.06063843880857106,-0.21865510531802076,-0.04255205689872436,0.0007610774482600391,0.0009275715551077158,2362.2813012728
1684908763801539182,173,1684908763801539182,camera_1,174,0,-0.8539663240968643,-0.15147973161498446,1.944608289270679,0.977698801463205,-0.05608312608387172,-0.19339929174642442,-0.059635983584194335,0.002216102438978851,0.0027021179366373224,2359.6570283337496
1684908763811728954,174,1684908763811728954,camera_1,175,0,-0.8551383254067265,-0.1518639308865764,1.947155610735852,-0.9732256250490673,0.06105457385932894,-0.21774801974704616,-0.04110987296196024,0.0021034429082646966,0.0025716184513545778,2357.8627958851876
1684908763821601390,175,1684908763821601390,camera_1,176,0,-0.8526885765303679,-0.15197225861504826,1.9415390389780571,0.9721743920019974,-0.060887610368754466,0.2221308110335107,0.04274989156389065,0.0009865781757980585,0.0012005453799048083,2360.809368679066
1684908763831535816,176,1684908763831535816,camera_1,177,0,-0.8539618374161331,-0.15254406746322555,1.9445451857189118,0.9777063108850084,-0.05647562765577483,-0.19292929068455214,-0.060656095592027524,0.002655474585480988,0.003237089709269964,2359.759064861573
1684908763841448545,177,1684908763841448545,camera_1,178,0,-0.8532544310204515,-0.15270543686107596,1.942754088694797,0.9722482428009445,-0.06107217430345169,0.22185618555663303,0.04223004649044615,0.0019648264860734344,0.002394360111001948,2358.270005864556
1684908763851387500,178,1684908763851387500,camera_1,179,0,-0.8550431530551431,-0.15332037837260032,1.9467899398217265,0.9730528250051693,-0.06068358305722764,0.21832830066132755,0.042643353844801044,0.0007202043198049068,0.0008800715872022844,2355.6665587836183
1684908763861384630,179,1684908763861384630,camera_1,180,0,-0.8546001407009302,-0.15369249868916396,1.945709381770515,0.9728282894830536,-0.06104256029154827,0.21936417493147717,0.04193189443802001,0.0035744901979342103,0.004366156404647839,2356.097178985364
1684908763871473550,180,1684908763871473550,camera_1,181,0,-0.8542582932422876,-0.15373731954975858,1.9448899595831373,0.9727984484746707,-0.061153205086682726,0.2194417383917445,0.042056956671979256,0.006071409268770367,0.00740993443113526,2357.7453225009376
1684908763881447076,181,1684908763881447076,camera_1,182,0,-0.8535869256094768,-0.15367574623395786,1.9433425925940195,0.9728352283565896,-0.06049594928348944,0.21954408329439992,0.041620356546926376,0.010833453736267984,0.013202873909401022,2361.4737877170555
1684908763891369581,182,1684908763891369581,camera_1,183,0,-0.8534658587926474,-0.1536177581986533,1.94299692101116,0.9726735475674892,-0.060780235815796585,0.2200069731675878,0.04253074833914695,0.01029024802846834,0.012534969775980153,2360.81285758165
1684908763901303291,183,1684908763901303291,camera_1,184,0,-0.8544234204620931,-0.15350010418225413,1.945324707667481,0.9776321434500317,-0.056562663092809135,-0.19305909510246325,-0.061353427250352206,0.0025855295243673027,0.0031546593147696637,2356.759363297955
1684908763911371707,184,1684908763911371707,camera_1,185,0,-0.8542810838425944,-0.15321370757498798,1.9448162540854046,-0.973486072957213,0.06151185676280365,-0.2160898615008312,-0.042968930548570115,0.0009127541561610997,0.0011122140075765527,2364.8683116746824
1684908763921528100,185,1684908763921528100,camera_1,186,0,-0.8546420569926902,-0.15304064602038225,1.9457080572906085,0.9731784240854405,-0.06112422157039056,0.21766056564020256,0.04256128049271308,0.002236605854704976,0.002729616109372876,2359.7813011198314
1684908763931362867,186,1684908763931362867,camera_1,187,0,-0.8543631908933043,-0.15265791045327395,1.9450903761530993,-0.9731175534470179,0.06082368789732639,-0.21814803750347012,-0.0418824533336253,0.0017303319182246923,0.0021110104257839476,2360.8561743706223
1684908763941299200,187,1684908763941299200,camera_1,188,0,-0.8545341090723945,-0.15208638894716472,1.9455419228855233,0.97334219861116,-0.06087056658256899,0.21702740164101628,0.04241279834742426,0.003715088532771915,0.004531835293783136,2362.265166039114
1684908763951560020,188,1684908763951560020,camera_1,189,0,-0.8532857197955166,-0.1515836938987518,1.9427578700589412,-0.9731387926601942,0.06061629321105916,-0.21789246622778238,-0.043004980855539506,0.001253499067388475,0.0015247341827503169,2367.1143730940535
1684908763961482048,189,1684908763961482048,camera_1,190,0,-0.8549776758948758,-0.15167080951523032,1.946630498246887,0.973250652313244,-0.06091755124429367,0.21725468142032603,0.043273815676415535,0.00080516078742221,0.000982987761020808,2359.0667117433622
1684908763971328735,190,1684908763971328735,camera_1,191,0,-0.8536307537843857,-0.15128027291045515,1.9436303478869141,0.9729658598567069,-0.060809000106240726,0.2188966938953337,0.04152033792095932,1.0452349670231342e-05,1.2735801252807073e-05,2363.9040433041523
1684908763981462478,191,1684908763981462478,camera_1,192,0,-0.851937825414855,-0.15089435354687808,1.9397646488009546,0.9720201860974709,-0.06015256172654914,0.22309324971130312,0.042282727797789514,0.015409968444146216,0.01872465229550485,2363.8494967261795
1684908763991487264,192,1684908763991487264,camera_1,193,0,-0.8522291154590619,-0.15101652595963688,1.9404649632853883,0.9723613807247532,-0.060762933057213184,0.2208294130435678,0.04533852198925037,0.0009832659852690995,0.001193502932331123,2365.3993338703885
1684908764001458168,193,1684908764001458168,camera_1,194,0,-0.8546759989103264,-0.15159345267290306,1.9460336345115967,0.9735209122869165,-0.06080006781817605,0.21603244811858918,0.04347834464701059,0.0034588558482937515,0.004218017093207258,2363.0587696690336
1684908764011449337,194,1684908764011449337,camera_1,195,0,-0.8548536935424456,-0.15181043877402012,1.946450475799384,-0.9731390157992981,0.0608231171161318,-0.21797258379919532,-0.04229606441920589,0.002834118844475597,0.0034612834722556884,2358.4526600913387
1684908764021820068,195,1684908764021820068,camera_1,196,0,-0.8527739942633519,-0.15197470131390445,1.9416272811675874,-0.9722330738642754,0.061047663051117876,-0.22146642638262826,-0.04459433714864958,0.001426453236490488,0.0017345043633198375,2360.999853515066
1684908764031591415,196,1684908764031591415,camera_1,197,0,-0.8541920390035667,-0.1525768263452933,1.9449082642296762,-0.9778345691661005,0.056343928767433014,0.19261056926682646,0.059716711576463286,0.0028608156135305762,0.003489425086724263,2360.042487416183
1684908764041771411,197,1684908764041771411,camera_1,198,0,-0.853877863197464,-0.15283280002515348,1.9439945545639088,0.972584160964328,-0.061856066744328544,0.22009458110069507,0.04257055576739511,0.003302852506749332,0.004027469395261084,2358.763791416772
1684908764051784276,198,1684908764051784276,camera_1,199,0,-0.8536317223853022,-0.1530574201769503,1.943376980725606,0.9727578912556344,-0.06154333310559165,0.21904038904700684,0.0444500969209439,0.0012331269099377098,0.0015012128268489882,2361.322292670491
1684908764061564683,199,1684908764061564683,camera_1,200,0,-0.8550948987926348,-0.1537708135032025,1.946649165382846,0.9732283359150373,-0.06195131138736006,0.21726321720002817,0.04225323231810041,0.0009879187564365566,0.0012069750436953482,2358.0125494441018
1684908764071789503,200,1684908764071789503,camera_1,201,0,-0.8533646425569801,-0.15357622822067885,1.942626128851888,0.9726391759419617,-0.060861522092743765,0.220077357447498,0.04283532759793362,0.005684554111212492,0.006921512350463557,2361.342938060407
1684908764081509590,201,1684908764081509590,camera_1,202,0,-0.8534612233068776,-0.15363401846376015,1.942847818571166,0.9727198986241524,-0.061133280060979865,0.21977796794602944,0.04214695356865711,0.006748789106495678,0.008220490049113448,2361.7820068842275
1684908764091299533,202,1684908764091299533,camera_1,203,0,-0.852859292298163,-0.15350451128392978,1.9414913856008735,0.9721634187553706,-0.061693846248500446,0.22202897698586405,0.04237086201090468,0.0023278635344468057,0.002833671357160298,2360.097980246879
1684908764101354837,203,1684908764101354837,camera_1,204,0,-0.8560837351947854,-0.15379717040617844,1.9488389500452428,-0.9735419555116102,0.06172272853422839,-0.2159901365213165,-0.04188826287187433,0.0023589355405420065,0.002887373894876033,2355.6837880467065
1684908764111436128,204,1684908764111436128,camera_1,205,0,-0.8535599535683652,-0.1531021857003765,1.9431343992098724,0.9727093829601579,-0.061585336149958474,0.21958151991383812,0.04275112612428053,0.0032580927945673466,0.003968392877764844,2361.6016626703795
1684908764121793508,205,1684908764121793508,camera_1,206,0,-0.8548331174125935,-0.15305253553019024,1.9460412609471385,0.9733063688814906,-0.0609070845997978,0.21709656748457307,0.042826624040393356,0.0035886350669898093,0.0043799499595878364,2359.9931356796287
1684908764131567955,206,1684908764131567955,camera_1,207,0,-0.8547554785840765,-0.1527151858655585,1.9458897004811746,-0.9730581319368993,0.06080800476813472,-0.218093391022817,-0.043537698833991154,0.0005137465195730329,0.0006269524309883221,2358.1060915486887
1684908764141595363,207,1684908764141595363,camera_1,208,0,-0.8541499260975269,-0.15201027979637427,1.9446118422043626,0.9729532660905332,-0.060684267830119265,0.21881705561681028,0.04240822812705385,0.005601490032859147,0.006830708615997453,2360.690148484893
1684908764151621341,208,1684908764151621341,camera_1,209,0,-0.8548072754438177,-0.15187626967895215,1.9461700359172043,0.9730623212947029,-0.060519854462855044,0.21864592970965577,0.04100028675216328,0.0007617142982780933,0.0009306699507793875,2358.2211973798694
1684908764161512851,209,1684908764161512851,camera_1,210,0,-0.8554348566621176,-0.15176716303313045,1.9476138415892505,0.9735267178269733,-0.06080731018650241,0.2161134231853821,0.042932377339478946,0.000881875108461827,0.0010774385461955695,2359.236449433258
1684908764172262430,210,1684908764172262430,camera_1,211,0,-0.8543568949682993,-0.15140368904210508,1.9451833883062462,0.9730620586905936,-0.06038486752384776,0.21840314796335417,0.042473081718291235,0.0008632846875116229,0.0010530437786088948,2360.64328564331
1684908764181497812,211,1684908764181497812,camera_1,212,0,-0.8535601093754621,-0.15116577766111744,1.9433720469280829,0.9726901225011498,-0.06032494507430023,0.21998076317993404,0.04293355821795406,0.009301433165092021,0.011329357233102398,2361.4654704252025
1684908764191710948,212,1684908764191710948,camera_1,213,0,-0.8534143634830199,-0.15122518494127046,1.9430571619445804,0.9728567884220827,-0.06045007549464351,0.2193551255263045,0.042175662402650596,0.0016023993957787752,0.0019512037753188784,2363.9398296087747
1684908764201415538,213,1684908764201415538,camera_1,214,0,-0.854332463521987,-0.15153466796242535,1.9451651428432273,0.9730307071867941,-0.060764564722154926,0.21848344156106575,0.042236196672129064,0.0011731177801266313,0.0014311448592224346,2360.573518727906
1684908764211564540,214,1684908764211564540,camera_1,215,0,-0.8545144957957088,-0.1517527304274548,1.9455612285994581,0.9730653684732907,-0.06008749670262331,0.21843505200098348,0.04265453639741877,0.0003289587330073118,0.00040140265796664734,2359.374630946782
1684908764222142219,215,1684908764222142219,camera_1,216,0,-0.8530732434655864,-0.15205613396192208,1.942194108339484,0.9724491893581957,-0.06060454089896053,0.22089823158550453,0.04328550590453189,0.001502765982877463,0.0018288186321477173,2361.485801171628
1684908764232116222,216,1684908764232116222,camera_1,217,0,-0.8536884398687207,-0.15250247557807906,1.9437468510985054,0.977364637704366,-0.05632842700839049,-0.19494028266221772,-0.059864509280114254,0.0044872735743410885,0.005470914316251043,2357.784539842279
1684908764242052793,217,1684908764242052793,camera_1,218,0,-0.8534404056385498,-0.1527365450929779,1.9430013564924,0.9725559191578097,-0.06125884239720244,0.22015043516532734,0.04377355635289256,0.0027640576590783894,0.0033655790738823786,2360.437431494358
1684908764251855850,218,1684908764251855850,camera_1,219,0,-0.8540190943903719,-0.15314300726972407,1.944330010906202,0.9728065592977472,-0.061711220781951855,0.21887955124997943,0.04394161423397796,0.0014584474847652018,0.0017774634351757977,2359.6552404819513
1684908764261362075,219,1684908764261362075,camera_1,220,0,-0.854271496709165,-0.1536158026436975,1.944798512107967,0.9727630177785181,-0.06110452072273311,0.21960063464594556,0.042117811585762464,0.00047886103857308626,0.0005843888168251478,2357.624442255591
1684908764271415233,220,1684908764271415233,camera_1,221,0,-0.8542152625384896,-0.15373071100726063,1.9446399548514353,0.9730438814490285,-0.06090104207063157,0.21835998375121776,0.042374347729352786,0.007416847860440612,0.009045363170881908,2360.420317087673
1684908764282049894,221,1684908764282049894,camera_1,222,0,-0.8544889096122212,-0.15381616911165383,1.9453018273126563,0.97292597560433,-0.06089132941152453,0.21874909447311347,0.04308277688418816,0.008229635015595704,0.010042460579764378,2357.6006414997387
1684908764291545152,222,1684908764291545152,camera_1,223,0,-0.853620924904782,-0.15362743965448622,1.9432900149037386,0.9726522777983,-0.061022429869980625,0.2200783215930704,0.04230061360452082,0.008568044868297875,0.010441480875760727,2360.0461662772586
1684908764301269769,223,1684908764301269769,camera_1,224,0,-0.8551549291671802,-0.15365024914004932,1.9468888349105729,0.9731506142665539,-0.06101169835253895,0.21809463722344574,0.041111845387201626,0.0050308756763115525,0.00615130291567196,2356.4427826910974
1684908764311328649,224,1684908764311328649,camera_1,225,0,-0.8532139439804968,-0.15306119364910745,1.942494335751188,0.972475486106909,-0.060853311230221814,0.22094220998146596,0.04210514555199535,0.0010372523684054613,0.0012633569442931703,2360.635104469954
1684908764321848154,225,1684908764321848154,camera_1,226,0,-0.854567018071841,-0.15302246752311988,1.9456497835978919,0.9733240277940519,-0.061095042438907725,0.21679828886666566,0.04366044723359498,0.0012338176020421088,0.0015046713647029785,2361.227412966079
1684908764331338644,226,1684908764331338644,camera_1,227,0,-0.8545407009735546,-0.15271204160208224,1.9456012496000465,0.9728606459252541,-0.0615369479155331,0.21881834593913607,0.043288556589460805,0.0011608123895712197,0.0014167219466310582,2357.454905087012
1684908764341743946,227,1684908764341743946,camera_1,228,0,-0.8539831798718562,-0.15200513880947997,1.944454866113564,0.9729059917383586,-0.06031994900772874,0.21910197627547676,0.042541262128507416,0.0010518237249925733,0.0012824018795490398,2360.513106280123
1684908764351888179,228,1684908764351888179,camera_1,229,0,-0.8531610813640891,-0.15158867488903596,1.9427112655127015,0.9722819731690191,-0.061224266525911314,0.22142149925804322,0.04349567225878504,0.0018698152853175998,0.0022768375169986924,2359.4632115901913
