%time,field.header.seq,field.header.stamp,field.header.frame_id,field.image_seq,field.transforms0.fiducial_id,field.transforms0.transform.translation.x,field.transforms0.transform.translation.y,field.transforms0.transform.translation.z,field.transforms0.transform.rotation.x,field.transforms0.transform.rotation.y,field.transforms0.transform.rotation.z,field.transforms0.transform.rotation.w,field.transforms0.image_error,field.transforms0.object_error,field.transforms0.fiducial_area
1682303119459768056,0,1682303119459768056,camera_2,1,0,-1.2399904416221428,0.3097750243417616,1.7464136319184134,0.9569404446639188,-0.002495658508555114,0.281727423611992,-0.06991720703789073,0.2811469142907299,0.03931635512474691,12996.256659407398
1682303119469654321,1,1682303119469654321,camera_2,2,0,-1.2391631937403165,0.3087984716501182,1.7452538994368498,0.9568677130978936,-0.0027461263106927716,0.28179486347779426,-0.0706278510123594,0.3041787741240114,0.042499544729223744,13010.993696066314
1682303119479799270,2,1682303119479799270,camera_2,3,0,-1.2395308816256907,0.30860851046976934,1.745789256277877,0.956905758533497,-0.0027702315012873746,0.2816541850945699,-0.07067259102067656,0.2769483954180032,0.03871141633945752,13006.357682693753
1682303119489371299,3,1682303119489371299,camera_2,4,0,-1.239227425995087,0.30882629623778657,1.7453588808017797,0.9568884514434364,-0.00282329911408094,0.28170206357092437,-0.07071398628402625,0.2936635832884349,0.04103587848999528,13010.890015559737
1682303119499743700,4,1682303119499743700,camera_2,5,0,-1.2403416922783417,0.30985674092949783,1.7469323343491399,0.9570023830361027,-0.0025851904324434233,0.28156371266668806,-0.06972539969766581,0.28834206552710384,0.0403349165563647,12992.820803050878
1682303119509755373,5,1682303119509755373,camera_2,6,0,-1.239519696630764,0.3105756947997784,1.745759961587324,0.9568691584230632,-0.002503004202149054,0.281960178652351,-0.0699543156855769,0.2849303694674745,0.039837826851959655,12999.006743030854
1682303119519688606,6,1682303119519688606,camera_2,7,0,-1.240341184462636,0.3115474149434154,1.746902189817593,0.9570180417582427,-0.002683801749242289,0.28141954534181457,-0.0700878338729033,0.28041691693942994,0.03925940544677817,12989.56983955228
1682303119529814004,7,1682303119529814004,camera_2,8,0,-1.2384186498442689,0.31136228253749265,1.7441677176301114,0.9566807048172795,-0.0027620984517190373,0.2825195291774688,-0.07026461040806928,0.2860259539447725,0.03996649952841944,13007.157480579339
1682303119539842605,8,1682303119539842605,camera_2,9,0,-1.2401181772797194,0.31148472814562883,1.7465867557542358,0.9569704232220655,-0.002574479367549735,0.28161254017508913,-0.06996683750392586,0.2824289186974056,0.03952731187284456,12991.198634854518
1682303119549648284,9,1682303119549648284,camera_2,10,0,-1.23943637394802,0.31055509228640715,1.7456255421661608,0.9568857999074764,-0.002473273722096262,0.28192035757804096,-0.06988820240637289,0.30064947163918987,0.04202560881626193,13001.970825436289
1682303119559774637,10,1682303119559774637,camera_2,11,0,-1.2399465554024074,0.309757974756659,1.7463478245599735,0.9569429946950397,-0.0025241624745214637,0.2817258692048168,-0.06988753915171063,0.28368286025943235,0.03966738530738561,12997.347558952868
1682303119569786310,11,1682303119569786310,camera_2,12,0,-1.239399848611123,0.3088622604651115,1.7456236059811496,0.9568667096851153,-0.002688203347478266,0.281805579629162,-0.07060091181433853,0.2813215155620128,0.03932033508161137,13005.724490991326
1682303119579777717,12,1682303119579777717,camera_2,13,0,-1.2391907108908662,0.30852235919731,1.7453115053476833,0.9568504442799032,-0.0027536869279471666,0.281884899368515,-0.07050211342688216,0.28326920967083424,0.03957424227434175,13009.911814987194
1682303119589729547,13,1682303119589729547,camera_2,14,0,-1.23933252254347,0.3088412621233587,1.7455010659243635,0.9568954465564434,-0.00278842831821298,0.281698860879047,-0.07063342556117724,0.291259721678216,0.04070332976050369,13009.16813430353
1682303119599661111,14,1682303119599661111,camera_2,15,0,-1.2402449283221588,0.30984986528675634,1.7467830039108874,0.9570208850383503,-0.002479395063284308,0.2814988368189396,-0.06973724306363858,0.28437267552362755,0.03977049390049031,12996.12219839962
1682303119609830379,15,1682303119609830379,camera_2,16,0,-1.2393479967731231,0.310527116771863,1.7455231007932739,0.9568216904932177,-0.0024777845450143264,0.2820855823076344,-0.07009876917330367,0.2854475311469287,0.03990793173908872,12999.4734922247
1682303119619680166,16,1682303119619680166,camera_2,17,0,-1.240006672385723,0.31146798613509485,1.7464164884443698,0.9569622336279371,-0.002721608204898655,0.28157869218926357,-0.07020909032021753,0.2914081670460291,0.04078568076057105,12993.077898580581
1682303119629799127,17,1682303119629799127,camera_2,18,0,-1.2387065883048898,0.3114232277176582,1.7445593335619727,0.9567794606593455,-0.0027716327007983326,0.2821074286686054,-0.07057464419018909,0.29335809854092076,0.04100772360169301,13007.65192283224
1682303119639738321,18,1682303119639738321,camera_2,19,0,-1.2404955020282247,0.31158261129400505,1.7471236485398443,0.9570912016187749,-0.0026842232429202376,0.28112374767078147,-0.0702756374929936,0.2910691742436029,0.0407581956155918,12991.126144139795
1682303119649708032,19,1682303119649708032,camera_2,20,0,-1.239400887016296,0.31054782280415233,1.745580617948547,0.9568534465932635,-0.0025633347951203667,0.28199980840142824,-0.07000727904210088,0.30928733164910227,0.043238942471954735,13000.601668403488
1682303119659753561,20,1682303119659753561,camera_2,21,0,-1.2402718975027178,0.3098688529773909,1.7468329559023563,0.9569994430260492,-0.0024796479804587335,0.2815770056632452,-0.06971590403520209,0.27379516372457147,0.03829482599421195,12994.04043299821
1682303119669623851,21,1682303119669623851,camera_2,22,0,-1.2396704440853674,0.3089285983449774,1.7459619929988854,0.9569388666338747,-0.002793344616441231,0.28157183733764274,-0.0705514221659139,0.29463763523381203,0.0411904495227601,13005.024927877821
1682303119679765939,22,1682303119679765939,camera_2,23,0,-1.2393244631701652,0.30855923314205413,1.7455106456713065,0.9569246535879175,-0.0027898650439264244,0.28165859674926197,-0.07039786137318005,0.28950426756637176,0.04044399659195101,13011.861211812127
1682303119689826726,23,1682303119689826726,camera_2,24,0,-1.2391760080588121,0.3088120928363346,1.7453023480037804,0.9568137802175236,-0.002742911049280723,0.2820056802985395,-0.07051710930112137,0.2908385999617167,0.04064000118288775,13006.973392593674
1682303119699561834,24,1682303119699561834,camera_2,25,0,-1.2403005168697914,0.30985972624192437,1.7468653326835217,0.9570248690866902,-0.0025567432010439833,0.28144575184331655,-0.06989386084026099,0.2773840012960136,0.038801110739986655,12995.171034642965
1682303119709753751,25,1682303119709753751,camera_2,26,0,-1.2394855497777137,0.31057153353704,1.7457127579295366,0.9568965921488303,-0.0025167251210762975,0.28184100450475896,-0.07005873399062125,0.2876526055042632,0.040216457532770644,13001.483116819982
1682303119719710826,26,1682303119719710826,camera_2,27,0,-1.2405156402626707,0.3116046709443042,1.7471339232864591,0.9571214854503188,-0.0026928018706851957,0.2810257482277495,-0.0702548200516802,0.28640412527602166,0.04010225339849165,12992.747641513593
1682303119729661941,27,1682303119729661941,camera_2,28,0,-1.2384831014764797,0.311369129828215,1.7442681811526994,0.9566712919858694,-0.002669789143831815,0.28257417783571526,-0.07017652981221303,0.29462857206817716,0.041170661709491276,13005.156430384144
1682303119739808559,28,1682303119739808559,camera_2,29,0,-1.2401833747480777,0.3115093918585243,1.7466654223972122,0.9570018378761003,-0.002649686001148989,0.281448983587203,-0.07019210143308215,0.2853359850705601,0.039941888851474566,12991.90591589524
1682303119749652385,29,1682303119749652385,camera_2,30,0,-1.2394277175044461,0.3105534297556879,1.7456231489214418,0.9568279950296603,-0.0024260758296395742,0.28209656556508567,-0.06997020637366037,0.2958308915840462,0.04136005408948354,12998.270912184842
1682303119759835481,30,1682303119759835481,camera_2,31,0,-1.2401978488205723,0.3098341133867898,1.7467278272363738,0.9569808518101788,-0.0025438988108803305,0.28158127196440247,-0.0699511624379039,0.27567385585280135,0.03856161046079035,12994.392925624035
1682303119769771575,31,1682303119769771575,camera_2,32,0,-1.239686987627114,0.30892364018949486,1.7460085143647532,0.9569411799201297,-0.0027109997938062733,0.2815593439015542,-0.07057311467488314,0.27143703133333474,0.03794769409880137,13004.678066694174
1682303119779453277,32,1682303119779453277,camera_2,33,0,-1.2394070609159658,0.30858650153657835,1.7456019451192466,0.9569488673806038,-0.0028968377247086436,0.2815752103484384,-0.07039797204045559,0.28372990508796647,0.03964055437483457,13011.837954985447
1682303119789437532,33,1682303119789437532,camera_2,34,0,-1.2393551694902107,0.3088566932753115,1.7455541588918346,0.9569020548565289,-0.002791248670802391,0.28167142712449234,-0.070653191604217,0.2913100000587292,0.04071212825783616,13009.023465111854
1682303119799460411,34,1682303119799460411,camera_2,35,0,-1.2405034063478242,0.30990419710569495,1.7471480124239234,0.9570873873340451,-0.0026036810721820204,0.2811674066001645,-0.07015585019585788,0.27563810639549047,0.038570091985410816,12995.062761153094
1682303119809381961,35,1682303119809381961,camera_2,36,0,-1.239551927910848,0.3105819890599999,1.7457937648709612,0.9569063631966099,-0.0025352665222613314,0.2818334331955602,-0.06995498860483375,0.27634856855729595,0.03863600913810533,13000.837957969172
1682303119819787502,36,1682303119819787502,camera_2,37,0,-1.240170811188359,0.31151402973508857,1.746656387464573,0.9569364930464822,-0.002620416775262262,0.28164799571769344,-0.07028576100484243,0.282683446072042,0.03957922784167434,12987.83125024755
1682303119829462289,37,1682303119829462289,camera_2,38,0,-1.2383429036580031,0.31133711353231225,1.7440696386898644,0.95667736050317,-0.002748586390336538,0.28248103195480717,-0.0704651669925636,0.2880604304955341,0.040251654418097534,13008.509889460634
1682303119839583635,38,1682303119839583635,camera_2,39,0,-1.2402995873110894,0.311536579210004,1.7468253052404938,0.9570103437790467,-0.0026661223731821483,0.28139875280783755,-0.07027684974154634,0.2864755386253819,0.040110183260698686,12990.104540648168
1682303119849688768,39,1682303119849688768,camera_2,40,0,-1.2392703633492315,0.3105158613865373,1.7453884868019724,0.956857822292285,-0.0025740670480402963,0.2819579765774056,-0.07011548717133427,0.2910395539365709,0.04068171656154548,13003.606999702979
1682303119859732389,40,1682303119859732389,camera_2,41,0,-1.2402332146291473,0.3098532250521142,1.7467670762535465,0.956982851269165,-0.0025110444894896767,0.28154341388268805,-0.07007726544031606,0.2703422846389003,0.03782045146285798,12993.843563476108
1682303119869723558,41,1682303119869723558,camera_2,42,0,-1.2396009982291474,0.3088922123021518,1.7458731275831114,0.9569370524302593,-0.0028706545110036216,0.2815889268067679,-0.07050470430105059,0.29948609351413324,0.04186326784365132,13006.357028672006
1682303119879725933,42,1682303119879725933,camera_2,43,0,-1.2394904602500445,0.3086002309782521,1.7457278621837802,0.9569355359225643,-0.0028438193853716712,0.2816420846788041,-0.07031378895832247,0.29265433177351957,0.04089168313762093,13009.193766923152
1682303119889771223,43,1682303119889771223,camera_2,44,0,-1.2392120414846473,0.30883597256246326,1.7453437892317243,0.9568540590632982,-0.0028081104835182688,0.2818310935995859,-0.07066582519198583,0.2938721737009473,0.04106686420897997,13008.841658043206
1682303119899782180,44,1682303119899782180,camera_2,45,0,-1.2398955609214406,0.3097560218981987,1.7463078460723502,0.9569376857165781,-0.0025724022375075936,0.28171889891820034,-0.0699865015159712,0.2806713730096817,0.039247301375592215,12997.91924084164
1682303119909708976,45,1682303119909708976,camera_2,46,0,-1.2391719186523649,0.31049624267364534,1.745287787836518,0.9567877857621879,-0.002524034644633688,0.2822067647815114,-0.0700721355244365,0.29303099156823015,0.040960329697024345,13000.902902957521
1682303119919703960,46,1682303119919703960,camera_2,47,0,-1.2402231894110303,0.3115328716212212,1.7467218705589507,0.9570008672368183,-0.0025490785808202614,0.28143881379032926,-0.07024981422508392,0.2761857628938742,0.038664373045822424,12990.926908789901
1682303119929802894,47,1682303119929802894,camera_2,48,0,-1.2386624356391671,0.3114139778229869,1.744498127336988,0.9567623988704296,-0.0027539695198645505,0.28222690618064744,-0.07032852328383322,0.28706146392505616,0.040119545054783184,13007.45562693896
1682303119939621686,48,1682303119939621686,camera_2,49,0,-1.240486414232372,0.3115862485613199,1.7471211878937607,0.9570552996057745,-0.0025347768479856373,0.2812682324472151,-0.07019194981514157,0.2799179889843799,0.039196298067012324,12988.908940255646
1682303119949582815,49,1682303119949582815,camera_2,50,0,-1.2394796496521365,0.31056721630444517,1.7456842615105201,0.95697223336799,-0.0025493308209879055,0.28155848485282015,-0.07016028137365835,0.30229756829794496,0.04225768320974332,13006.74163206783
1682303119959496259,50,1682303119959496259,camera_2,51,0,-1.2403297963707995,0.3098757830548641,1.7469067967211311,0.9570455375015816,-0.002549711519455704,0.2813705407190035,-0.06991392518641916,0.2931447791052051,0.04100590457063985,12995.982581811957
1682303119969579458,51,1682303119969579458,camera_2,52,0,-1.2396000081011684,0.30888770937431365,1.745883665860823,0.9569276548342754,-0.002876876540969844,0.28161396233394315,-0.07053200134207495,0.29872069699922577,0.04175816298026039,13005.738384265682
1682303119979148149,52,1682303119979148149,camera_2,53,0,-1.2393063122215482,0.30856276075589434,1.7454926930447499,0.9569151323651692,-0.0027847010973450314,0.28166228658738596,-0.070512631525951,0.27940955909434706,0.039036872233015385,13011.52048263117
1682303119989611864,53,1682303119989611864,camera_2,54,0,-1.2393348784232736,0.3088508009392151,1.7455069598883455,0.9568865151047654,-0.002738052049384512,0.28174983130383013,-0.07055304984120545,0.2917420890298672,0.04076924324587415,13008.51464027492
1682303119999423980,54,1682303119999423980,camera_2,55,0,-1.2401487394569628,0.3098114348724402,1.7466599442833788,0.9570118927820582,-0.0025613009501436208,0.2814900315535065,-0.06989305364019499,0.2991871615522541,0.041842444038798124,12997.52453788673
1682303120009374141,55,1682303120009374141,camera_2,56,0,-1.239322364730879,0.3105288868808939,1.7454928892645258,0.9568576961779921,-0.0024861157209599694,0.2819789564791642,-0.07003596644931129,0.30192846758291125,0.04220473746897175,13002.393473261032
1682303120019340276,56,1682303120019340276,camera_2,57,0,-1.2402213771840853,0.3115216316338472,1.746733661154907,0.9570267640868582,-0.002642400132127285,0.2813675293072855,-0.07017908516426338,0.28065533336484805,0.0392862221655482,12992.669494051484
1682303120029510498,57,1682303120029510498,camera_2,58,0,-1.238479590135013,0.31136807030936364,1.744253412380019,0.9567333924086622,-0.0027441350126069936,0.28229864625927137,-0.07043550165526051,0.29479344753781334,0.04119448493258899,13009.333071124505
1682303120039509534,58,1682303120039509534,camera_2,59,0,-1.2400575081404075,0.3114787074640346,1.7464911412855173,0.9569456727970657,-0.0025836938535929656,0.2816324057834374,-0.07022458154859804,0.26611517096171156,0.037249373867940985,12990.848886725962
1682303120049482583,59,1682303120049482583,camera_2,60,0,-1.2391658175596436,0.31049649602860563,1.7452503747393509,0.9568411743720135,-0.002482451403002424,0.2820644357436698,-0.06991751247021648,0.28959058347390965,0.040467821026854076,13004.69058163301
1682303120059476375,60,1682303120059476375,camera_2,61,0,-1.2400119397671383,0.3097919898380818,1.7464724825430213,0.9569385809014294,-0.0025135461635795117,0.2817075373712777,-0.07002212404842045,0.2892207252443768,0.04045091286738427,12995.523005530236
1682303120069561958,61,1682303120069561958,camera_2,62,0,-1.2395426195604982,0.30889434163400953,1.7457970855447882,0.9569364320344531,-0.0028365967790994376,0.2815340279036519,-0.07073337187091547,0.30045356682967395,0.042001140266813876,13007.481313239783
1682303120079269647,62,1682303120079269647,camera_2,63,0,-1.2395197230534973,0.30860759952271616,1.7457818139790244,0.9569068836012462,-0.0028604663501376275,0.2816663253816269,-0.07060534678636124,0.2798039769404568,0.039108835691191175,13006.674751862181
1682303120089482069,63,1682303120089482069,camera_2,64,0,-1.2393307338711297,0.30885927639610955,1.7455077977318365,0.9568702581243754,-0.002845334854685263,0.28180376841603166,-0.0705538751102987,0.29319538304116577,0.04097500926086593,13007.542449324166
1682303120099422454,64,1682303120099422454,camera_2,65,0,-1.240464169159556,0.3098928712104628,1.747107492899006,0.9570567605876334,-0.0026125182481235303,0.2813424361347526,-0.06987106262016511,0.28651395882479846,0.04008547893476348,12993.814237575974
1682303120109404087,65,1682303120109404087,camera_2,66,0,-1.2395154499317604,0.31058799212778637,1.7457690363557161,0.956805829792361,-0.0024959167373548806,0.2821483534310914,-0.07006198063940151,0.2984145520022139,0.041733509792891116,12994.882404981183
1682303120120029449,66,1682303120120029449,camera_2,67,0,-1.2400467077236559,0.3115027675061664,1.7464969403492667,0.9569854237400182,-0.00265366605094225,0.2815320114432235,-0.07008268929172842,0.2740734438993968,0.038356424144141366,12993.498596865453
1682303120129750728,67,1682303120129750728,camera_2,68,0,-1.2384303574542355,0.3113595453083734,1.7441764663047767,0.9566984579477691,-0.0027698115632396364,0.282483756827897,-0.07016634401664786,0.28920506994472817,0.04040672740461318,13008.130728088088
1682303120139684677,68,1682303120139684677,camera_2,69,0,-1.240314473893058,0.31153109909557797,1.7468394254246729,0.9569953682872447,-0.0024979355030438737,0.28147792699325896,-0.07016980839763792,0.2870367679861374,0.04018661625952011,12988.837246449199
1682303120149810791,69,1682303120149810791,camera_2,70,0,-1.239403882355613,0.310564777304939,1.7455989151664342,0.9568594363412762,-0.002435759192665241,0.28195289266477636,-0.07011884539676559,0.29064400598872453,0.04063420676542153,13000.791270790152
1682303120159811019,70,1682303120159811019,camera_2,71,0,-1.2401707534341637,0.3098410873997862,1.7467002375829797,0.9569941180718202,-0.002559506726056068,0.2815042412481742,-0.07007902011692227,0.2871707486920059,0.040170722587964156,12995.777026382046
1682303120169701337,71,1682303120169701337,camera_2,72,0,-1.2391814992274561,0.30879793390730487,1.7452748245916176,0.9568913320810458,-0.0027548013616281795,0.2817258480282179,-0.07058283226395294,0.27714150334941223,0.038719269393640704,13012.102207588036
1682303120179795026,72,1682303120179795026,camera_2,73,0,-1.2395879094246813,0.3086243206082963,1.7458606812973705,0.9569209281566389,-0.002935244740004409,0.2815907536533958,-0.07071328765561564,0.2999501031008549,0.04193155910291812,13006.266088780481
1682303120189608097,73,1682303120189608097,camera_2,74,0,-1.2392525922128348,0.30882545378550486,1.7453970085140513,0.9568760585800797,-0.0028113963324301054,0.2817401361692796,-0.07073047602151085,0.30306663719238713,0.04235345278206206,13009.550697139932
1682303120199688673,74,1682303120199688673,camera_2,75,0,-1.2399432442198426,0.30976792279814036,1.7463691303274578,0.9569432816239598,-0.002503143622464453,0.28175885470794143,-0.06975125676603557,0.28108312241965905,0.03930022278179392,12997.314959740961
1682303120209652900,75,1682303120209652900,camera_2,76,0,-1.239453169435665,0.3105528538058714,1.7456495095844604,0.9568574233670815,-0.0024601825399433843,0.2819967443111068,-0.06996895773924643,0.286278844694607,0.04002310891805276,12999.683889984153
1682303120219592094,76,1682303120219592094,camera_2,77,0,-1.2402704241876437,0.3115500812466908,1.7467945630924007,0.9570123786874944,-0.002646456421838156,0.28144470384343057,-0.07006555491677006,0.29050204675877467,0.040666436748159285,12990.722352562007
1682303120229571819,77,1682303120229571819,camera_2,78,0,-1.238652719363531,0.3114122824656099,1.7445042714952443,0.9567622828325251,-0.002740685391721667,0.28223322359759273,-0.07030526502610102,0.30623133113840595,0.04279789193211228,13007.571981733201
1682303120239590644,78,1682303120239590644,camera_2,79,0,-1.2401862518412352,0.3115135180570122,1.7466819741194797,0.9569870276637596,-0.002572446412400091,0.2815094213116201,-0.07015452312955335,0.2857001022202894,0.03999321429287409,12990.787393020004
1682303120249783277,79,1682303120249783277,camera_2,80,0,-1.239356026045915,0.3105373302577673,1.7455160169931836,0.9568520395407004,-0.002478960719798413,0.2820032583734748,-0.07001565144519498,0.3107990152784623,0.04344651772470949,13001.47835301212
1682303120259635448,80,1682303120259635448,camera_2,81,0,-1.2401606461410692,0.3098273426472277,1.7466651641846365,0.9570011761394128,-0.0025229675461639367,0.2815662856136451,-0.06973385338755418,0.291105714160949,0.040709204991185466,12996.600166039076
1682303120269710779,81,1682303120269710779,camera_2,82,0,-1.2393590383128015,0.3088509967508204,1.7455567742340723,0.9568960109168412,-0.0027041164230329224,0.28176053256894157,-0.07038262805745252,0.2966405749320984,0.041449512277807674,13008.553734577261
1682303120279722213,82,1682303120279722213,camera_2,83,0,-1.239083300686344,0.30850094136113504,1.7451710883798077,0.9568191679108577,-0.0028484003125487426,0.28199563930834876,-0.07047996839605566,0.28085143660428,0.03923351969199998,13010.057119194418
1682303120289320230,83,1682303120289320230,camera_2,84,0,-1.2395362100213765,0.3088969855594003,1.7457935004100502,0.9569331324241378,-0.0027597026425777633,0.2816108382749737,-0.07047481732022302,0.29823803139152005,0.04168335442238505,13007.357787608402
1682303120299720764,84,1682303120299720764,camera_2,85,0,-1.2403308116297422,0.3098521471270728,1.7468978908791182,0.9570492055254518,-0.002490006897167874,0.281398821743725,-0.069751854383929,0.2836499284603633,0.039672142643509566,12996.215500215529
1682303120309797286,85,1682303120309797286,camera_2,86,0,-1.2394526927534137,0.3105520619329626,1.7456601249716015,0.9568631120204774,-0.002499174391862177,0.2819830720211387,-0.06994487883589322,0.29757387039717287,0.04160139081647879,13000.077497454593
1682303120319792747,86,1682303120319792747,camera_2,87,0,-1.240381955620109,0.3115661273600138,1.7469535558260452,0.9570230794439822,-0.0026033690986222817,0.28133278925436955,-0.07036980582075059,0.2819558301125653,0.03948376557424677,12989.04075920372
1682303120329631567,87,1682303120329631567,camera_2,88,0,-1.2385710688895912,0.31138787483013897,1.744356987127979,0.9567753352268634,-0.002809818141829898,0.28221238384826275,-0.07020849824781838,0.2920673958142288,0.04080864652952754,13010.318270104937
1682303120339682817,88,1682303120339682817,camera_2,89,0,-1.2401522166591448,0.3114961172092642,1.7466382904908813,0.9569768627850179,-0.002680507484666555,0.2814793963981942,-0.07040914981078858,0.29564958444098016,0.041392839788565,12990.930410066618
1682303120350357532,89,1682303120350357532,camera_2,90,0,-1.2391414718558666,0.31049834237098284,1.7452217871327782,0.9568257078086908,-0.002466264579897387,0.2821412508073007,-0.06981974655003986,0.30156028445344424,0.04213802938466524,13004.143705245107
1682303120360405206,90,1682303120360405206,camera_2,91,0,-1.240007431706864,0.3097946815362132,1.7464384746776627,0.9569788755790692,-0.0026744643128263795,0.2816110934516303,-0.0698532102414547,0.2820498494547792,0.039439747403680454,12998.418254203165
1682303120369573354,91,1682303120369573354,camera_2,92,0,-1.239431842832615,0.30886168170349526,1.7456350142855244,0.9569311365557734,-0.0029082397694052795,0.2815441599200436,-0.07076176966721777,0.2924031776492484,0.0408701636697703,13009.517687466456
1682303120379117250,92,1682303120379117250,camera_2,93,0,-1.2390246380160514,0.3084871950244919,1.7450880282249503,0.9568114640544716,-0.0028500076604060275,0.28198765535064446,-0.07061630081022745,0.28551823319867253,0.039886352707800735,13010.774881303312
1682303120389272928,93,1682303120389272928,camera_2,94,0,-1.2392915615227236,0.30883613744316146,1.745444753665562,0.9568939363126963,-0.0028124037172855337,0.2817271941838492,-0.07053986880212125,0.3049288126640021,0.0426085252131796,13009.97357712337
1682303120399809122,94,1682303120399809122,camera_2,95,0,-1.2402858262984966,0.3098489693494894,1.746840842209488,0.957026549728983,-0.0025968704400851726,0.28143346329135055,-0.06991884665518926,0.29563140991376713,0.0413534113329051,12995.690386529786
1682303120409861087,95,1682303120409861087,camera_2,96,0,-1.2394481485319744,0.3105461166797864,1.745639206300969,0.9569036633092037,-0.0025395599370420636,0.28179471389818234,-0.07014748035242388,0.2931362511590123,0.04098176336468754,13002.937157157807
1682303120419796943,96,1682303120419796943,camera_2,97,0,-1.2404142901518083,0.31156308486284356,1.7469921221690978,0.957015267039231,-0.0026163221853385933,0.2814234990916835,-0.07011239313448732,0.2866676720441319,0.040139257823969474,12987.958477229811
1682303120429805040,97,1682303120429805040,camera_2,98,0,-1.2387051382946828,0.31142424746429453,1.7445609057506788,0.9567815466170256,-0.0026985497319175896,0.282173566408482,-0.07028419667887593,0.2754346996662207,0.03849335244127673,13007.818363183878
1682303120439889669,98,1682303120439889669,camera_2,99,0,-1.2402345402592274,0.31151754486406374,1.746752253787128,0.9570403617571447,-0.002664373231358276,0.281341870834418,-0.07009564036676952,0.2925057942629792,0.0409423604329515,12993.316054723926
1682303120449706077,99,1682303120449706077,camera_2,100,0,-1.2393113857378346,0.3105530930678642,1.745464635956128,0.9568882410630433,-0.0025787652202379596,0.2818894204724591,-0.06997570086048006,0.28643837600247934,0.04003475289491045,13004.596325127402
1682303120459661722,100,1682303120459661722,camera_2,101,0,-1.2401147145432956,0.3098142614497862,1.7465908279229483,0.9569536140773993,-0.0025869205984814106,0.2817126349019648,-0.06979312059661409,0.2710483279079199,0.03790804057406483,12994.487800449835
1682303120469731807,101,1682303120469731807,camera_2,102,0,-1.239675330185287,0.3089198798231251,1.7459980130576205,0.9569617093842957,-0.0028133546304042203,0.28143768274343156,-0.07077571998939867,0.3163172610802576,0.04422658784760657,13006.324998274911
1682303120479707241,102,1682303120479707241,camera_2,103,0,-1.2392747258218733,0.30855434149969085,1.7454394837209997,0.956850895586817,-0.002756780137923145,0.2818521155101204,-0.07062682748394725,0.2702253303141333,0.03776044418511329,13008.085552192762
1682303120489766359,103,1682303120489766359,camera_2,104,0,-1.2394419384484483,0.30888414089730437,1.7456627237718367,0.9569075025186362,-0.0028074044657756844,0.28165378276377695,-0.07064911010456473,0.29951729683671147,0.04186447689965968,13007.598232552406
1682303120499759912,104,1682303120499759912,camera_2,105,0,-1.2402803319270053,0.3098398650528354,1.7468478595189534,0.9570242964352738,-0.002496326972263625,0.2814718442999616,-0.06979874820220723,0.28942628885852173,0.04048134005128349,12995.533126954217
1682303120509690523,105,1682303120509690523,camera_2,106,0,-1.2392987320039783,0.310523175571317,1.745445757769624,0.9567939977691114,-0.0025322269959767683,0.2821884335236518,-0.07006084245075771,0.31042394373798743,0.043399117132685315,12998.79988683481
1682303120519665718,106,1682303120519665718,camera_2,107,0,-1.2405284036140323,0.31160861224622466,1.7471513970596155,0.9570842261059292,-0.0026235070125348397,0.28115303099045325,-0.0702557792288362,0.2829988534213044,0.03962958354385287,12990.0333710548
1682303120529746770,107,1682303120529746770,camera_2,108,0,-1.2384358732718446,0.3113595438704917,1.7441773761890649,0.9566984468531115,-0.002735207279233705,0.2824341749420742,-0.07036716034325922,0.2894666271749884,0.040448639275536456,13008.059067420894
1682303120539360284,108,1682303120539360284,camera_2,109,0,-1.2401833585857005,0.31151420677793995,1.7466819936604685,0.9569971667030234,-0.0026660190878540512,0.281515341015119,-0.06998877079753682,0.28915976674761623,0.04047253061704209,12991.543301570691
1682303120549930810,109,1682303120549930810,camera_2,110,0,-1.2393510230289557,0.31055268029639455,1.7455172795912914,0.9568090008925291,-0.002477595041780843,0.28214266303831315,-0.07004223745354274,0.2781909499899484,0.038893365841683195,12998.591632291675
1682303120559682846,110,1682303120559682846,camera_2,111,0,-1.2405479661888121,0.30991728762564397,1.747192880632852,0.957135488728205,-0.0025529371200168453,0.2810906530081849,-0.06980819092709634,0.28878869651816785,0.040397734287549836,12997.367646406638
1682303120569615125,111,1682303120569615125,camera_2,112,0,-1.2395859006936005,0.30889880028678074,1.745864806415143,0.9569246932622184,-0.0028873090424678155,0.2815721109450702,-0.07073854118823393,0.28739566926378757,0.040180367127646874,13005.771507404272
1682303120579554557,112,1682303120579554557,camera_2,113,0,-1.2393003188514942,0.30854294931058335,1.7454625810963547,0.9568651382935912,-0.002785745075597512,0.2818913150149732,-0.07027541007983855,0.2778290149872191,0.03881383318198753,13008.553932405546
1682303120589699506,113,1682303120589699506,camera_2,114,0,-1.239302231274526,0.3088350310978166,1.7454588829311048,0.9568852162577325,-0.0027130893030604154,0.28177054292713943,-0.07048888701328257,0.3016584783908911,0.042150878881054205,13009.132525982564
1682303120599859952,114,1682303120599859952,camera_2,115,0,-1.2400628391628927,0.3098030767479707,1.746527162022165,0.9569480157764443,-0.0024248232814022704,0.28172526135852394,-0.06982472660921459,0.2799376705661416,0.03914826425464914,12995.136755421288
1682303120609782934,115,1682303120609782934,camera_2,116,0,-1.2393698076856698,0.3105385666033898,1.745532616422245,0.9568462052644199,-0.0025196903003115337,0.282033092422203,-0.06997374801051671,0.2958438930218108,0.04135677640363772,13000.74514599051
1682303120619610786,116,1682303120619610786,camera_2,117,0,-1.2401643150931312,0.3115068922995137,1.7466524631540052,0.9569861105616364,-0.0026462273688364277,0.28147559232386166,-0.07029987623570139,0.30377454130211845,0.04252684854079587,12991.273317206424
1682303120629755020,117,1682303120629755020,camera_2,118,0,-1.2384156338605778,0.31135978868628256,1.7441669040317995,0.9566984218914771,-0.0027889719798129603,0.28242051533687784,-0.07042019385449882,0.2957728137844242,0.041331243496944066,13008.339623366242
1682303120639585018,118,1682303120639585018,camera_2,119,0,-1.2400894050239775,0.31148835333783237,1.7465421180412553,0.95698886103546,-0.0026899176044761497,0.28156007238526354,-0.06992145475989152,0.29214145475998515,0.040882909146052575,12992.992609868059
1682303120649656057,119,1682303120649656057,camera_2,120,0,-1.2396763872176555,0.31063154452308844,1.7459649531344603,0.9569074376171897,-0.0024694114348073845,0.28183687783065536,-0.06992876471623441,0.28795026970328763,0.040264904452069344,12998.297399045898
1682303120659694433,120,1682303120659694433,camera_2,121,0,-1.2402241743467084,0.3098540119100578,1.7467472349508275,0.9570481765733778,-0.002556575180188297,0.28132311710626323,-0.07006821977570474,0.2861893154331483,0.04003004811698298,12998.366411880359
1682303120669617891,121,1682303120669617891,camera_2,122,0,-1.239304754095693,0.30882737252475656,1.7454530276751425,0.9568814296236157,-0.0028254658379364217,0.2817447417628834,-0.07063884818731354,0.2945041819475591,0.04115660162521243,13008.933346020523
1682303120679636478,122,1682303120679636478,camera_2,123,0,-1.2392129086542956,0.3085218912322004,1.7453491202433766,0.9568971096769392,-0.0028524168395885983,0.2817388500192692,-0.0704486025405251,0.2915764072095044,0.04073080402171844,13012.495858712586
1682303120689677238,123,1682303120689677238,camera_2,124,0,-1.2395573939576225,0.3089056912234167,1.7458237604327356,0.956910326912082,-0.0028365692872374627,0.281612259927707,-0.07077510284062248,0.2941624480881728,0.04112687487160406,13005.410562382778
1682303120699480295,124,1682303120699480295,camera_2,125,0,-1.2401925203336237,0.30983010552288903,1.7467223620345458,0.9570029542628925,-0.0024435329963506417,0.281535507245378,-0.0698364721236658,0.2901301388628781,0.04057702863198962,12995.95475147991
1682303120709816694,125,1682303120709816694,camera_2,126,0,-1.2391256646504547,0.31049176391590505,1.7452126912546055,0.9567771357707576,-0.002529539370608673,0.2822829113859055,-0.06991045584442167,0.2921574580250308,0.040831908374054,13001.181764429202
1682303120719619274,126,1682303120719619274,camera_2,127,0,-1.240211818307091,0.31151846117393417,1.746693780869828,0.9570148475396206,-0.0026569236229965917,0.28141176950975316,-0.07016365388837652,0.2857899547670968,0.0400050210380043,12992.204397928897
1682303120729622840,127,1682303120729622840,camera_2,128,0,-1.2386338861539412,0.31140340379399384,1.7444640078789015,0.956781294220241,-0.002807023165757969,0.28218903995979455,-0.07022123167359719,0.2792702757869847,0.03902445474028621,13009.27655514423
1682303120739567279,128,1682303120739567279,camera_2,129,0,-1.240397556708843,0.31154837762416027,1.746973533687422,0.9570394452272307,-0.002657465289294415,0.2813108287935414,-0.07023286809522758,0.28918095264816657,0.04049111498232175,12989.898315281607
1682303120749355316,129,1682303120749355316,camera_2,130,0,-1.2394643979272,0.31057530662078014,1.7456637516030922,0.9569192873631589,-0.002553445863931728,0.28176292636450917,-0.07006147809682652,0.29474563227267936,0.041204429829037235,13003.511000596223
1682303120759808778,130,1682303120759808778,camera_2,131,0,-1.2403753645443618,0.3098903510333254,1.7469525320910377,0.9570241989461308,-0.002607534751563633,0.2814526532275778,-0.06987336678014733,0.28023994888644665,0.0392049106861467,12993.704008196713
1682303120769617080,131,1682303120769617080,camera_2,132,0,-1.2394434711596214,0.30886269034195757,1.7456566400693494,0.9568923458506298,-0.0027357132029268037,0.2817163570400324,-0.07060770851573693,0.30074481159681454,0.0420352205374516,13006.72053216887
1682303120779764652,132,1682303120779764652,camera_2,133,0,-1.2394560343197114,0.3085888359425905,1.7456813115533385,0.9569775792047566,-0.002767424524633917,0.28147466046939507,-0.07041498259989157,0.2790843134862371,0.038990938907725044,13012.610828751924
1682303120789910316,133,1682303120789910316,camera_2,134,0,-1.2393688899363517,0.3088647077384491,1.7455651657956863,0.9568714357512749,-0.0028152733528700557,0.2817898748888501,-0.07059458966074303,0.2939544129767455,0.041084587816886294,13006.755298594246
1682303120799679040,134,1682303120799679040,camera_2,135,0,-1.2402710694773205,0.309851431429215,1.7468024909061715,0.9570203604648149,-0.0024743731874015316,0.2815016607370636,-0.06973322117470522,0.2790336941834539,0.03902512603573823,12995.577934492143
1682303120809966564,135,1682303120809966564,camera_2,136,0,-1.23920824258138,0.31050255146379424,1.74531715266353,0.9568061259788367,-0.0025079569391488693,0.28215549494415915,-0.07002873777370475,0.28542815108085046,0.03989611410174091,13001.440743163694
1682303120819804430,136,1682303120819804430,camera_2,137,0,-1.2401611087478357,0.31152244025751386,1.7466427039803603,0.9569896328127541,-0.0026086056425226995,0.28151329971285766,-0.07010206808854388,0.28224025666713715,0.039505947170534426,12991.491076913195
1682303120829666852,137,1682303120829666852,camera_2,138,0,-1.2387536997594844,0.3114426781755375,1.74464413133503,0.956762602885468,-0.0027311715462612417,0.2822094196143255,-0.07039677480364259,0.2755699200788513,0.03852103058045918,13005.428225900512
1682303120839609622,138,1682303120839609622,camera_2,139,0,-1.2401246484733863,0.31148879497025245,1.7466156158358705,0.9569850198128766,-0.002656076488620773,0.28151289350973885,-0.07016486228312073,0.2828055291902274,0.03958550256526911,12991.894911022391
1682303120849708318,139,1682303120849708318,camera_2,140,0,-1.239394820960138,0.3105601751338292,1.7455679530374046,0.9568785251797649,-0.002511206787773233,0.28190808183966115,-0.07003581429347243,0.29243960074381903,0.04088064651313543,13002.33018416516
1682303120859633445,140,1682303120859633445,camera_2,141,0,-1.2402888783626946,0.3098476478061592,1.7468188716748003,0.9570091796953712,-0.0025562092549444556,0.2815039505249578,-0.06987432727318259,0.29324054846074427,0.04101885628196334,12994.624817558562
1682303120869508981,141,1682303120869508981,camera_2,142,0,-1.2393705269448874,0.30884577697904503,1.7455560114383823,0.9569232188543378,-0.00288106858031052,0.2815965280483628,-0.07066150332674989,0.2966179049690254,0.0414530040750407,13010.280533409441
1682303120879646062,142,1682303120879646062,camera_2,143,0,-1.2393772659703959,0.308570490618018,1.745572448421818,0.9569531793695628,-0.0029044685175455822,0.2815364906905271,-0.07049383637438653,0.2890969531727024,0.04039077351117382,13012.73605114641
1682303120889620780,143,1682303120889620780,camera_2,144,0,-1.2394062850634562,0.3088701806598547,1.7456204065754006,0.9568806371373132,-0.002714418945238021,0.2817662819620155,-0.07056798531048822,0.28948738757753745,0.040459984333758706,13006.53678894462
1682303120899363279,144,1682303120899363279,camera_2,145,0,-1.2401762381533388,0.3098320066879303,1.7467025991310872,0.957045566813914,-0.002588393385958097,0.2814115776545166,-0.06974673629288816,0.29590320197166875,0.04137771241840095,12999.080834174998
1682303120909593105,145,1682303120909593105,camera_2,146,0,-1.2395751600871194,0.31059611177233426,1.7458462814173066,0.9569107411288398,-0.002437279000334596,0.2817726682211484,-0.0701431153204925,0.2901331029133871,0.04056922268678165,13000.50915985624
1682303120919615268,146,1682303120919615268,camera_2,147,0,-1.240171984037655,0.3115206541915809,1.7466588683099622,0.9569767540948523,-0.002562941145534651,0.2815724748463724,-0.07004187935552737,0.2908944454975426,0.040717416947356276,12990.422291096298
1682303120929735660,147,1682303120929735660,camera_2,148,0,-1.2388096642531938,0.3114558596697022,1.7447205508411996,0.9567501127635304,-0.002657373851114666,0.2823178676004371,-0.07013402686805716,0.27184065827168524,0.03799677985564292,13003.460055298172
1682303120939586400,148,1682303120939586400,camera_2,149,0,-1.240342405502993,0.3115399540285448,1.7469054740522083,0.9570683256108674,-0.002676494464643896,0.2812231399739078,-0.07018975732261504,0.2762052100151777,0.038666951039053134,12992.863512761896
1682303120949580907,149,1682303120949580907,camera_2,150,0,-1.2395516406097755,0.31058668639321957,1.7457817714833912,0.956863179194043,-0.002561036900361997,0.28193382393638494,-0.07013997657022336,0.2986254357965663,0.041760850136496434,12998.125947942019
1682303120959770679,150,1682303120959770679,camera_2,151,0,-1.2404279452375535,0.30990120744935234,1.7470454114917195,0.9570320309427204,-0.0025724060959822943,0.2813619648775402,-0.07013215522696506,0.2784719989867881,0.03896707520245106,12992.975241314149
1682303120969465494,151,1682303120969465494,camera_2,152,0,-1.239496439424493,0.3088853089655817,1.7457329278422171,0.956873952692948,-0.002824612220903102,0.2817793280838783,-0.07060219889049951,0.2946047720615752,0.04118356268156792,13004.343646229247
1682303120979595661,152,1682303120979595661,camera_2,153,0,-1.2394465012516587,0.3085900050504247,1.7456685486742574,0.9569125065437655,-0.0028372179553671816,0.2816518020428014,-0.07058801187485599,0.2974526376929134,0.041569267230429974,13008.672796699218
1682303120989519357,153,1682303120989519357,camera_2,154,0,-1.2392543699489094,0.3088258410286992,1.7454167443530595,0.9568480872694887,-0.0027158642901430113,0.2819338834097225,-0.07033951489306454,0.2951369272195734,0.04123667228724635,13007.600736384044
1682303120999671459,154,1682303120999671459,camera_2,155,0,-1.2401661695877504,0.3098188786802791,1.7466598961021165,0.956976774143876,-0.002461287754838341,0.28167078384937533,-0.06964887176004654,0.28016757569275796,0.03917944601364138,12994.879262866683
1682303121009675264,155,1682303121009675264,camera_2,156,0,-1.2394136041648842,0.3105519118700245,1.7456121245421499,0.9568549640255589,-0.0025781553703539874,0.28194890858514293,-0.07019076778451254,0.29236392659367993,0.04087928004299229,13000.286496942865
1682303121019620180,156,1682303121019620180,camera_2,157,0,-1.2403562178740124,0.3115537641977975,1.7469138624433072,0.9570240823570887,-0.002623768179317866,0.28130758465973005,-0.07045611713699687,0.28533524775411934,0.03995744417502736,12989.736528320245
1682303121029731512,157,1682303121029731512,camera_2,158,0,-1.2386876601633425,0.3114331186421502,1.7445617405350966,0.9567892896356517,-0.002675527481151249,0.2821171781424553,-0.07040592722307586,0.2797286362037994,0.03909549728397054,13008.47506122477
1682303121039527654,158,1682303121039527654,camera_2,159,0,-1.240478368839778,0.31157345612964554,1.7470838893764553,0.9570529238166623,-0.0027319506548157445,0.2812834844280262,-0.07015581834478121,0.2813075778540224,0.039391041170702266,12989.067923697643
1682303121049585342,159,1682303121049585342,camera_2,160,0,-1.2392914493409104,0.31052013653066357,1.745422616582331,0.9568579048155037,-0.0024746803192535593,0.2819878678437483,-0.06999763094804623,0.3045921603916213,0.042573098826671645,13003.211421169344
1682303121059590578,160,1682303121059590578,camera_2,161,0,-1.2405044426488823,0.30991209441121187,1.7471501421714044,0.9570895238752646,-0.002591783268160311,0.2812538056842008,-0.06977981610655226,0.2924646530300379,0.040914251282077645,12995.168619063916
1682303121069293022,161,1682303121069293022,camera_2,162,0,-1.2396924846385802,0.30892576722198817,1.7460080829534652,0.9569353676455952,-0.0028222739366890286,0.2815585595511554,-0.0706506508271125,0.3051713547320105,0.04266827018916969,13004.340323250508
1682303121079707860,162,1682303121079707860,camera_2,163,0,-1.2394551614477356,0.30859994497568327,1.7456904353785525,0.9569443316899169,-0.002913397125516937,0.2815503408067335,-0.0705582295366023,0.27845537348184735,0.03891188224755929,13010.420524799267
1682303121089775562,163,1682303121089775562,camera_2,164,0,-1.2393947126627005,0.3088547074144179,1.7455913019176015,0.9568516007584217,-0.002797671017270546,0.28184660178290744,-0.07063766860784988,0.29125906276749447,0.040712319806401366,13004.997369494751
1682303121099822282,164,1682303121099822282,camera_2,165,0,-1.2402819043148483,0.30984133178117973,1.7468455667824412,0.9570361643768879,-0.0025138461822608506,0.28141621059757527,-0.06985969556938684,0.28294702485436574,0.039575636408848175,12996.281370453533
1682303121109228372,165,1682303121109228372,camera_2,166,0,-1.239580070873946,0.3105861677684432,1.7458524662660797,0.9568808590485653,-0.002450742214246045,0.2818813217331539,-0.0701137355091675,0.29929348500445485,0.041853085883222736,12998.484899459178
1682303121119824886,166,1682303121119824886,camera_2,167,0,-1.2402623639697103,0.31154137028661694,1.7467979751084832,0.9569984453862632,-0.0026148386294532373,0.28149110290563756,-0.07007065814009061,0.27483998594107106,0.03847487214011324,12989.867773815748
1682303121129734754,167,1682303121129734754,camera_2,168,0,-1.238545425006502,0.31138413734729337,1.7443346287199646,0.9567603369469222,-0.0028395762441869757,0.2821655698586469,-0.07059876513304239,0.29424646834377205,0.04112472047567427,13009.783692291003
1682303121139636278,168,1682303121139636278,camera_2,169,0,-1.240279780707134,0.3115263579678507,1.746803671826956,0.9570379617502712,-0.0026676506377541946,0.2813326950931405,-0.07016507735755392,0.2804983790265396,0.03926621946175717,12992.277543425094
1682303121149536371,169,1682303121149536371,camera_2,170,0,-1.239316714203554,0.3105281773045047,1.7454766059293019,0.9568200546386765,-0.0024823571745565404,0.28210580910272925,-0.07003951323783299,0.29996593808755284,0.041934211821890374,13000.074129256882
1682303121159567356,170,1682303121159567356,camera_2,171,0,-1.2400399313396893,0.3097987309154624,1.7464891966044347,0.9569356840203506,-0.0025549023893204586,0.2817103610528948,-0.07004885150901848,0.27634357806527987,0.0386525761088776,12994.820357428864
1682303121169112920,171,1682303121169112920,camera_2,172,0,-1.2393665919048813,0.30884403003486605,1.7455589700161385,0.956915132069978,-0.002814352960263714,0.2816079129117618,-0.07072830281007142,0.2949598369305022,0.041223413171345064,13009.751558284974
1682303121179791927,172,1682303121179791927,camera_2,173,0,-1.2395024656614888,0.30861184006303793,1.7457617151359104,0.9569290112086755,-0.0028013319304265585,0.2816302237713647,-0.07045166502712023,0.2797518259030767,0.039093967352698204,13008.3633120698
1682303121189687013,173,1682303121189687013,camera_2,174,0,-1.2395191084885613,0.3088906310026066,1.7457701368467262,0.9569357739263429,-0.0028396610687467364,0.2815998957270502,-0.07047949795167521,0.29869711375795305,0.041746927855983794,13007.915427261729
1682303121199571609,174,1682303121199571609,camera_2,175,0,-1.2402681808092546,0.3098318221822188,1.7468347340938275,0.9569763298663084,-0.002518062511910448,0.2816246236470707,-0.06983934988559425,0.29272909089922905,0.04094904100337976,12992.679869811283
1682303121209310531,175,1682303121209310531,camera_2,176,0,-1.2396201921384935,0.31060610448226006,1.7459114848939135,0.9568791732396158,-0.0025669127300319687,0.2818750128266432,-0.07015793556887019,0.30022707959869877,0.041989048467592896,12997.545082986358
1682303121219543457,176,1682303121219543457,camera_2,177,0,-1.2400235027545348,0.31148319098860977,1.7464306197592916,0.9569650846510771,-0.002650958941937895,0.28158043037504393,-0.07016594904403455,0.28361297404626384,0.03969360591148273,12992.884643921629
1682303121229731559,177,1682303121229731559,camera_2,178,0,-1.238616553716489,0.3114018845080415,1.744457319400296,0.9566798346356886,-0.002739323856921355,0.28253089335444653,-0.07023164818354258,0.2840827124309726,0.03970660714512286,13002.932212917367
1682303121239611625,178,1682303121239611625,camera_2,179,0,-1.240281522072867,0.3115355461558288,1.7468180717482882,0.9569954417345263,-0.002632196474898188,0.28147653214069285,-0.07016949404909567,0.2877072674455121,0.04028039862420192,12989.367471854666
1682303121249587297,179,1682303121249587297,camera_2,180,0,-1.2393582711029774,0.3105396276957031,1.745511528257556,0.9568311419664367,-0.0024436335975432486,0.2821146879384121,-0.06985339839591347,0.2980659998138435,0.04166406411914464,13000.025011362504
1682303121259632110,180,1682303121259632110,camera_2,181,0,-1.2403376118355396,0.3098697324579402,1.7469170700450285,0.9570504901637393,-0.0025026408191387043,0.2813139786981689,-0.07007525565620888,0.29223660222487524,0.0408828986278677,12996.11831193557
1682303121269567728,181,1682303121269567728,camera_2,182,0,-1.2391748330244214,0.308792727437087,1.7452835864556937,0.9568414176545578,-0.0028086979718836584,0.2818715795399411,-0.07067549309469144,0.30901334481313825,0.0431809504292013,13009.038420477884
1682303121279528379,182,1682303121279528379,camera_2,183,0,-1.2394345655922243,0.30858900801031175,1.745658863894179,0.9569582232129218,-0.00285320238621654,0.28152214410744275,-0.07048475465275704,0.29780828376533464,0.04161061302947153,13011.83960703458
1682303121289540767,183,1682303121289540767,camera_2,184,0,-1.239239168750843,0.3088207847153521,1.7453855735500965,0.9568537594941801,-0.002681477777242495,0.28189107795150137,-0.07043516728257751,0.29927908146055415,0.041816171582526665,13008.3005663061
1682303121299727201,184,1682303121299727201,camera_2,185,0,-1.240341766466055,0.3098629013806478,1.7469208386939672,0.9570635366413118,-0.002563909831396644,0.28130165895345394,-0.06994419109572701,0.288213114021346,0.04031562254999957,12996.929073084611
1682303121309329748,185,1682303121309329748,camera_2,186,0,-1.2392273708210113,0.31050339524026943,1.7453570442588078,0.9568163444410952,-0.002540936166745814,0.28210892141192745,-0.0700755528952496,0.3019151022308506,0.04220285973483756,13001.669505045516
1682303121319570064,186,1682303121319570064,camera_2,187,0,-1.2403018775367318,0.3115534904472165,1.746863277558285,0.9570238400743543,-0.002638996061181425,0.2813679787972689,-0.07021727520109043,0.2811291381367482,0.03935957786054111,12990.646797897527
1682303121329880475,187,1682303121329880475,camera_2,188,0,-1.2389282189469064,0.3114865240483473,1.7448881830961913,0.9568104261344748,-0.0026729660700071825,0.2820483644696658,-0.07039448694848018,0.28589084127452224,0.039969395774158346,13004.895646458024
1682303121339692354,188,1682303121339692354,camera_2,189,0,-1.2404858567321144,0.3115795101839953,1.7470872923945309,0.9570752249483999,-0.0026410894588020694,0.2812520093247844,-0.06998103805468772,0.2866729157976806,0.04013460125527251,12990.429254851071
1682303121350628852,189,1682303121350628852,camera_2,190,0,-1.2392017336373404,0.31051780534146706,1.7453061321749352,0.9568192159255807,-0.0024552551139598888,0.28214612748804524,-0.06988935899965164,0.2766347900032997,0.038661098686400296,13002.40249650064
1682303121360486984,190,1682303121360486984,camera_2,191,0,-1.2404822554748842,0.3098992812417775,1.747104851152459,0.9571164410042202,-0.0025747171519152645,0.28114809501168275,-0.06983722404495078,0.30045572092058137,0.042028801728117925,12997.48398325872
1682303121369683504,191,1682303121369683504,camera_2,192,0,-1.239368107570036,0.3088358942080688,1.7455687094156906,0.9569087274106343,-0.0027911625041006664,0.28164148389048377,-0.07068218565665882,0.30693641380639747,0.042896738191215845,13009.282134732928
1682303121379838943,192,1682303121379838943,camera_2,193,0,-1.2394628553719924,0.30859778123548526,1.7457093047727195,0.9569608322233808,-0.0028380858279327442,0.28147686276108674,-0.07063063492100397,0.2872884615790099,0.040146252276874766,13011.345735516392
1682303121389764308,193,1682303121389764308,camera_2,194,0,-1.2392211974885314,0.30881626473499,1.745344701456854,0.9568790097940337,-0.002710734223214327,0.28175427837839334,-0.07063808569767298,0.3041186885093339,0.04249398424988133,13010.46263992018
1682303121399319410,194,1682303121399319410,camera_2,195,0,-1.2402446775032527,0.30984283777979893,1.7468063137716174,0.9570206721081655,-0.002525030142086616,0.2814582383397817,-0.06990219918631609,0.29311198741197586,0.04099855238678577,12995.952021734094
1682303121409348011,195,1682303121409348011,camera_2,196,0,-1.239304002986554,0.310524042056163,1.745466343591405,0.9568029770439923,-0.002568631859837651,0.28215882430389483,-0.07005614261123817,0.28982985112816095,0.04051983208234389,12999.12269833963
1682303121419551849,196,1682303121419551849,camera_2,197,0,-1.240187995341392,0.31153227791742927,1.7466706952978137,0.9569746440788472,-0.0026466661679567073,0.28155770321661155,-0.07012692427124943,0.2791080964379944,0.03907161717689105,12989.99781009182
1682303121429481983,197,1682303121429481983,camera_2,198,0,-1.238518766800535,0.31138180831034007,1.7443033844627138,0.956713452829037,-0.002825947780259654,0.2823950227352509,-0.07031667177449881,0.2866247808560729,0.04005508399242569,13007.22378773033
1682303121439981937,198,1682303121439981937,camera_2,199,0,-1.2401498069717896,0.31150662497952314,1.7466233558697504,0.9569898245376031,-0.0027019854192733453,0.2815364744320441,-0.07000277544967014,0.27477188198827207,0.038457823425148585,12991.785400369205
1682303121449625253,199,1682303121449625253,camera_2,200,0,-1.2394382482933577,0.3105632641703971,1.7456208990459088,0.9568704997540678,-0.002514950951447874,0.281952994806286,-0.06996449415152395,0.2946742743370123,0.04119455613724785,13000.968262013048
1682303121459492921,200,1682303121459492921,camera_2,201,0,-1.2402854044764442,0.30985359774977145,1.7468521111431445,0.9570062195388572,-0.0025042890466543143,0.28151688196014557,-0.06986465108875228,0.28842884773621336,0.040345892761875925,12994.284506522348
1682303121469588041,201,1682303121469588041,camera_2,202,0,-1.2392417586815563,0.30881328571272637,1.7453824058091918,0.95687065097259,-0.002767010070152096,0.28175167482068786,-0.0707594142026406,0.2816811742959544,0.03936473225904374,13009.40978525998
1682303121479473114,202,1682303121479473114,camera_2,203,0,-1.2397686911786263,0.30867683006482644,1.7461318045306502,0.956970483003411,-0.0028193596794678396,0.281437942036736,-0.0706557191835369,0.2723839914542623,0.03808159994451783,13005.547853761818
1682303121489546060,203,1682303121489546060,camera_2,204,0,-1.2393872795828744,0.30887032333921904,1.745595078862703,0.9569064938622448,-0.0027291529104689154,0.2816464611496988,-0.07069501149662702,0.28952347562881187,0.040464513801680355,13008.656848325401
1682303121499404430,204,1682303121499404430,camera_2,205,0,-1.2402285875088344,0.30984067775249124,1.746765449489765,0.956969136815347,-0.002668563294141911,0.2816672755648318,-0.06976027400118237,0.2744135285029188,0.03838425618726497,12993.077349137047
1682303121509310722,205,1682303121509310722,camera_2,206,0,-1.2394355616042476,0.3105470419090146,1.7456346582953706,0.9568667269646199,-0.0025229544378295218,0.28192259818643883,-0.07013807924892246,0.29616669757524505,0.041408604698436234,13000.716803018704
1682303121519159078,206,1682303121519159078,camera_2,207,0,-1.2401114714451489,0.3115066280297513,1.7465846720716462,0.9569624200322376,-0.0025868738483152674,0.2816141843043174,-0.0700691510463063,0.2647998417378403,0.03706347225325307,12990.673310704526
1682303121529406070,207,1682303121529406070,camera_2,208,0,-1.2385685128246258,0.31140446236527103,1.7443895838419352,0.956704345014146,-0.0026030449590959807,0.2824418432570475,-0.07026112414099461,0.2880440129083581,0.04025447005668835,13005.440609883055
1682303121539661645,208,1682303121539661645,camera_2,209,0,-1.2401691941059636,0.31151062294710835,1.7466525939128583,0.9569938889705791,-0.00259170033007186,0.2815176071031077,-0.07002725507476633,0.28620765800587833,0.040059110351556945,12991.60805818392
1682303121549549579,209,1682303121549549579,camera_2,210,0,-1.239358224101404,0.3105315048508242,1.745533674267716,0.9568458286626079,-0.002450533571211356,0.28204338165655435,-0.06993987360525304,0.2968432712950744,0.04149418248370596,13000.927091994083
1682303121559697389,210,1682303121559697389,camera_2,211,0,-1.2402031464382135,0.3098376354138754,1.7467228375164232,0.957029825333178,-0.0025392692915202192,0.2813930025017809,-0.0700388726154598,0.28267897153273225,0.039538720310279184,12997.573340870436
1682303121569612264,211,1682303121569612264,camera_2,212,0,-1.2393565617078561,0.308833948152091,1.7455547378208216,0.9568617857190447,-0.0026527957020181622,0.28183545708641217,-0.07054970470822479,0.2905521018547006,0.04060614949309363,13006.39646479999
1682303121579551458,212,1682303121579551458,camera_2,213,0,-1.2392694462396356,0.3085413175198627,1.7454334811893906,0.9569114129695575,-0.0027816370902227897,0.2817340751418143,-0.07027603523029506,0.3043306089239195,0.042509454956848006,13012.182539501235
1682303121589567899,213,1682303121589567899,camera_2,214,0,-1.2392782123647865,0.3088357698204824,1.7454485566684794,0.9568551021221219,-0.0027558166093714625,0.28181360687539125,-0.07072347557608819,0.3009640174568631,0.04206312321378404,13007.585717753274
1682303121599628210,214,1682303121599628210,camera_2,215,0,-1.24035265335733,0.30987607864912053,1.7469497281746478,0.9570442931486615,-0.002563240600490606,0.28141720038899,-0.06974245532260678,0.2797569442773238,0.03913048583589744,12995.317670461489
1682303121609681129,215,1682303121609681129,camera_2,216,0,-1.2395179293238625,0.3105710165712049,1.7457575338639473,0.9568841448043454,-0.002558407338817111,0.2819133473565061,-0.06993606048524033,0.29974774626316497,0.04190754206092134,13000.1336470223
1682303121619352340,216,1682303121619352340,camera_2,217,0,-1.2403101299316273,0.31155769338658557,1.7468609664190946,0.9569872599469791,-0.002676692764350553,0.2815483085363483,-0.0699912107006266,0.2779677685466595,0.03891518374262477,12988.2111272472
1682303121629712581,217,1682303121629712581,camera_2,218,0,-1.2386405116946846,0.31140834380437715,1.7444844772837635,0.9567268256376376,-0.002691586974455574,0.28233091771995805,-0.07039736759492429,0.2899479831685312,0.04052698376206355,13005.518669982672
1682303121639485120,218,1682303121639485120,camera_2,219,0,-1.2401455063587592,0.31150179429991776,1.746626537093624,0.9570220093252055,-0.0026872034968761192,0.28139526706966983,-0.07013099368540116,0.28963189484784374,0.04053751243672208,12993.969597091898
1682303121649536848,219,1682303121649536848,camera_2,220,0,-1.2393836001601475,0.31056018407605934,1.745548435678479,0.9569034745046069,-0.0024779273821219586,0.2818622798759243,-0.06988029436147294,0.29930157522903755,0.04183147151890174,13004.244942282097
1682303121659526348,220,1682303121659526348,camera_2,221,0,-1.2402451591421677,0.30984442892241526,1.7468007225545419,0.9569789938014582,-0.0024613811099616313,0.2815961254723566,-0.06991973358599886,0.28281382989371195,0.039561987802251425,12993.287342924386
1682303121669553995,221,1682303121669553995,camera_2,222,0,-1.239360697188787,0.3088307358568128,1.7455496032710287,0.9569128233068136,-0.002691192500411851,0.28166182585147315,-0.07054942899785478,0.2913500632275827,0.0407125678677352,13009.69349293783
1682303121679528951,222,1682303121679528951,camera_2,223,0,-1.239568843471125,0.3086154114892729,1.7458498031954004,0.9569426055285198,-0.002877463586753494,0.2815288491604351,-0.0706687839006411,0.2900753305875696,0.040545771578000454,13008.010066974446
1682303121689544200,223,1682303121689544200,camera_2,224,0,-1.2394279220667894,0.3088711617464883,1.745636120239332,0.9569232109764665,-0.002832229720537666,0.28162457882932296,-0.07055170705592982,0.2855026524630375,0.03990025017244052,13008.945411878407
1682303121699593544,224,1682303121699593544,camera_2,225,0,-1.2402305545456185,0.30983406135435004,1.7467645829038512,0.9569733710145605,-0.0025835510982916464,0.2816953983737718,-0.06959163001247488,0.28785406408132985,0.04025876180890229,12993.287954367694
1682303121709593534,225,1682303121709593534,camera_2,226,0,-1.239399752404642,0.31054267451836765,1.745599719433449,0.9568757296160738,-0.0024688708358365057,0.2819403670659861,-0.06994549425945629,0.29474124900298193,0.04120041971341292,13001.93981529563
1682303121719717025,226,1682303121719717025,camera_2,227,0,-1.2403516017258318,0.31155946094066733,1.7469268040909327,0.9570639806932312,-0.0026039095796018693,0.2812418049295895,-0.07017694546269959,0.2808194954995997,0.039313429309779345,12992.290377343537
1682303121729534864,227,1682303121729534864,camera_2,228,0,-1.2384315966536557,0.3113539118293244,1.7441804855625236,0.9566978118876523,-0.00273818881133038,0.28244905622096345,-0.0703159277212423,0.2803899996215477,0.03917892883576208,13008.022771321474
1682303121739551067,228,1682303121739551067,camera_2,229,0,-1.240370351571558,0.3115586059886082,1.7469457799398302,0.957067098092266,-0.0027133183089888976,0.28124408698257525,-0.07012111800549627,0.27813710574992,0.038938028395712566,12992.169623821741
1682303121749620676,229,1682303121749620676,camera_2,230,0,-1.2394652031718503,0.3105728628699396,1.7456743851463339,0.9568319608663578,-0.0025442039532538275,0.2820527190228499,-0.07008843972227134,0.29125021293293685,0.040726135369341915,12997.742702126503
1682303121759554862,230,1682303121759554862,camera_2,231,0,-1.2403425749729782,0.30985361933070993,1.7469210126003192,0.9570806977047738,-0.0025492457697196954,0.28122412427075466,-0.0700216491886357,0.29243953491095454,0.04090704191046705,12998.028444552561
1682303121769552707,231,1682303121769552707,camera_2,232,0,-1.2396504301538447,0.308915764080035,1.745968663954044,0.9569302635403366,-0.0027609334558928124,0.2816262854323685,-0.07045199302106504,0.29178737418260425,0.04078905338604203,13004.71775289625
