%time,field.header.seq,field.header.stamp,field.header.frame_id,field.image_seq,field.transforms0.fiducial_id,field.transforms0.transform.translation.x,field.transforms0.transform.translation.y,field.transforms0.transform.translation.z,field.transforms0.transform.rotation.x,field.transforms0.transform.rotation.y,field.transforms0.transform.rotation.z,field.transforms0.transform.rotation.w,field.transforms0.image_error,field.transforms0.object_error,field.transforms0.fiducial_area
1684747015704139947,16,1684747015704139947,camera_1,17,0,-0.9241496667643863,-0.11962514273713523,1.8899028161975786,0.9745434372216664,-0.05606724375052148,0.2153077364905939,0.02764293316015503,0.002169925093767233,0.0026074714652766185,2369.9688240234973
1684747015714618682,17,1684747015714618682,camera_1,18,0,-0.924558410519848,-0.11967967772850842,1.8907400456700512,0.9745287961734298,-0.05645484335963206,0.21529321919702005,0.027482828416830737,0.004230838734656572,0.00508892162340535,2367.974862184259
1684747015724904298,18,1684747015724904298,camera_1,19,0,-0.9239680657691491,-0.11959974069338707,1.8895347383252614,0.9744075363872671,-0.05638222635445003,0.21582798985820598,0.027735832000834782,0.0012106371577829123,0.0014544634121679962,2369.6385599600617
1684747015735056638,19,1684747015735056638,camera_1,20,0,-0.9244004758323325,-0.11965951702426103,1.890437850558895,0.974818117709963,-0.056320794107205335,0.21404295357956926,0.027262053452977372,0.0025970352871809155,0.0031213713168154154,2371.768128843745
1684747015745165109,20,1684747015745165109,camera_1,21,0,-0.9238833851606487,-0.11958939881754607,1.8893567199375525,0.9743701764166816,-0.05622012351480787,0.2161096361246955,0.027178708500521617,0.0034457843576092273,0.00414032114807713,2369.666358220158
1684747015754942417,21,1684747015754942417,camera_1,22,0,-0.923999827289446,-0.11960099189188353,1.889562068392473,0.9743052095549742,-0.05631468957260508,0.21619680249202064,0.02858245903706054,0.0004768254148075357,0.0005727814948248503,2368.289603780955
1684747015764861345,22,1684747015764861345,camera_1,23,0,-0.9237966812888478,-0.11957756166514258,1.8891569984692018,0.9744081802371022,-0.05650838161828552,0.21583262591531924,0.027418582829879783,0.0020978680840926245,0.0025197671455966953,2370.678950245492
1684747015775065422,23,1684747015775065422,camera_1,24,0,-0.9240473700284942,-0.11960960254604838,1.8896764305469387,0.9745755416874383,-0.05621875631311452,0.21508847329269332,0.02790902434448876,0.0012294551997911185,0.0014767436168561107,2370.924720908515
1684747015784851551,24,1684747015784851551,camera_1,25,0,-0.9247303635364282,-0.11969372760377395,1.8910628474651494,0.9748269620021982,-0.056144394985869185,0.21412845241594552,0.026630939359848105,0.0018317023059353232,0.0022035565338486373,2370.2421549276924
1684747015795073270,25,1684747015795073270,camera_1,26,0,-0.9239086344981533,-0.11959396078589417,1.8893546782532502,0.9743408980163332,-0.05647591857440441,0.2162396279399654,0.026659114431808555,0.0022017395531293005,0.0026462967630824777,2369.528218036866
1684747015804829597,26,1684747015804829597,camera_1,27,0,-0.9237024796381699,-0.11957800106312541,1.888937497620868,0.9745756532858219,-0.05608194313004132,0.21513700339529704,0.027806140461495214,0.0028422159084584564,0.0034114407490944115,2372.67067714245
1684747015814789533,27,1684747015814789533,camera_1,28,0,-0.9244457877595211,-0.1196592920166888,1.8904436991122684,0.9746705416389692,-0.05630357327011525,0.21459162450341776,0.02824318663322954,0.004048343704198487,0.00486513305740528,2369.9688104328225
1684747015824511528,28,1684747015824511528,camera_1,29,0,-0.924564513850277,-0.11967746213396735,1.8907194533806948,0.9745546933280737,-0.05637914616469966,0.2151074652360396,0.028165936691151937,0.002257614803966135,0.0027145348825040744,2368.1282829878614
1684747015833447217,29,1684747015833447217,camera_1,30,0,-0.925398824380624,-0.11976118657209803,1.892435221140524,0.9748873340068217,-0.05618255539227167,0.2135556302781377,0.02884786368474054,0.0015253999299602583,0.0018357869592094255,2367.179173104465
1684747015844238996,30,1684747015844238996,camera_1,31,0,-0.9247921457829261,-0.11971055620004024,1.8911945969782196,0.9747597340711406,-0.05602169128613913,0.21428827360122535,0.028027963465193515,0.0009283655817853287,0.0011164561154041687,2368.9312874078755
1684747015855040073,31,1684747015855040073,camera_1,32,0,-0.9243267511024441,-0.11964868443316715,1.89025815570286,0.9746767226974932,-0.05621246807870762,0.21467762747375452,0.027549245478130945,0.0016083959199022502,0.0019330323970432604,2370.5916461900333
1684747015864982604,32,1684747015864982604,camera_1,33,0,-0.9242230704142926,-0.11963171032359471,1.8900363198038164,0.9746127891393797,-0.05614028041952503,0.21504860065656597,0.027060663628759002,0.001128648524172604,0.0013565798711486846,2370.4893698776145
1684747015874433040,33,1684747015874433040,camera_1,34,0,-0.9249759963596313,-0.11972637485258925,1.8915471042370184,0.9747399054648411,-0.0559125427673692,0.21454209763055002,0.02697392444497432,0.002336940451641567,0.0028128710834497837,2367.9046906210715
1684747015884666442,34,1684747015884666442,camera_1,35,0,-0.9617571261971535,-0.12451040790284812,1.9667713366606008,0.979779632619416,-0.05590029003530164,0.1733536081994566,0.082798282605141,2.1028635964757996,2.629572994080658,2370.962257394218
1684747015895085334,35,1684747015895085334,camera_1,36,0,-0.9243122531548739,-0.11964387277900242,1.8901995652431212,0.9747971030082677,-0.05647542032047072,0.21400705189378533,0.027966347742343554,0.0034845378831960257,0.004185983017882785,2372.0858548533865
1684747015905035495,36,1684747015905035495,camera_1,37,0,-0.9247788224220456,-0.11970298650628255,1.8911824395988774,0.9747837265157528,-0.056262589931643195,0.21414445166654678,0.02780937458268536,0.0032045562111306936,0.0038539408135058583,2369.409548108233
1684747015914919137,37,1684747015914919137,camera_1,38,0,-0.9239395932605998,-0.11959142066844682,1.889467789681629,0.97457816823325,-0.05641197289874737,0.21507048634544937,0.02756391154981191,0.001982956673600711,0.0023816166421152096,2371.650032380596
1684747015924960374,38,1684747015924960374,camera_1,39,0,-0.9242878428392468,-0.11962975823700989,1.8901660174200605,0.9746751212902612,-0.05672891043038177,0.214473857090693,0.028128335959265213,0.003433659818256274,0.004125292111871996,2371.031780527089
1684747015934784650,39,1684747015934784650,camera_1,40,0,-0.9245118204870234,-0.11967104291873973,1.8906406972987897,0.9746327253085713,-0.056136589392567895,0.21499092021515961,0.026807430201279507,0.002369434994761832,0.00284998049479455,2369.2278932620543
1684747015945170164,40,1684747015945170164,camera_1,41,0,-0.9238525394630243,-0.11957141894085994,1.8892642785992182,0.9747950130551984,-0.05638371776537778,0.21403375562862287,0.028019820577171266,0.0012838091352023184,0.0015406807008224981,2374.3594459760934
1684747015955028772,41,1684747015955028772,camera_1,42,0,-0.9241896136339531,-0.11961909947241627,1.8899717271452763,0.9746691045314153,-0.05653360250700725,0.2147356041447279,0.02669660600352514,0.002076763106742874,0.002496119407416678,2371.541884172241
1684747015964727640,42,1684747015964727640,camera_1,43,0,-0.9240824706380361,-0.11961229858421742,1.8897924592407331,0.9745680015115019,-0.05661327084068521,0.2151884680949258,0.02657200017980359,0.0029580780537799,0.0035555434671051753,2371.014746902277
1684747015973765611,43,1684747015973765611,camera_1,44,0,-0.9250503059386413,-0.11972862526970991,1.8917538307938608,0.9747956473665633,-0.056072548491672265,0.21424261926179472,0.02700768914027072,0.0008339809864992276,0.0010038982450271833,2368.1248365885103
1684747015983495235,44,1684747015983495235,camera_1,45,0,-0.9241797304949443,-0.11961957714984868,1.889988250485632,0.9744461991026047,-0.05619860412317168,0.2158507185710913,0.02654786698470323,0.0037496659788303077,0.004509023349512572,2368.995148124406
1684747015993624925,45,1684747015993624925,camera_1,46,0,-0.9243050121759746,-0.11964598527454459,1.8902444254890227,0.9745562689654561,-0.05624887427174239,0.21525099921050356,0.02726077955912403,0.002094573312206194,0.002518156012405369,2369.436982254033
1684747016003776550,46,1684747016003776550,camera_1,47,0,-0.923694075101045,-0.11956241116372582,1.8889582002576284,0.9742979198707274,-0.0559361382188801,0.2165414901527406,0.02691644142828749,0.0026008470013039187,0.0031245466812945756,2369.7572204978205
1684747016013561964,47,1684747016013561964,camera_1,48,0,-0.9239690917118115,-0.11959754605632039,1.8895420895608666,0.9744356951465465,-0.05596984718574385,0.21592204187057734,0.026835127439828892,0.0015660590142942965,0.0018821289745801122,2369.806203206303
1684747016023863315,48,1684747016023863315,camera_1,49,0,-0.9251273418923378,-0.11973688671355391,1.8919542824753126,0.9748481620575327,-0.05618800398540004,0.21401409151570677,0.02668216209181823,0.005573009912041016,0.0067101342724764455,2368.3384671604736
1684747016034289598,49,1684747016034289598,camera_1,50,0,-0.9242934154838554,-0.11962595536277025,1.8902512932797906,0.9745457250867487,-0.05611644810183951,0.2153972573777204,0.026750616473883222,0.0022301072312984616,0.0026817285308332957,2369.3449211386032
1684747016045044422,50,1684747016045044422,camera_1,51,0,-0.9237056398927435,-0.11956012681058648,1.8890331954415283,0.9742529293940839,-0.05646604069835104,0.21652920980831547,0.02753029448961431,0.0018185834342148155,0.002184506868457889,2369.362222229015
1684747016054770946,51,1684747016054770946,camera_1,52,0,-0.9246162614980885,-0.11967841671800569,1.8909228755251468,0.9746119715579469,-0.05613824248348449,0.21509601632407954,0.02671528379614893,0.0020400569192133844,0.002454678301152608,2368.37945181725
1684747016064808130,52,1684747016064808130,camera_1,53,0,-0.9248961953675635,-0.11970339522268417,1.8914990650801249,0.9748219642761401,-0.056445773340469005,0.21421323753109492,0.02546961922076969,0.0041813255520537496,0.005034926332257941,2369.5308693419206
1684747016074843406,53,1684747016074843406,camera_1,54,0,-0.9247515517172117,-0.11969067318378895,1.891203478692437,0.9745522533017974,-0.05629339445273392,0.21547924801513202,0.025449027490485606,0.0017512089252704754,0.002109124343838588,2367.319179631304
1684747016085102319,54,1684747016085102319,camera_1,55,0,-0.9237389903914908,-0.11955550113242489,1.8891635835554983,0.9741996528048071,-0.05566064934828736,0.21729926389245408,0.024858771106352918,0.0007609044841956347,0.0009152649059466067,2368.439488888835
1684747016095071554,55,1684747016095071554,camera_1,56,0,-0.9238712487239144,-0.11957582469654898,1.8894535781537867,0.9741226006016475,-0.05563776467273025,0.21749059730911416,0.026219043106679822,0.0011779157939599827,0.0014166685001001495,2366.7062987409295
1684747016105360269,56,1684747016105360269,camera_1,57,0,-0.9240680984665813,-0.11959502482296862,1.889887239540313,0.9743104931367413,-0.05603504952712645,0.2166048408936408,0.02571923578905765,0.001294663074077107,0.001557560421718434,2367.9501130688
1684747016115002155,57,1684747016115002155,camera_1,58,0,-0.9235884751468136,-0.1195387726908716,1.8888961003205211,0.9739631078544181,-0.05582618854664187,0.21818501486083902,0.025973072615564557,0.0020931343460688367,0.002516901993444352,2366.5783155395175
1684747016125030755,58,1684747016125030755,camera_1,59,0,-0.9240433109010047,-0.11959271162775097,1.8898529627654699,0.9741104638572005,-0.056063757885475,0.2174300134691434,0.026264967132600573,0.0029026192205492407,0.0034923850087644494,2365.870500874821
1684747016134670019,59,1684747016134670019,camera_1,60,0,-0.9243526358769825,-0.11963016914269031,1.890449855342729,0.97417502946676,-0.056409399991518776,0.21718581595708497,0.025125940839887013,0.0017613902018638328,0.0021214298459739,2365.388418750488
1684747016144008874,60,1684747016144008874,camera_1,61,0,-0.9240682887705511,-0.11958924322254494,1.8898913254553513,0.9743237091170152,-0.055733642554701694,0.21663920295371933,0.025583719112439823,0.0008426950080320239,0.0010138694041389564,2367.9153152159415
1684747016153951644,61,1684747016153951644,camera_1,62,0,-0.924095269277213,-0.11960063457646658,1.889968057259159,0.9741132752600506,-0.0558257749625771,0.21754275703080628,0.025728557584913603,0.00097913111676462,0.0011784832774500466,2365.5513607546463
1684747016163842201,62,1684747016163842201,camera_1,63,0,-0.9243869069919658,-0.11964242065977362,1.8905651708834323,0.9741958832812888,-0.05576564866559989,0.21721143881596508,0.025529674384774544,0.0012293117761146277,0.0014804432144562985,2364.9213615105245
1684747016173690080,63,1684747016173690080,camera_1,64,0,-0.9253224974541739,-0.1197570355660669,1.892485894612232,0.9746348828345452,-0.05613401125816534,0.21523520162604196,0.024690603944770993,0.003171532734995708,0.0038254763049261867,2365.108362924422
1684747016184208869,64,1684747016184208869,camera_1,65,0,-0.9240677781715186,-0.1195945138447344,1.8899211388196742,0.9743258238748647,-0.05581514899971528,0.21654951781046383,0.026079961824387793,0.0007827020162949339,0.0009415026434309407,2367.8709848843273
1684747016194637537,65,1684747016194637537,camera_1,66,0,-0.924393603914,-0.1196360481383844,1.8905594999848359,0.9743872663599552,-0.05584181832569463,0.2162797295706748,0.0259658440742757,0.0007251231727423146,0.0008727793144572761,2366.932358219987
1684747016205263376,66,1684747016205263376,camera_1,67,0,-0.925283712296693,-0.119740051511111,1.8923935651680528,0.9747342046681599,-0.0561261914286148,0.21475985286244859,0.024925619032392064,0.0014985899615567178,0.0018068790028304199,2366.3512868483085
1684747016215256690,67,1684747016215256690,camera_1,68,0,-0.9249000782903473,-0.11970727455270072,1.8916272828837226,0.9745477778012501,-0.05593039862376568,0.21551958606043822,0.02607158063427147,0.0022913501015864313,0.002760105723438382,2366.0202303025862
1684747016226040124,68,1684747016226040124,camera_1,69,0,-0.9244433946776021,-0.11964925485836025,1.8906742804335996,0.9742262660340548,-0.05600817615277784,0.2170707335966381,0.02503124825493032,0.0015777485823491588,0.0019006009577449557,2365.168907262151
1684747016235223770,69,1684747016235223770,camera_1,70,0,-0.9244370936751933,-0.11964653257616673,1.890676094760402,0.9740998855098154,-0.05622427027839065,0.21756673837182938,0.025158673169925795,0.002750559084233828,0.0033139682874533797,2363.957903436501
1684747016245125770,70,1684747016245125770,camera_1,71,0,-0.924402521896942,-0.1196315007128036,1.8906136419788975,0.9743506528287372,-0.05604773060322615,0.21641067098239888,0.02580462577504033,0.0013938087213318795,0.0016779416218739571,2366.5877887619426
1684747016255110740,71,1684747016255110740,camera_1,72,0,-0.9237584343239307,-0.11955610956555075,1.8893233494262112,0.974200765505445,-0.055525390938436024,0.21719342931542052,0.026015643600466078,0.0019282893772469833,0.00231861714541039,2367.923100619577
1684747016265232563,72,1684747016265232563,camera_1,73,0,-0.9251375769074046,-0.11973170911219588,1.8921374244418436,0.9747009107227916,-0.055962123195858984,0.21491129940200293,0.025288511085371196,0.0028392941458150744,0.00342215445731068,2366.519513212843
1684747016275052547,73,1684747016275052547,camera_1,74,0,-0.9235666785924406,-0.1195320862463608,1.888896578969621,0.9740375443797793,-0.0556777902592143,0.21786518153637724,0.02618412657665008,0.0006562478374689817,0.0007889168756128822,2367.2903532204227
1684747016285150051,74,1684747016285150051,camera_1,75,0,-0.9240747432307661,-0.11959577347048916,1.8899369379019504,0.9742860333664404,-0.055718170415822874,0.21682477155881813,0.025479974706958716,0.0002010118478210643,0.0002418787736215901,2367.4360119421026
1684747016294811487,75,1684747016294811487,camera_1,76,0,-0.9241804772610327,-0.11961085174701526,1.8901552378660165,0.9743181371154037,-0.05547876705388379,0.2167079284504204,0.02576718535031612,0.0020232734532328323,0.0024347560726144532,2367.052172361757
1684747016305319070,76,1684747016305319070,camera_1,77,0,-0.9246077800062856,-0.11967044433063634,1.8910478385364164,0.9744601038488152,-0.05586271166068607,0.21599322202808963,0.025569346702559316,0.0026956488145515323,0.003246325326326987,2366.5929912010915
1684747016315049886,77,1684747016315049886,camera_1,78,0,-0.923615302401971,-0.1195394626483722,1.8890162740389436,0.9742853317020668,-0.05575866590471054,0.21684172142165536,0.025273137075042706,0.002018347746343352,0.0024265623443730654,2369.80134502973
1684747016325048685,78,1684747016325048685,camera_1,79,0,-0.9244223910615771,-0.11964630392586381,1.8906835786548202,0.9746093633840055,-0.05579462544219251,0.2152803361827639,0.026037001152692772,0.0008193741814466193,0.0009859034429282741,2368.988769293763
1684747016335029363,79,1684747016335029363,camera_1,80,0,-0.9235609592021877,-0.11953743929861212,1.88892098945414,0.9740157774212164,-0.055690834230294854,0.21792092680014563,0.026500301504757597,0.0011332562717143444,0.0013622530515877318,2366.988755223574
1684747016345089435,80,1684747016345089435,camera_1,81,0,-0.9230872846782786,-0.11948168196685505,1.8879493084664483,0.9741389763355137,-0.05592144358579386,0.21745724244698572,0.025266472619488424,0.002914651791797951,0.0035011448245569872,2371.026463448651
1684747016354861736,81,1684747016354861736,camera_1,82,0,-0.9240958555370427,-0.11961005951195344,1.8900130200880274,0.9742342217352861,-0.05561482546801484,0.2170507108337669,0.025761624843168764,0.001163959750556387,0.001400668332984858,2366.6227643381585
1684747016365178823,82,1684747016365178823,camera_1,83,0,-0.9232122777178714,-0.11948944218772795,1.8882109690156739,0.9740042088123617,-0.055804399977815736,0.21805159483984538,0.0255963307276824,0.000733456778107211,0.0008813719244725015,2368.837176584639
1684747016374892950,83,1684747016374892950,camera_1,84,0,-0.9235182444180298,-0.11952843641164791,1.8888403575355928,0.9741099419203265,-0.055730732290247866,0.21776618119364083,0.024120465557472992,0.0018533466645749286,0.0022296047315807917,2368.5473513938496
1684747016385020017,84,1684747016385020017,camera_1,85,0,-0.9234632168969951,-0.11952495071278363,1.88874104211843,0.9739277150360437,-0.05574959801555705,0.21835578049346754,0.026029624101461632,0.002247562530101277,0.0027022001732159304,2366.62453721161
1684747016395179271,85,1684747016395179271,camera_1,86,0,-0.9243159281042492,-0.11962815507113467,1.8904666762086817,0.9742362242237502,-0.05605920148941326,0.2170767637907606,0.02447087985239799,0.0010609304445097223,0.001278011655545108,2365.9538300434365
1684747016405121564,86,1684747016405121564,camera_1,87,0,-0.9236137687896463,-0.11954651506476523,1.8890345773568211,0.9739245213671809,-0.05592910870695989,0.2183777798634062,0.025575510569337156,0.0021567481162492186,0.0025943834060707695,2365.9983806875543
1684747016413955688,87,1684747016413955688,camera_1,88,0,-0.9243394097399344,-0.11962814304120395,1.8905555654044082,0.9742460032561447,-0.055841450795553124,0.2170869828686615,0.02448876030870556,0.0008430538146058097,0.0010156037506147614,2365.7501054187305
1684747016425243139,88,1684747016425243139,camera_1,89,0,-0.9241846211655775,-0.11961352463482705,1.8902182730383774,0.9742351717929081,-0.05564623331299214,0.217099157140524,0.025244459364247115,0.001148801384260878,0.0013830279536674976,2366.235184108605
1684747016435145616,89,1684747016435145616,camera_1,90,0,-0.9237284472471968,-0.11955564374121111,1.8893156986485513,0.9740168283376996,-0.05587596492194637,0.21807038402486442,0.02478713921084421,0.0013147878489689901,0.0015822928138933105,2366.402872209087
1684747016444981098,90,1684747016444981098,camera_1,91,0,-0.9242357727127659,-0.11962194765521797,1.8903448162899514,0.974205271571296,-0.055967066958186325,0.21726987202247064,0.024198739019512396,0.0015667055413359776,0.0018873516882154575,2365.948571624235
1684747016455268621,91,1684747016455268621,camera_1,92,0,-0.9239312447760734,-0.11956799660082534,1.8897289902172492,0.973987988641867,-0.055950329126347044,0.2181903188147862,0.024697032767639383,0.00016641589172650129,0.000200379691759298,2365.124613571679
1684747016464843034,92,1684747016464843034,camera_1,93,0,-0.9246481389934649,-0.11967271321995486,1.8911994354954438,0.9743814390041516,-0.05583736085680519,0.21643355056951744,0.02489013147048178,0.001660361129324883,0.0020007256394836736,2365.5133602122073
1684747016475190639,93,1684747016475190639,camera_1,94,0,-0.9233189452083331,-0.1194966634019167,1.8884566087891594,0.973718138142243,-0.055701093742497584,0.219327205769615,0.025806053901875008,0.0009455984982196242,0.0011370807469104891,2365.1200473799836
1684747016485027074,94,1684747016485027074,camera_1,95,0,-0.9242944989825412,-0.1196122026641494,1.8904684862976142,0.9741804159898015,-0.05580855376663635,0.21741486444324482,0.02426312320249245,0.0011867984430864453,0.00142990597610685,2365.2838698904957
1684747016495135784,95,1684747016495135784,camera_1,96,0,-0.923997082053232,-0.11957951668375758,1.8898673729667055,0.9738378575276535,-0.05586743573061495,0.21889282154825365,0.024588402662223924,0.0008486433798680082,0.0010223262237195464,2363.1615435682475
1684747016504751682,96,1684747016504751682,camera_1,97,0,-0.9244483919989762,-0.11963308110550647,1.8908092587338545,0.9741333476175453,-0.05585017599644603,0.21757725270633083,0.024599146435723244,0.0012000366987194864,0.001446278161466064,2363.9380504428414
1684747016514573812,97,1684747016514573812,camera_1,98,0,-0.9233910262769343,-0.11951235790609294,1.8886679951511571,0.9737374062031153,-0.0557666843229417,0.21933568975326814,0.02484745220163842,0.0006135909352451563,0.0007382800285099361,2365.0247478188244
1684747016525096416,98,1684747016525096416,camera_1,99,0,-0.9236875254733484,-0.11953916587120574,1.889258330663886,0.9737994603015291,-0.05612551221970483,0.21906390480337473,0.02399048992464495,0.0012082155008101836,0.0014550374932098692,2364.5284672933626
1684747016535217761,99,1684747016535217761,camera_1,100,0,-0.9242874515522085,-0.11961669668711966,1.8905021794138097,0.9740174321727426,-0.05625647398313763,0.2180228325384379,0.024316567408202965,0.0006751736655132845,0.0008137231247727601,2363.763743706978
1684747016545190811,100,1684747016545190811,camera_1,101,0,-0.923705929695141,-0.11954798658258993,1.8893227786720699,0.9739286255533743,-0.0556518367392327,0.2185682804486978,0.0243682616730136,0.001404497743351385,0.0016908413663596967,2365.4216610027947
1684747016554896116,101,1684747016554896116,camera_1,102,0,-0.9233487092054342,-0.11949585812612518,1.8885833789629454,0.9738349061123228,-0.056009345175135394,0.21887697088575928,0.024523468476758112,0.001728361559798941,0.002079333646030571,2366.455878333887
1684747016564574003,102,1684747016564574003,camera_1,103,0,-0.9238046866833942,-0.11955633189532149,1.8895505721380832,0.9742981804208595,-0.05572069894326696,0.2169614145784082,0.023790836933843578,0.0025624121772125363,0.0030842099230584,2368.9196168250646
1684747016573586702,103,1684747016573586702,camera_1,104,0,-0.9237428528899784,-0.1195509184330835,1.889423910606866,0.9741336193441256,-0.05553392070703439,0.21773030978339836,0.023941334884345782,0.0007407759549096227,0.000891713808746489,2367.360961520231
1684747016583731651,104,1684747016583731651,camera_1,105,0,-0.9234648985142794,-0.11952318277978435,1.8888771396386983,0.9740044597097979,-0.05599716481954975,0.2181679004293015,0.02413290740601673,0.0016634730855003,0.0020015671647623124,2367.617585669039
1684747016593731164,105,1684747016593731164,camera_1,106,0,-0.9235910126083641,-0.11954460864295272,1.8891265583582424,0.9741290162996245,-0.055888829230205855,0.21762510676963587,0.024257190148644303,0.0008140475256368518,0.0009794785479864778,2368.2182399856397
1684747016603653669,106,1684747016603653669,camera_1,107,0,-0.9239001356211766,-0.11955458611502338,1.889750589655382,0.9743003125125298,-0.05591205631943924,0.2169161373082656,0.02366711582302096,0.0001496890326961875,0.00018021588200720808,2368.578741727863
1684747016613948106,107,1684747016613948106,camera_1,108,0,-0.9234843980681461,-0.11951716032021445,1.888909808530855,0.9740731356111982,-0.055594188722717486,0.2181254956411636,0.022629202640129156,0.0026305097271688282,0.0031669576086567966,2368.241364251706
1684747016624651432,108,1684747016624651432,camera_1,109,0,-0.9232539835730276,-0.11949798266602243,1.88845116740463,0.9741509508690147,-0.055544722594354994,0.2176888263880567,0.02358566468643199,0.0018978353182319552,0.0022824534974671402,2370.059450442203
1684747016634904146,109,1684747016634904146,camera_1,110,0,-0.9236413456380915,-0.11954274884377081,1.8892398387694609,0.9741423505470137,-0.05597568776311644,0.21747757273883822,0.024837644932817652,0.0002562083682278171,0.0003082241888947994,2368.057617672719
1684747016645234346,110,1684747016645234346,camera_1,111,0,-0.9244277031737905,-0.11964736820983214,1.8908523050043105,0.9744780565839858,-0.05612084006354469,0.21608221810320585,0.023482835571092497,0.0020133365178480744,0.002426121011457125,2367.864190735273
1684747016655104398,111,1684747016655104398,camera_1,112,0,-0.9239541344510727,-0.11957794217917664,1.8898749545226803,0.9742965940437144,-0.05595319296934883,0.2169645053846669,0.023276392214844926,0.0019108468113699928,0.002301267160315164,2368.3057570706587
1684747016665343523,112,1684747016665343523,camera_1,113,0,-0.9246859906515916,-0.11967097939780705,1.8913616259667947,0.9745604308100262,-0.055595570253958775,0.215788532577341,0.02400850840079707,0.0007500197971239686,0.0009039485851105615,2367.0608508368023
1684747016674479961,113,1684747016674479961,camera_1,114,0,-0.924034908372577,-0.11958905122341973,1.8900337565146688,0.9745975948324211,-0.05568637473780704,0.2155785078198342,0.02417566507035736,0.00045586029591504484,0.0005485654064494555,2370.8172260073484
1684747016683926343,114,1684747016683926343,camera_1,115,0,-0.9240444805217224,-0.11959691091810395,1.8900208167164911,0.9743374511691129,-0.055526469831960544,0.21682598463357716,0.02387121247354075,0.0005484915600391105,0.000660440386023599,2368.0035338994358
1684747016694747924,115,1684747016694747924,camera_1,116,0,-0.92379082411092,-0.11956074471699019,1.8895208496758469,0.974201702278609,-0.05574550739917158,0.21736111305024597,0.024033897225119075,0.001171544921817258,0.0014101687410179016,2367.943498265231
1684747016705246448,116,1684747016705246448,camera_1,117,0,-0.9238030283444286,-0.11956672558077416,1.889549733292028,0.9740329036566465,-0.055479443568764476,0.21812593388096813,0.024556280338391526,0.0015061164158396423,0.001813098171544648,2365.856842259527
1684747016715534448,117,1684747016715534448,camera_1,118,0,-0.9240952180502957,-0.1195896452817429,1.8901526423306687,0.9743457151127829,-0.05580453245896717,0.21674280419852412,0.0236397636738593,0.000862335684360005,0.0010385663128108641,2367.99332031468
1684747016724976539,118,1684747016724976539,camera_1,119,0,-0.9239424928260038,-0.11958570637804858,1.8898159997134587,0.974301799556731,-0.055274783952087826,0.21706541554633033,0.023734089686870873,0.0018197306198999286,0.0021909585407556627,2368.0174703038065
1684747016735162258,119,1684747016735162258,camera_1,120,0,-0.9243124691827509,-0.11962153521400481,1.8905499762985145,0.9743501465868964,-0.05585303008174994,0.2167095361126151,0.02364757566085528,0.00044196048111189157,0.0005325048022458789,2367.025245587923
1684747016745482444,120,1684747016745482444,camera_1,121,0,-0.9231603345981517,-0.11948186290972088,1.8882171961756284,0.9739362511777623,-0.05576678803244752,0.21844602084763862,0.024891363365315097,0.0018837069219443947,0.0022645431949755578,2368.273679916864
1684747016755022287,121,1684747016755022287,camera_1,122,0,-0.923932576145825,-0.11956994060361137,1.8897680600360176,0.9741386220737149,-0.05571746941301916,0.21759563258695433,0.024528539818267584,0.001107085874537006,0.0013328072738377726,2366.543045144062
1684747016764978408,122,1684747016764978408,camera_1,123,0,-0.9237767540647848,-0.1195483370662112,1.8894528352047095,0.9741715535051294,-0.055795008224095485,0.21748319226609403,0.024036690296816054,0.000666687628836371,0.0008024712973188565,2367.78983423754
1684747016774935960,123,1684747016774935960,camera_1,124,0,-0.9230901045921852,-0.11947016052384177,1.8880202779761965,0.9738631534953739,-0.055719203342807035,0.21888720164256215,0.023965007823434567,0.0003238393837818876,0.0003894425074269059,2368.051891521667
1684747016785332918,124,1684747016785332918,camera_1,125,0,-0.9232363436684788,-0.1194899039564879,1.888329176140022,0.9741193654606571,-0.05550959087370236,0.2178511850770018,0.023473566326978255,0.001930888363858685,0.0023222084998003097,2369.953150260262
1684747016795100688,125,1684747016795100688,camera_1,126,0,-0.923473010446028,-0.11951170047506578,1.8888230187913564,0.9742619601550377,-0.055818781344249904,0.21710087147424964,0.023772005578572456,0.0001845920050982386,0.0002220275217975513,2370.3755983202723
1684747016804941892,126,1684747016804941892,camera_1,127,0,-0.9237936996179466,-0.11955327393123028,1.889470896525775,0.9742373981219107,-0.05557816555388253,0.21714349018818127,0.024925173684656153,0.0005721423076465726,0.0006883334626108066,2368.1863981223423
1684747016815568685,127,1684747016815568685,camera_1,128,0,-0.9242956170497673,-0.11962320708667423,1.8904770771116368,0.9743432511386945,-0.05562994441550933,0.2166244345932979,0.025187151127912484,0.0008792270382400602,0.0010585915119173564,2366.752284898771
1684747016825226306,128,1684747016825226306,camera_1,129,0,-0.9241639472995116,-0.1196053268266797,1.8902211877679154,0.9742629890835643,-0.055725804877273744,0.21696260607198387,0.025169233981031464,0.0006166971870698035,0.0007424154250136852,2366.616300230845
1684747016835120677,129,1684747016835120677,camera_1,130,0,-0.9239557009863354,-0.11959213867824126,1.8897925357248417,0.9740320768951042,-0.05549344656676732,0.21810020881386216,0.02478486398794874,0.0012102282635169104,0.0014571567082865985,2365.1491699805492
1684747016844789266,130,1684747016844789266,camera_1,131,0,-0.9232463050801799,-0.11949586638446327,1.888324798815644,0.973915404600956,-0.05608723004948396,0.218449568338708,0.024955828957671573,0.0009014444949571043,0.0010838400377430005,2367.8998018830316
1684747016853614330,131,1684747016853614330,camera_1,132,0,-0.9237037790398133,-0.1195539764170736,1.889258650129897,0.9740047182270611,-0.05551671562671968,0.21807204297191804,0.02602474267882794,0.0019477630994515494,0.00234270821288226,2366.0288936306024
1684747016863892078,132,1684747016863892078,camera_1,133,0,-0.9242921615011126,-0.11963071886929175,1.8904703030543397,0.9743089615996144,-0.05573364405221925,0.21676185288962085,0.025101940148121865,0.0006411870272131637,0.0007720591720027152,2366.4790952942576
1684747016874973535,133,1684747016874973535,camera_1,134,0,-0.9245879417158904,-0.119671502059815,1.8910611248627045,0.9743144634230915,-0.055428689260644246,0.21683025011659313,0.024972573071191537,0.0008923002460505813,0.0010751522200769914,2364.8894922365444
1684747016885168552,134,1684747016885168552,camera_1,135,0,-0.9240634185318872,-0.11959911601176701,1.890004509146384,0.9739587354479117,-0.056081134656785,0.21831287377466782,0.02446992285558934,0.0015135054854908958,0.0018232232903666902,2364.2272796581965
1684747016894837617,135,1684747016894837617,camera_1,136,0,-0.9237587744910581,-0.1195554959280811,1.8893726519515255,0.9740675494559491,-0.0559471348174332,0.21797194405472328,0.023463989592709206,0.002231455087894574,0.002686934980446663,2367.0248041106397
1684747016905280590,136,1684747016905280590,camera_1,137,0,-0.9238529993030199,-0.11957246636270237,1.889577687338238,0.9741624360087475,-0.05584029496184884,0.21751156093300608,0.0240443462910513,0.0024024588201427832,0.0028922114439384698,2367.3831592479264
1684747016914952993,137,1684747016914952993,camera_1,138,0,-0.9248208803336516,-0.11969196606316428,1.8915400246226477,0.9746338846082933,-0.05576542988329159,0.21534468361034612,0.024610466148364565,0.0009449507488170639,0.0011386710242475605,2367.325186726638
1684747016924894809,138,1684747016924894809,camera_1,139,0,-0.9231797339984378,-0.11948619614504669,1.8881703546790025,0.9740351926736122,-0.05563661831981504,0.21800383046073216,0.025186108068985125,0.0023263324110303074,0.002795706482866818,2369.248283881693
1684747016935266256,139,1684747016935266256,camera_1,140,0,-0.9237409215463739,-0.1195584039539491,1.8893291932735905,0.9742202570633172,-0.0559003746288024,0.21717265373888528,0.024618637489797777,0.0010609593882691115,0.001276455786319574,2368.5491877864115
1684747016945225954,140,1684747016945225954,camera_1,141,0,-0.9234884100021576,-0.11951822161067788,1.8888037438339889,0.9738711569169597,-0.05588370640155592,0.21876100410535335,0.024405002906470998,0.0015173872379818931,0.0018259357296532236,2366.184240016156
1684747016955191612,141,1684747016955191612,camera_1,142,0,-0.9249941333243457,-0.1197117382300301,1.8919048131354932,0.9745098062206116,-0.05620013616531387,0.21590525871274616,0.023602998433431343,0.0005855703202541918,0.000706353422068432,2365.503473514692
1684747016965047359,142,1684747016965047359,camera_1,143,0,-0.9241716152981692,-0.11960702042236268,1.8901981596806656,0.9741780366364083,-0.055923642737989415,0.21738375594688544,0.024372151496565703,0.001279183037695475,0.0015407022551386634,2365.9736652395222
1684747016975071430,143,1684747016975071430,camera_1,144,0,-0.9238736286014552,-0.11957425454116724,1.8895858339685874,0.9743045974635213,-0.05569763103443887,0.21686928440400247,0.024413904658891237,0.001221743950736709,0.0014702086116140133,2368.6948254464655
1684747016985037326,144,1684747016985037326,camera_1,145,0,-0.9238655012918553,-0.11957316159452604,1.8895800162083307,0.9741470704560529,-0.055848239366925845,0.21756427604068193,0.024171161999344038,0.0008886553405318409,0.001069793007680699,2367.174305293942
1684747016995022773,145,1684747016995022773,camera_1,146,0,-0.9240393004367445,-0.11959035880185237,1.8899363319736135,0.9743135921266407,-0.05621318471856816,0.21670415955453975,0.02433945958395081,0.0011302490602247415,0.0013606200930317209,2368.2414589163373
1684747017004959821,146,1684747017004959821,camera_1,147,0,-0.9239254697674184,-0.11957901704731447,1.889690715417941,0.9743441814716972,-0.05578623758946297,0.21659399655907433,0.02506695798113721,0.000183264390216209,0.0002204784778913146,2368.8138067331174
1684747017013687610,147,1684747017013687610,camera_1,148,0,-0.9238281804965128,-0.11957097757386548,1.8894949901967084,0.9742559595794266,-0.056055860812094155,0.21692069526832322,0.0250694566533296,0.0018564832425909117,0.0022333705134014517,2368.5324247174435
1684747017023593187,148,1684747017023593187,camera_1,149,0,-0.9236791081469722,-0.1195451556611514,1.8891986024486869,0.9741549256748407,-0.05606349632131068,0.21754960915301236,0.023478345790273338,0.002435000511468388,0.0029309662410125633,2368.450883899349
1684747017033514976,149,1684747017033514976,camera_1,150,0,-0.9245346443974856,-0.11966307580463359,1.8909467182677322,0.9745370212567056,-0.056027008605733834,0.21569083381657347,0.02482000633181658,0.002265209361212328,0.002728118580031125,2367.9008492238354
1684747017043658256,150,1684747017043658256,camera_1,151,0,-0.923433073277009,-0.11951700244164415,1.888691667943819,0.9740927195431698,-0.05590954558959432,0.2177762143555765,0.02431083926792315,0.000878600068972446,0.0010567339459337584,2368.8409621436135
1684747017053509950,151,1684747017053509950,camera_1,152,0,-0.9243053888918872,-0.11963367847543363,1.8904856170140278,0.9745217176404732,-0.055817452663159434,0.2158876382878952,0.024173569445424658,0.0005537784891203046,0.0006668272921802343,2368.8610184632707
1684747017063536643,152,1684747017063536643,camera_1,153,0,-0.923913452154773,-0.11958207840659543,1.8896758503837605,0.9743578087769071,-0.05573208738238926,0.21655661706202994,0.024980522775056267,0.0014313556748675182,0.0017220129577590194,2368.983687516301
1684747017073957443,153,1684747017073957443,camera_1,154,0,-0.9239203465977633,-0.11957333322059666,1.88970020852568,0.9741789154564146,-0.05558814837072032,0.21742015414876018,0.02477650118173248,0.0025660540122771636,0.003088492265068779,2366.994220940862
1684747017084027290,154,1684747017084027290,camera_1,155,0,-0.9241818035295366,-0.11959934692181445,1.890223741907856,0.9744261611984293,-0.055907935718589555,0.21638938275459235,0.023315105122337466,0.0016642880509607494,0.0020045997483786756,2368.682124873274
1684747017094018220,155,1684747017094018220,camera_1,156,0,-0.9235959271437759,-0.11953327811760545,1.889061125885581,0.9743398446842102,-0.055679181265260745,0.21661852275333024,0.025260867652249483,0.00018065284530166537,0.0002171726830888037,2370.3014621882467
1684747017104196548,156,1684747017104196548,camera_1,157,0,-0.923479213545031,-0.11952060395281193,1.888805996512509,0.9741020136539457,-0.055402142371800314,0.2177922008504323,0.024948484215844433,0.0014410918956855312,0.0017329711467560325,2368.2828766207676
1684747017114454507,157,1684747017114454507,camera_1,158,0,-0.9235677741109265,-0.1195299924643922,1.8889812008184705,0.9740493423269955,-0.05551215639757301,0.21797649744043318,0.025150064970886597,0.0014842751697869971,0.0017852470661119675,2367.3211675047633
1684747017124408006,158,1684747017124408006,camera_1,159,0,-0.923892486750523,-0.11956876144456446,1.8896495308873618,0.9742204981829455,-0.05573941863000577,0.21728452276622534,0.02397862167048021,0.0005665461212629452,0.0006820382511962194,2367.7583034136333
1684747017134432554,159,1684747017134432554,camera_1,160,0,-0.9246241134729319,-0.1196667332529397,1.8911462053041876,0.9746338979393708,-0.05600370300893392,0.21534214807583718,0.02408546239704525,0.0018006411846727133,0.0021693814315794043,2368.525667598354
1684747017144094467,160,1684747017144094467,camera_1,161,0,-0.9227961425968169,-0.11943300438170731,1.8874116996802464,0.9737880037959497,-0.05556270468923956,0.21908279412918033,0.025542882125303548,0.0018082116293953732,0.0021719326192388235,2368.4633513637827
1684747017153846979,161,1684747017153846979,camera_1,162,0,-0.9234650757195889,-0.11951408735634189,1.8887724143875202,0.9742396587431371,-0.056269434273446654,0.2168691179459684,0.025663666533441716,0.0012870879290858284,0.0015468363201083899,2370.2348667683555
1684747017163853168,162,1684747017163853168,camera_1,163,0,-0.9239172269964907,-0.11956354542223038,1.8896997505236361,0.9741698285170471,-0.05595329339469386,0.2174039522308572,0.024451906260199344,0.0005921998526901007,0.0007128796161826664,2367.157519419911
1684747017173888444,163,1684747017173888444,camera_1,164,0,-0.923370316422426,-0.11951292876193109,1.8886016223872255,0.9740603988522478,-0.05569036714445887,0.21778115115957847,0.02600562621288501,0.0010566327255219221,0.0012698663137810776,2368.3909795066575
1684747017183400154,164,1684747017183400154,camera_1,165,0,-0.9233074659464061,-0.11949595690694739,1.888479077205316,0.9741624149415344,-0.05568887193081276,0.21751217043389087,0.024388410597852375,0.0009166922100121155,0.001102110631331268,2370.015671874396
1684747017194181442,165,1684747017194181442,camera_1,166,0,-0.9242066390919811,-0.11960839270948524,1.8903075506796432,0.9744323029146066,-0.05578745070528667,0.21622128444386465,0.02485565396015878,0.00103599282738287,0.0012470773728250563,2368.27931719122
1684747017204377174,166,1684747017204377174,camera_1,167,0,-0.9240417234699677,-0.11960653717566104,1.8899661763233462,0.9740243066571419,-0.05533824828744344,0.2181391343240942,0.02509275580493219,0.003632683146861382,0.004374195897830459,2364.4955850781416
1684747017214858531,167,1684747017214858531,camera_1,168,0,-0.9237642613365392,-0.11955994136900167,1.8894166845599383,0.9740252523688413,-0.05565033944758324,0.2181413224896405,0.02433538349100792,0.0008140321006067097,0.000979931281853291,2366.192158728839
1684747017225316286,168,1684747017225316286,camera_1,169,0,-0.9241441804473857,-0.11960648143473607,1.8902060815561144,0.9742069602786695,-0.05596990891680607,0.21718265992226382,0.024896989165955202,0.0023201650037663057,0.002793718937492662,2366.2633394004074
1684747017234943151,169,1684747017234943151,camera_1,170,0,-0.9232881954409163,-0.11947945330489318,1.888449820677778,0.9739902797517493,-0.055658404551493054,0.2181754792001918,0.025387737742033005,0.00016237038653343916,0.00019518241987232006,2368.1200995341633
1684747017245053529,170,1684747017245053529,camera_1,171,0,-0.9241752288947968,-0.1196036399592766,1.890251274519695,0.9743024515942412,-0.05509806663839663,0.21693259615789595,0.02528210027583754,0.0007293894595932215,0.0008779996737738843,2366.593548554926
1684747017254945278,171,1684747017254945278,camera_1,172,0,-0.923944321651299,-0.11957550834113756,1.8898188615838662,0.9741234284326754,-0.05617804796511382,0.2176268141281602,0.02379375711876878,0.001486013294197619,0.0017897142429527612,2366.6372692645523
1684747017264805078,172,1684747017264805078,camera_1,173,0,-0.9228467783522519,-0.11943037533502268,1.8875712608259017,0.9737145281129731,-0.05578610702182389,0.21953283913050586,0.023942860070997645,0.0011107284371973947,0.0013354795919062964,2367.686581564486
1684747017274826526,173,1684747017274826526,camera_1,174,0,-0.9239873485845082,-0.11957903846803948,1.889913422153906,0.9740990238576792,-0.05577114491095148,0.21774393981490295,0.02466268007987595,0.0014704475906910375,0.0017705483323099689,2365.793623260688
1684747017284882783,174,1684747017284882783,camera_1,175,0,-0.9238226415361873,-0.11956699274618209,1.889583407305491,0.974097047559432,-0.05549152792188767,0.2178053862661916,0.024828330155832468,0.0011965213489020243,0.0014401103371604396,2366.415402227897
1684747017294886827,175,1684747017294886827,camera_1,176,0,-0.9239818541657667,-0.1195760378596716,1.8899292721197192,0.9740256045926164,-0.056167135021782985,0.21798745732257924,0.024512098879320113,0.0003938260197173804,0.0004742977036017772,2365.2560533672813
1684747017304808378,176,1684747017304808378,camera_1,177,0,-0.9228738738077376,-0.1194463491712732,1.887649215210119,0.9738482275183524,-0.05575118411403166,0.21888229876116208,0.024535169008508204,0.0030390994652407244,0.0036525012894153396,2368.809217090835
1684747017314547777,177,1684747017314547777,camera_1,178,0,-0.9234154875551213,-0.11951262634846527,1.8887536649261245,0.9739177140048696,-0.055854474088778645,0.21868031062746704,0.023312782237857186,0.001107599659007974,0.0013332451288666468,2367.016548374201
1684747017324876070,178,1684747017324876070,camera_1,179,0,-0.9225796332824865,-0.11940630249498538,1.887048466033007,0.9738083441995685,-0.05545308814438767,0.2191571481289294,0.02433943726835009,0.0009037076524691657,0.0010855797583938505,2369.7605852361303
1684747017335010051,179,1684747017335010051,camera_1,180,0,-0.9242136334642387,-0.1196158482614764,1.8904134902962755,0.9742185906356935,-0.055679446247419544,0.21735395964814036,0.023562537016597676,0.0017667862848611549,0.0021290213967404435,2365.939570528224
1684747017345013618,180,1684747017345013618,camera_1,181,0,-0.9237443982994681,-0.11955289351712636,1.8894521935941442,0.9740111877321933,-0.05583373006318191,0.21808603962197332,0.02496557793756725,0.0005317218747222796,0.0006399374266401089,2366.0416348399585
1684747017354846239,181,1684747017354846239,camera_1,182,0,-0.9236721440415222,-0.11954169883769639,1.8893159873164003,0.9738469741482126,-0.055375867953645345,0.21901519724957128,0.024247217664761914,0.001921467308420688,0.002313636195005736,2364.484324932099
1684747017364821434,182,1684747017364821434,camera_1,183,0,-0.923843925164895,-0.11955710375009701,1.8896828878230876,0.9741368930154096,-0.055785643222776835,0.21774735121724162,0.023051392894586905,0.0009855820244411007,0.001187169852720127,2367.0606821724214
1684747017374925136,183,1684747017374925136,camera_1,184,0,-0.9233389236709572,-0.11949746019703197,1.8886522605983065,0.9737312372074457,-0.055796520166395865,0.21947608718736084,0.0237586442522351,0.0011113438667962328,0.0013377934800870982,2365.247582227924
1684747017384862422,184,1684747017384862422,camera_1,185,0,-0.9246022441721184,-0.11965309454818784,1.8912461912572887,0.9743382442394974,-0.05602068074787958,0.21667084143058338,0.024091816340836614,0.0007004684302955866,0.0008444286315299301,2365.288908347953
1684747017394861459,185,1684747017394861459,camera_1,186,0,-0.9241046594232937,-0.11958376218683767,1.8902486597791464,0.9743167796302313,-0.05560131254884297,0.21693620401636748,0.023536999825599234,0.0005619470757665113,0.0006769124317239068,2367.410099418019
1684747017404859066,186,1684747017404859066,camera_1,187,0,-0.9227172908820286,-0.11942477510897204,1.887403505433417,0.9739402445049743,-0.05596773482748647,0.21850822320050992,0.023710107246219136,0.0032797259627841413,0.00394135232656541,2370.707324995892
1684747017414820909,187,1684747017414820909,camera_1,188,0,-0.9233894684437546,-0.11951364918702323,1.8887746348659227,0.9739885010025807,-0.05584012781040066,0.2184319097997077,0.022710808486630856,0.004873716170550324,0.0058675043358805455,2367.8448604135783
1684747017424923896,188,1684747017424923896,camera_1,189,0,-0.9235225584479553,-0.11951277413748632,1.8890756317292747,0.9740498968496972,-0.05579658391914846,0.2181101237305966,0.023270444694322812,0.003286294304416515,0.0039561784480426415,2367.6762761160494
1684747017434926271,189,1684747017434926271,camera_1,190,0,-0.9228921961445781,-0.1194468782043688,1.8877948718061648,0.9737451392592029,-0.05553572422251203,0.2194404915840388,0.024125873196884088,0.0022006143408361822,0.0026460917436390745,2367.3861523889937
1684747017444926500,190,1684747017444926500,camera_1,191,0,-0.9240081221601869,-0.11957672115254338,1.890088331748087,0.9743447664655347,-0.05597982443325517,0.216743876725625,0.023251391777523736,0.00029131829796824604,0.0003508790216686017,2368.395056538283
1684747017454876899,191,1684747017454876899,camera_1,192,0,-0.923134108907708,-0.1194793741602698,1.8883205433255534,0.9738668549292266,-0.055857913493289786,0.21890495869291307,0.023320836822175537,0.003456987818935886,0.004159635999632535,2367.681155141093
1684747017464959859,192,1684747017464959859,camera_1,193,0,-0.923438470721262,-0.1195158489581152,1.8889335984608722,0.9740061147996775,-0.05567682736917367,0.21823417438497647,0.024207939967051607,0.0015073514805408195,0.001813715544778092,2367.389439585968
1684747017474889755,193,1684747017474889755,camera_1,194,0,-0.9237219379555687,-0.11954720210965225,1.889513128311531,0.9740929743699607,-0.05577942288424566,0.21798541627554002,0.0226691763627008,0.0017082180420402437,0.0020577223525783442,2367.1385222357926
1684747017485093832,194,1684747017485093832,camera_1,195,0,-0.9223235749278923,-0.11937724717959777,1.8866873999043534,0.9732700887280389,-0.056041696732992995,0.22146783362680583,0.023593670406533433,0.004260120462276973,0.005122222590189799,2365.5329331597327
1684747017494865179,195,1684747017494865179,camera_1,196,0,-0.9235796717525144,-0.11953686922222959,1.8892534648660761,0.9738928643037865,-0.05618901825971211,0.21859360453403112,0.024337607565166324,0.0018684040987864137,0.0022492453547774643,2365.6919655479724
1684747017505110025,196,1684747017505110025,camera_1,197,0,-0.9236446749375173,-0.11955149279494717,1.8893668126435161,0.9738836299461575,-0.05571546036884673,0.218879091278975,0.02320358161304953,0.001959529850864783,0.0023604585085382768,2365.1724575072303
1684747017514910697,197,1684747017514910697,camera_1,198,0,-0.9237752373178972,-0.11956157091554544,1.8896267885804734,0.9740449733370374,-0.055790340280587006,0.21811799935676926,0.023417220262594234,0.0025575004110578448,0.0030804192897180664,2366.236459618667
1684747017524994850,198,1684747017524994850,camera_1,199,0,-0.9234311354525657,-0.11950928299821295,1.8889448263675426,0.9739502907479358,-0.05575726764380461,0.21858678228079154,0.0230602877050261,0.0011505250731715932,0.0013852097678368565,2367.007531678305
1684747017534853219,199,1684747017534853219,camera_1,200,0,-0.9236882293448548,-0.11953566163006017,1.8894716717748414,0.9740386291009179,-0.055963392187446,0.21808507358901916,0.02357431720645492,0.0032049443834694102,0.0038593620366513966,2366.6763718405264
1684747017543914318,200,1684747017543914318,camera_1,201,0,-0.9236395477996142,-0.11952645037244,1.889336361398739,0.9737235964038611,-0.05637459931356656,0.21945308605455785,0.02290426553496964,0.001274283742532134,0.0015356229632831567,2363.9779717844212
1684747017554690837,201,1684747017554690837,camera_1,202,0,-0.9231157443786695,-0.11947810969100248,1.8882998273618932,0.9736244340837273,-0.05595095109005872,0.21990632899899504,0.023794093667241445,0.0030266466201283038,0.003642615858084566,2365.1620680070473
1684747017564316272,202,1684747017564316272,camera_1,203,0,-0.9230265949179987,-0.11945547544466074,1.8880984570987451,0.9737789345216172,-0.05603765991357158,0.2192009921096608,0.023775878774404603,0.002993760339450091,0.0036012742334015956,2367.3496348212943
1684747017574134826,203,1684747017574134826,camera_1,204,0,-0.9232562568940338,-0.11947795521098098,1.8885449719219225,0.9740635881589377,-0.0555715777092104,0.21804181312733906,0.02386825720464876,0.0012576070876093581,0.001512654971610723,2368.9542855856707
1684747017584159851,204,1684747017584159851,camera_1,205,0,-0.9240083980138385,-0.11958415959207269,1.890094611445105,0.9742917176223939,-0.055836274084346195,0.21697418877546662,0.023667717972198833,0.0004877396422671154,0.0005874148359227561,2367.6784959225906
1684747017594485282,205,1684747017594485282,camera_1,206,0,-0.9224387996177474,-0.11939014657146367,1.8868739299016064,0.973905405416124,-0.05598790502666196,0.21866541031873798,0.02364432536822672,0.0010473646107129753,0.001258039958907706,2371.7352224750216
1684747017604376077,206,1684747017604376077,camera_1,207,0,-0.9230681540023257,-0.11946859503551582,1.8881449104004495,0.9739524229175255,-0.055753685140773564,0.21845920545402978,0.02416154048687729,0.0031205023697111756,0.003752106120100681,2368.8130185032496
1684747017614340305,207,1684747017614340305,camera_1,208,0,-0.923892248418323,-0.11957072089124447,1.8898218313202786,0.9744551769534884,-0.055694462733124395,0.21625401905529026,0.023862819863719947,0.00030531985976267606,0.00036746806973619043,2369.9492373240637
1684747017624467134,208,1684747017624467134,camera_1,209,0,-0.9238245953295561,-0.1195648307880702,1.8896964766112727,0.9740848724502593,-0.0558386542430334,0.21781707915090778,0.02442183420745024,0.0004992475296603516,0.0006010559762817965,2366.362401803257
1684747017634608030,209,1684747017634608030,camera_1,210,0,-0.9221949068229337,-0.1193707047408758,1.8863567678028046,0.9735538389726283,-0.0560991204004284,0.2200984820446647,0.024545254400605652,0.0022397016873583198,0.002689454702740775,2369.2170525682154
1684747017644433259,210,1684747017644433259,camera_1,211,0,-0.9235271302977925,-0.11951093238818483,1.8890500489412199,0.9741976315070291,-0.055855282665110466,0.21745609528878973,0.023065315654643665,0.00199580671323929,0.0024021290265535495,2369.344751336844
1684747017654109477,211,1684747017654109477,camera_1,212,0,-0.9238784996666443,-0.11956362756975197,1.8897587392000155,0.9742026214037542,-0.05577346486833182,0.2173230155070744,0.02427509006258149,0.0015938161523081362,0.0019187071657109382,2367.391839174787
1684747017664284229,212,1684747017664284229,camera_1,213,0,-0.9238815686479346,-0.11957013378755879,1.8897622155889124,0.9740686912212903,-0.05608579221385048,0.21784897033732276,0.02421559037388635,0.0023599339328939095,0.0028417989676439524,2366.1453201058316
1684747017674348592,213,1684747017674348592,camera_1,214,0,-0.923971645446327,-0.11957987011492996,1.8899532952851197,0.9743189732935481,-0.05573220811335529,0.21685113136235334,0.02391748494059202,0.001989783893804997,0.002395742183222115,2368.1620165070053
1684747017683593034,214,1684747017683593034,camera_1,215,0,-0.9235967860415334,-0.11953084396316158,1.889170033591103,0.9740537251215898,-0.05576747752151005,0.21798566897685928,0.02432235902114689,0.0007028223626548424,0.0008457766289304392,2367.2665559542365
1684747017693502187,215,1684747017693502187,camera_1,216,0,-0.9232275918950177,-0.11948973068275445,1.888412257024556,0.9740596238087909,-0.05545656047370614,0.21789794726488093,0.025551981208003213,0.0014040075766388325,0.0016873092439253475,2368.8726967596435
1684747017703661203,216,1684747017703661203,camera_1,217,0,-0.9239040103761121,-0.1195646137953805,1.8897830736661876,0.9742244958651269,-0.05600995635713687,0.21712207184286844,0.024647968757510914,0.00017593429947737604,0.0002117590189865154,2367.6292048787
1684747017713893651,217,1684747017713893651,camera_1,218,0,-0.9235731603117107,-0.11952434080499347,1.8891161268545436,0.9740549032995801,-0.05559877870184548,0.21810186551210167,0.02360926566095901,0.0008661361644044518,0.0010425691087504638,2367.4227200296
1684747017724094390,218,1684747017724094390,camera_1,219,0,-0.9233186863454488,-0.11950236727117089,1.8885834606040444,0.9739724138216518,-0.05585801439395547,0.21812826282097975,0.026032293427426377,0.002123515325365588,0.002552359940076236,2367.664507939712
1684747017733832359,219,1684747017733832359,camera_1,220,0,-0.9227111686039609,-0.11941871748491974,1.887333282888836,0.9737767473352154,-0.05590654608622681,0.21913510224640428,0.024761086757546808,0.0013296474062372,0.0015975194315787926,2368.926807302167
1684747017743880033,220,1684747017743880033,camera_1,221,0,-0.923277869082209,-0.11949193524407516,1.8885057557841065,0.9739958215992388,-0.055712081664741835,0.21834742114709357,0.023509724418178404,0.001632500468986109,0.001964097612707479,2368.387602572214
1684747017754121065,221,1684747017754121065,camera_1,222,0,-0.9244476145439255,-0.11964314924147791,1.8908819821625418,0.9744356039803573,-0.056053777689439026,0.21608027795790377,0.025348396000823534,0.00019251636695116758,0.0002318261536075639,2367.026928294683
1684747017764141559,222,1684747017764141559,camera_1,223,0,-0.9240764506959185,-0.11959881061445814,1.890102975849797,0.9741571145745814,-0.05586735705178201,0.21744966340273048,0.024746685147993688,0.000990695392829366,0.0011929464319620662,2365.9795803180896
1684747017774201869,223,1684747017774201869,camera_1,224,0,-0.9237143156921126,-0.11956541357520004,1.8893605652878978,0.9740593106399805,-0.05584797476000121,0.21790670072699686,0.02461976541414102,0.002387500964687206,0.0028733499469997207,2366.7999591449047
1684747017784384727,224,1684747017784384727,camera_1,225,0,-0.9240474834334705,-0.11958337191183012,1.8900201715100133,0.9740945704759337,-0.056173483106426246,0.21779812428924342,0.02341547823739207,0.0016177772922674194,0.0019492356266194446,2365.8854057572307
1684747017794421672,225,1684747017794421672,camera_1,226,0,-0.9242706378242238,-0.11961346762845379,1.8904931393352733,0.9744577955350663,-0.055611235885278,0.2162039602207348,0.024397597199760545,0.001238073527929373,0.0014908289100734459,2368.098533671582
1684747017804143190,226,1684747017804143190,camera_1,227,0,-0.9231249803505218,-0.1194720021783388,1.8881240259526537,0.9739325458201475,-0.055593433821459884,0.21854259181913377,0.024574414930994912,0.0016510948917130008,0.0019850014210064967,2368.400355980847
1684747017814043760,227,1684747017814043760,camera_1,228,0,-0.9237354468696874,-0.11954235426011281,1.8893552666201299,0.9741258186083023,-0.055944037713822975,0.2175995789215427,0.02448626999252415,0.0006822291179560125,0.0008210061355392122,2367.5643628200046
1684747017824215888,228,1684747017824215888,camera_1,229,0,-0.9230667981358714,-0.11946433772496748,1.8879978971749163,0.9738874840742597,-0.055887930350891506,0.21872158013528253,0.02409518598657673,0.0008708881941856816,0.0010471789131406865,2368.463899069
1684747017834423303,229,1684747017834423303,camera_1,230,0,-0.9238364811438242,-0.11956025844523807,1.889590835907772,0.9740495632308088,-0.05590183646880508,0.2180362482201195,0.02371977047485291,0.0012614807492354885,0.0015191736291116518,2366.2815174576817
1684747017844379425,230,1684747017844379425,camera_1,231,0,-0.9239689109459698,-0.11957793116235843,1.8898561479558806,0.9743825139384658,-0.05561073029599774,0.2164658272788659,0.025074066829650177,0.00023872792371548712,0.0002872274960030628,2368.7792247299803
1684747017854384422,231,1684747017854384422,camera_1,232,0,-0.9232680682295349,-0.11948808857755597,1.8884170787405594,0.9738778703534231,-0.05592521338592289,0.21861729572260769,0.025312885148755713,0.00231370868277736,0.002781871636744561,2367.1745527647445
1684747017864259004,232,1684747017864259004,camera_1,233,0,-0.9236165480243046,-0.11953925112379282,1.8890937604367273,0.9741316009042874,-0.05579641063640482,0.2175682957643175,0.024868079096591337,0.00135994388256222,0.0016358404193253906,2368.127133303089
1684747017873357772,233,1684747017873357772,camera_1,234,0,-0.923697156752945,-0.11955708518316625,1.8892813333383784,0.9739710210265612,-0.055674527145793976,0.21825184016448923,0.02543484799216666,0.0011735074949683622,0.0014119280419865566,2365.8161402880223
1684747017883596181,234,1684747017883596181,camera_1,235,0,-0.9237237855263495,-0.11955324401118564,1.8893334163050244,0.9741568986842452,-0.05555785688824924,0.21755302971891827,0.024542627080197398,0.0009435749525437132,0.001135394661113247,2367.7149013812896
1684747017894006729,235,1684747017894006729,camera_1,236,0,-0.9241687983492504,-0.11962133890238719,1.8902375709173664,0.974149717950174,-0.05546589421522191,0.21759337404100576,0.0246776248847654,0.0038450191059382632,0.004630955353841834,2365.2882849912867
1684747017903900861,236,1684747017903900861,camera_1,237,0,-0.924290452405364,-0.11961811119772528,1.8904745281932882,0.974366595949696,-0.05615821619741343,0.2164469006257011,0.02463190330556137,0.0006780006369808689,0.000816469302417656,2367.402811167065
1684747017914070129,237,1684747017914070129,camera_1,238,0,-0.9232094218958756,-0.11949105852320545,1.8882762279829621,0.9738653292948003,-0.05529691323275966,0.21892862272465094,0.024471001948146928,0.003580071759643033,0.004305567287040903,2367.1218784447988
1684747017924126625,238,1684747017924126625,camera_1,239,0,-0.9241234900360576,-0.11960041916408486,1.8901581647343169,0.9742867770514924,-0.055684584445947434,0.2169241504653646,0.024666091351844246,0.00024995036073960364,0.0003009346188209715,2367.0903001439283
1684747017934077024,239,1684747017934077024,camera_1,240,0,-0.9236309310647309,-0.11954333352550062,1.8891571376227587,0.9742342850596408,-0.05628379299327948,0.2170078060000525,0.0246435507925266,0.0008638965082354844,0.0010391210960340946,2369.3977598212664
1684747017944219589,240,1684747017944219589,camera_1,241,0,-0.9236508331543356,-0.1195377943708208,1.8892079888184266,0.9740733573703482,-0.05589065634873882,0.2178293538340591,0.024651604458973585,0.0009761217661434785,0.001174518744322589,2367.3481842865
1684747017954276084,241,1684747017954276084,camera_1,242,0,-0.9238846192622028,-0.11956795361272286,1.889653673132555,0.974273399323001,-0.05558697349580139,0.21703671203210326,0.024423295835639958,0.0011722819472197443,0.0014108457233169235,2368.1778484802926
1684747017964150190,242,1684747017964150190,camera_1,243,0,-0.9237863573629559,-0.11955250444889653,1.8894339190256155,0.9741070314044962,-0.05573916204672956,0.21770944779506354,0.0247231374104698,0.0014988596376497298,0.0018037919160017557,2366.98524067388
1684747017974057912,243,1684747017974057912,camera_1,244,0,-0.9243623946334588,-0.11963048321499586,1.89064212466016,0.9743751347870574,-0.05541059704518781,0.2164433072305893,0.025981862883255748,0.000682518322719261,0.0008215582600498503,2366.468578755856
1684747017983880043,244,1684747017983880043,camera_1,245,0,-0.923711210623461,-0.11953887331517632,1.8893046025510445,0.9739801966671998,-0.05572884048900773,0.21836390694795277,0.02395990359536741,0.0003273514594184235,0.0003941153268482646,2366.0997172457874
