%time,field.header.seq,field.header.stamp,field.header.frame_id,field.image_seq,field.transforms0.fiducial_id,field.transforms0.transform.translation.x,field.transforms0.transform.translation.y,field.transforms0.transform.translation.z,field.transforms0.transform.rotation.x,field.transforms0.transform.rotation.y,field.transforms0.transform.rotation.z,field.transforms0.transform.rotation.w,field.transforms0.image_error,field.transforms0.object_error,field.transforms0.fiducial_area
1684965265609867095,16,1684965265609867095,camera_1,17,0,0.22922584445946667,-0.10710693915946738,0.5179488440109794,0.9740739148967524,0.04488886671544645,-0.19171375593069506,0.11140392160809694,0.5286832562414929,0.05021334424615664,31949.140571459546
1684965265619602441,17,1684965265619602441,camera_1,18,0,0.2292601011581448,-0.1073405378876921,0.518194010861347,0.9742225349971864,0.04522741863645343,-0.1912856697054643,0.11070106355618815,0.5341675594681874,0.050747492952369556,31941.025383191656
1684965265628825902,18,1684965265628825902,camera_1,19,0,0.2291063947140742,-0.10739129669662946,0.5179260330729876,0.97412741758632,0.045081961245067796,-0.19207193903251865,0.11023502761461045,0.5641399063169956,0.05355199026492998,31957.82336834749
1684965265639468431,19,1684965265639468431,camera_1,20,0,0.2291466840970559,-0.10739175873199873,0.5179995576074223,0.9741880695562439,0.0450292233718604,-0.19168418595373618,0.11039541218755312,0.5037263592821546,0.04782371682322566,31957.04330900441
1684965265649818420,20,1684965265649818420,camera_1,21,0,0.22927765333656536,-0.10728323513073906,0.5181691160607896,0.9742378346568442,0.04494732815425347,-0.1911531966544775,0.11090912777455254,0.602003125124611,0.05719136366682349,31944.447361817576
1684965265660094738,21,1684965265660094738,camera_1,22,0,0.22944140562239385,-0.10712345714201295,0.5183563298817709,0.9743584561458145,0.04496631120070184,-0.190576064885614,0.11083498223422407,0.5135451837559231,0.04879873675198193,31939.18896791329
1684965265669962644,22,1684965265669962644,camera_1,23,0,0.22938411678687173,-0.10688103702445079,0.5181029839746502,0.9742168275754586,0.04466186731829557,-0.1915663850232841,0.11049529675765882,0.5538030760944821,0.05258533180648673,31949.780515187795
1684965265680148124,23,1684965265680148124,camera_1,24,0,0.22938116225699465,-0.10698651426173016,0.5181686876281355,0.9742216522317027,0.044854019793060224,-0.19151225148786136,0.11046875920994705,0.5251748020527884,0.049879233000274116,31942.94818837779
1684965265689754724,24,1684965265689754724,camera_1,25,0,0.22926833805893665,-0.10715200582455506,0.5180680024755735,0.9741529226396723,0.04504437010901159,-0.19151107097746425,0.11099818794526167,0.5376111298101023,0.05106370367838037,31946.410967391686
1684965265699828624,25,1684965265699828624,camera_1,26,0,0.2292477544469264,-0.10735276498050172,0.518179042787185,0.9741762516968483,0.04515087065640596,-0.19154227212516955,0.11069592358336747,0.5127545357099734,0.04871809653936502,31935.54031884285
1684965265710150003,26,1684965265710150003,camera_1,27,0,0.229089138930077,-0.10734437896818266,0.5178488877384368,0.9740440836442007,0.04514928351370258,-0.19235993248520838,0.11044148536765865,0.5636758966720663,0.05350756243222448,31955.87949513622
1684965265721682071,27,1684965265721682071,camera_1,28,0,0.22935472703808255,-0.10706249028170631,0.5181510032413974,0.9743095370607253,0.04497664206070017,-0.1907913099200519,0.11089050329243469,0.5122173146810383,0.04864106130208681,31957.86770898255
1684965265729969263,28,1684965265729969263,camera_1,29,0,0.22935350210753214,-0.10689984598651112,0.5180494984681627,0.97417929040922,0.044752416859296734,-0.19151714677259768,0.11087431539867022,0.5553195826360025,0.052731684448310195,31951.67291711936
1684965265740141868,29,1684965265740141868,camera_1,30,0,0.22942083966356175,-0.10690186471388305,0.518199398034713,0.9742951418366087,0.04464928283059619,-0.19102509457976583,0.11074669917016826,0.5615169476950541,0.053328868376262765,31949.84335502796
1684965265750529050,30,1684965265750529050,camera_1,31,0,0.22931182673020134,-0.10696960708131954,0.5180253062996754,0.9741368812451343,0.044788098981338884,-0.19174895476212964,0.11083185974832112,0.5720811240607873,0.0543259988285739,31948.60735004999
1684965265759229898,31,1684965265759229898,camera_1,32,0,0.22925631627359838,-0.10714670858810862,0.518048978807609,0.9741077005342379,0.04483614791332708,-0.19182069226853024,0.11094471424009136,0.5470902883098461,0.05196815750251832,31941.079366652753
1684965265770316839,32,1684965265770316839,camera_1,33,0,0.22923825257948846,-0.10734627642269759,0.5181598715322153,0.9742179823790867,0.04513046826147073,-0.1912390404768935,0.11086114306283698,0.5109882749384269,0.048542898098469615,31944.099606546806
1684965265778958320,33,1684965265778958320,camera_1,34,0,0.22913602201542935,-0.1073597525260325,0.5179475520437574,0.9741198649586251,0.04506046647868721,-0.1922051869492023,0.11007819567714254,0.5289724359172396,0.050215429837868766,31953.347496932372
1684965265789915561,34,1684965265789915561,camera_1,35,0,0.22923092330154696,-0.10722696651153812,0.5180349708700993,0.974179163022111,0.04496923641497302,-0.19165245565961037,0.11055343662426136,0.5267366674379446,0.050016565679391285,31952.028978361042
1684965265799877405,35,1684965265799877405,camera_1,36,0,0.22937660604645788,-0.1070654643956431,0.5181946257123418,0.9743064581181639,0.04489979769177067,-0.19063318287492653,0.11122015745111793,0.5156608301913366,0.04898274239494582,31952.00517770891
1684965265809897899,36,1684965265809897899,camera_1,37,0,0.22935426696019115,-0.10689271251843178,0.5180467560275083,0.974214985206545,0.04487026881969738,-0.19142567101695715,0.11067083649619297,0.5547177667031065,0.052662615912851964,31957.71042678647
1684965265820113897,37,1684965265820113897,camera_1,38,0,0.2293550347057529,-0.10686592293469604,0.518036693717661,0.9742275838299259,0.044873376418010924,-0.19131273519229375,0.1107539270048493,0.5847381605417467,0.05550901080828653,31961.40573018253
1684965265830124139,38,1684965265830124139,camera_1,39,0,0.22934917363610688,-0.10698434203602343,0.5181001202339331,0.9742897705824507,0.04470448605118293,-0.19105686993421925,0.11071686554556283,0.5282903322367929,0.050157996554505896,31960.205403161475
1684965265840040206,39,1684965265840040206,camera_1,40,0,0.22928210026695905,-0.10737211596801711,0.5182629383599535,0.9742570680896673,0.045112270890978454,-0.1911964129577346,0.1105982819237247,0.5169365464826114,0.04911789160981874,31936.55445624284
1684965265850285768,40,1684965265850285768,camera_1,41,0,0.22913987363128013,-0.10740744315481655,0.5180103381407092,0.9741007657929769,0.045076786200761,-0.19208893186158663,0.1104428525691985,0.602083740872331,0.05718050962511341,31944.27403727499
1684965265860117197,41,1684965265860117197,camera_1,42,0,0.229228261007872,-0.1073840825314571,0.5181448777308626,0.9742155168217935,0.04517074271058365,-0.1912997718769137,0.11076158208720485,0.5701168955420144,0.05415786659496038,31944.768348581514
1684965265869932889,42,1684965265869932889,camera_1,43,0,0.2293919150546085,-0.10704676455421126,0.5182028881286083,0.9743034717933017,0.04486744294099109,-0.19071794522785543,0.11111400804363346,0.5483992135850713,0.05209336955742902,31950.099954935846
1684965265879616737,43,1684965265879616737,camera_1,44,0,0.22934539509916607,-0.10687428807034313,0.5180177828756147,0.9741895322546025,0.04489624170032367,-0.19175983353613202,0.11030525358721545,0.5665233993786387,0.053774288507413975,31957.439997260684
1684965265889403820,44,1684965265889403820,camera_1,45,0,0.22933668641707178,-0.10699732476306398,0.5180937702084004,0.9742834665785248,0.04470012308029564,-0.19083847550195793,0.11114990785613611,0.5279784945887513,0.050135242526246085,31960.890379760855
1684965265899679183,45,1684965265899679183,camera_1,46,0,0.22930425504307567,-0.10720068154038763,0.518192665016796,0.9742173734189615,0.044937365309601365,-0.19121285921451447,0.11099002206820768,0.5525112501345575,0.05249451099646775,31940.256509774234
1684965265908900022,46,1684965265908900022,camera_1,47,0,0.22922548206395643,-0.10736123531632077,0.5181431729764165,0.9741717440065599,0.04508938199052531,-0.19138788519454844,0.11102719582016009,0.5345840702066198,0.050792229432629864,31939.294582453556
1684965265919874906,47,1684965265919874906,camera_1,48,0,0.22911908852690047,-0.10739323328871754,0.517952327652815,0.9741081717619445,0.045057410907821234,-0.1921006357046484,0.11036505420990729,0.5754654079210013,0.05463783546600177,31951.872601176947
1684965265930280923,48,1684965265930280923,camera_1,49,0,0.22923122271687146,-0.10736472806684134,0.5181411377712876,0.9741667652205969,0.045226511781082016,-0.19151376461646305,0.11079780744303726,0.5276360161369666,0.05012813166484742,31938.84904377046
1684965265940104484,49,1684965265940104484,camera_1,50,0,0.2292879510472593,-0.1071940558797551,0.5181253165353881,0.9741988473603741,0.04489715765952097,-0.19136712937666925,0.110902988372486,0.5268857892951928,0.050050204234361004,31944.182509088172
1684965265949699401,50,1684965265949699401,camera_1,51,0,0.22936643789967867,-0.10687061108211421,0.5180585486073604,0.9742037692429876,0.04497052469006539,-0.19127562144425217,0.11098785763754236,0.5562368147657253,0.05281521829444317,31956.112854693776
1684965265960003137,51,1684965265960003137,camera_1,52,0,0.22933421888621058,-0.10685675354975821,0.517998341108918,0.9741170642336318,0.044931983606892656,-0.19165217409865523,0.11111483330887516,0.5862862339126877,0.055672199270655566,31951.515214676052
1684965265970004796,52,1684965265970004796,camera_1,53,0,0.22933755427217895,-0.10700115710154638,0.5180940814816557,0.9742277383329649,0.04476435944776085,-0.1911722552997349,0.11103888863583153,0.5621427266160026,0.05338648724026956,31953.061716612425
1684965265979867458,53,1684965265979867458,camera_1,54,0,0.22925220967276905,-0.107177491652023,0.5180730320272853,0.9741810005982287,0.04488125948475592,-0.19144933649712942,0.11092430831564865,0.5355617167660967,0.05086574757881054,31949.11093638128
1684965265989681243,54,1684965265989681243,camera_1,55,0,0.22911598419802917,-0.10738349675998989,0.517946356297595,0.9740565785328715,0.045042358768418354,-0.19252039944245414,0.11009479339156288,0.5472607625415549,0.05196178014886877,31945.01010694517
1684965266001109600,55,1684965266001109600,camera_1,56,0,0.2292709115517257,-0.10717942486610156,0.5180821010524205,0.9742131081510559,0.045051160315199505,-0.1911727354652006,0.11105043032634214,0.5313372074742801,0.050463396495771855,31952.86673555826
1684965266009105443,56,1684965266009105443,camera_1,57,0,0.2293318702681182,-0.1069924972132952,0.5180628076865766,0.9742182794129477,0.044706279537670666,-0.19134091748753418,0.11085461615378982,0.5822527593700215,0.05528948830306659,31954.423137273872
1684965266019185781,57,1684965266019185781,camera_1,58,0,0.22941326620129912,-0.10688927298054507,0.5181604525288968,0.9742746433221892,0.044757938257581925,-0.19091616753575696,0.11107053306710306,0.5658189537352882,0.053738543792022954,31952.367487652
1684965266030542135,58,1684965266030542135,camera_1,59,0,0.22935808796738974,-0.10686804921405539,0.5180489397532491,0.9741653926513958,0.044710777232883366,-0.19173837830526655,0.11063059452271787,0.5388035838259384,0.05115961312024127,31949.74526348641
1684965266039972782,59,1684965266039972782,camera_1,60,0,0.22940823497196572,-0.10703829856492451,0.5182624117226039,0.974343727639424,0.04483854367715969,-0.1906165796050115,0.11094649607044768,0.5176628579501994,0.049173663652399495,31949.447135034716
1684965266049264907,60,1684965266049264907,camera_1,61,0,0.22928911003509536,-0.1072099473342636,0.5181817943026136,0.9742756665141529,0.04501602436996078,-0.19103853867252465,0.11074637660073816,0.5734112405916677,0.054462774246632935,31950.589685923667
1684965266059145212,61,1684965266059145212,camera_1,62,0,0.22910759163689734,-0.10737627158443541,0.517920987310729,0.9741646472896527,0.04505632869789676,-0.19166092401568044,0.11063117743542858,0.5561586734838784,0.052793616709636004,31964.306536889628
1684965266070378303,62,1684965266070378303,camera_1,63,0,0.2292750914532167,-0.10735901045891869,0.5182306483135608,0.9742148460905482,0.04523244537163181,-0.19120943915781297,0.11089819619554987,0.501130310993176,0.047619882767805814,31935.344852040533
1684965266080054283,63,1684965266080054283,camera_1,64,0,0.22928411132452814,-0.10715573862916943,0.5180960352381492,0.9741696847889358,0.04494490074809949,-0.19136822403800366,0.11113768021472023,0.5625536715378985,0.05343990935831606,31944.75724878919
1684965266089662790,64,1684965266089662790,camera_1,65,0,0.22936895425110126,-0.10697864069232807,0.518129556545846,0.9742644624299619,0.044735333758552535,-0.19119378113485497,0.11069076390975705,0.5243293237872422,0.049790620302505285,31953.01378000714
1684965266099830389,65,1684965266099830389,camera_1,66,0,0.2293883913473571,-0.10686265446188759,0.5181084876429091,0.9741702704282462,0.044813551136749494,-0.19152883213203412,0.1109086845581124,0.5601114960736595,0.053198249500730925,31944.59767512384
1684965266109953641,66,1684965266109953641,camera_1,67,0,0.22936734195670866,-0.10687913729415699,0.5180879698043274,0.9742412168241996,0.04480307007563844,-0.19113292400187573,0.11097270707337702,0.5476879004854709,0.05200388011643972,31957.473374589474
1684965266119622707,67,1684965266119622707,camera_1,68,0,0.22928217328313344,-0.10723027559002132,0.5181833675473668,0.9741984380064115,0.045168975472581224,-0.19127666398770976,0.11095226385413767,0.5471719011547975,0.05198491031513819,31940.476348077766
1684965266130284070,68,1684965266130284070,camera_1,69,0,0.22914541797208773,-0.10733929774442207,0.5179814425705008,0.9741206684716294,0.045138136984919405,-0.19167609766042734,0.11095830492391001,0.5253884602570906,0.04989362855969152,31952.339910320465
1684965266140103101,69,1684965266140103101,camera_1,70,0,0.22914192274512896,-0.10738202517397906,0.5180037061966997,0.9741170573365149,0.0451435066958614,-0.19201162632021007,0.1104063302855312,0.5591625298839062,0.053097526416120054,31948.173695128633
1684965266149641275,70,1684965266149641275,camera_1,71,0,0.22928619993890267,-0.10713923422577505,0.5181027619140397,0.9742154374870451,0.044801648391550264,-0.19128927281411923,0.1109301932278622,0.5838648259523325,0.05545404483215181,31949.905967853043
1684965266158695697,71,1684965266158695697,camera_1,72,0,0.22939245721319107,-0.1069745044431946,0.5181855008326438,0.9742894470208686,0.04479834034128055,-0.19100962630808338,0.11076328265306709,0.5649685625685379,0.05365702303245368,31950.971611508867
1684965266168660402,72,1684965266168660402,camera_1,73,0,0.22939920133931746,-0.10689443944960636,0.5181536254196867,0.9741826920096062,0.04478992869179663,-0.19152795516686746,0.1108105918506843,0.5252558924839832,0.04989315652869194,31940.361884825874
1684965266178632974,73,1684965266178632974,camera_1,74,0,0.22939452143068764,-0.10705370429350951,0.5182588096594293,0.9742262982458575,0.04477069222977845,-0.1913578985631897,0.11072876582406219,0.542625785106793,0.05156015156143566,31932.7250414875
1684965266188626527,74,1684965266188626527,camera_1,75,0,0.22929029053077488,-0.10722827590728475,0.5181963484564127,0.9742131827448056,0.04494532505915308,-0.19128671505897665,0.11089628020591748,0.5349404017324559,0.05082474993213364,31939.330782637924
1684965266198698043,75,1684965266198698043,camera_1,76,0,0.22924311185400317,-0.10738145332274128,0.5182091811925325,0.9742008263824501,0.045052194007969386,-0.1914219470766405,0.11072799044599145,0.5402734939125367,0.05133602395207806,31935.34192688437
1684965266209115743,76,1684965266209115743,camera_1,77,0,0.22910480979925787,-0.10736087176502856,0.5179180475694896,0.9741007471007984,0.045116935755472,-0.19229302763462364,0.11007083232543016,0.5758906425326131,0.0546649047953502,31955.85496031445
1684965266219677209,77,1684965266219677209,camera_1,78,0,0.22928345682972467,-0.10733787356369515,0.5182395715940172,0.9742826567303303,0.04522744851455911,-0.1908582657398994,0.11090944546840971,0.5127742536715232,0.04871709752034291,31944.414530514383
1684965266230250358,78,1684965266230250358,camera_1,79,0,0.22938128434745575,-0.10695593304277999,0.5181525157493706,0.974249728077137,0.044803871023033376,-0.19107524700081624,0.11099698404260055,0.5778836515382864,0.05488745323585786,31949.875563221278
1684965266239973783,79,1684965266239973783,camera_1,80,0,0.22941733966468125,-0.10687105983055639,0.5181687778371877,0.9742239687083029,0.04479746779666936,-0.19127629223869472,0.11087932945624926,0.522047346807085,0.04958501103470427,31944.568570041316
1684965266249668598,80,1684965266249668598,camera_1,81,0,0.2293453613297167,-0.10687189316082382,0.5180563031458151,0.974192318841639,0.04489485482925171,-0.19136183679943103,0.11097038044703074,0.5912690892000683,0.05614141138534318,31955.696463683285
1684965266260497093,81,1684965266260497093,camera_1,82,0,0.22930602726047772,-0.1070273195417803,0.5180877237806004,0.9741737940315655,0.044902648711720825,-0.19135301037346694,0.11114493502552698,0.5356367162312381,0.05087490923624947,31948.320921145605
1684965266270407915,82,1684965266270407915,camera_1,83,0,0.22922895627352907,-0.1073782819106181,0.5181836072945395,0.974232235658018,0.0451449978970466,-0.19107987753614045,0.11100432680949501,0.5214109817752615,0.049537741393075506,31944.0988871518
1684965266282046556,83,1684965266282046556,camera_1,84,0,0.2292263299354839,-0.10728505323370702,0.5180899750636762,0.974228968924979,0.0451342176206983,-0.1915650422354619,0.11019824454348387,0.547791444172617,0.05201045683248179,31953.659603012027
1684965266289280414,84,1684965266289280414,camera_1,85,0,0.22926981882096834,-0.10708535993624851,0.518030220738767,0.9741877859514986,0.044775258651073686,-0.19135763520313354,0.1110656984181486,0.5181649137521163,0.04920606605815521,31954.854363778715
1684965266300104856,85,1684965266300104856,camera_1,86,0,0.22939683189749344,-0.10693863493118033,0.5181842132319195,0.9742578756936063,0.0448499113633064,-0.19116121128475388,0.11075860417967974,0.5295997194480151,0.050299382914185356,31947.653157752127
1684965266309867620,86,1684965266309867620,camera_1,87,0,0.22940421452300153,-0.10685161501163946,0.518150876043348,0.9742682212931786,0.04481319536876306,-0.1910180563317446,0.11092931377372546,0.5373514899984002,0.05102745461427348,31954.238092903986
1684965266320170640,87,1684965266320170640,camera_1,88,0,0.229380691680782,-0.10689943515399358,0.5181407782631174,0.9742204685755762,0.04474422879147134,-0.19148749877830507,0.11056658812620535,0.5419448518077843,0.05146521063976256,31947.42585900239
1684965266330306768,88,1684965266330306768,camera_1,89,0,0.22935822191409197,-0.10707088622487179,0.5182108502046476,0.9742396468122998,0.04489432200322672,-0.19104448157178872,0.1111018293813499,0.5202409314224496,0.049426606990393473,31942.042873851497
1684965266340156316,89,1684965266340156316,camera_1,90,0,0.2291918030910418,-0.10736939055895987,0.5181209906659591,0.9741727648501317,0.045096256523753285,-0.19173055846782458,0.11042257387604218,0.5473317039432004,0.05198674556302568,31942.77252715698
1684965266349775075,90,1684965266349775075,camera_1,91,0,0.22915187190047298,-0.10736222325613234,0.5180362605294524,0.9741396862095089,0.04523324660844763,-0.19177002992985154,0.11058969560317419,0.5490206427057274,0.052137314505555,31949.467048665745
1684965266358945608,91,1684965266358945608,camera_1,92,0,0.22921968164555817,-0.1072590105159458,0.5180769398510586,0.9741181898045584,0.04489984433927759,-0.19168459406302096,0.11106202172252083,0.5538803926901892,0.05262140459961672,31939.839532993494
1684965266369689941,92,1684965266369689941,camera_1,93,0,0.229329961464279,-0.10709720540961586,0.5181678846226773,0.9742334202158627,0.044869068066817515,-0.1910049213778047,0.1112345705020531,0.553445847297553,0.05257831968485609,31946.059679271653
1684965266379314899,93,1684965266379314899,camera_1,94,0,0.22936243768530126,-0.10691672897514326,0.5181134873470153,0.9742576217909757,0.044663371913120364,-0.19092430220731096,0.1112437882229561,0.5616434356197715,0.05333863743405502,31956.27181579078
1684965266389905214,94,1684965266389905214,camera_1,95,0,0.22940316265478372,-0.10685427260091059,0.5181485026691742,0.9742486250297971,0.044807093508298715,-0.19135961941452478,0.11051442012885308,0.5515169177087955,0.05236845956138484,31951.02898799535
1684965266399049282,95,1684965266399049282,camera_1,96,0,0.22936718105285914,-0.10707095090773075,0.5182443941431725,0.9742734055698186,0.0449213025342778,-0.19081951902408645,0.11118146849825396,0.5144287053844891,0.0488753559956896,31943.684862158138
1684965266409248828,96,1684965266409248828,camera_1,97,0,0.22918230046300997,-0.10720856415026703,0.5179997609193556,0.9741506072844887,0.04496946291648175,-0.19180705275919102,0.11053685468701423,0.520926765690092,0.04945811681001066,31955.02344689355
1684965266418934345,97,1684965266418934345,camera_1,98,0,0.22918939875485386,-0.10736940761316434,0.5181110092230573,0.9741732768012297,0.045104521605050185,-0.19154331890273762,0.11073917952043216,0.5092531926929951,0.048373622232435014,31944.252902481705
1684965266429563999,98,1684965266429563999,camera_1,99,0,0.2292683952664398,-0.10727620712028557,0.518183170957703,0.974246155303252,0.045146975252581475,-0.19131137383686905,0.11048139093541615,0.5896324567147531,0.05600373448152775,31946.11002588296
1684965266440163135,99,1684965266440163135,camera_1,100,0,0.22939906769356166,-0.10710999707944457,0.5183107627358703,0.9743365852050443,0.04489679456531463,-0.19049983714942267,0.11118591913896692,0.5276634177425876,0.050138860089893586,31943.455668867093
1684965266449689626,100,1684965266449689626,camera_1,101,0,0.22943555002495572,-0.10685979245172993,0.5182398692793265,0.9743100183336866,0.04479151138378275,-0.1908023714963809,0.11094216382388128,0.585616925614886,0.0556224330759836,31950.222691884614
1684965266459097146,101,1684965266459097146,camera_1,102,0,0.2294143025596132,-0.10692039513423542,0.5182520428125438,0.9742888927614526,0.04471616818921884,-0.19092398156097942,0.11094886664152713,0.5689324012491851,0.05404543437694504,31945.178747009602
1684965266468663692,102,1684965266468663692,camera_1,103,0,0.2293569016469192,-0.10708058158575354,0.5182418272627962,0.9742470221485746,0.044988535081580475,-0.19085202465480186,0.11132958380866803,0.5089204965624958,0.04835752688484613,31941.235166986815
1684965266479409933,103,1684965266479409933,camera_1,104,0,0.22919109759099568,-0.1072270800362448,0.5180344595965133,0.9741375175435706,0.045103730462709116,-0.19162541892068122,0.11091189853153978,0.5310093801817857,0.05042965493991086,31950.46191570395
1684965266488962888,104,1684965266488962888,camera_1,105,0,0.22917570049130187,-0.10735641623276604,0.518085802353646,0.9742173586638031,0.04514676044217997,-0.19120316052544217,0.11092186215882362,0.5041019885102287,0.04787519443697012,31954.649905124337
1684965266498801946,105,1684965266498801946,camera_1,106,0,0.22919447054660438,-0.1073565638614652,0.5181186871208577,0.9742039664071622,0.04518515691168922,-0.1912636213517802,0.11091961313862288,0.5380370587809011,0.05110569918800852,31948.92597241911
1684965266509205818,106,1684965266509205818,camera_1,107,0,0.22930022208489595,-0.10703307475191738,0.5180773637184755,0.9742001543700638,0.04489177423029174,-0.19145337532998447,0.11074471954254396,0.5347880573826842,0.05078174488199525,31952.567087057272
1684965266518725395,107,1684965266518725395,camera_1,108,0,0.22943151961557268,-0.1069106148869362,0.5182576142501528,0.9743243112843457,0.04472778147740283,-0.19076287667764,0.11091026501666483,0.5567418608115986,0.052882916743100694,31948.85005381541
1684965266528865575,108,1684965266528865575,camera_1,109,0,0.229378025093987,-0.10682564573734074,0.5181030026002823,0.9741964969128346,0.04482566286642253,-0.19136751229296423,0.11095188412167502,0.4994705779245123,0.047430743730067705,31950.763439980325
1684965266539071321,109,1684965266539071321,camera_1,110,0,0.2293921854186243,-0.10691766275723424,0.518190312744598,0.9742632552248279,0.044727298196408895,-0.1912537838973232,0.1106009423998168,0.538117332442198,0.051105176522284655,31947.89968172286
1684965266549441814,110,1684965266549441814,camera_1,111,0,0.22913792875828298,-0.10721682476508577,0.5179234938472296,0.9740981578971669,0.04507936096138945,-0.19205234117058526,0.11052840470917824,0.538488648366183,0.05111746223143215,31957.647332561428
1684965266561167478,111,1684965266561167478,camera_1,112,0,0.22921942211664445,-0.1073490166167087,0.5181646136645592,0.9741841366185671,0.04512224513049873,-0.19154021828309895,0.11064174499339349,0.5347372372052632,0.05079964800397912,31939.85310218819
1684965266570349216,112,1684965266570349216,camera_1,113,0,0.22926129713552085,-0.10722394660686145,0.5181517922402941,0.9742870657356315,0.04500004874523963,-0.19114367413642694,0.11047083321314684,0.5389236052869819,0.05117413956477673,31955.71918072204
1684965266580005168,113,1684965266580005168,camera_1,114,0,0.22936298083458417,-0.1070450155442812,0.518201628379456,0.97434794580588,0.044837778366728226,-0.1905363587228161,0.11104751298272499,0.5196533099515364,0.04935194508386497,31958.38925464288
1684965266590208292,114,1684965266590208292,camera_1,115,0,0.22935643217305038,-0.106868956939233,0.518081390790374,0.9742529644988851,0.044796063582134,-0.1912812239335811,0.11061630631670386,0.5643221178324893,0.05357203174719466,31960.326535878703
1684965266599630355,115,1684965266599630355,camera_1,116,0,0.229429828035066,-0.10684584367984629,0.518224257498445,0.974324569441913,0.04468406221766701,-0.19097814239555236,0.11055458874557268,0.526128466182854,0.04996074091001432,31953.05097910807
1684965266609162569,116,1684965266609162569,camera_1,117,0,0.22938518491042428,-0.10690978615725936,0.518191288964012,0.9742654444406571,0.044807841055579035,-0.19086283661165485,0.11122265393947241,0.5450533620314673,0.05177258152130314,31950.361742984736
1684965266619631290,117,1684965266619631290,camera_1,118,0,0.229220872658878,-0.10724520042401287,0.5181088313066718,0.9742234429026434,0.04498057832940215,-0.1914837443157459,0.11045092364889665,0.5201154014212079,0.04938897414723637,31952.232593021956
1684965266629984140,118,1684965266629984140,camera_1,119,0,0.22923073438949812,-0.10737398354285303,0.5182211444461116,0.9742328429586221,0.045152106942727505,-0.19148994907590358,0.11028714495489035,0.5093736780690961,0.04838660722781006,31940.099150628303
1684965266640161275,119,1684965266640161275,camera_1,120,0,0.22924097386761028,-0.10735256462998033,0.5182082057451762,0.974302235715255,0.045103644958047535,-0.1908939070546777,0.1107263787051404,0.5389406690956093,0.05119090732794865,31951.4361531397
1684965266648901939,120,1684965266648901939,camera_1,121,0,0.22927205664905595,-0.10720790848019536,0.5181696046077011,0.9742563915989135,0.04506380232112315,-0.19118071696573524,0.11065112113980029,0.563031145662535,0.053473540536935434,31950.324020287022
1684965266659717321,121,1684965266659717321,camera_1,122,0,0.22929490756810095,-0.10699626885758962,0.5180581133776798,0.9742279132558747,0.04484808209225145,-0.19143164394394613,0.11055563424208253,0.5793195978621952,0.05499683080765728,31959.3142826619
1684965266669852256,122,1684965266669852256,camera_1,123,0,0.22937060469258655,-0.10685840341116021,0.5181219285772178,0.9742033650001823,0.04472442728280195,-0.1915486625216501,0.11061934330267015,0.5537026763777249,0.05257892390780176,31948.594104991178
1684965266680341958,123,1684965266680341958,camera_1,124,0,0.22938961551478979,-0.10691992920730213,0.5182124317623777,0.9742990271509485,0.0447155470406772,-0.1909286373084017,0.11085206809584094,0.5328434305265546,0.05060608764770589,31951.551325413748
1684965266690378427,124,1684965266690378427,camera_1,125,0,0.22937576959345077,-0.10711990799033741,0.5183362531967095,0.9742998503475555,0.04495481725016224,-0.1906311540403962,0.11125928782785939,0.4930846397182904,0.04686030048139984,31937.840867889103
1684965266699700832,125,1684965266699700832,camera_1,126,0,0.22914974749485356,-0.1072296530883768,0.5179796007549663,0.9741583560687469,0.04513195130096282,-0.19179760562077183,0.11041867030236843,0.5525563603150658,0.05245100442191548,31960.546554232496
1684965266709633111,126,1684965266709633111,camera_1,127,0,0.2292437441037123,-0.10733595267577722,0.5182138827106029,0.9742365396395447,0.045110427865135985,-0.19133472336631424,0.11054066113121509,0.538191192492377,0.05112590370635951,31941.660198573496
1684965266718598127,127,1684965266718598127,camera_1,128,0,0.22921171848078983,-0.1071481926933494,0.5180189875642606,0.9742182835299502,0.044927785439936016,-0.19141430464818637,0.11063812230633707,0.5507069876766764,0.05227852722847872,31962.879488671657
1684965266729628324,128,1684965266729628324,camera_1,129,0,0.22940699372005505,-0.10685941418903179,0.5181939214080358,0.9743300839480497,0.04485162024693105,-0.19072265864707294,0.11087870468942113,0.5322635945631191,0.05054033245821249,31959.235783015392
1684965266740005493,129,1684965266740005493,camera_1,130,0,0.22942042886284086,-0.10683120296615549,0.5182153013485146,0.9742512637491997,0.044779745922616764,-0.19162240542437742,0.11004591395217163,0.5392658227938227,0.05120699177253826,31944.435823919255
1684965266749948978,130,1684965266749948978,camera_1,131,0,0.2294036344397479,-0.10694104245088334,0.5182501423857486,0.9743057588054869,0.04478405804629059,-0.19092042409299204,0.11077936706590767,0.5024021073477343,0.04771941433260136,31947.923511262976
1684965266759900093,131,1684965266759900093,camera_1,132,0,0.229418679651509,-0.10715087108564669,0.5184610132742334,0.9743460682953898,0.04485933017001771,-0.190483662412787,0.11114564340460764,0.5447772435145453,0.05178928846866505,31929.19281019131
1684965266769947528,132,1684965266769947528,camera_1,133,0,0.22915526781556414,-0.10723393313597554,0.5179963997888365,0.9740967961661444,0.04518173168996379,-0.19207895559820992,0.11045233196564963,0.5289837247109972,0.0502256940489796,31950.091192687752
1684965266780175685,133,1684965266780175685,camera_1,134,0,0.22925239232564976,-0.10737600553598291,0.5182824335472886,0.9742799772450098,0.045109482747036,-0.19112907681199404,0.11051396519333265,0.5181093946448527,0.04922442858257837,31940.11931151035
1684965266789985179,134,1684965266789985179,camera_1,135,0,0.2292310795617576,-0.10714670352540141,0.5180531723137183,0.9742567969695165,0.04477541570853805,-0.19117204557384315,0.11077953194493374,0.5862351901014335,0.05565726741446775,31963.428310431776
1684965266799701213,135,1684965266799701213,camera_1,136,0,0.22938346846841984,-0.10699659380027798,0.5182288280360805,0.9743658068781345,0.04470123957194198,-0.19070592197302227,0.1106540776106951,0.5121323484345339,0.048632493815443316,31957.25650447375
1684965266810210466,136,1684965266810210466,camera_1,137,0,0.22944967384299875,-0.10687173887757492,0.5182936783280819,0.9743827256924666,0.04485068605742816,-0.1908064078489708,0.11027073299869501,0.5513107773149386,0.05234950552416705,31954.078281999216
1684965266819114923,137,1684965266819114923,camera_1,138,0,0.22936644325683356,-0.10680201868013624,0.5180981417426059,0.974251290451009,0.044904690430248764,-0.1914311361224184,0.11032729469531814,0.5413464825833216,0.05138372602323623,31960.421661275206
1684965266830143928,138,1684965266830143928,camera_1,139,0,0.22936611821175498,-0.10691474996852857,0.5181737942165806,0.974271970905969,0.04472748631796947,-0.19108477439548915,0.11081600817977534,0.5479788823868148,0.05203886662739365,31952.86926547985
1684965266839564800,139,1684965266839564800,camera_1,140,0,0.22932353556543048,-0.10711052423219723,0.5182405239560216,0.9742298761225717,0.04493451311593063,-0.19099953247661894,0.11124844535968002,0.5481789325131103,0.05208832365003721,31939.957082508823
1684965266849553823,140,1684965266849553823,camera_1,141,0,0.22921998114965308,-0.10735740503880872,0.5182003589374229,0.9742572982016268,0.04507428846655665,-0.19109749790410546,0.11078254246446399,0.5250852393219247,0.04987983104663351,31946.854721029988
1684965266859256744,141,1684965266859256744,camera_1,142,0,0.2293348797148036,-0.10717148673099038,0.5182786070835633,0.974293091535799,0.04472794356792465,-0.19091114579623017,0.1109293345358675,0.5654068525182083,0.05372237104270082,31941.147573624756
1684965266869934320,142,1684965266869934320,camera_1,143,0,0.22936097449309353,-0.1069611304727628,0.5181738861721041,0.9743443490295983,0.044844106228295294,-0.19082949644036631,0.11057214359408116,0.5428005042485893,0.05153253046238234,31962.53337234329
1684965266880099773,143,1684965266880099773,camera_1,144,0,0.2294386673013348,-0.10684276276280491,0.5182503868037913,0.9743287799835575,0.044786434421630876,-0.19107819962150172,0.11030288036563271,0.4994178640190512,0.047422011291937696,31951.176150402505
1684965266890164136,144,1684965266890164136,camera_1,145,0,0.22941661523252052,-0.10682599665985343,0.5182028224374083,0.9743001363860759,0.04495550521616923,-0.1913941728317757,0.10993869834991404,0.5182527512661181,0.04919730386046473,31953.9160667786
1684965266899953126,145,1684965266899953126,camera_1,146,0,0.22929697531081453,-0.10712428197201733,0.518187662829329,0.9742562203265788,0.04482806688435959,-0.19104754828388826,0.11097790712162345,0.5680287895957008,0.05395657465715242,31948.57576830942
1684965266909961938,146,1684965266909961938,camera_1,147,0,0.22919143875886175,-0.10726529568819086,0.5180886628471256,0.9741391734074527,0.045111653926092204,-0.19174782014682012,0.11068235171896301,0.5382679782924242,0.051123976653235925,31944.596497825703
1684965266919833660,147,1684965266919833660,camera_1,148,0,0.22924227319826587,-0.1073584062001402,0.5182360016621592,0.9743011997586711,0.04507740535364911,-0.19103599555447248,0.11050089627649463,0.5185044924146495,0.04925054207276457,31948.131242879677
1684965266929329633,148,1684965266929329633,camera_1,149,0,0.2291870529700712,-0.10726415206776635,0.5180670483205138,0.9741690000684989,0.04512512544756322,-0.19164463583951125,0.11059301927709389,0.5831428721430711,0.0553760494580919,31951.140778879635
1684965266939810037,149,1684965266939810037,camera_1,150,0,0.22928896898470597,-0.10711482074805251,0.518147967972341,0.9742614728330925,0.04482457532611635,-0.19119292446991476,0.1106824540411369,0.5008557458641006,0.047563694667438816,31952.947972086844
1684965266949488162,150,1684965266949488162,camera_1,151,0,0.229402825752677,-0.10695507690855136,0.5182462409437099,0.9743126158427656,0.04473863228549385,-0.19077411268076636,0.11098927570588606,0.5146954545634799,0.048890624155978835,31948.857498165242
1684965266960605859,151,1684965266960605859,camera_1,152,0,0.22946153747828713,-0.10684712745732113,0.518311059470236,0.9743388755725626,0.04479914943893837,-0.19098290107743193,0.11037356229455542,0.5219041588134132,0.04956782519802305,31945.98213674614
1684965266970225572,152,1684965266970225572,camera_1,153,0,0.22936800817879502,-0.1069421583829992,0.5181970579435683,0.9742746092503952,0.04486852584270307,-0.1910793624709508,0.1107451055188775,0.5429821570869535,0.05156635549131145,31951.119075625465
1684965266979865789,153,1684965266979865789,camera_1,154,0,0.2292823920285053,-0.10711110629159942,0.5181720339160762,0.9742054245842521,0.0449650848535869,-0.19119398758502376,0.11111611479018128,0.5548486605403014,0.05270975824967309,31945.238152636215
1684965266989450693,154,1684965266989450693,camera_1,155,0,0.2291965127342438,-0.10733062077975523,0.5181355911256017,0.9741557860282299,0.04511353313154483,-0.1916176824703687,0.11076072156137032,0.48193377029383555,0.045782051575016504,31940.460357675915
1684965266999882936,155,1684965266999882936,camera_1,156,0,0.22921153078568213,-0.10726448755098775,0.5181067217986393,0.9742167291915078,0.04514289852763101,-0.1915482735289287,0.11033196356455895,0.554805746418424,0.05268042267387105,31952.543562218445
1684965267010108470,156,1684965267010108470,camera_1,157,0,0.22943515993138935,-0.10696212660069898,0.518317822303436,0.974330080210533,0.04484401149710095,-0.19077256872651546,0.11079592253901357,0.534365099912975,0.05076551181984895,31943.270439083353
1684965267019910573,157,1684965267019910573,camera_1,158,0,0.22942682890428295,-0.10682569424513368,0.5182241393179471,0.9742300916304265,0.04481845659252529,-0.1915992784496381,0.11025765736679151,0.4995075104525313,0.04743865087690065,31940.82352653937
1684965267030009508,158,1684965267030009508,camera_1,159,0,0.22943660687497278,-0.10682788988552357,0.5182576918715326,0.9743193067167717,0.04483778169498031,-0.19109591544647275,0.11033500347259304,0.5558896790025757,0.05278652029822561,31950.41172321549
1684965267039867639,159,1684965267039867639,camera_1,160,0,0.22938453017724428,-0.10694396147889111,0.518234430872093,0.9742874729108582,0.044885678737111495,-0.19100137385824162,0.11075951948950982,0.5510916755883954,0.05234206740759429,31948.734868501764
1684965267049238204,160,1684965267049238204,camera_1,161,0,0.2292615959714306,-0.10710986658528582,0.5181285919183138,0.974227818587345,0.04496248130550633,-0.1910780587265843,0.11112024225439475,0.5430967908469029,0.05158116429691898,31953.59552304144
1684965267058681011,161,1684965267058681011,camera_1,162,0,0.2291843947718616,-0.10726075579571166,0.518066164227794,0.9741572108108374,0.04509211272994411,-0.1918541558563559,0.11034678461760841,0.535038837348111,0.05080484780872544,31949.1382388228
1684965267070066928,162,1684965267070066928,camera_1,163,0,0.2291983128573987,-0.10724195411235661,0.5180776139575807,0.9741659733454684,0.045133891317422924,-0.1916090565944065,0.11067771980586108,0.5578161306330003,0.052973573894967825,31949.832584174004
1684965267079912662,163,1684965267079912662,camera_1,164,0,0.22932636372526607,-0.10709575211444679,0.5182184359011692,0.974237323435888,0.04498452025620115,-0.19107766593205264,0.11102862758656137,0.5056424825452268,0.04803751794462103,31943.080386980437
1684965267090079307,164,1684965267090079307,camera_1,165,0,0.2293737954681929,-0.10690562372055788,0.5181663206083001,0.9742120435557389,0.04478115285276517,-0.19126425197101277,0.11101138886662734,0.5314577288809232,0.05048104016527615,31945.241920422755
1684965267099389076,165,1684965267099389076,camera_1,166,0,0.22942158827574574,-0.10680507993780851,0.5182026785731378,0.9742489638837392,0.04493935003010853,-0.191365027640987,0.11044834714153333,0.5175736070377752,0.049148558306990615,31947.527958279148
1684965267109727859,166,1684965267109727859,camera_1,167,0,0.22947418495978567,-0.10685489228368499,0.5183440593578952,0.9743260645405025,0.04476008453041379,-0.1910671769362387,0.11035664315057299,0.4905168501427397,0.04659396169115702,31939.805865133298
1684965267120012760,167,1684965267120012760,camera_1,168,0,0.22939027042685667,-0.10696776857881889,0.5182520230678416,0.9743242487048526,0.04487611598927635,-0.19086068937513553,0.11068238274761556,0.48666197352577,0.046219779988013084,31950.971212193137
1684965267129734039,168,1684965267129734039,camera_1,169,0,0.22921153095169952,-0.10727617254263659,0.5181446567604127,0.9741687302974094,0.04513267248964705,-0.19178818399851125,0.11034318856743645,0.52560695563443,0.04992134907735052,31941.97519012342
1684965267140018224,169,1684965267140018224,camera_1,170,0,0.22924278979087892,-0.10723356401547529,0.5181600306274257,0.9742349310052174,0.04512692464563483,-0.1915696545043523,0.11014048916892237,0.6016678441083059,0.05713278828567335,31949.15787226674
1684965267149605274,170,1684965267149605274,camera_1,171,0,0.22930852661140247,-0.10705777522636377,0.5181573284435941,0.9742379423068207,0.04495730195440055,-0.19116375973944424,0.11088593117719119,0.5445384274353273,0.05171738394236363,31950.55129015747
1684965267159278869,171,1684965267159278869,camera_1,172,0,0.22940186867971393,-0.1069004308312144,0.5182214822814691,0.9743064306319448,0.044873232481359736,-0.19075931378530656,0.11101466767987261,0.5250849350704812,0.049870228734769755,31952.891205882057
1684965267168978214,172,1684965267168978214,camera_1,173,0,0.22937709478100682,-0.10677758681638931,0.5181230777570602,0.9742086032932351,0.04492328488892526,-0.19156357612646238,0.11046670107264661,0.5756354103214107,0.05465126295571928,31952.643975255884
1684965267178979396,173,1684965267178979396,camera_1,174,0,0.22932287543909693,-0.10693841345628463,0.5181174500760145,0.9742144799682754,0.044867306777498624,-0.191452711921064,0.11062970171137068,0.5373173713451251,0.051020195520374706,31952.423835442853
1684965267188738346,174,1684965267188738346,camera_1,175,0,0.22927500352715302,-0.1071290470483117,0.518171766681867,0.9742123341645664,0.04485332178514017,-0.1911300505833494,0.11121066158634275,0.5076370261376724,0.04822650031904486,31945.4315995439
1684965267198601007,175,1684965267198601007,camera_1,176,0,0.2291812515202672,-0.10726242219202477,0.5180862685221371,0.9741551117619375,0.044961861253723936,-0.19179512719635944,0.11052094120310536,0.5434074198128656,0.0516067257591309,31946.673396386195
1684965267208859920,176,1684965267208859920,camera_1,177,0,0.22918547535156175,-0.10730315015201822,0.5181087211782625,0.9741463310562685,0.04518656954239402,-0.19150083045932487,0.11101590677011305,0.5183782625827007,0.04924306527429854,31944.039838301134
1684965267219013690,177,1684965267219013690,camera_1,178,0,0.22924284578410536,-0.10722442909014408,0.5181563131427848,0.9741931654184308,0.04513641433481367,-0.19153035431748205,0.11057352272598348,0.5536650888388976,0.052588185826720805,31944.345496816575
1684965267229395389,178,1684965267229395389,camera_1,179,0,0.22930421070733722,-0.10704782755428581,0.518143434301591,0.9741578534139601,0.0448366299155796,-0.1916005039252368,0.11088462537842689,0.5432272187317722,0.05160420454048306,31940.056898656643
1684965267238781690,179,1684965267238781690,camera_1,180,0,0.22941659463623884,-0.10678402757377327,0.5181891950127058,0.9742491993287461,0.044852773141071944,-0.19146671276416966,0.11030514154895885,0.5430120174423791,0.05155889689613868,31949.007593851416
1684965267249728441,180,1684965267249728441,camera_1,181,0,0.2294251729774446,-0.10682382880518479,0.5182394768757478,0.9742747945415878,0.04488732403297675,-0.1913170342147761,0.11032472651843603,0.5278070970671251,0.05012159425538969,31946.77180200744
1684965267260077714,181,1684965267260077714,camera_1,182,0,0.22937444432207427,-0.10697039617477244,0.5182451422831006,0.9742904632461827,0.04476522964213749,-0.19095713960058333,0.11085818994638486,0.5284612407558598,0.050196842401113904,31947.373752579108
1684965267270445585,182,1684965267270445585,camera_1,183,0,0.2291768776407879,-0.10726424035926434,0.5180758085148617,0.9741444967089458,0.0450165072931609,-0.1919933165713697,0.11024781174574613,0.553950768255163,0.05260226441982669,31946.316689584157
1684965267278638601,183,1684965267278638601,camera_1,184,0,0.22919220362219717,-0.10729052751502446,0.5181183699081015,0.9741396256083863,0.045148313447654506,-0.1918430591453651,0.11049823650236967,0.5201122328289784,0.049401273679385294,31941.22189697566
1684965267289253234,184,1684965267289253234,camera_1,185,0,0.22932454461033916,-0.107022646045571,0.5181676428228656,0.9742411242967439,0.044681442908468004,-0.19117310449468222,0.11095334382748066,0.5757068520761095,0.054682637401616836,31948.405057445412
1684965267299627780,185,1684965267299627780,camera_1,186,0,0.22939059638876194,-0.1068529782025598,0.5181857265520134,0.9742825238168489,0.04489287757405798,-0.19113333587274098,0.11057233490502988,0.5277374792494811,0.050109390993868116,31954.366360949927
1684965267309703826,186,1684965267309703826,camera_1,187,0,0.22937417653004163,-0.10675960855880531,0.5180995152293171,0.9742194295460055,0.04472400618941049,-0.19173529197012065,0.11015372975327661,0.5253954351646826,0.04987133604666006,31955.003492808093
1684965267319654226,187,1684965267319654226,camera_1,188,0,0.2294301063282912,-0.10684109241978218,0.5182759842221498,0.974368483592724,0.04485488091706125,-0.1908172781118979,0.11037601285197186,0.5715615235385485,0.05426982194586216,31956.185063632773
1684965267329983949,188,1684965267329983949,camera_1,189,0,0.2292922119239716,-0.10695319233175478,0.5180770636666928,0.9741892283086281,0.04481820300537728,-0.19155824509191566,0.11068927167577769,0.5481894495896995,0.05205008379047654,31953.71424458013
1684965267340031147,189,1684965267340031147,camera_1,190,0,0.22920338013075392,-0.10713155364801893,0.5180561822004478,0.9741865366206539,0.044953319996899326,-0.19170528493483824,0.11040323643971703,0.6108876129146665,0.05799652192720315,31956.398749465472
1684965267349852323,190,1684965267349852323,camera_1,191,0,0.2291733141972566,-0.10727259306024733,0.5180696940710388,0.9741569705734772,0.045102432528927865,-0.1917008491727273,0.11061081181120763,0.5423793190275319,0.05150643803436152,31949.665764743568
1684965267359894037,191,1684965267359894037,camera_1,192,0,0.2291949128271451,-0.10715161087164635,0.5180192899478889,0.9741502805175423,0.04487484960334228,-0.19151671023942837,0.11108027970678733,0.5466550560086034,0.05191180351963405,31954.463568960327
1684965267369259119,192,1684965267369259119,camera_1,193,0,0.22925890829789364,-0.10697219268548859,0.5180086541786773,0.9741895496956058,0.04483443715359468,-0.19147692683033815,0.11082048998539322,0.5480451642652042,0.052026952568442995,31961.61431005479
1684965267380268812,193,1684965267380268812,camera_1,194,0,0.2293752120694678,-0.10683386515911265,0.5181536123799126,0.9742171737944617,0.04482236224343001,-0.19148182618983994,0.11057379601810874,0.5423629638389684,0.05150153856891184,31948.980779623846
1684965267389028310,194,1684965267389028310,camera_1,195,0,0.22934425152447227,-0.10673901382164687,0.5180328683767128,0.9741903387566858,0.044864701359425344,-0.19170995324300377,0.11039762802084385,0.5358975554117933,0.050862078470667656,31960.64011749893
1684965267400529861,195,1684965267400529861,camera_1,196,0,0.2293852046553855,-0.10681549606480886,0.5181705096210133,0.9742467095280434,0.044838624281651536,-0.19136106080794416,0.11051602215410927,0.5318099814467132,0.05049613862812592,31951.682740582524
1684965267410236835,196,1684965267410236835,camera_1,197,0,0.22927731293541181,-0.1071629133926539,0.518220240046757,0.9743066439844134,0.04488995362566135,-0.19080436723803262,0.11092857609385326,0.5709543551784009,0.05422994570668032,31953.604459918904
1684965267420089960,197,1684965267420089960,camera_1,198,0,0.22918900572579298,-0.10727825025087549,0.518106661604008,0.9741617759455049,0.045079683942512036,-0.19175569791080496,0.1104826171896892,0.5377620758954436,0.051072369260173764,31945.583103397992
1684965267429608345,198,1684965267429608345,camera_1,199,0,0.2292057200868127,-0.10715180151835284,0.5180536447628669,0.9742248762700938,0.04497205107993003,-0.19144677978861688,0.11050581698152208,0.560678908135742,0.05322624798625182,31961.409378032076
1684965267440090179,199,1684965267440090179,camera_1,200,0,0.22922552270442212,-0.10694806136846857,0.5179363902469307,0.9741541869922682,0.044814388491860015,-0.19171331747417764,0.11073072948634813,0.5692470654612407,0.054028252822969094,31965.630701724076
1684965267449903249,200,1684965267449903249,camera_1,201,0,0.22942721965956697,-0.10684966518509639,0.5182670155877175,0.9743638017919987,0.0447221534936955,-0.19070999751679887,0.1106562587089937,0.5140625695348717,0.04881577129230393,31955.530837633298
1684965267460077524,201,1684965267460077524,camera_1,202,0,0.22937951772319098,-0.10681549205258846,0.518163371307996,0.9742269465915343,0.04489848803640402,-0.19120564035278098,0.1109341489545207,0.5331303611164913,0.05062965682783496,31950.88064369967
1684965267470534086,202,1684965267470534086,camera_1,203,0,0.2292814899027242,-0.10696048767302621,0.5180691850390491,0.9741908220238166,0.04479836779964093,-0.19134447932336807,0.11105241446955408,0.5108928689151071,0.04851321831368214,31955.433630317573
1684965267480287551,203,1684965267480287551,camera_1,204,0,0.22921069519460027,-0.10714568783883643,0.5180721034272882,0.9741313176035482,0.044932669239028084,-0.1917321825112956,0.11085125839829904,0.5423686961876228,0.05151193853439418,31946.449576928975
1684965267489655494,204,1684965267489655494,camera_1,205,0,0.2291259123118361,-0.10724280255575704,0.5179755447607102,0.9740868391304541,0.04502225583480813,-0.1920629511144264,0.11063294772174963,0.5262114078504965,0.04996376007453808,31951.4052453786
1684965267499913454,205,1684965267499913454,camera_1,206,0,0.22916732202801846,-0.10725206791058262,0.5180518817371138,0.9742045841432196,0.045120390291949544,-0.19148727468506352,0.11055406934132135,0.560509629722219,0.05321482388400627,31959.205700283987
1684965267510074853,206,1684965267510074853,camera_1,207,0,0.2292009140636481,-0.10711671217738498,0.5180161804504329,0.9741862353460903,0.044938590358743646,-0.19137204498064977,0.11098847849531589,0.5868004163494334,0.0557136129265869,31961.023933691788
1684965267519940376,207,1684965267519940376,camera_1,208,0,0.22942058938159327,-0.10682557568573295,0.518239710775039,0.9743730335989068,0.04487377128390308,-0.19069307777162378,0.11054268920199717,0.48777440213598316,0.04630926598971459,31961.230504426057
1684965267529938220,208,1684965267529938220,camera_1,209,0,0.22932023599712992,-0.10671955379473887,0.5179902685552061,0.9741131678892342,0.044724894570354466,-0.1921072050040068,0.11044474517160163,0.601247699232772,0.05707031550113909,31954.812513558194
1684965267538818836,209,1684965267538818836,camera_1,210,0,0.2294111453439386,-0.10684744938332663,0.5182534955298058,0.9743488040218015,0.044778429984128024,-0.19062428110273233,0.11091295579646424,0.5238676666049287,0.04974996561119016,31956.56316497713
1684965267549190044,210,1684965267549190044,camera_1,211,0,0.22920358732782703,-0.10714861248564095,0.5180667390059331,0.9741335397746455,0.04494350820558387,-0.19178158137969908,0.1107418294945309,0.5263610663241707,0.04998781381786204,31947.518715148566
1684965267559595346,211,1684965267559595346,camera_1,212,0,0.22908721098438847,-0.10721952899815054,0.517886402855483,0.9740802469190535,0.045114506888721734,-0.19229168107610695,0.11025544530420389,0.5370459063560702,0.05096814163271598,31961.694145377238
1684965267570363283,212,1684965267570363283,camera_1,213,0,0.22921262363325404,-0.10710433556850377,0.5180345228372257,0.9741625186691624,0.04499349659406393,-0.19155863768635512,0.11085242808410425,0.5346250072470866,0.05076346005716851,31955.707480814883
1684965267579212427,213,1684965267579212427,camera_1,214,0,0.22935868250342198,-0.1069561889382179,0.5182088822096185,0.9743331768398807,0.04495638825233762,-0.19057379692423762,0.11106489810147159,0.5501825482351705,0.052247149694543485,31959.825544337626
1684965267589862346,214,1684965267589862346,camera_1,215,0,0.22941704556796197,-0.10681438171993955,0.5182275707611863,0.9742867885637004,0.0447816565108567,-0.19122632430384026,0.11041897374825434,0.5316738154506311,0.05048629599612631,31949.79474192393
1684965267599960088,215,1684965267599960088,camera_1,216,0,0.22933667701262217,-0.10671847130040105,0.5180220167892412,0.9741694035580178,0.04467119405612256,-0.19197393035755844,0.1102019403462914,0.6253072816180065,0.059346415681521256,31958.37680167112
1684965267610248088,216,1684965267610248088,camera_1,217,0,0.2293897071118833,-0.10682976745516035,0.5182077025992986,0.9743200037776691,0.04487292049561746,-0.19077729468887442,0.11086467009859885,0.534341070917435,0.05073748084088299,31959.028243413668
1684965267619516372,217,1684965267619516372,camera_1,218,0,0.2292305126464299,-0.10695112466214331,0.5179725349010007,0.9741154645042955,0.04486747313104776,-0.19196812046265851,0.11060837397977342,0.5229296941542998,0.04964103714089588,31956.66641729185
1684965267630472898,218,1684965267630472898,camera_1,219,0,0.22918588239236373,-0.10726513607292663,0.518118792574522,0.9742069357392898,0.0450990614958296,-0.19153153295604444,0.11046534702415241,0.5641902656061574,0.053574549871605426,31951.859606498954
1684965267638635158,219,1684965267638635158,camera_1,220,0,0.22915460605978796,-0.10722215080601637,0.5180265840710535,0.9741554537729944,0.04520525271311776,-0.19178265513604245,0.11044025624945136,0.5742884511710145,0.05452089983223881,31956.680692810565
1684965267649336576,220,1684965267649336576,camera_1,221,0,0.22919383185535214,-0.10708243729441491,0.5179987675923388,0.9741985516195826,0.044956012888684296,-0.1914127158013041,0.11080302864556169,0.5391525632003322,0.051178735180845515,31965.650058100113
1684965267660275220,221,1684965267660275220,camera_1,222,0,0.229372415787928,-0.10694548461671305,0.5182289945190519,0.974318221021144,0.04474461202214708,-0.19076339983318555,0.11095606862747628,0.5267815359402448,0.05003127948739119,31953.678791742776
1684965267669911384,222,1684965267669911384,camera_1,223,0,0.22939145036993513,-0.10678585028906662,0.5181722229870095,0.9742644360150865,0.044838989603275065,-0.1912607804645166,0.11053319674951571,0.5228079347289167,0.04963816679567209,31954.602388124214
1684965267679068326,223,1684965267679068326,camera_1,224,0,0.2293346659183256,-0.10671755554709847,0.5180295350200143,0.9741523541563225,0.04473284572129577,-0.19216128930638757,0.11000091953014025,0.5612020660191774,0.05326095411661002,31955.4477290035
1684965267689477682,224,1684965267689477682,camera_1,225,0,0.22925264988347926,-0.10698014257850383,0.5180542637086185,0.9741676057148454,0.04485205670941824,-0.19161071947476246,0.11077500244687248,0.5336896457592957,0.050672394478941195,31954.857052920284
1684965267700315237,225,1684965267700315237,camera_1,226,0,0.22917846327858918,-0.10726028605286556,0.5181058170264315,0.9741620529472439,0.04497574928220698,-0.19185301476649624,0.11035351058811806,0.5527241019299254,0.05248963248146319,31946.201343139983
1684965267710438489,226,1684965267710438489,camera_1,227,0,0.22916953694553044,-0.10720670665442708,0.5180431071630116,0.9742405198940769,0.045060376050255764,-0.19135553861604795,0.11048995315272143,0.5621998807764612,0.05336502399728545,31965.950141474605
1684965267719498634,227,1684965267719498634,camera_1,228,0,0.22930888533298593,-0.10710338863476983,0.5182365775819773,0.9742711354205086,0.045061245593835675,-0.19082103831053238,0.11114211699466368,0.546250176965259,0.05189305099085278,31948.244904043284
1684965267729644536,228,1684965267729644536,camera_1,229,0,0.2293466322651632,-0.10690412461179552,0.5181639374022161,0.9742609270865256,0.04474822156448852,-0.19100780593018638,0.11103720409419388,0.5584306629025377,0.053033189817278364,31954.38707939595
1684965267739567756,229,1684965267739567756,camera_1,230,0,0.22935711525913585,-0.10672658973496835,0.5180926572474738,0.9741987075864909,0.044762102342270745,-0.1918680406768856,0.11009035969386226,0.6060864587198012,0.05752791304065962,31955.32740090309
1684965267750421047,230,1684965267750421047,camera_1,231,0,0.22936548429500547,-0.10684334038648267,0.518178086226615,0.974271917555535,0.04478508265259816,-0.19098668487958706,0.110962215340025,0.5201275343424641,0.04939215178993143,31955.443256937542
1684965267759929180,231,1684965267759929180,camera_1,232,0,0.22925844208004909,-0.10699470012856573,0.5180807164829804,0.9742142132225188,0.044941633957888,-0.19116093244388996,0.11110541930799955,0.5569411124452017,0.052883052891958965,31959.563761866633
1684965267769721031,232,1684965267769721031,camera_1,233,0,0.22920265582439717,-0.1071636645232308,0.5180949086186168,0.9741579337974561,0.04503974553872265,-0.1915193227485258,0.11094183320652519,0.5328473500558175,0.05060722499419692,31949.183259343605
1684965267779937028,233,1684965267779937028,camera_1,234,0,0.22913247388179492,-0.10723236802046474,0.5180082717979291,0.9742161675798287,0.04504032273075742,-0.1915836861702113,0.11031735741856044,0.5338088857242838,0.050663901006311254,31966.784657174365
1684965267789591312,234,1684965267789591312,camera_1,235,0,0.22917200090424486,-0.10719735703194533,0.5180489508293181,0.9741345330934408,0.04505349944901995,-0.1918789782492427,0.11051946130997858,0.5184872988029383,0.04923191949879262,31950.252403287224
1684965267800120592,235,1684965267800120592,camera_1,236,0,0.22935518908777477,-0.10689653646418551,0.5181753463149784,0.9742837390497853,0.044815305020259495,-0.1908807502314247,0.1110284803561663,0.5420769916381687,0.0514775063642369,31956.732129968947
1684965267810213088,236,1684965267810213088,camera_1,237,0,0.22933960103464862,-0.10674383649221797,0.518056777767309,0.9742324339965581,0.044861429290703685,-0.1915085658444073,0.11037701717004136,0.5650481266202405,0.053625011685870604,31964.884469518896
1684965267820126295,237,1684965267820126295,camera_1,238,0,0.2294013247407309,-0.10685619922445885,0.5182560828056024,0.9742978412839519,0.04478404783917413,-0.1908230396790666,0.11101654406533883,0.549579938815441,0.052201347880873154,31949.716279083405
1684965267829027175,238,1684965267829027175,camera_1,239,0,0.22927753581262147,-0.10700498596590309,0.5181355752341137,0.974161966586154,0.04491232568419731,-0.19164130341874172,0.11074726489895663,0.5509950659470633,0.05233149788861733,31945.03076899505
1684965267839556932,239,1684965267839556932,camera_1,240,0,0.22917122642308205,-0.1071515746541802,0.5180370109251277,0.9741515518651128,0.044995861585170514,-0.1916366487959147,0.11081300139095485,0.5644990451983176,0.05359978137672026,31955.408913205618
1684965267849873304,240,1684965267849873304,camera_1,241,0,0.2291569765247753,-0.1071833220761764,0.5180082592818448,0.974124568982302,0.045159402561666534,-0.19191511742160136,0.1105013129803021,0.5243872943101451,0.04978442035270682,31954.52833725277
1684965267860145330,241,1684965267860145330,camera_1,242,0,0.22932420775491202,-0.1070853901884651,0.5182487630124321,0.9743442748942295,0.044955905531036955,-0.19087481205391585,0.11044911345096808,0.5084345251671039,0.04828033852446412,31955.35312116111
1684965267870010137,242,1684965267870010137,camera_1,243,0,0.22935225152645916,-0.1068808988071303,0.5181603463015048,0.9742843434880296,0.04479365028812722,-0.19083005623005572,0.11111901982648047,0.561383712280076,0.05330924657582049,31958.833042337203
1684965267880253076,243,1684965267880253076,camera_1,244,0,0.22929058032547117,-0.10670448869395639,0.5179357023240818,0.9741818005969052,0.04471358564707703,-0.191856226403094,0.11028011169162806,0.5671945408685133,0.05381123120162497,31971.49950536165
1684965267889689445,244,1684965267889689445,camera_1,245,0,0.2293241657636168,-0.10670625859119391,0.518011297224453,0.9741868454409885,0.04475950858090318,-0.19217518948707363,0.10965980625069,0.5727704974706285,0.05434243001652294,31962.81111163147
1684965267899837255,245,1684965267899837255,camera_1,246,0,0.22940387729322326,-0.10686909258058021,0.5182846071359877,0.974353748571894,0.04483312382853523,-0.19045413527918922,0.11113948896197977,0.539283812395297,0.05122151898720365,31955.228899942027
1684965267910117387,246,1684965267910117387,camera_1,247,0,0.22922274189505404,-0.10718718520406322,0.5181547402212382,0.9742479164770398,0.04503415320124203,-0.19121635533718448,0.11067622932300364,0.5452947783051059,0.05178226392770205,31954.429840213175
1684965267919952154,247,1684965267919952154,camera_1,248,0,0.2291586550543547,-0.10723203412030916,0.5180588897508238,0.9741644265829098,0.0450969651734636,-0.1919729505244014,0.11007415672849646,0.5437041533878073,0.05161630355054035,31953.31939454562
1684965267929781913,248,1684965267929781913,camera_1,249,0,0.22923161061399283,-0.10719498430513467,0.5181611178927006,0.9742104405078814,0.045207314502963794,-0.19152265303329782,0.11040556913469977,0.5273164800019003,0.05007624710979553,31948.393511815
