%time,field.header.seq,field.header.stamp,field.header.frame_id,field.image_seq,field.transforms0.fiducial_id,field.transforms0.transform.translation.x,field.transforms0.transform.translation.y,field.transforms0.transform.translation.z,field.transforms0.transform.rotation.x,field.transforms0.transform.rotation.y,field.transforms0.transform.rotation.z,field.transforms0.transform.rotation.w,field.transforms0.image_error,field.transforms0.object_error,field.transforms0.fiducial_area
1682302479368322372,0,1682302479368322372,camera_1,1,0,0.6621854111810314,0.49032158972087964,1.8122969500153114,-0.9800129697819434,-0.04466961580185808,0.15648176664375799,0.11442316719676356,0.24545237381244078,0.023065649776087226,20539.81345700042
1682302479378278970,1,1682302479378278970,camera_1,2,0,0.6622290202426897,0.48777598173537734,1.8122596139267952,-0.9800730654688757,-0.04450003281137647,0.15612550722286672,0.11446116990765871,0.23206721199676394,0.02179663115193259,20563.329699942256
1682302479388489484,2,1682302479388489484,camera_1,3,0,0.6623410604409588,0.4854104968295807,1.8123719947440375,-0.9800594644298952,-0.04470037369980948,0.156426325187373,0.1140882446216904,0.23214157141046599,0.02179897076694266,20575.797743562965
1682302479398631095,3,1682302479398631095,camera_1,4,0,0.6622770883622212,0.4832061759046209,1.8121251703026886,-0.9800451513012287,-0.04467698721528157,0.15643135636326705,0.11421339225618868,0.20359715854283422,0.019105851882838136,20594.551483545918
1682302479408240556,4,1682302479408240556,camera_1,5,0,0.662117116426479,0.481347958006495,1.8115315536591305,-0.9800298191871575,-0.044605174315692074,0.15670984967090393,0.1139910301049033,0.19947806920390576,0.018702960037076447,20616.809669081587
1682302479418602705,5,1682302479418602705,camera_1,6,0,0.6619764540048083,0.48016860072347284,1.8110406613513355,-0.9799907441535423,-0.04441599024972966,0.15719015884218218,0.11373924189430822,0.2103617626708001,0.019711068534926716,20629.618559893803
1682302479428332090,6,1682302479428332090,camera_1,7,0,0.6622409680780849,0.4798909872600992,1.8117613564616073,-0.9801381601356538,-0.04454552380522608,0.1563466600749165,0.11358083129750425,0.19092488649766892,0.017901312627624153,20631.373709729523
1682302479438503265,7,1682302479438503265,camera_1,8,0,0.6621587649857174,0.4800388043204751,1.811508365253976,-0.9800699023522992,-0.044554464433375365,0.15652211705633606,0.11392415492077404,0.2128778469050303,0.019954968610878965,20629.084576076362
1682302479448347330,8,1682302479448347330,camera_1,9,0,0.6622498626887212,0.48097544997363395,1.8118381250185966,-0.9800624880052098,-0.044526082128227354,0.15626589167096736,0.11434998345267,0.20289505954133347,0.019027261235713154,20615.911568549
1682302479458367586,9,1682302479458367586,camera_1,10,0,0.6621074423271832,0.4823990181117391,1.811628277513473,-0.9800791411438846,-0.044651355576329654,0.15665726107627104,0.11362057952652228,0.19753804372157902,0.018526323906349826,20612.951862836722
1682302479468376398,10,1682302479468376398,camera_1,11,0,0.6623922337783954,0.48455174667964623,1.8125043994098924,-0.9800936569704997,-0.044746833451386,0.15633281648879674,0.11390432367099469,0.2161613164935261,0.020298090585197024,20582.413160229447
1682302479478658676,11,1682302479478658676,camera_1,12,0,0.6623359662474222,0.48677754173029253,1.8124642498964285,-0.9800523195906473,-0.044564431315040426,0.1568128970684888,0.1136713580439084,0.20510925649432465,0.01926773491768313,20563.227598340134
1682302479488396883,12,1682302479488396883,camera_1,13,0,0.662537688948195,0.48946281704738215,1.8131782678456139,-0.9800948578357958,-0.044478650570012504,0.15654279894944936,0.11371047174457899,0.21509387285914272,0.020229717279439823,20534.065580570255
1682302479498395681,13,1682302479498395681,camera_1,14,0,0.6624305282056068,0.4920435308524026,1.8130266468648812,-0.9800247624298213,-0.044500835712124494,0.15669286898752516,0.11409857779023003,0.2164250366622582,0.020360407407573906,20512.79039494879
1682302479508328437,14,1682302479508328437,camera_1,15,0,0.6623338266356062,0.4946220700161415,1.8130076843807035,-0.9800826456022603,-0.04439702430494758,0.15589401306107692,0.11473433973250177,0.22392195189604536,0.02107228718049419,20501.238446413536
1682302479518349170,15,1682302479518349170,camera_1,16,0,0.6624125525479824,0.4969478764109781,1.8134138843604923,-0.9801413144821962,-0.044439325526891414,0.1558062634327631,0.11433528880860956,0.20760171569418162,0.019553170386625397,20482.176105793562
1682302479528406858,16,1682302479528406858,camera_1,17,0,0.6621368167446826,0.4986113995237577,1.812819072488535,-0.9801134727010677,-0.04452627419716612,0.15587059385634752,0.1144523896947618,0.20811331499135122,0.019594798122836595,20480.314299129655
1682302479538331031,17,1682302479538331031,camera_1,18,0,0.6618723734545499,0.49977939623045975,1.812197470763751,-0.9799890431078881,-0.044550086922310515,0.1565532263744934,0.11457684083372582,0.17194812290836126,0.016182743769900747,20472.724349469412
1682302479548411369,18,1682302479548411369,camera_1,19,0,0.6621485244091383,0.5007890039996179,1.8129815659817066,-0.9801858810422193,-0.04446536370446452,0.1556510113239909,0.11415442483730984,0.2003521642764099,0.01887515737884332,20467.6021510706
1682302479558382034,19,1682302479558382034,camera_1,20,0,0.6620772564476833,0.5008940702641946,1.8128405961995588,-0.980205711289137,-0.04436667860536964,0.15575462030617213,0.11388090111588028,0.18992727412842214,0.017891041432944288,20471.311291515944
1682302479568788766,20,1682302479568788766,camera_1,21,0,0.6619602381502913,0.500314233053723,1.8124876104457828,-0.9800814382802264,-0.04440701919324565,0.15626300427030093,0.1142377541855304,0.2001185896806419,0.018842234369309395,20471.02420202002
1682302479578458547,21,1682302479578458547,camera_1,22,0,0.6620303924267564,0.4992422707019544,1.812562671192783,-0.980088260194428,-0.04455674784991572,0.1561748089155504,0.11424153145984021,0.2013815424288623,0.018958808065851804,20478.428294325255
1682302479588279962,22,1682302479588279962,camera_1,23,0,0.6619788447832711,0.49753614835558907,1.8123230468862865,-0.9799945351002756,-0.04445288440807152,0.15678974545813082,0.11424372175560449,0.22127516666660085,0.02082099456482101,20486.149016836538
1682302479598400354,23,1682302479598400354,camera_1,24,0,0.6621048437986722,0.49544605303759853,1.8124824740859566,-0.9800027013307228,-0.04449936621738306,0.15673089555867714,0.11423632595681885,0.21114467841107398,0.019863511583498833,20498.647840950052
1682302479608352422,24,1682302479608352422,camera_1,25,0,0.6623668149905224,0.49307189421562075,1.8130490538413033,-0.9801232323793696,-0.04451302320190894,0.15617534318336554,0.11395745827808135,0.20664766221307218,0.0194433868886982,20515.469147902455
1682302479618518114,25,1682302479618518114,camera_1,26,0,0.6623879711140778,0.4904603549865309,1.8128696619898954,-0.9800528477803101,-0.0446060902809967,0.15657871112249183,0.1139728892797201,0.21636413934174925,0.020345460851634672,20530.417588758748
1682302479628274679,26,1682302479628274679,camera_1,27,0,0.662353281275073,0.48791528117097666,1.8126394569976694,-0.9800157420580158,-0.0445753675432403,0.1564089465437065,0.1145356860020043,0.22042865655384958,0.020712194055989466,20549.478851341526
1682302479638513326,27,1682302479638513326,camera_1,28,0,0.6623854184425031,0.4854582903759729,1.8125393012068987,-0.9801590826478057,-0.04460166775992389,0.15632017346938332,0.11341458152524857,0.2146878350758925,0.02016439739600123,20581.021603726313
1682302479648679494,28,1682302479648679494,camera_1,29,0,0.6622119328217789,0.4831506543407882,1.8118616358416106,-0.9800131033072352,-0.04463481408976657,0.15694691005874337,0.11379682834027942,0.22431195864919573,0.0210460918430468,20596.156139986124
1682302479660088062,29,1682302479660088062,camera_1,30,0,0.6621339540669093,0.48137606392693383,1.8115637242295963,-0.980045664243511,-0.04456943466265985,0.15688108012660923,0.11363268979327536,0.2343505342141725,0.021975057763939192,20616.84263382713
1682302479670102834,30,1682302479670102834,camera_1,31,0,0.6618920240012446,0.4800966690252631,1.8107785440576198,-0.9799527557902857,-0.04449421819423931,0.15717117472559086,0.11406174995012909,0.20137464016443118,0.018862839460241476,20632.39290191198
1682302479678957223,31,1682302479678957223,camera_1,32,0,0.6620694362535621,0.47978807974678606,1.811301453720667,-0.9801125272284928,-0.04450960276070119,0.1563594618757144,0.11379827728835964,0.18511924130143598,0.017347849557037547,20639.283122160472
1682302479688816547,32,1682302479688816547,camera_1,33,0,0.6621428270168623,0.4800260078236535,1.8115001577107643,-0.98011664108822,-0.04453464909074096,0.1563612148755736,0.11375062802000034,0.2039509495953098,0.019117749900722864,20633.909139874857
1682302479698406934,33,1682302479698406934,camera_1,34,0,0.6622231007755284,0.48096413795640885,1.8117698771632749,-0.9800537941656501,-0.04456982357071771,0.15648505055630105,0.11410749458638036,0.20828838797751814,0.0195324067524237,20616.497886881574
1682302479709105014,34,1682302479709105014,camera_1,35,0,0.6621372790117336,0.48241597491500987,1.811667158064296,-0.9800178105609733,-0.04472965660486857,0.15667203369086502,0.11409742618681395,0.20298818539595231,0.01903770668918271,20606.55336485069
1682302479718291759,35,1682302479718291759,camera_1,36,0,0.6622893064464174,0.4844357601199142,1.8121698338958123,-0.9800576479262312,-0.04465056263664922,0.15665391423783306,0.11381074268934276,0.20193631428992376,0.01895594374364182,20585.900377741436
1682302479728395938,36,1682302479728395938,camera_1,37,0,0.6622228469515788,0.48669570627484465,1.8121696316511946,-0.9799784317950025,-0.04450071011329311,0.156742749812601,0.11442757708351835,0.20164401188958436,0.018934507097422205,20563.21904667944
1682302479738428354,37,1682302479738428354,camera_1,38,0,0.6623046057756571,0.4893108073820174,1.8125517407049747,-0.979978576560557,-0.044556101338016726,0.15682790775418096,0.11428801628056656,0.206722293572966,0.019428206117221142,20537.615161384212
1682302479748437166,38,1682302479748437166,camera_1,39,0,0.6624284251532436,0.49209455377124345,1.8131248707525398,-0.9800498063565243,-0.04464665383545593,0.15613603150454564,0.11458879974870058,0.23276222177082673,0.021897643545993304,20514.402351735742
1682302479758412599,39,1682302479758412599,camera_1,40,0,0.6623055053384563,0.4945934633553899,1.8129082620126244,-0.9800836858581653,-0.044516857868727555,0.15635258358317086,0.11405300384924673,0.20528379327151924,0.019317690159808783,20503.55056208396
1682302479768386840,40,1682302479768386840,camera_1,41,0,0.6624680778973734,0.4969654927291698,1.813536059361877,-0.9802130248954426,-0.044569552118665784,0.1550687312041775,0.11467200814494574,0.2138392809429206,0.02014180511291157,20487.23167357722
1682302479778399944,41,1682302479778399944,camera_1,42,0,0.6618859843469801,0.4984030342776085,1.8120986227910456,-0.980011220851274,-0.04457239145720262,0.15661761488407983,0.11429012045405988,0.2004673575866036,0.01886116221295253,20486.52949227125
1682302479788407564,42,1682302479788407564,camera_1,43,0,0.6619862495902781,0.49986711892495983,1.8124948453969862,-0.9800866819424948,-0.04447143900993296,0.15583136026106398,0.11475615081782523,0.21165007399395108,0.01992528060406412,20475.08299237676
1682302479798483610,43,1682302479798483610,camera_1,44,0,0.6621326901710989,0.5007917170786198,1.8129488230604895,-0.9801977851332545,-0.044457036377520416,0.15562264747794383,0.11409410821048471,0.20486118650296703,0.019299382940423968,20469.38756149984
1682302479808306694,44,1682302479808306694,camera_1,45,0,0.6621224909565953,0.5009243649734302,1.8129183000045803,-0.9801820928802465,-0.04440662062833244,0.1555684373597787,0.11432225565789032,0.20326336444122717,0.019148347933864097,20467.36645221524
1682302479818320035,45,1682302479818320035,camera_1,46,0,0.6619848580917764,0.5003334932880781,1.8125823251745576,-0.9800998755419222,-0.04433977992440782,0.15649517534029384,0.11378698508254001,0.2138063058955595,0.020134328775721393,20470.2483113287
1682302479828343629,46,1682302479828343629,camera_1,47,0,0.6621677522296114,0.4993701042549498,1.8129725787627733,-0.9801499682654227,-0.044388010947744874,0.15604473925909382,0.1139551821680586,0.2352554215467535,0.022158777138585273,20474.237075866666
1682302479838305234,47,1682302479838305234,camera_1,48,0,0.662033114801141,0.49758716496861016,1.8125245388976567,-0.9800576844744256,-0.044384140942063895,0.15674279463043767,0.11379226453016282,0.2065034225815907,0.019435716452190936,20487.495876456265
1682302479848126411,48,1682302479848126411,camera_1,49,0,0.6624065251976576,0.4956607323961076,1.8132911711528557,-0.9801357409594281,-0.044227840044316284,0.15616193202178874,0.11397928954923976,0.21547979750903323,0.020289347674965694,20492.000401923553
1682302479858411788,49,1682302479858411788,camera_1,50,0,0.662346550759689,0.4930611503408954,1.8130129416132228,-0.980047869932378,-0.04444435391136107,0.1564848074288845,0.11420760522117293,0.18604948319261894,0.017504336644170854,20508.964247826258
1682302479868127346,50,1682302479868127346,camera_1,51,0,0.6621810685553939,0.4903279253782032,1.8122956281044362,-0.9799944887135819,-0.04452149375244804,0.15712675840243326,0.1137533317270286,0.21162333118263632,0.01988844951215375,20536.891964199953
1682302479878583192,51,1682302479878583192,camera_1,52,0,0.6622690703347931,0.48784078807117104,1.812411599118333,-0.9800127586193843,-0.044566937808352136,0.1567642245654966,0.11407786329516063,0.2212470433441922,0.020785167408592715,20554.023127928147
1682302479888285160,52,1682302479888285160,camera_1,53,0,0.6623712895543822,0.4854196741642555,1.8124685977016024,-0.98002580082649,-0.04460530300936965,0.1566792947916159,0.11406750300344676,0.2010277088265866,0.01887920632394672,20570.148111249084
1682302479898427724,53,1682302479898427724,camera_1,54,0,0.6621523485498383,0.4830944253788007,1.8117391649538401,-0.9800192518447202,-0.044619381928519074,0.15653015556587094,0.11432273251001472,0.20678042975487188,0.019396510820739454,20600.431607394243
1682302479908332586,54,1682302479908332586,camera_1,55,0,0.6621589940866268,0.48139580667010134,1.8116652737550978,-0.9800500720014743,-0.04459158200943678,0.1566876449372848,0.11385266403474441,0.19950564223108813,0.018708453085439423,20615.605065592903
1682302479918504238,55,1682302479918504238,camera_1,56,0,0.6619492587181239,0.48014287205470196,1.8109470730098045,-0.9800135405332826,-0.044570737172777514,0.1568928452787747,0.11389269010619502,0.21123422210803255,0.019790023314298823,20634.70564855438
1682302479928345203,56,1682302479928345203,camera_1,57,0,0.6624165291784704,0.4800180647832825,1.812195085139125,-0.9801654328006132,-0.04450031906716825,0.15603251455173875,0.11379499263310494,0.19321343576302752,0.01812406277014724,20623.866418383775
1682302479937880277,57,1682302479937880277,camera_1,58,0,0.6621898498578657,0.4800481825308615,1.8116139869329924,-0.9801153320530958,-0.04446378828706493,0.15652823497421553,0.11355975986884476,0.2047411153325811,0.019194991113608544,20630.606712314642
1682302479948283433,58,1682302479948283433,camera_1,59,0,0.6623058256239278,0.4810289498858228,1.8120075073362236,-0.9800859176807131,-0.04458872140549652,0.15601425923800152,0.11446829605526285,0.19376003986690193,0.01817318373935795,20614.85615861765
1682302479958709955,59,1682302479958709955,camera_1,60,0,0.6620983229966335,0.48239965708338645,1.8115288507049732,-0.9800232566155064,-0.044563407982506395,0.1567864860167681,0.11395840014775457,0.2358088247710839,0.02211379268834169,20608.996386830695
1682302479968328714,60,1682302479968328714,camera_1,61,0,0.662307520846047,0.48446703542627445,1.812259526671266,-0.9800754159155998,-0.04483156067091126,0.15624164603478602,0.11415278502960477,0.19434791815001518,0.018243895053630076,20586.933495535748
1682302479978400230,61,1682302479978400230,camera_1,62,0,0.6624504047985911,0.48683745919317856,1.8127757429734739,-0.9801088283161105,-0.04457003848697156,0.15588916605727168,0.11444983281796144,0.2087031552218832,0.019609235108542296,20562.65724548581
1682302479988475084,62,1682302479988475084,camera_1,63,0,0.6624593091418585,0.4894232934678603,1.8129875399967017,-0.980070715895339,-0.044483319661439064,0.15653645243838765,0.1139252613527854,0.2084816232090816,0.019603129355085524,20536.29705236376
1682302479998541831,63,1682302479998541831,camera_1,64,0,0.6625696015621382,0.492187223089075,1.8134958169755433,-0.9800820655293537,-0.04456281354849024,0.1560490898343457,0.11446388966932022,0.20268038503127173,0.019075187026379597,20508.788903654426
1682302480008351564,64,1682302480008351564,camera_1,65,0,0.6622249019495738,0.4945226950449426,1.8127085215940257,-0.980013692359687,-0.044539285301210936,0.15673514921671197,0.11412058470059118,0.20646621636115015,0.01942505494745344,20501.519885069112
1682302480018521070,65,1682302480018521070,camera_1,66,0,0.6623104648401519,0.4968602024658713,1.8131891005717387,-0.9801096815869326,-0.04449167661291707,0.15616507114000902,0.11409633354130692,0.20190364314476028,0.019012250008638456,20484.680861033034
1682302480028302907,66,1682302480028302907,camera_1,67,0,0.6618811893308015,0.4983862635574055,1.81211086986909,-0.9800277553464869,-0.04445209673909696,0.15673216018802907,0.11403788760240376,0.2160222853999585,0.02032574409619316,20487.3608069165
1682302480038300514,67,1682302480038300514,camera_1,68,0,0.6618611758272729,0.4997665900292804,1.8121693384425155,-0.9800495318471589,-0.044719819988752386,0.15593381672178105,0.11483770125231604,0.20204624254256487,0.019013980166354437,20480.097915322058
1682302480048069238,68,1682302480048069238,camera_1,69,0,0.6620380223430786,0.5007220768521885,1.8127071358077538,-0.9801523831226105,-0.044524738143330744,0.1555087194924671,0.11461191785389557,0.20645041210809723,0.019442858775936673,20471.121038782294
1682302480058291912,69,1682302480058291912,camera_1,70,0,0.6621252436706341,0.5009335760644107,1.8129339096815502,-0.9802270455961385,-0.04456547698357479,0.15555962170927704,0.11388617754916176,0.21091976045863703,0.019870653837619528,20471.812334033428
1682302480068354606,70,1682302480068354606,camera_1,71,0,0.661978082191536,0.5003171771167344,1.8125320840115458,-0.9801374254162457,-0.0443773244593573,0.15604943436732205,0.11406074875206215,0.19261668500257656,0.0181366747045629,20475.333434526805
1682302480078396320,71,1682302480078396320,camera_1,72,0,0.6619296950151864,0.4991695584035254,1.8123095984033872,-0.980087205525858,-0.044249274099601034,0.1566094905666614,0.11377406897278343,0.22228329780045897,0.02092268395851523,20482.425942838316
1682302480088382482,72,1682302480088382482,camera_1,73,0,0.6621871220626018,0.49768940801757977,1.8129096199034669,-0.9800784923727806,-0.04448906348465864,0.15645262618056444,0.11397125856881785,0.20687192160403356,0.0194780186677529,20481.274527187918
1682302480098443031,73,1682302480098443031,camera_1,74,0,0.6623504739239784,0.4956269962329138,1.8131556105833972,-0.9801434065046452,-0.04429129808655715,0.15627884910896178,0.11372820635381525,0.20765191433019936,0.01954969336702858,20496.021071205618
1682302480108494043,74,1682302480108494043,camera_1,75,0,0.6623785726868633,0.4930829106883278,1.813075595328473,-0.9800567402678411,-0.04453594282215889,0.15587769250779535,0.11492380358724728,0.22369248571339995,0.021045845797462926,20509.107401579728
1682302480118343353,75,1682302480118343353,camera_1,76,0,0.6624656000032341,0.49056521474575754,1.8131289617689992,-0.9801138764394516,-0.04459214649245563,0.15617993823698673,0.1140006867273965,0.21598766854731366,0.020315140727782278,20530.509922959376
1682302480128344535,76,1682302480128344535,camera_1,77,0,0.66235372087594,0.48790955632435057,1.812663714921621,-0.9800801259449372,-0.044499081878596046,0.15672148316061627,0.11358325209138259,0.20900256972527131,0.01964114172701527,20554.21992944646
1682302480138553380,77,1682302480138553380,camera_1,78,0,0.6624692333258791,0.48550323006123125,1.8127432276773459,-0.9800940300579489,-0.04448978383206036,0.15650890145872903,0.11375990129886206,0.21529648877913132,0.02022594969045576,20569.771565507515
1682302480148494482,78,1682302480148494482,camera_1,79,0,0.6621142190211255,0.4830553609099291,1.8116130828387147,-0.9799694129604228,-0.04469363324812899,0.15725399535098772,0.11372602936547858,0.20885532448301092,0.019590676272912895,20598.026436090477
1682302480158498525,79,1682302480158498525,camera_1,80,0,0.6620946090057198,0.4813339731785935,1.811457696992019,-0.9800363229120586,-0.04451350633807295,0.15699172086133312,0.1135823626603129,0.20294464082689956,0.019027780130253916,20618.191360039404
1682302480168400287,80,1682302480168400287,camera_1,81,0,0.6619585056204262,0.48015932817551016,1.8109943383525375,-0.9800333266520604,-0.044538134783429016,0.15707838585040376,0.11347869359461515,0.1962503989925608,0.018387984123801986,20635.09923035348
1682302480178417444,81,1682302480178417444,camera_1,82,0,0.6622330574724022,0.4798918038266356,1.8117222412456397,-0.9801087696123165,-0.044535874613593325,0.15673513064761088,0.11330249080364355,0.2071326652658172,0.019421676734865046,20628.773899344487
1682302480188465118,82,1682302480188465118,camera_1,83,0,0.6622142148916763,0.4800724957946003,1.8116856037770928,-0.980144919109011,-0.04440806915575761,0.15633088035156573,0.11359804922247661,0.19928756944136694,0.018684732810518096,20631.7359640632
1682302480198269367,83,1682302480198269367,camera_1,84,0,0.662069551116948,0.4808702140539385,1.8113672008860267,-0.9800376392459802,-0.044573466261327924,0.15659764356922654,0.11409035802898436,0.20676494733197615,0.01938107625293974,20624.066125252524
1682302480208265066,84,1682302480208265066,camera_1,85,0,0.6618966945011084,0.4822220808788903,1.8109453084177107,-0.9799381327520384,-0.044670185259007206,0.15712023466605698,0.11418871391629518,0.22704086656449363,0.02127778873305138,20614.577106566514
1682302480218700885,85,1682302480218700885,camera_1,86,0,0.6623692900819536,0.48452389852333355,1.8124496945825679,-0.9800494934560239,-0.04455991058837539,0.1563869773417866,0.11428262362602032,0.18235547764925286,0.017121649872772638,20579.136739875652
1682302480228239059,86,1682302480228239059,camera_1,87,0,0.6622146808389169,0.4867046216552701,1.812194983873892,-0.980034431926646,-0.04455284614169839,0.15679285377346833,0.11385761785872081,0.2070413408218883,0.019442796411548134,20568.061669513587
1682302480238542079,87,1682302480238542079,camera_1,88,0,0.662366239785802,0.4893402738782883,1.8127391764742045,-0.9801254664925262,-0.044528789745753104,0.15642768239009652,0.11358537317211942,0.21950811211718246,0.020634890403368206,20547.242835193872
1682302480248398303,88,1682302480248398303,camera_1,89,0,0.6624483664320144,0.49211300468439373,1.8131578368988233,-0.98005574614707,-0.04454045418476703,0.15631089833907208,0.11434065526118324,0.23658442072337493,0.02225905847875555,20513.388992244145
1682302480258331060,89,1682302480258331060,camera_1,90,0,0.6623455266245946,0.4946443612991626,1.8130917340242048,-0.9800302650106276,-0.04454828737038344,0.15600100424492994,0.11497746053091473,0.21558858786011115,0.020289335876254627,20495.3022651996
1682302480268421173,90,1682302480268421173,camera_1,91,0,0.6623812353148444,0.4968924853044026,1.813254253702961,-0.9801835684044609,-0.044518906719505674,0.1554375544977666,0.11444389816041527,0.21666379709495232,0.020402699741265944,20490.031906842138
1682302480278387546,91,1682302480278387546,camera_1,92,0,0.6621157739444035,0.4985567250545181,1.8127212002595403,-0.980107889802487,-0.044473140922360994,0.1557730042239048,0.1146535443781628,0.20998838188825175,0.01976885951227401,20481.88160616357
1682302480288182497,92,1682302480288182497,camera_1,93,0,0.6618349229164553,0.4997348156561418,1.812046681634729,-0.9800368990407471,-0.04460367236596741,0.15643510041288908,0.11430769129361089,0.20245818921830505,0.019051892913429274,20480.51980913627
1682302480297592163,93,1682302480297592163,camera_1,94,0,0.6620390049571303,0.5007177871332732,1.8126958973335483,-0.9801292492740291,-0.04436138858284177,0.15615818391784989,0.11398834815896405,0.2059809915954247,0.019400442448266386,20467.910651036065
1682302480307720661,94,1682302480307720661,camera_1,95,0,0.6620848110062332,0.500914495972394,1.8128336101974536,-0.9802103629858624,-0.04440596676163259,0.15546299003010103,0.11422352271747473,0.19250676012597978,0.0181331597952224,20472.026533344644
1682302480318730831,95,1682302480318730831,camera_1,96,0,0.6621073895748181,0.5004433871185916,1.8129202038072918,-0.9801770721438332,-0.04435089365936016,0.15596479811126152,0.11384589243917655,0.21565897419350222,0.020315558966933524,20470.169464802144
1682302480328587293,96,1682302480328587293,camera_1,97,0,0.6620021426734276,0.49923894694263904,1.81250636895674,-0.9800155577961859,-0.044435454334836644,0.15678893276467518,0.11407115077004157,0.2239142760518007,0.021080508593343483,20471.826449073378
1682302480338586568,97,1682302480338586568,camera_1,98,0,0.6621599551860283,0.49765340660466173,1.8128667318696585,-0.9801457799936479,-0.044317149839473845,0.15594158153983187,0.11415981489825996,0.20297228964045644,0.019108842902838402,20488.544141616316
1682302480348429203,98,1682302480348429203,camera_1,99,0,0.662418892830911,0.4956681965558551,1.8133248824426587,-0.9801194345257962,-0.04444176312819632,0.15609496802619072,0.11412793133932307,0.21447979350341484,0.020195373219409316,20490.7259042788
1682302480358443975,99,1682302480358443975,camera_1,100,0,0.6622594035117062,0.4929703896670877,1.8126896566400985,-0.9800111335238879,-0.044513610922230114,0.15654077490255827,0.11441897746787967,0.2179905878729187,0.020502669614903792,20512.614268680692
1682302480368596315,100,1682302480368596315,camera_1,101,0,0.6624054274280544,0.4904889420603997,1.8128723922948873,-0.9800686720962746,-0.04455793838075275,0.15646330283730742,0.11401413494801113,0.22463041997980326,0.021123021138179685,20531.278001367347
1682302480378486871,101,1682302480378486871,camera_1,102,0,0.6624260412330892,0.4879800279234758,1.8128827128724279,-0.9801057303255859,-0.04461429207007416,0.1560783493820091,0.11420101216812277,0.22303828631993383,0.0209630387497532,20552.858915202327
1682302480388407707,102,1682302480388407707,camera_1,103,0,0.6622185387977664,0.4853259478752984,1.8121131333562017,-0.9800113718876614,-0.04461953417825423,0.1569412619718461,0.1138255174873541,0.18945506506133825,0.01778571592429381,20577.001488075122
1682302480398461580,103,1682302480398461580,camera_1,104,0,0.6621641430820641,0.48309822050579493,1.8118013650107998,-0.980030680066504,-0.04467826723983502,0.15677098976867335,0.1138708713050985,0.1982532309484668,0.018598759736655757,20600.197894162025
1682302480408321619,104,1682302480408321619,camera_1,105,0,0.6621316297966743,0.4813682674307204,1.811569968928425,-0.9800264262373766,-0.04454261250081201,0.15665568615409137,0.11411904110878796,0.1976250628940761,0.01852970871609773,20615.42943052214
1682302480418297052,105,1682302480418297052,camera_1,106,0,0.6618757378202379,0.48009286598079154,1.8107484942928807,-0.9800179852224934,-0.04457188144011305,0.15673688040854156,0.11406860367836479,0.19659978372510523,0.01841415995911744,20639.906153799966
1682302480428301811,106,1682302480428301811,camera_1,107,0,0.6620095443345454,0.47971243143293707,1.8110594373676039,-0.9800134568354493,-0.04457123776139312,0.15692629465153435,0.11384712219810536,0.1952635178458877,0.018294705025402352,20634.982245680883
1682302480438435792,107,1682302480438435792,camera_1,108,0,0.662302287668317,0.4801314747344777,1.8119131288490276,-0.9801497030734617,-0.044486134194752606,0.15606326294215794,0.11389381629069405,0.20924835483310744,0.019622687050156927,20627.62967226305
1682302480448298931,108,1682302480448298931,camera_1,109,0,0.6620759389593112,0.4808697187500169,1.8113777825588295,-0.9800429781742915,-0.04453829675902977,0.15651852713005085,0.1141667715147857,0.21230994613142684,0.01990086509158152,20624.283218797646
1682302480458559751,109,1682302480458559751,camera_1,110,0,0.6619826678560037,0.4823099802861076,1.8112628084277194,-0.9800123308125847,-0.044496462667775794,0.15688560044701177,0.11394211090602543,0.18859014485497028,0.017679865255268892,20614.186512369673
1682302480468317270,110,1682302480468317270,camera_1,111,0,0.6621690321970902,0.48435805983369734,1.8118706322861418,-0.9800439145894312,-0.04457231927473617,0.1565003450764855,0.11417038066694683,0.20886430103564635,0.019598928961260788,20591.4931912761
1682302480478461027,111,1682302480478461027,camera_1,112,0,0.6623556992237629,0.4867919153106581,1.81256951991401,-0.9800341320135174,-0.04466950257940982,0.15665129928744975,0.11400923672831759,0.21443370741326362,0.020144921209751247,20560.169904109793
1682302480488385677,112,1682302480488385677,camera_1,113,0,0.6625359875982839,0.48949987832841046,1.8132185931450613,-0.9801650699052786,-0.04441471082955631,0.15604852880339345,0.11380960353943673,0.22314561333041638,0.020987057929665612,20539.859733390855
1682302480498363018,113,1682302480498363018,camera_1,114,0,0.6622850274047203,0.49197829583596103,1.8126881709379092,-0.9799830044665659,-0.04451656574595023,0.15672439575915675,0.1144073865831943,0.21374895714689046,0.020100453766734718,20516.7993977688
1682302480508512735,114,1682302480508512735,camera_1,115,0,0.6620759737429116,0.4944268934615484,1.8123578878622757,-0.9800459453628547,-0.04433459742017353,0.15696865246834668,0.11360119097831213,0.2060910354484804,0.019383413663363866,20511.59671796672
1682302480518316030,115,1682302480518316030,camera_1,116,0,0.6622619367887669,0.49680234364669895,1.8129683797061609,-0.9800910914096657,-0.044606484487479545,0.15604776224786326,0.1143713687008816,0.2047147033154033,0.019271987740253176,20488.042672736345
1682302480528393507,116,1682302480528393507,camera_1,117,0,0.6619259338587187,0.4984279525882141,1.8122237442728608,-0.9800421959318039,-0.044408653567572724,0.1564646042859846,0.11429782713207444,0.22676161985145882,0.021338248194116914,20486.07155798329
1682302480538372755,117,1682302480538372755,camera_1,118,0,0.661980647890487,0.49986944452567283,1.8125078577121383,-0.9800670358764206,-0.04453901583121015,0.15618757432162994,0.11441294893813089,0.193491626821924,0.018216632858941706,20473.143694397997
1682302480548350095,118,1682302480548350095,camera_1,119,0,0.6620018446028778,0.500696736433074,1.8125974008579073,-0.9801633240119999,-0.0444237944038249,0.1560400527297541,0.1138327136486241,0.20098320266697556,0.018927667116773704,20473.615781716766
1682302480558513402,119,1682302480558513402,camera_1,120,0,0.6621475701565671,0.50093651957905,1.8129630172934046,-0.9802380743624892,-0.044498612581048105,0.15508205983718573,0.11446722572481713,0.19137291505467147,0.01802811863582578,20472.288642703796
1682302480568393707,120,1682302480568393707,camera_1,121,0,0.6620614813305774,0.5004048524711748,1.812779686462659,-0.9801414301618524,-0.04449590758747168,0.1559065911601784,0.11417541732377749,0.19515141134615988,0.018379950451682062,20470.688868050693
1682302480578465938,121,1682302480578465938,camera_1,122,0,0.6618543088860273,0.4991387721422548,1.8121362929322575,-0.9800719425954927,-0.044443796218836366,0.1562428945615641,0.11433238479879668,0.21225611254340038,0.01997323921104302,20486.137516482617
1682302480588447093,122,1682302480588447093,camera_1,123,0,0.662188731834473,0.4976688941632554,1.8128516963170151,-0.9800960878968319,-0.04444285496916177,0.156142897265769,0.11426235935323294,0.20975298981647938,0.019747385997194493,20484.02369110041
1682302480598415851,123,1682302480598415851,camera_1,124,0,0.662251624664713,0.4955293406599822,1.8129047117958332,-0.9800380947083701,-0.04451999628975748,0.15638129547973828,0.11440364187746238,0.1898610464995727,0.017868350129663067,20493.232620724015
1682302480608379602,124,1682302480608379602,camera_1,125,0,0.6623931362792245,0.49311957009596363,1.813140185952248,-0.9800588789134224,-0.04452664126626895,0.15636670042068843,0.1142428425769317,0.21734252100577578,0.0204516488294767,20507.287465996214
1682302480618571519,125,1682302480618571519,camera_1,126,0,0.6622295942845043,0.4903688747857963,1.8124384466511396,-0.980082982015332,-0.04439007747720815,0.156850557156251,0.11342297873568467,0.21265509497607127,0.019988688301240717,20541.60638375859
1682302480628327131,126,1682302480628327131,camera_1,127,0,0.6623972128786446,0.4879600773051006,1.8127640064430075,-0.9801296713779101,-0.04462959892657059,0.15608890209081072,0.11397491315359212,0.21801093721296638,0.020488346340558454,20557.510696845944
1682302480638601064,127,1682302480638601064,camera_1,128,0,0.6624853575685408,0.48551971121883697,1.8128262208665968,-0.9800565431071541,-0.04460145021832942,0.1565831531718576,0.11393682062457061,0.21511176245985553,0.02020998429139088,20565.096306404226
1682302480648168802,128,1682302480648168802,camera_1,129,0,0.6621948236844155,0.483118754989718,1.8118581977246355,-0.9800236125787797,-0.04467194059728435,0.15648831482374928,0.11432210562675063,0.19322587363421917,0.01812712263744464,20598.49934147089
1682302480659776449,129,1682302480659776449,camera_1,130,0,0.6622381500295833,0.4814516235560514,1.8118856901904896,-0.9800739908322068,-0.04459475483927126,0.15665724042906978,0.11368724359489615,0.20251096331048757,0.018995161644489115,20612.824700271944
1682302480669652462,130,1682302480669652462,camera_1,131,0,0.66185472847755,0.480108661010088,1.8107408902421014,-0.9799154903310604,-0.04451039507821403,0.15778145316660036,0.11353179984416184,0.20858445757767186,0.01953931850755605,20629.21276032308
1682302480678288221,131,1682302480678288221,camera_1,132,0,0.6622819795655475,0.47992634799495054,1.8118251596702855,-0.9801079935143415,-0.044559473522273886,0.1563723337073261,0.11380012135157873,0.1998887080117129,0.018743117783317283,20626.83484455757
1682302480688518047,132,1682302480688518047,camera_1,133,0,0.6623073137607359,0.48013818308922573,1.8119346769994864,-0.9801719361672003,-0.04463047371371874,0.15617413043725858,0.11349333614136536,0.20363333506975323,0.019097340279637175,20629.5183161432
1682302480698406696,133,1682302480698406696,camera_1,134,0,0.6621478958449021,0.48092310068538596,1.8115827877400907,-0.9800386769434805,-0.04480539468702784,0.1564180310161337,0.1142368936677112,0.2095779252704233,0.01964876939260906,20620.43820869014
1682302480708454608,134,1682302480708454608,camera_1,135,0,0.6621303114192535,0.4823957954615529,1.8116085149680639,-0.9800219491928517,-0.04468448070207657,0.15676442538868343,0.11395258319663291,0.19698839873308316,0.018474255479135716,20607.80078210647
1682302480718461513,135,1682302480718461513,camera_1,136,0,0.6622696464826028,0.4844369712263719,1.8121955854830445,-0.9800336014452543,-0.04458149749760343,0.1564485646833636,0.11432618566029006,0.18756331340409815,0.01760563498327336,20583.67972333718
1682302480728407382,136,1682302480728407382,camera_1,137,0,0.6624033560535023,0.4868114343174041,1.8126667746101697,-0.9800332728751048,-0.04467509992533292,0.15675251700095708,0.1138752296078323,0.20515538461040705,0.019275671075480515,20557.701832571885
1682302480738344192,137,1682302480738344192,camera_1,138,0,0.6622269290975452,0.4892685835897257,1.81236004811655,-0.9799713626666537,-0.044486948837755204,0.15701570158614864,0.11411883802325755,0.1871996562113054,0.017589910225819863,20540.92874938155
1682302480748689651,138,1682302480748689651,camera_1,139,0,0.6624620437941862,0.49213222117598554,1.8132378955024584,-0.9801093457496429,-0.04455156723100987,0.15627874067638045,0.11392007480717625,0.20692995243007317,0.019470743478454986,20516.90187025559
1682302480758543252,139,1682302480758543252,camera_1,140,0,0.6621087086695422,0.4944599010349936,1.8124148894405794,-0.9800441099751718,-0.04441529934597625,0.15650692221551418,0.11422086930858076,0.22398943087318912,0.021066641047602603,20510.627016126637
1682302480768441438,140,1682302480768441438,camera_1,141,0,0.6621715758356641,0.4967258636713754,1.8127120160671366,-0.980090720886554,-0.04438983368484473,0.15610893567851505,0.11437535442055842,0.20264576451154426,0.01907198091862296,20492.884786196402
1682302480778386116,141,1682302480778386116,camera_1,142,0,0.6620866856918368,0.49856146671636137,1.8127099520775614,-0.9801326290530887,-0.044498649903551325,0.1557704462141603,0.11443543030234586,0.2109653852530755,0.019860718458179497,20484.79719533702
1682302480788342475,142,1682302480788342475,camera_1,143,0,0.6618882241245688,0.4997816745818473,1.812241486346194,-0.9800443543998687,-0.044634799827411954,0.15631404258939674,0.11439719464511224,0.18047568330075592,0.0169861657860588,20477.429479330778
1682302480798657894,143,1682302480798657894,camera_1,144,0,0.6619356671900761,0.5006396580135302,1.8124043061470858,-0.9801182375383845,-0.04441515906726443,0.15630645512853678,0.11385879928592096,0.18467110220808536,0.01738783431116745,20473.5888008537
1682302480808333635,144,1682302480808333635,camera_1,145,0,0.662084818819929,0.5009062317577495,1.812827674164687,-0.9801846520457271,-0.04447041204801842,0.15559129683820955,0.11424438145694746,0.20685176161350682,0.019484615690169457,20469.867265610614
1682302480818315744,145,1682302480818315744,camera_1,146,0,0.6619291332613935,0.5003000503438849,1.8123916247642367,-0.9801339435161941,-0.04432075729935622,0.15586579491031233,0.11436335609268504,0.2007110978011042,0.01889542640249822,20477.903697635516
1682302480828469753,146,1682302480828469753,camera_1,147,0,0.6620811010977422,0.49930155218451794,1.8127310663372032,-0.9801373214511423,-0.04427753956925159,0.15610691249134373,0.11402176310114445,0.22058214718708768,0.020770992947734917,20478.057988050852
1682302480838486671,147,1682302480838486671,camera_1,148,0,0.6622457933737497,0.4977246156900138,1.8130856238070379,-0.9801889650817854,-0.044300510212656616,0.15572832420316554,0.11408657487921388,0.20979251235257834,0.019755700095947987,20487.55127078481
1682302480848484039,148,1682302480848484039,camera_1,149,0,0.6622929266017412,0.495562952475402,1.8130036970383978,-0.9800641067765069,-0.04446040127387639,0.15630639599613894,0.11430629859124962,0.2015796999912709,0.018973652859280127,20493.046887630124
1682302480858592748,149,1682302480858592748,camera_1,150,0,0.6623070842306386,0.4930196424314257,1.8128595685681728,-0.9800543086597538,-0.044542836997265196,0.15641575411259354,0.11420857942849912,0.20625755161745474,0.019402695040044583,20513.139623716706
1682302480868358612,150,1682302480868358612,camera_1,151,0,0.6623161156059274,0.49042089985427184,1.812618607949535,-0.9800532428171507,-0.04452916811802132,0.15619115842110115,0.11452998062244985,0.2152589228353463,0.020234620731657584,20535.85084931821
1682302480878409624,151,1682302480878409624,camera_1,152,0,0.6624717947022365,0.48801058901514693,1.8129601007626022,-0.9800719860793813,-0.04448473268802775,0.15630122200868116,0.11423632810400058,0.23093443165998906,0.0217077754391518,20546.9387603628
1682302480888277292,152,1682302480888277292,camera_1,153,0,0.6624035264709447,0.48544917037391194,1.8126026311234105,-0.9800144373507352,-0.04471745332629356,0.1567784277608366,0.11398498383985967,0.21226032741833478,0.019937275346151764,20566.62597073475
1682302480898115396,153,1682302480898115396,camera_1,154,0,0.6622560655918184,0.48316328852162693,1.812024989171025,-0.9800363306030047,-0.044692404228409144,0.15669076527630849,0.11392709853062727,0.2116373929893598,0.019859294989897375,20595.61306088162
1682302480908391475,154,1682302480908391475,camera_1,155,0,0.6621002285303905,0.48135799197223067,1.8114904122619526,-0.9800656611794875,-0.04454115413837669,0.15658544213454031,0.11387881574887453,0.19348705193260685,0.01814035502758791,20620.836869725026
1682302480918167591,155,1682302480918167591,camera_1,156,0,0.6619577937292558,0.48014394557873546,1.8109557474266604,-0.9799979503746767,-0.044498444386587004,0.1572372305846732,0.1135797474317878,0.21052940690424293,0.01972539839571996,20632.272853213126
1682302480928099393,156,1682302480928099393,camera_1,157,0,0.6622879928922268,0.4799346698659762,1.8118389471097516,-0.9801430480398236,-0.044448725453405426,0.1560959169717569,0.11392094140024586,0.2063019128399901,0.01934431792096965,20629.558963448508
1682302480938372611,157,1682302480938372611,camera_1,158,0,0.6622790385876941,0.4801240493913017,1.8118578323175933,-0.9801467175059171,-0.044424226153902326,0.1563478789633313,0.11355281166343144,0.20204019726952538,0.018946591798657757,20627.940760434372
1682302480948301315,158,1682302480948301315,camera_1,159,0,0.6621295701099398,0.48090246279843135,1.811512823264618,-0.9800166675418167,-0.04458840238743914,0.15656345525704032,0.11431137384680932,0.19397663121344522,0.018184757748173408,20618.95232962376
1682302480957944393,159,1682302480957944393,camera_1,160,0,0.6620214447949512,0.48231770302762833,1.8113278161615194,-0.9799763729347603,-0.04473555099157089,0.15689242056574235,0.1141481814841328,0.20051353878807276,0.01879878817230471,20610.23140247538
1682302480968261003,160,1682302480968261003,camera_1,161,0,0.6624197330200889,0.48455409965983304,1.8125475535860927,-0.9800760329181615,-0.044626026216363385,0.1565161769226353,0.11385154300692472,0.20365957217290998,0.019125377077083595,20579.087214250125
1682302480978373050,161,1682302480978373050,camera_1,162,0,0.6623692252162368,0.4867746223237998,1.8125190930008472,-0.9800182602236586,-0.04463775813776977,0.15660747338314257,0.11421812228002917,0.20474389579612762,0.01923332082124255,20559.409904294647
1682302480988366603,162,1682302480988366603,camera_1,163,0,0.662283253374022,0.48930602986684973,1.8124876820413875,-0.9800258792228068,-0.04454341906581982,0.1568812793653396,0.11381311021224845,0.20672145177377388,0.01942775912066614,20543.10651649476
1682302480998402833,163,1682302480998402833,camera_1,164,0,0.6624850203348593,0.49216555965482245,1.8132367139094419,-0.9800727041615608,-0.044495733916823675,0.15623793981543485,0.11431242444667883,0.23324997362215072,0.021947424566392565,20512.704006307522
1682302481008379697,164,1682302481008379697,camera_1,165,0,0.662279610147826,0.4945647287807994,1.8128375730388935,-0.9800937128409161,-0.04446661113188296,0.15628115651108235,0.11408433136812712,0.2230160636245273,0.02098485128433456,20505.924694493177
1682302481018367290,165,1682302481018367290,camera_1,166,0,0.6621618504507375,0.4967396843478153,1.8127186968292763,-0.9800659519898494,-0.04444611309972518,0.15635453202246338,0.11423017594573404,0.21134852949762717,0.01989182476173442,20490.474981304265
1682302481028301239,166,1682302481028301239,camera_1,167,0,0.6621179104225565,0.4985641134964759,1.8127793706095177,-0.980140202412399,-0.0444707911234687,0.1561456516822122,0.11386864279761931,0.21845709008630365,0.020569327098625086,20483.41722943145
1682302481038326978,167,1682302481038326978,camera_1,168,0,0.6619145933977444,0.49982480620122904,1.8123098525247368,-0.9800188173805279,-0.04460235039591804,0.1562803684804928,0.11467429680112659,0.2102944231010042,0.019794251432555917,20473.116371805198
1682302481048457145,168,1682302481048457145,camera_1,169,0,0.6618762652675073,0.500599114507525,1.8122418097828479,-0.9800796479532694,-0.04449025338916215,0.15635514964288905,0.11409455815819435,0.19937817886238918,0.018769116589282122,20473.85828617542
1682302481058503866,169,1682302481058503866,camera_1,170,0,0.6620387150604861,0.5008744078579247,1.8126653890315905,-0.9802280013447794,-0.044379286769876805,0.1557331877165761,0.11371331728979697,0.21367344784084707,0.020124981590294192,20476.757347604027
1682302481068320274,170,1682302481068320274,camera_1,171,0,0.6620210748434511,0.5003628905584632,1.8126484890056718,-0.980168527075247,-0.04447943492680128,0.1559638367917769,0.11387062840311829,0.20542351726908237,0.0193454300580497,20475.910253219772
1682302481078416585,171,1682302481078416585,camera_1,172,0,0.6618334369582882,0.49912384745298033,1.8120607567140161,-0.9800317772915652,-0.044567564725305715,0.1560891938826458,0.11483732505704479,0.23123465979006141,0.021756478801516908,20484.58315134211
1682302481088326692,172,1682302481088326692,camera_1,173,0,0.6622168135704017,0.497700106955593,1.8129897156978243,-0.980122198009148,-0.044353996035820534,0.1561455675148865,0.11406910953814368,0.21650133340153843,0.020386108327890284,20483.24839891097
1682302481098458051,173,1682302481098458051,camera_1,174,0,0.6623186639992446,0.49556617030733224,1.8130510095381243,-0.9801252436973992,-0.04435269673703015,0.15586512846870168,0.11442642477462178,0.20476767182117328,0.019274074436701406,20497.547364926555
1682302481108374595,174,1682302481108374595,camera_1,175,0,0.6623014869517281,0.4930324033340277,1.8128447194962862,-0.9800933937244931,-0.04466945068350527,0.15619279764406233,0.11412882947511763,0.23298849957063797,0.021917067042139585,20517.622887248403
1682302481118284463,175,1682302481118284463,camera_1,176,0,0.6623055358004648,0.49045777217443415,1.8126810706142198,-0.9800982226560331,-0.044505288697831435,0.15655945141942768,0.11364810335265504,0.20520796108758077,0.019292821642633247,20538.32348590193
1682302481128298997,176,1682302481128298997,camera_1,177,0,0.6623715522951101,0.487943792722495,1.812675850671264,-0.9800916867902963,-0.044556954934684666,0.15615253738387083,0.11424249787219817,0.23862170276697725,0.02242321464392834,20555.490667531496
1682302481138483047,177,1682302481138483047,camera_1,178,0,0.6621822026929889,0.48527959533389087,1.8119839807753348,-0.9799685833193101,-0.044533174391152924,0.1571118589976234,0.11399226222907513,0.19851973437471315,0.0186343752050238,20575.33705323701
1682302481148145198,178,1682302481148145198,camera_1,179,0,0.6622162011508902,0.48311519085255894,1.8119106530467328,-0.9800288149601667,-0.04474036186352611,0.15654589438864772,0.11417182147163212,0.203096853394527,0.019054687827452687,20598.008368949522
1682302481158341884,179,1682302481158341884,camera_1,180,0,0.6621485217952268,0.48139261165503155,1.8116232957475953,-0.9800492751245972,-0.04456395940323559,0.15622796133068187,0.11450020064837181,0.20218924770597368,0.018957528919815243,20616.909389964887
1682302481168288707,180,1682302481168288707,camera_1,181,0,0.661913456322533,0.48013118160652624,1.810869912364431,-0.9799624784209179,-0.04453573013377615,0.15738118403321807,0.11367177548048614,0.20124669949291274,0.018853692903173208,20631.119236688835
1682302481178116798,181,1682302481178116798,camera_1,182,0,0.6621952997183744,0.4798580494775893,1.8116056140217756,-0.9801117695544503,-0.04451877408818212,0.15627694867728253,0.11391449972083252,0.20764204516308382,0.019465143235943234,20632.250351273913
1682302481188677310,182,1682302481188677310,camera_1,183,0,0.6623798107985763,0.48019061777896044,1.8121158371237156,-0.9801433062753323,-0.04451477803807783,0.15639657989537034,0.11347970522041374,0.2070918056415394,0.019426079934067614,20621.99282156513
1682302481198482751,183,1682302481198482751,camera_1,184,0,0.6621675842343893,0.48092471026537575,1.8116140783274455,-0.9800022098579847,-0.044556620315847874,0.15670166090379123,0.11425832892830738,0.19426038052188233,0.01821372390679166,20615.033782164566
1682302481208314895,184,1682302481208314895,camera_1,185,0,0.6621663846588763,0.48243621112045415,1.811735903078501,-0.98007637888545,-0.04459162767855756,0.15647750034420072,0.11391518852985062,0.22446710959775373,0.021054210062293164,20609.876403383212
1682302481218336343,185,1682302481218336343,camera_1,186,0,0.6623560584882476,0.4845056957853716,1.8123760609490878,-0.9801105369062562,-0.04466991963574497,0.15582921432975513,0.1144779004281512,0.22653852246003225,0.021267846087737227,20587.14065260614
1682302481228447437,186,1682302481228447437,camera_1,187,0,0.6621417167328685,0.4866194941692151,1.8119523715744825,-0.9799966273013545,-0.044483309382912756,0.15735443720488868,0.11343468057100879,0.21717837604228407,0.020391359149323888,20569.00250811119
1682302481238399982,187,1682302481238399982,camera_1,188,0,0.6624680124962874,0.48943849217517904,1.813037544185669,-0.9800810787518741,-0.04463796759324643,0.15633263318092108,0.11405541953115074,0.2252379086567089,0.021179395235640885,20537.003391271683
1682302481248295068,188,1682302481248295068,camera_1,189,0,0.6623568572138929,0.49205632181919756,1.8128719856517703,-0.979998706169439,-0.04448634252632632,0.15662577375095418,0.11441970211362609,0.22237645421409982,0.0209160902989478,20513.798605473603
1682302481258390426,189,1682302481258390426,camera_1,190,0,0.6622718171735409,0.4945899705125799,1.8128514011860724,-0.9800747293316138,-0.04455774576556042,0.1560091375115425,0.11458307567333147,0.22086692258017138,0.02078149833291108,20504.558448069147
1682302481268287658,190,1682302481268287658,camera_1,191,0,0.6621809250566735,0.4967550502232693,1.8127845248181016,-0.9800310205381069,-0.044502097629437104,0.15625260201975888,0.1146467899754365,0.21287131507415324,0.020035593812757303,20486.24012030278
1682302481278480052,191,1682302481278480052,camera_1,192,0,0.6619384715411512,0.4984312892113151,1.8122866760285983,-0.9800702819365815,-0.0444940942369973,0.1561728890549824,0.11442266719054921,0.20915809593861923,0.019682012551913645,20488.19276319025
1682302481288370370,192,1682302481288370370,camera_1,193,0,0.6617802742768366,0.4997093061088548,1.811944088688948,-0.9800224284040655,-0.044574896497060826,0.15632867785191135,0.1145882319801994,0.2032077790936455,0.019119577806487372,20481.67087682709
1682302481298489809,193,1682302481298489809,camera_1,194,0,0.6620134857080908,0.5007022563411038,1.812585256732185,-0.9801505725982139,-0.04449153932666806,0.15563135885330787,0.11447374417398012,0.21535592584405094,0.020279620563399325,20473.057922430562
1682302481308406114,194,1682302481308406114,camera_1,195,0,0.6620856816697339,0.5008924347262298,1.8128107417246129,-0.9801755505893064,-0.04443694478939035,0.15577053417516137,0.11409114184510429,0.1887944751069881,0.01778358490318389,20469.166308095897
1682302481318029642,195,1682302481318029642,camera_1,196,0,0.6620252176561414,0.5003746395648551,1.8126884779420138,-0.9801223203884762,-0.04435395087152523,0.15636378345972432,0.1137687625869058,0.18895554903429002,0.017795792525283606,20470.058436224932
1682302481328259468,196,1682302481328259468,camera_1,197,0,0.6620337411548244,0.49927353971380967,1.812603343088424,-0.9800507484970171,-0.04448613888575123,0.156220358727907,0.11452822069864861,0.214825069764629,0.020225158934176212,20473.66441320639
1682302481338535308,197,1682302481338535308,camera_1,198,0,0.6621947765220411,0.49767882878895375,1.8128986862837178,-0.9801341572067118,-0.04430784277676323,0.1562506770510931,0.11384012854100821,0.20775559765752405,0.019561174479850823,20485.96882414132
1682302481348469257,198,1682302481348469257,camera_1,199,0,0.6622497892425804,0.4955226168478826,1.8128391766064829,-0.9800858802789263,-0.044348164756313514,0.15642940594434745,0.11399451090525214,0.23462318012025207,0.022081489116371148,20497.791292626876
1682302481358638525,199,1682302481358638525,camera_1,200,0,0.662208220613819,0.4929677111675366,1.8125726016028798,-0.980043518269851,-0.04439264476335657,0.15661522372964512,0.11408622653186372,0.2161043029045686,0.020323469163685274,20517.517113713548
1682302481368479490,200,1682302481368479490,camera_1,201,0,0.6623174034930752,0.4904548270561933,1.8126821164483327,-0.9801006341600896,-0.04459172812052097,0.15643103053724022,0.11377019551390764,0.22016654338221997,0.020699112245956615,20538.792952189688
1682302481378482103,201,1682302481378482103,camera_1,202,0,0.6624429142833519,0.48797948874498753,1.8128736799637881,-0.9801060942356137,-0.044611178672230224,0.15616120890377133,0.11408577305430058,0.23634103807853535,0.022213956611677303,20552.644450298983
1682302481388440132,202,1682302481388440132,camera_1,203,0,0.6623341701100972,0.4853631984405127,1.8123102922051237,-0.9800633673266046,-0.04459472378413036,0.15672322727201987,0.11368789147704633,0.23231437278445813,0.021815139558267017,20576.746392723755
1682302481398402929,203,1682302481398402929,camera_1,204,0,0.6622125750322738,0.4831114176184998,1.811862360906352,-0.9799951975404526,-0.044644501963663305,0.15693929101780288,0.11395762447899309,0.21525601454777643,0.020195814176217887,20594.89338131156
1682302481408220529,204,1682302481408220529,camera_1,205,0,0.6621353245508431,0.4813821300491918,1.811537690178824,-0.9800648610655099,-0.04459167211807109,0.15666627094865543,0.11375469409830925,0.22413644078187644,0.021016041852891226,20619.354630362708
1682302481418722152,205,1682302481418722152,camera_1,206,0,0.6619362607218565,0.4801339340293122,1.810921764606407,-0.980005748653783,-0.044568010393288865,0.15675842010333882,0.11414562094897626,0.18981289718067273,0.01778167139017967,20634.90191890299
1682302481428401708,206,1682302481428401708,camera_1,207,0,0.6621541260363711,0.4798300947733522,1.8114603312878212,-0.9801240719526674,-0.04461226305351106,0.1561563799375203,0.11393741514083786,0.20865632791537791,0.019556919109611912,20636.98614859465
1682302481438532114,207,1682302481438532114,camera_1,208,0,0.6621825028882427,0.48005740071477826,1.8115877269926135,-0.9801136883885958,-0.04452391101024847,0.1564811577838716,0.11361525619507752,0.21000409906264395,0.019687701753605638,20631.255749690823
1682302481448475837,208,1682302481448475837,camera_1,209,0,0.6621504615467129,0.480946401728093,1.811578246122088,-0.9800436724082702,-0.044589651272121236,0.15658574974744097,0.11404852540902859,0.2214829492731951,0.02076590244088475,20619.64938094839
1682302481458317995,209,1682302481458317995,camera_1,210,0,0.6620861604714352,0.48237535041577895,1.8115030096775648,-0.9800011855163667,-0.044633137402753285,0.15687903069762896,0.1139935487625295,0.2065456813434139,0.01936854707048688,20607.977409161744
1682302481468315362,210,1682302481468315362,camera_1,211,0,0.6622415905261715,0.4844112118718227,1.8120593928876787,-0.98005860625512,-0.04453319427467083,0.15658077660751962,0.11394903821424919,0.21484730334486812,0.020165275020736152,20588.16816978634
1682302481478343725,211,1682302481478343725,camera_1,212,0,0.662500143195333,0.48688918601906017,1.812920766585655,-0.9801139553331237,-0.04455336069315203,0.15621376617408272,0.11396881972677633,0.22180725686484948,0.020845471321868755,20559.244799798005
1682302481488335132,212,1682302481488335132,camera_1,213,0,0.6623429768756204,0.4893772110028053,1.8126022338742898,-0.980042853925984,-0.04443182118695017,0.15684012955305437,0.11376726900301508,0.22920276987133548,0.02154407466404575,20541.067144486704
1682302481498409748,213,1682302481498409748,camera_1,214,0,0.6623725290574398,0.49209200871721603,1.8129535268058696,-0.9800492888418927,-0.04455718528386621,0.15637756016416807,0.11429832613464504,0.23140609200345352,0.021767182443655907,20517.18423732649
1682302481508563041,214,1682302481508563041,camera_1,215,0,0.6622386261299483,0.4945647876461555,1.8127897132639499,-0.980051921732423,-0.04441042717419277,0.1562315262249168,0.11453233115685509,0.22284301690524444,0.02096646963392691,20503.204073193137
1682302481518438816,215,1682302481518438816,camera_1,216,0,0.6621716229533076,0.49670769669391146,1.8127150482264536,-0.9800860503105058,-0.044426037671688366,0.15619292927286862,0.11428661342741404,0.20185209612827748,0.018997522942077807,20492.587398059204
1682302481528441190,216,1682302481528441190,camera_1,217,0,0.6619928148029816,0.49847877194469803,1.8124220382213185,-0.9800809932216138,-0.04448592390546138,0.15606064195910213,0.11448722780871945,0.21069964079651982,0.019829861676460194,20486.064060392437
1682302481538615465,217,1682302481538615465,camera_1,218,0,0.6618944305836718,0.49981109554403347,1.8122589993744833,-0.9800480823988262,-0.0446625628304179,0.15624531141027848,0.11444830418187979,0.2023344020708464,0.019044047548034605,20477.30986421719
1682302481548385858,218,1682302481548385858,camera_1,219,0,0.66200118549221,0.5007011459367033,1.8125676619613726,-0.9801505974622761,-0.04449007883280788,0.15585283171334674,0.11417238732165132,0.2012366479029879,0.01895019738247718,20473.3456669189
1682302481558406591,219,1682302481558406591,camera_1,220,0,0.6621137676481524,0.5009219429083835,1.8128944067119692,-0.9802224350508756,-0.04440237732063181,0.15580616876091177,0.11365229644514352,0.2030316559248604,0.019127398741342706,20471.38061581691
1682302481568428754,220,1682302481568428754,camera_1,221,0,0.6619106663204111,0.5003019721772445,1.8123799950352983,-0.9800723611949536,-0.044314350517284815,0.1564116514507816,0.11414815132282714,0.19385039730696008,0.018250160709903176,20472.11941292673
1682302481578536272,221,1682302481578536272,camera_1,222,0,0.6619565304243278,0.4992108764123281,1.8123532869822079,-0.9800890882315483,-0.044443608187851584,0.15651485598965004,0.11381232215905297,0.22976738220313564,0.02162817249568656,20482.100175292464
1682302481588434457,222,1682302481588434457,camera_1,223,0,0.6622575628663827,0.49774854822475567,1.8131119935899014,-0.9801550259548405,-0.044376019218471396,0.15575806205087053,0.11430800549368814,0.22792722971644253,0.021463990820755778,20483.907159891558
1682302481598459959,223,1682302481598459959,camera_1,224,0,0.6622870515189605,0.49554112568895997,1.8129643107577902,-0.9800511472122011,-0.04446044924673041,0.15639366133380586,0.11429803145913811,0.21276290307287127,0.020025759229114287,20492.584286958096
1682302481608462810,224,1682302481608462810,camera_1,225,0,0.6623427530130133,0.4930884783096646,1.8129381418814092,-0.9800387372633861,-0.044567403388768544,0.1560768804949824,0.11479471849055457,0.23030864220345393,0.021666000811256005,20509.940952081815
1682302481618381261,225,1682302481618381261,camera_1,226,0,0.6622280145494234,0.4904171135611655,1.812439260035866,-0.9800579247761468,-0.04445991954840887,0.156948689475865,0.11347637863903677,0.22939294087700543,0.021562456827312,20539.09006880469
1682302481628473997,226,1682302481628473997,camera_1,227,0,0.6623393414937018,0.487920554042751,1.8125854622408308,-0.9800611251442126,-0.04464945673296054,0.15631622004376455,0.11424472130361628,0.21931519836653024,0.020606811636470455,20554.99425545161
1682302481638401031,227,1682302481638401031,camera_1,228,0,0.6623539683784706,0.4853975220105689,1.8124563734144918,-0.9800675992980197,-0.044649212026105986,0.1563373186014805,0.11416037615636943,0.20808086555916816,0.019540519206107217,20575.10602757894
1682302481648219823,228,1682302481648219823,camera_1,229,0,0.6621580326840897,0.4830947666981697,1.8117484285072016,-0.9800201560574553,-0.044657914094274845,0.15681685664484873,0.11390626805359978,0.18859679257730022,0.017691846205635967,20600.098630012006
1682302481658710002,229,1682302481658710002,camera_1,230,0,0.6620828493822838,0.4813558239040114,1.8114439472385884,-0.9800715358692257,-0.04457785241531457,0.15650294928329553,0.11392728610217093,0.20171360322274268,0.018910512855912734,20622.626345677993
1682302481668860912,230,1682302481668860912,camera_1,231,0,0.6619788687539307,0.4801769568183296,1.811061859481637,-0.9800322831505289,-0.04466701930524288,0.1568820004868607,0.11370848381887387,0.18413714470807463,0.017253300311234107,20634.407030355287
1682302481678675889,231,1682302481678675889,camera_1,232,0,0.6623233211194968,0.47995492094672754,1.811950672363791,-0.9801794044458598,-0.04438946507357923,0.15633518728851892,0.11330145500435888,0.20361721760127693,0.01909636152717268,20629.81276498292
1682302481688725709,232,1682302481688725709,camera_1,233,0,0.6622391685058139,0.48010662522184255,1.8117788111755069,-0.9801282723569996,-0.04452900403793241,0.1564646270052151,0.11351016704239315,0.19850896298885345,0.018613881170997295,20628.45101735613
