%time,field.header.seq,field.header.stamp,field.header.frame_id,field.image_seq,field.transforms0.fiducial_id,field.transforms0.transform.translation.x,field.transforms0.transform.translation.y,field.transforms0.transform.translation.z,field.transforms0.transform.rotation.x,field.transforms0.transform.rotation.y,field.transforms0.transform.rotation.z,field.transforms0.transform.rotation.w,field.transforms0.image_error,field.transforms0.object_error,field.transforms0.fiducial_area
1684731282640150070,11,1684731282640150070,camera_1,12,0,0.08006638787849105,0.18960052713128583,1.5645908828145074,0.997165155768013,-0.037608778278114915,0.037354275917075,0.05340308969800256,0.004966545064235106,0.00332864179185712,4447.914320198644
1684731282650218963,12,1684731282650218963,camera_1,13,0,0.07994092871563296,0.18830085708210917,1.5633499000232678,-0.996252799264168,0.034383749631596155,0.008649132898076055,0.07888795991590054,0.0008421100937994197,0.000563365012060991,4447.2784394052005
1684731282659889698,13,1684731282659889698,camera_1,14,0,0.07979420743065074,0.1859990470797557,1.5622848199062416,0.9969719847209448,-0.03740352961417334,0.0403922626567357,0.054920877373284084,0.0004739091236842796,0.0003167541312532609,4454.772894484514
1684731282670002222,14,1684731282670002222,camera_1,15,0,0.07982046230474438,0.18520803781146827,1.5631701178400417,0.9971473659153751,-0.03733367892015862,0.039288077174824534,0.05253355173811056,0.0035552024201024324,0.002378843610721265,4451.990739275234
1684731282679934978,15,1684731282679934978,camera_1,16,0,0.07973088455473115,0.18439875378942827,1.562161936750042,0.9967852719137501,-0.03775281375646343,0.04309374663412836,0.05600692591398681,0.004620928652002476,0.0030882296219905186,4451.2254031911725
1684731282690236330,16,1684731282690236330,camera_1,17,0,0.07976142406053398,0.18401902406343396,1.5628524229503746,0.9972049650480596,-0.037665486946814236,0.038453748087769565,0.05181580873208465,0.006029220734490082,0.004032902748192818,4453.67817331606
1684731282699930191,17,1684731282699930191,camera_1,18,0,0.07961596453128551,0.183507962190967,1.56055277711685,0.9966185266067815,-0.037931639738991045,0.039305632216195985,0.0613821668477467,0.0068696905800607055,0.004585993688580369,4454.263474119305
1684731282710090637,18,1684731282710090637,camera_1,19,0,0.07975532292850145,0.1840179510393936,1.5624467113846197,0.9972150747603987,-0.03794153264747116,0.0426289707731107,0.04801359830088565,0.022979773973929696,0.015353291108525817,4458.588726132874
1684731282720345973,19,1684731282720345973,camera_1,20,0,0.07961398154045092,0.18422999885224323,1.560102330080067,0.9966264623300083,-0.03776081848014768,0.04105478511495388,0.060202323796071835,0.005154272788786329,0.0034372960805580262,4458.624369407364
1684731282730242252,20,1684731282730242252,camera_1,21,0,0.07983045322679436,0.18535689026952343,1.56349088837271,0.9972160163449219,-0.037699621436004895,0.03830694294469005,0.0516868785184297,0.004004527218057774,0.002680526284870107,4451.63602377803
1684731282740463256,21,1684731282740463256,camera_1,22,0,0.07971183342574464,0.18695041826138947,1.5604544174525177,0.9965802739193447,-0.037908635393973794,0.03623499550522209,0.06385701291281438,0.0001514159666839987,0.0001010818667542094,4456.563780790196
1684731282750419378,22,1684731282750419378,camera_1,23,0,0.07978450749148507,0.188111711219615,1.5606163264667188,0.9966144249016299,-0.03829084585055983,0.04195788230348124,0.05943934147220718,0.002138137089787051,0.0014260317965080157,4460.475752635625
1684731282760457992,23,1684731282760457992,camera_1,24,0,0.07985548029177322,0.1894217319601215,1.5613099262810632,0.996359027470071,-0.03837480618340337,0.03836727991931295,0.06575723884770243,0.002043572283582762,0.0013652823749530057,4450.847930597783
1684731282770724058,24,1684731282770724058,camera_1,25,0,0.0798953421576373,0.19063696463537766,1.5614574642386079,0.9963770589675371,-0.037798857160847105,0.049778176974896074,0.057672661266763334,0.000532623176695779,0.00035528711251418165,4456.459020040871
1684731282780694961,25,1684731282780694961,camera_1,26,0,0.08005350264132255,0.192988605734317,1.5624733598863427,0.9969655510251867,-0.03789830404669692,0.0428527560384231,0.052792517645415794,0.0011250344978179783,0.0007514483372072153,4461.90946215857
1684731282790823698,26,1684731282790823698,camera_1,27,0,0.08008447834560108,0.19389688651042475,1.5620204063284495,0.9967950944257541,-0.0380646709006941,0.04093763151876918,0.05722526438215467,0.006269928009714931,0.004186908787096007,4460.961516141659
1684731282800839185,27,1684731282800839185,camera_1,28,0,0.08010084833540705,0.19463333556195309,1.561749743442168,0.9966908502448166,-0.038651518894303225,0.04136998240330633,0.05832609777259294,0.0014180906146066263,0.0009466964032365912,4461.646733692614
1684731282810651302,28,1684731282810651302,camera_1,29,0,0.08017254922092182,0.19532523235329446,1.5625801949605782,0.9971290883369756,-0.03725060029300643,0.042442219862436396,0.05044434500745707,0.004676783748436719,0.0031234456524611032,4465.963708770112
1684731282820817947,29,1684731282820817947,camera_1,30,0,0.08008747146236495,0.1955996441439048,1.560891365569132,0.9965258852552327,-0.03799078992118693,0.04193082045135048,0.06111191531702868,0.004215635781292804,0.0028116639253233707,4463.783540156089
1684731282830963373,30,1684731282830963373,camera_1,31,0,0.08011883218117613,0.19560561402661672,1.5617047004906344,0.996473701279812,-0.03760658278092599,0.04506643953057381,0.0599576818872314,6.545685755554587e-05,4.368589914513035e-05,4459.116215756398
1684731282840773344,31,1684731282840773344,camera_1,32,0,0.08014041672544545,0.19532339428428208,1.562115221915356,0.9968141287644086,-0.03805991698935084,0.04282259131062686,0.05549109016644286,0.004818132569198497,0.003216831809072096,4462.856204219919
1684731282851011991,32,1684731282851011991,camera_1,33,0,0.08006793615068916,0.1946352769388985,1.5610723992587163,0.9966280292675177,-0.03781156405122779,0.04165568009724957,0.059729902209692654,0.0013075700990157202,0.000872217850022969,4463.7738664611825
1684731282861330032,33,1684731282861330032,camera_1,34,0,0.0801433658989943,0.19326397462028874,1.563700568050161,0.996956484619581,-0.037824912371881785,0.046474880549737814,0.04987112648531517,0.002458423492498696,0.0016439779831864568,4456.469452471356
1684731282870800495,34,1684731282870800495,camera_1,35,0,0.08008016208530791,0.19213777834122012,1.5633129126080765,0.9970236963392519,-0.03862336261010109,0.04090813986238651,0.05271156316884762,0.00023235392291098833,0.00015539770221531825,4457.160297359456
1684731282880632877,35,1684731282880632877,camera_1,36,0,0.0799472091240886,0.19078938815640473,1.5617288594432375,0.9967074840329369,-0.0377202988796559,0.04066381111482874,0.05914241110049535,0.00015499947767239064,0.00010351776818637239,4457.6004198581795
1684731282890753507,36,1684731282890753507,camera_1,37,0,0.08004108716170223,0.1898676330755169,1.5638557732612086,0.9964509319614577,-0.03563410319237229,-0.0024040824507471307,-0.07622316754365113,0.004240067893988453,0.0028393286067203965,4450.598643958685
1684731282900319337,37,1684731282900319337,camera_1,38,0,0.07988164751921584,0.1872919015361219,1.5626332692113432,0.997063849194583,-0.03655807877268146,0.041443121735312775,0.05300618045628703,0.004189462270005606,0.002800382392941284,4455.918214423872
1684731282910506725,38,1684731282910506725,camera_1,39,0,0.0798741314699836,0.18632397458156394,1.5633238068333288,0.997128974778323,-0.03766447164094823,0.037405635965472715,0.054000126217978055,0.008036330225877464,0.005379025515241485,4451.233842527902
1684731282920691251,39,1684731282920691251,camera_1,40,0,0.0798241413402072,0.185381898410637,1.5631968703987904,0.9971576125098296,-0.03820252034981239,0.03935406679586476,0.05165772622992022,0.008229567160014993,0.0055065538788516,4452.967756223896
1684731282930288076,40,1684731282930288076,camera_1,41,0,0.07972340290834551,0.18445725181186048,1.5615563530956633,0.9969166575146517,-0.03766987425975795,0.044350985249321705,0.05264170068000183,0.0052748545713257045,0.0035211659057213626,4458.27070100623
1684731282940608263,41,1684731282940608263,camera_1,42,0,0.07974212237979993,0.1837801954306796,1.5626917439968593,0.9969652959460307,-0.0374626357981332,0.044964839121912285,0.05133140209501761,0.006225040080607869,0.004161350259872382,4452.138173903048
1684731282950272083,42,1684731282950272083,camera_1,43,0,0.0796867830711653,0.18362879228712772,1.5617318478049835,0.99692346329188,-0.03768666920957621,0.037430525433961956,0.05763921466978253,0.004873575031524524,0.003257755372807333,4453.060849388127
1684731282960626363,43,1684731282960626363,camera_1,44,0,0.07971579849827638,0.1838665717141889,1.5618469710532863,0.9968426194720538,-0.03835813685842804,0.040112025173961716,0.056784423720662086,0.01846970293263439,0.01234138781551376,4452.706884705231
1684731282970751523,44,1684731282970751523,camera_1,45,0,0.07981276967860415,0.18455430513717086,1.5636577209590552,0.9973542859062944,-0.03789053512220906,0.036935912831070325,0.04984449895258289,0.004758897150168195,0.0031863085929221854,4452.348623854574
1684731282980588197,45,1684731282980588197,camera_1,46,0,0.079778029450276,0.18588250059287448,1.5619492269898205,0.9969552417927013,-0.03747900403947038,0.03587743634043503,0.05820979024102398,0.0021844833536306396,0.0014604314042877767,4454.168403904071
1684731282991003990,46,1684731282991003990,camera_1,47,0,0.07988642725891637,0.1870764129030827,1.563624616409472,0.9973143357966021,-0.03724284827949071,0.04134676620138692,0.04761859711605389,0.002789082718663849,0.0018660299005998295,4455.997794453871
1684731283001250028,47,1684731283001250028,camera_1,48,0,0.07983820192383285,0.18797449781511266,1.5616109154353779,0.9961374858284587,-0.0347864330087156,-0.0018695429984751126,-0.08060098147581146,0.002650028938660398,0.0017702517462447659,4457.91841509234
1684731283011003732,48,1684731283011003732,camera_1,49,0,0.07994249701996091,0.18930667171381146,1.5626598570869081,0.9961315595985295,-0.035052454586167237,-0.0051394620197426485,-0.08041658615878683,0.00496973967528902,0.00332318042130643,4451.169933113735
1684731283020865201,49,1684731283020865201,camera_1,50,0,0.08006409624184231,0.1917657819016027,1.563625329928898,0.997005957684494,-0.037698787806523464,0.04489920921806312,0.0504180796057955,0.00149447176954709,0.000999450089096708,4455.839947928151
1684731283030997753,50,1684731283030997753,camera_1,51,0,0.08002563593869456,0.19260355011114544,1.5617066645695725,0.9967392125295603,-0.038029949054277104,0.037397026333241934,0.06054855574092637,0.004434621572727337,0.002962274937237734,4458.854841044377
1684731283040901660,51,1684731283040901660,camera_1,52,0,0.0800580706744235,0.19359574918866052,1.561700341959081,0.9966539419280964,-0.0384461446897996,0.043305923343306504,0.057683715215486916,0.002682547739823349,0.0017903922957984123,4460.984283035472
1684731283051007986,52,1684731283051007986,camera_1,53,0,0.08005116655048265,0.19437165655931046,1.5612799377526525,0.9967275833241876,-0.03814962530491579,0.040070293362280934,0.058933032500286864,0.000833345067803748,0.0005561159624694453,4463.975024254294
1684731283060842037,53,1684731283060842037,camera_1,54,0,0.08013705382494508,0.19553076075772932,1.5620724397554009,0.9969782821558177,-0.03821711000157749,0.037519810983998605,0.05626740794178563,0.003924839955288917,0.0026216110255652524,4464.475050555542
1684731283071180343,54,1684731283071180343,camera_1,55,0,0.08020469600925068,0.19589203736684593,1.5633043025976607,0.9968736696243833,-0.03759009393236472,0.04180294628817968,0.055519233868988764,0.00545132759725675,0.0036454762094411813,4456.846084222313
1684731283080393791,55,1684731283080393791,camera_1,56,0,0.080152249921323,0.19572304935228763,1.5621378488883277,0.9968445249297166,-0.03770035747303814,0.045913288667750386,0.052646425213535464,0.001696603198070079,0.0011323225984419085,4464.843455553346
1684731283090646505,56,1684731283090646505,camera_1,57,0,0.08016167683807274,0.19548052131262467,1.562488841902694,0.9969114438187918,-0.03850560398926352,0.04409008634056868,0.05235413957878906,0.00423933875572402,0.0028308641512135024,4463.787263778155
1684731283100708723,57,1684731283100708723,camera_1,58,0,0.08005466796829412,0.19408910840043178,1.5611181367989748,0.996296505028148,-0.037996246287142106,0.04251661061910417,0.06435757265658663,0.002346250243135728,0.0015657707289387884,4456.673038243547
1684731283110833883,58,1684731283110833883,camera_1,59,0,0.08008155871614414,0.19334631839540486,1.5624927028660043,0.9967922385494794,-0.03824178515640581,0.03970726612859695,0.05801837684873408,0.001104854338336736,0.0007384371926398329,4457.268669472831
1684731283120971441,59,1684731283120971441,camera_1,60,0,0.0800021004868696,0.19218390423593795,1.5616136437528545,0.996462182827724,-0.038049340154214115,0.044420811234781955,0.06035028945481811,0.003193502692738548,0.0021316763532124154,4456.385576134955
1684731283130656003,60,1684731283130656003,camera_1,61,0,0.07997003298369497,0.1910747595299252,1.5616057889043298,-0.9959224750223733,0.0351400943438271,0.005934026306710087,0.0828757192826001,0.0018640698108356446,0.0012448581922764547,4454.045228557894
1684731283140558004,61,1684731283140558004,camera_1,62,0,0.07990073400066455,0.1886710785594911,1.5622522597300263,0.996808413253961,-0.0377275020081994,0.04162506955190749,0.05671839598526006,0.0009102300537051633,0.0006082242361909643,4455.05359123752
1684731283151280403,62,1684731283151280403,camera_1,63,0,0.07988513360774012,0.18751702268707202,1.562378660840096,0.9967755104699448,-0.038070311387160466,0.03968889639576766,0.05842965532288989,0.007695289532421157,0.005144739335984767,4451.733730646664
1684731283161330699,63,1684731283161330699,camera_1,64,0,0.07983737343601136,0.18645269009786497,1.5626685225291523,0.9970236751021524,-0.037227701612397475,0.04047126176411933,0.05403671427535116,0.0045435804495355114,0.0030379123635744885,4454.025571098813
1684731283171746492,64,1684731283171746492,camera_1,65,0,0.07978364588764693,0.1854201448445461,1.5619314335834253,0.9966690533971845,-0.03727158913744159,0.0407937315669924,0.05997914727945368,0.00585837586550042,0.003915545067877026,4449.661520356778
1684731283181242704,65,1684731283181242704,camera_1,66,0,0.0797758887732157,0.18420766493981383,1.5630684758041564,0.9971884989763261,-0.03726113302221174,0.04171263848813014,0.04986743692632677,0.009582888902514242,0.006409508884060304,4453.550871460262
1684731283191730499,66,1684731283191730499,camera_1,67,0,0.07973858955161743,0.1838411386630162,1.5628103829629638,0.9970266472057069,-0.037871960859347284,0.04026580849840264,0.05368653470270766,0.0036334317119326442,0.0024306549071915463,4450.8256670217115
1684731283201611042,67,1684731283201611042,camera_1,68,0,0.07969470170174761,0.18365637991108086,1.5620512458499565,0.9968533375622394,-0.03723333030906133,0.041439697849898795,0.05639019371512713,0.007492159056710079,0.005007918915071072,4451.278981677837
1684731283211663246,68,1684731283211663246,camera_1,69,0,0.07975402586482208,0.1839337194533725,1.563047681659911,0.9973051153301904,-0.03756222373329669,0.04425355565816744,0.04486879869190649,0.007381312956567854,0.004935090327757839,4457.629328327719
1684731283221545696,69,1684731283221545696,camera_1,70,0,0.07981289448359481,0.1849813355500931,1.5633227950437598,0.9973036521043311,-0.03745114886121331,0.040128227912531025,0.048708954751038085,0.013635718220029958,0.00912227171356625,4454.84380757739
1684731283231473207,70,1684731283231473207,camera_1,71,0,0.07975186503350362,0.18557022380798116,1.5616153901755256,0.9969398904426438,-0.03752497264447616,0.04160308520052243,0.054515269182489244,0.0055237541237147525,0.0036883235994567883,4458.180125108278
1684731283241271734,71,1684731283241271734,camera_1,72,0,0.07982698514242048,0.1866414706166723,1.5624838159350765,0.9971236046983473,-0.037066236367637395,0.04381736069305177,0.04950404000491017,0.0026241031155223027,0.0017530734762605156,4459.063233926019
1684731283250751495,72,1684731283250751495,camera_1,73,0,0.07995001365083934,0.18790479460636791,1.563652537646528,-0.9964678616602874,0.03495691129024779,0.007901320518350062,0.07594329572310267,0.008830859980662353,0.005910028684833503,4449.25497737841
1684731283260799169,73,1684731283260799169,camera_1,74,0,0.07995025035677586,0.19013392025847253,1.5627614455505405,0.9964909936233889,-0.03767643110566096,0.04199692654445187,0.061825919543760585,0.002609446382848546,0.0017452004082978844,4446.992070125764
1684731283270509243,74,1684731283270509243,camera_1,75,0,0.08003918097442446,0.19138518863892118,1.5630950745472338,0.9969542388977946,-0.03494687226329617,-0.011740306897446505,-0.06872500896097365,0.002477794128935784,0.0016555690591024002,4459.437462979753
1684731283280995368,75,1684731283280995368,camera_1,76,0,0.07996569484218877,0.192240756944679,1.5612148791228226,0.9966631606726614,-0.038225112860697956,0.04943702043300161,0.052510626690934176,0.002835488092387095,0.0018902509037134346,4465.555872090421
1684731283290650129,76,1684731283290650129,camera_1,77,0,0.08008395269180929,0.19341675860605695,1.56236112652459,0.9968243768353631,-0.03835366605814117,0.04516068405685151,0.053204047423179315,0.004704439459601417,0.003141149537391061,4461.356501063912
1684731283300700664,77,1684731283300700664,camera_1,78,0,0.0801582426605823,0.19502050213277405,1.5626027990605038,0.9968448747502519,-0.038246392614596204,0.04101581528844068,0.05617127408515243,0.0072149504703702405,0.004821201285401333,4459.726169448811
1684731283310356140,78,1684731283310356140,camera_1,79,0,0.08014302543880034,0.1954344597985127,1.5619117698787495,0.9967933721071939,-0.038200996430274324,0.04263333506496725,0.05591114321977,0.006220164432306774,0.00415191887778682,4463.709319312709
1684731283320482015,79,1684731283320482015,camera_1,80,0,0.08004165433740328,0.19544626198486537,1.5598827139916978,0.9964506079257378,-0.038335634753295086,0.041523330488927625,0.06238892608145106,0.006230197846889496,0.004150254471588061,4468.059215214917
1684731283330642700,80,1684731283330642700,camera_1,81,0,0.08021758644905062,0.19587950916379615,1.563136527385919,0.9969671927802553,-0.037947296381568046,0.04626708373601384,0.049757172143835064,0.00346396969689522,0.002314355180734511,4462.0906679416075
1684731283340495586,81,1684731283340495586,camera_1,82,0,0.08011666312035193,0.19498743519594994,1.5617615425602493,0.9968768304468462,-0.03813651325059814,0.04518362451279747,0.05235103963841916,0.007262170795002021,0.004845074561610373,4467.083424672366
1684731283350500583,82,1684731283350500583,camera_1,83,0,0.08010033900139081,0.19437094525319165,1.5620176250184314,0.9968980150539585,-0.037551314452598905,0.042148667336751475,0.05484283185700456,0.0017864343972178176,0.0011926434861307042,4463.700270296191
1684731283360671043,83,1684731283360671043,camera_1,84,0,0.08015729241627258,0.1936688293106667,1.5631839781253534,0.9965711682780639,-0.03468704162942853,-0.006020678729155228,-0.07487634558078768,0.005799917009426281,0.0038786379233710674,4455.227276081481
1684731283370521306,84,1684731283370521306,camera_1,85,0,0.08003622752312652,0.19251514856173096,1.562270900885558,0.9966455665285456,-0.03820133323777831,0.045745036905145114,0.05608622341000866,0.000959789234912023,0.0006409251958451139,4457.483917074162
1684731283380540132,85,1684731283380540132,camera_1,86,0,0.08002856189857332,0.19030745398892512,1.5633439770633755,0.9966574837429869,-0.038650716020936435,0.04142522092022582,0.058855189421811185,0.004989716937416233,0.0033388536029927106,4447.725449710795
1684731283390638113,86,1684731283390638113,camera_1,87,0,0.07998852405677659,0.18912137125895784,1.5633918386344052,-0.9961921388500664,0.03569534995866365,0.0030330762867365356,0.07948499816253043,0.0014210421068128198,0.0009512091409840336,4448.937695449393
1684731283400753974,87,1684731283400753974,camera_1,88,0,0.07988412019013619,0.18779204573284813,1.5622865774896166,0.9967528275660799,-0.03749321651370598,0.039638171121470764,0.05921887236874691,0.009600413119187579,0.006417809723534387,4451.613015817013
1684731283410916328,88,1684731283410916328,camera_1,89,0,0.0798567840108766,0.18669816325194422,1.5625758940039476,0.9968535711925226,-0.03695510276337533,0.038348098328151815,0.05870861380646928,0.004681926424382254,0.0031317075081735302,4449.913221645198
1684731283420769929,89,1684731283420769929,camera_1,90,0,0.07978032451288236,0.18488985827389026,1.5623585794735646,0.9970260522832843,-0.03715692172749585,0.04305520451554762,0.052006380380398384,0.002551049954490736,0.0017046666052467309,4455.424259357098
1684731283430772542,90,1684731283430772542,camera_1,91,0,0.07977638168383064,0.18433339834236107,1.5628725402997927,0.9971367681159966,-0.03746931836508897,0.04234789818867635,0.05020927575102332,0.004630863913916983,0.0030963948396327216,4454.17954755138
1684731283440675497,91,1684731283440675497,camera_1,92,0,0.07972737663644834,0.18386833881902964,1.5622883483080687,0.9969978994638905,-0.038257174709375195,0.03776554745077247,0.055725581859592116,0.004488350197789259,0.0030013943730502505,4452.349796701337
1684731283450660943,92,1684731283450660943,camera_1,93,0,0.07975275908319411,0.1838120952848496,1.5632549491127548,0.9972685814065828,-0.037384731139785354,0.043510867807826314,0.04652486216548693,0.003542910606483929,0.002369811615228649,4454.9208785860665
1684731283460477113,93,1684731283460477113,camera_1,94,0,0.0797381976929663,0.18415070306266668,1.5625478240808535,0.9972092704808058,-0.03751669921753324,0.03801301430000494,0.052164920116760674,0.0023444740218110383,0.0015677327706106181,4455.376301182929
1684731283470805644,94,1684731283470805644,camera_1,95,0,0.07974918009302188,0.18464601122912983,1.5622180032445683,0.9970176163750265,-0.037344031349260516,0.0382032923651815,0.055693845377264045,0.0045143898751121014,0.003018100774466521,4453.559028854856
1684731283480946063,95,1684731283480946063,camera_1,96,0,0.07984963320443812,0.18560905260233554,1.5638707555491445,-0.9973151734090462,0.03744483693557418,-0.04367331862727056,-0.04530971545963787,0.0009667728299973533,0.0006469361859440642,4454.478353068115
1684731283490934848,96,1684731283490934848,camera_1,97,0,0.07972618137987812,0.18619796928676197,1.5609381774361446,0.9967406582002027,-0.03782556712485828,0.039952292943163686,0.059000856357288106,0.0016506871616002172,0.001101757825114553,4457.95720725239
1684731283500621557,97,1684731283500621557,camera_1,98,0,0.07980611209487903,0.18836839398427743,1.5606871142018854,0.9966012766956481,-0.037803546089468856,0.03825557972735626,0.062396296455715046,0.0013938905467512086,0.0009303198529488165,4457.950573702779
1684731283511045694,98,1684731283511045694,camera_1,99,0,0.07993473124101129,0.1897780127237625,1.562379321679984,0.9969370076373304,-0.03828024393543481,0.035141922706504895,0.058448875060679716,0.0015838294784771279,0.0010592117070394298,4455.625838076231
1684731283520775079,99,1684731283520775079,camera_1,100,0,0.07989179007488843,0.19078463812555885,1.5607191362687138,0.9963637170550247,-0.037935292488596256,0.04420217289891664,0.062180582428229214,0.0011693852284224704,0.0007798939050022193,4458.0303671553265
1684731283530400991,100,1684731283530400991,camera_1,101,0,0.07996401349923105,0.1920726802992453,1.5617378241542168,0.9969871137956334,-0.03772386481092651,0.04011829751289761,0.054627164980864805,0.00023938695085234937,0.00015981549832986842,4464.457117443323
1684731283541091918,101,1684731283541091918,camera_1,102,0,0.0801335264947698,0.19419305365621703,1.562741022820284,0.9967999531128583,-0.03820965767342922,0.03963361583614349,0.05795732939358019,0.002217464571003802,0.0014824224885787466,4456.6618409240045
1684731283551206350,102,1684731283551206350,camera_1,103,0,0.08023182118608425,0.19507950014728537,1.563987740468891,0.9974305077110734,-0.03816167333228398,0.037687565608095115,0.0474943825546332,0.004686913802288473,0.003136131752777851,4462.535607907921
1684731283560889482,103,1684731283560889482,camera_1,104,0,0.08012670971932555,0.19535216801388347,1.561798401235327,0.9969470089898934,-0.038063646841644365,0.043535619824903865,0.05246398633044885,0.002858883890439756,0.0019074592849358254,4467.846459095017
1684731283570446491,104,1684731283570446491,camera_1,105,0,0.08009094888733201,0.19553333423484653,1.5609013671537546,0.9965965116405642,-0.03859692922376808,0.04123513562194902,0.060044430471058216,0.0036121385637670755,0.002409146449439518,4465.280713887827
1684731283580497980,105,1684731283580497980,camera_1,106,0,0.08018066114051894,0.19569895483881747,1.56287961684971,0.99683399510894,-0.038078642090807586,0.043787647202524024,0.05435664783756724,0.0014223746402421966,0.0009504176805985204,4459.616422057734
1684731283590456485,106,1684731283590456485,camera_1,107,0,0.08016231838064647,0.1952636939762013,1.5628260395034994,0.9968776701119307,-0.03789283056275799,0.04116404650672731,0.0557186279384462,0.0017998616822296754,0.0012029705167469463,4459.147292141393
1684731283600575208,107,1684731283600575208,camera_1,108,0,0.08008045260657107,0.19444854503479508,1.5612156621346502,0.9965738091772823,-0.038156829564114675,0.03587943560110918,0.06401066567723447,0.007738408297882415,0.005167555745328714,4459.394285518209
1684731283610516071,108,1684731283610516071,camera_1,109,0,0.08021235856439483,0.19403372377704592,1.5644822566657735,0.9972074983955364,-0.0379506168075344,0.04144922372510463,0.04918249363574841,0.002869270625524223,0.0019210100317035947,4455.638474993407
1684731283620602369,109,1684731283620602369,camera_1,110,0,0.07999927079780571,0.19164221556479993,1.5620877671672726,0.9966853573034349,-0.03812069674695224,0.04028461222086767,0.05951689705172508,0.002595430734800175,0.0017341312502193338,4455.971431803481
1684731283630510568,110,1684731283630510568,camera_1,111,0,0.07999548426112961,0.19055232848279857,1.5625406639613564,0.9965002750652014,-0.037942806723098646,0.043784131868739605,0.06025358918315324,0.00487121420155745,0.003255869640556936,4449.852748820613
1684731283640523672,111,1684731283640523672,camera_1,112,0,0.08000896721243445,0.18947409227814427,1.5636632489144298,0.9967872627176905,-0.037669195764505316,0.03812651791184376,0.05951935152660198,0.0033841453405329953,0.002266467225774257,4445.517897607819
1684731283650161266,112,1684731283650161266,camera_1,113,0,0.07998529733641277,0.18836133074831446,1.563891725148376,-0.9965013098057742,0.03481769574459008,0.003656375482416828,0.07589136009286748,0.0020784758089575917,0.001391832828102358,4449.905914625038
1684731283660183191,113,1684731283660183191,camera_1,114,0,0.07973410514983731,0.18580881632152174,1.5608708725940152,0.9967285660170481,-0.0376920463588202,0.03737661090360624,0.060946405014931135,0.007081685005687177,0.0047283824425871784,4456.311524690362
1684731283670849561,114,1684731283670849561,camera_1,115,0,0.07976586488463652,0.18505793069365195,1.561938103799232,0.9968118173047635,-0.03858248525377296,0.04244133269679083,0.05546463731187112,0.004559275301289744,0.0030457499868325522,4454.181457588043
1684731283680716037,115,1684731283680716037,camera_1,116,0,0.07969999004608122,0.18430034051527666,1.5612798574300235,0.9968303906199225,-0.037263190291014645,0.039065647123634036,0.05843374197054372,0.008425649735727347,0.00562740677237788,4454.872566990205
1684731283690713405,116,1684731283690713405,camera_1,117,0,0.07974164240317608,0.1839946967419045,1.5625689565682415,0.9968734236179742,-0.0383589890047,0.039098589534341976,0.05694967553148501,0.005395848274929449,0.003609367269034544,4448.860246951923
1684731283700292587,117,1684731283700292587,camera_1,118,0,0.07962127972456365,0.18349108177060763,1.5603227909580442,0.9967491054165605,-0.03826415067048014,0.0383789644389249,0.05961653053766918,0.0045505403249990195,0.0030363820647522984,4458.239491197164
1684731283710737943,118,1684731283710737943,camera_1,119,0,0.07972109056750623,0.18397898510797578,1.5621733158156552,0.9970592381950348,-0.03728795315581968,0.04571461197155256,0.04891480687559335,0.008182380188372917,0.005464884525175254,4457.749336284063
1684731283720535039,119,1684731283720535039,camera_1,120,0,0.07978282109445752,0.1845865052588091,1.5630305304989267,0.9970799917237845,-0.03744971753509406,0.03981494953830219,0.05332709024409715,0.006061953827156685,0.004055924765962418,4450.979814993042
1684731283730398654,120,1684731283730398654,camera_1,121,0,0.07977230097085888,0.18526551815850753,1.5626745916749973,0.9971822958152613,-0.037628536341367626,0.03834522405733785,0.052356527361962224,0.0008455230272375048,0.0005654612854442828,4455.521316749538
1684731283740332841,121,1684731283740332841,camera_1,122,0,0.0798133868785994,0.18711414013990302,1.5618124629045296,0.9971019412652196,-0.037570455770350376,0.036547750882612744,0.05514019843781216,0.009176904000923969,0.006131048127454897,4459.826779416298
1684731283750229358,122,1684731283750229358,camera_1,123,0,0.07991959626390338,0.18842968334809768,1.5632579137853506,0.9972016481742638,-0.03796750895675102,0.04280086765930426,0.048118882673660754,0.0019187217258149758,0.0012828883352322836,4458.296628775597
1684731283760903120,123,1684731283760903120,camera_1,124,0,0.07996487790263394,0.1896999044254546,1.5633837834354531,-0.9968822212712409,0.03565608571029364,0.008669934585403894,0.06985207727349228,0.0006380726554198191,0.0004266100384767405,4457.800448000895
1684731283770885229,124,1684731283770885229,camera_1,125,0,0.08001802343338124,0.19090395980896285,1.5632810817981713,-0.9965439380044507,0.035361378719114545,0.005663320177533875,0.07495117961867898,0.001726435701129958,0.0011547340827681683,4454.355653887964
1684731283780689477,125,1684731283780689477,camera_1,126,0,0.08001114166649564,0.19285674383870555,1.561322463378202,0.9964015093143445,-0.03815127341309572,0.04463963776641962,0.06112131635639327,0.004021290078526363,0.0026831195159854986,4457.625540973881
1684731283790858268,126,1684731283790858268,camera_1,127,0,0.0806579692239554,0.19527575168054256,1.5729114746687727,0.9987226082041961,-0.03704988977483801,0.01664970389705411,0.030054032834556595,0.05748832208337262,0.03866192614760103,4460.929796100711
1684731283800823211,127,1684731283800823211,camera_1,128,0,0.08008836180246054,0.19463056711072782,1.5614735712709804,0.9968403939708678,-0.038483192636246874,0.0396195554920024,0.05708383006721492,0.0034305460867471993,0.002289357588491102,4465.466584699462
1684731283810322999,128,1684731283810322999,camera_1,129,0,0.08015308816612396,0.19530822233264603,1.5622788730470405,0.9966799318510207,-0.03877081083396029,0.04319292631505327,0.05709911373273999,0.004052174452226609,0.0027061970271258914,4459.814112163556
1684731283820689439,129,1684731283820689439,camera_1,130,0,0.08013080542346365,0.19568146784898963,1.5614934984728477,0.9966847717831675,-0.03817991392716547,0.04036919225135341,0.05943137374336137,0.0029074159101583064,0.0019405249505857537,4463.081028197427
1684731283830820798,130,1684731283830820798,camera_1,131,0,0.08016530783196621,0.19568434121640504,1.5623777713020155,0.9967489450736151,-0.03836978424893827,0.04451959810571381,0.05511175496961778,0.006422427613870241,0.004288778025074602,4461.270612072895
1684731283840883016,131,1684731283840883016,camera_1,132,0,0.08014381429254654,0.19534455266504314,1.5623100715698592,0.9967502277004692,-0.03799327954106687,0.044706425573748695,0.05519809599248951,0.004409395638504066,0.0029442719417913537,4461.22047242685
1684731283851207733,132,1684731283851207733,camera_1,133,0,0.08010042112312202,0.19471200387399878,1.5617437492202557,0.9970911297753038,-0.03790440158111853,0.040197468228786275,0.05250427422773452,0.006826578770414926,0.0045554426732581,4469.025613173086
1684731283860862731,133,1684731283860862731,camera_1,134,0,0.0800079207732249,0.19297932731142048,1.561181280048171,0.9964371333962,-0.03887584759172088,0.04470685022296689,0.06002503816183827,0.0022870960528962314,0.0015256016265982441,4459.902644281856
1684731283870749950,134,1684731283870749950,camera_1,135,0,0.08012846244555107,0.19224287398873047,1.5637907258425547,-0.9971935105484167,0.035453199601858915,0.016055701619798315,0.06395613812302733,0.0006622523069381714,0.0004426925694103335,4457.960706748884
1684731283880504846,135,1684731283880504846,camera_1,136,0,0.08001949194738747,0.19093747820143675,1.562502124986747,0.9962300885682445,-0.0350315842014233,-0.008795879823586266,-0.07887351417158592,0.004723445454146713,0.0031564016159027243,4452.622460095128
1684731283890738964,136,1684731283890738964,camera_1,137,0,0.08006409133322767,0.18992868183517686,1.5642161869634594,0.9965032248019857,-0.03519330921296874,-0.006585209069778538,-0.07549429758194369,0.006920880026882514,0.0046349702361895275,4447.676265653806
1684731283899898767,137,1684731283899898767,camera_1,138,0,0.07990016695241643,0.18736751556393233,1.5630310466982182,0.9969313106016661,-0.03830827348363516,0.04119863654137272,0.054434460334235206,0.001986661314731464,0.0013287901603031293,4452.0709424701645
1684731283910440444,138,1684731283910440444,camera_1,139,0,0.07984007987578778,0.1862830516922839,1.5627362077290539,0.9968799013195034,-0.03711852922836455,0.039374291079955964,0.05746601025903119,0.003850017470540479,0.0025753589494108163,4449.721078655972
1684731283920485019,139,1684731283920485019,camera_1,140,0,0.07986696926565269,0.1854918821764951,1.5639656628554648,0.9972020705614734,-0.03744144713155761,0.0415372801011146,0.04960668167098484,0.008361358137335628,0.005598286524389794,4450.0754940049355
1684731283930316209,140,1684731283930316209,camera_1,141,0,0.08039327554009257,0.1860252925319582,1.5747097979504379,0.9986808542950905,-0.0362096221546738,0.034574803743746635,0.011401643474760808,0.0642575754027348,0.04332854653417564,4451.675384429227
1684731283940334081,141,1684731283940334081,camera_1,142,0,0.07968410968354106,0.1837341710478954,1.562108548494901,0.9969762245951691,-0.03741522753359407,0.042608658411254954,0.05313201077472342,0.0022694105427945033,0.001516457800388758,4454.51721086906
1684731283950263738,142,1684731283950263738,camera_1,143,0,0.07965195960613136,0.18354354349174457,1.5609371110878243,0.9966849119317552,-0.03752622221303793,0.040289112431762475,0.05989788304662974,0.0043577253964031115,0.002909632141892469,4453.634465614799
1684731283960358619,143,1684731283960358619,camera_1,144,0,0.0797925932890618,0.18404890043331035,1.5633165453076006,0.9970314525180833,-0.037670295686825915,0.041205953022612374,0.0530217026136131,0.011229994095629081,0.007515319923538684,4448.496739441675
1684731283970560312,144,1684731283970560312,camera_1,145,0,0.07970817249868944,0.18435490975400604,1.5621034880462066,0.9969013633424711,-0.037567691595456296,0.03541288085525338,0.05934869993220516,0.0036202140036039054,0.002421735953520115,4450.241837479145
1684731283980667352,145,1684731283980667352,camera_1,146,0,0.07987456400982647,0.18609626169609852,1.563866331719104,0.9972041681882383,-0.03729246070015702,0.03532069945008332,0.054273082769344005,0.0027791618485935032,0.0018620577615830651,4448.224224389589
1684731283991067886,146,1684731283991067886,camera_1,147,0,0.07990986447083151,0.18712250336497582,1.5637769079233501,0.997183157851579,-0.03728537581368481,0.03901510652686992,0.05209003657401653,0.007638900598976761,0.005113909395314192,4451.292320613691
1684731284000633716,147,1684731284000633716,camera_1,148,0,0.07985195365140012,0.18798987170848933,1.561821405379762,0.9968187838362096,-0.03760981960573575,0.04426121556478871,0.054578003419433196,0.003630126331700012,0.002423494816388617,4458.271269861232
1684731284010798692,148,1684731284010798692,camera_1,149,0,0.07990962489023397,0.18925873439529306,1.5624188145838935,0.996610611667309,-0.037979791098661876,0.04117430272606165,0.060245339863235645,0.002576573155238293,0.0017224805913179984,4450.468958339073
1684731284020779609,149,1684731284020779609,camera_1,150,0,0.08000339390870423,0.1916242404796669,1.5623879066729063,0.9967353709615633,-0.03788176671329892,0.04152623742211362,0.05795811962405482,0.002981062832986936,0.001992043060201555,4455.657291140058
1684731284030559539,150,1684731284030559539,camera_1,151,0,0.0800225156620609,0.1926791415897847,1.5619843083724332,0.9964173647858926,-0.03861220445129485,0.0372548822705113,0.06537282744045336,0.0032714479748392478,0.00218707217852255,4451.049990417203
1684731284040630578,151,1684731284040630578,camera_1,152,0,0.08005084450108256,0.193624344383961,1.561638179747219,0.9967147696245852,-0.03847628176686976,0.038534409023950056,0.05995284042296678,0.00336468692694325,0.002246787104534778,4460.542535595769
1684731284050314664,152,1684731284050314664,camera_1,153,0,0.08010407147764874,0.1944743891104771,1.5619503081808048,0.9966618987443211,-0.038111562167398,0.042659355116968535,0.05824729900630089,0.0031584841781295836,0.00210881041845318,4459.902586154116
1684731284060307741,153,1684731284060307741,camera_1,154,0,0.08020920940051779,0.19569627066830006,1.5633444189482406,0.9971724094544768,-0.03815492937633353,0.04716698754189153,0.04434706837281605,0.013153870197129436,0.008789150638156041,4465.711798553006
1684731284070342063,154,1684731284070342063,camera_1,155,0,0.080119118161226,0.19570072929671692,1.5617217813125033,0.9966864966210658,-0.03762348173491524,0.043495563238981134,0.05752075324517777,0.004647644891520031,0.0031018223216736575,4462.783537625336
1684731284080364942,155,1684731284080364942,camera_1,156,0,0.08015395797242307,0.1957153898087336,1.5621591287862198,0.9969121943385377,-0.03809993096693688,0.04437535890905097,0.05239560631512168,0.01132319966563955,0.0075584268733532075,4465.6980438516475
1684731284089678525,156,1684731284089678525,camera_1,157,0,0.08018914219694978,0.19547515038177332,1.5624951200412471,0.9971720194036554,-0.03817430869539557,0.03789062358492823,0.05248796546266337,0.014157288533169776,0.00945761421614465,4466.104849609197
1684731284100012779,157,1684731284100012779,camera_1,158,0,0.08006824004125448,0.19409691812570753,1.5611845831639,0.9964505256534978,-0.03854237293872793,0.04105639203759493,0.06257162364822821,0.004188240331131965,0.0027950255035600947,4459.2413623682805
1684731284110164642,158,1684731284110164642,camera_1,159,0,0.08017399034383074,0.19357406087501955,1.564086137311484,0.9973019520309622,-0.03844897516764793,0.039960985069463564,0.0481000255308466,0.004190249921521172,0.0028041124987796006,4459.278706381765
1684731284120408773,159,1684731284120408773,camera_1,160,0,0.08004342956308871,0.19228298627808454,1.5623766947741304,0.9966480075652375,-0.038363295205028965,0.04576663529559693,0.055914413982211336,0.0063797347829677165,0.0042607929031347365,4456.811386458807
1684731284130159139,160,1684731284130159139,camera_1,161,0,0.08004885727761894,0.19126984244877804,1.5630835990291894,0.9961071117753241,-0.03515232718355102,-0.003375912815194485,-0.08076842809456378,0.0033814683265518397,0.0022626559052953002,4449.381656066515
1684731284140794515,161,1684731284140794515,camera_1,162,0,0.07993523083423523,0.18878463455467484,1.5629556959964481,0.9969259827523894,-0.037595728161157596,0.04358948856605977,0.05315169445807357,0.0007170018216129392,0.0004793388434311932,4454.451601855688
1684731284150795698,162,1684731284150795698,camera_1,163,0,0.08071018960580208,0.1894391413370507,1.5781894274287627,0.9991405491387035,-0.03552925430981123,0.012678292754906645,-0.017178359869897332,0.1180594998295419,0.07976390144356277,4451.434888898977
1684731284160644054,163,1684731284160644054,camera_1,164,0,0.079842293734085,0.1864783153069376,1.5627219218322272,0.9969807197151586,-0.0365451528412862,0.03896009846222852,0.05635607374423003,0.0005681463808286935,0.0003800475000117098,4451.553568725882
1684731284170760631,164,1684731284170760631,camera_1,165,0,0.07973675280248355,0.18538246671031683,1.5615211255162593,0.9970919418183944,-0.03683668808801101,0.0410622662507353,0.05257954223729545,0.006705977633828297,0.0044768307101011725,4461.058796734316
1684731284180452346,165,1684731284180452346,camera_1,166,0,0.08047076748642862,0.1857683959048596,1.5761274248993737,0.9990371094970728,-0.03647430375981663,0.021971591191982293,0.010570155791797672,0.11242655898968222,0.07579366998648854,4454.887273652128
1684731284190678834,166,1684731284190678834,camera_1,167,0,0.07962978741966553,0.18356779719854388,1.56053169328717,0.9965822753036133,-0.03748044973073373,0.04090897639044088,0.06120000072991396,0.008513105407473631,0.00568159155887117,4454.057890402881
1684731284200670242,167,1684731284200670242,camera_1,168,0,0.07973802989543691,0.18375402459449214,1.562793241288073,0.997146027115439,-0.03783286701025598,0.03594890097080642,0.054554113508255425,0.003596147202188149,0.0024066341185661716,4451.331026676755
1684731284210892200,168,1684731284210892200,camera_1,169,0,0.07972622976008084,0.18383694464016898,1.5623092852677731,0.9971113823940143,-0.03721111336268158,0.03660519975323705,0.055175025995765306,0.007546905748313293,0.005047106416724057,4453.285197104271
1684731284221125125,169,1684731284221125125,camera_1,170,0,0.0797622898227856,0.18488873646515486,1.5626024418164142,0.9968118272789188,-0.03750977012651137,0.04398025531953468,0.054999411669104256,0.0027938571583945304,0.0018678670236484984,4450.053868566346
1684731284230857372,170,1684731284230857372,camera_1,171,0,0.07986774627022288,0.18585949519446726,1.5636099608158618,-0.9967466975465525,0.034290817966822956,0.005259556359658599,0.07274955532583803,0.002323159671504982,0.0015546714018643674,4453.6105960942805
1684731284240799903,171,1684731284240799903,camera_1,172,0,0.07992638381068436,0.18684205959619501,1.563754531170289,0.9965626308363313,-0.0352682540830487,-0.007032059471272352,-0.07462990830823814,0.02101203346683178,0.01406474931959147,4450.221957347938
1684731284250565052,172,1684731284250565052,camera_1,173,0,0.07997353743175138,0.18798663401949117,1.5642078921642288,-0.9963748454788547,0.034880858435264554,0.00014147768615298695,0.07759170700449852,0.016899205846129917,0.011308988147940367,4454.032057639096
1684731284260330200,173,1684731284260330200,camera_1,174,0,0.07994841552661744,0.19014786156433436,1.5625050747866274,-0.9959954805852871,0.035081518142477515,0.0035819937535921022,0.08215509149925634,0.0012359386601019649,0.0008264695567671547,4450.696912421146
1684731284270421266,174,1684731284270421266,camera_1,175,0,0.08002494433980512,0.19138407285167264,1.5631384516479698,0.996769845107095,-0.03779116354254432,0.042709652453959364,0.05654723185568434,0.0034058054734487087,0.002277572376695724,4452.291311455689
1684731284280465126,175,1684731284280465126,camera_1,176,0,0.08000691811332564,0.19234481975483506,1.5618854879792465,0.996697635575423,-0.03806410280519695,0.03969918974134378,0.05974045237423,0.0030376749637071043,0.002029056696353136,4457.774715802923
1684731284289992332,176,1684731284289992332,camera_1,177,0,0.08008912348343511,0.19340923977738644,1.562415690937102,0.9965047388695839,-0.03813339916753233,0.039128096813281256,0.06319130729904905,0.006249032463529147,0.004178171094546574,4451.427326180856
1684731284299964904,177,1684731284299964904,camera_1,178,0,0.08003211445726155,0.19477954508030837,1.5606283045980307,0.9965841254516277,-0.03807425124259928,0.037747580478738295,0.0628136327410785,0.000277881117654033,0.00018538312103082678,4464.1023181965575
1684731284310366630,178,1684731284310366630,camera_1,179,0,0.08010326020231906,0.19531663102666597,1.5609911210543235,0.9966640027869191,-0.037990998069995834,0.040209996946524634,0.060005881044795116,0.012624895854969509,0.008420844934608984,4465.040406859363
1684731284320661544,179,1684731284320661544,camera_1,180,0,0.0800499246714518,0.19549609355485403,1.560221579519623,0.9964344117619494,-0.03786164534143206,0.04684468471247882,0.05908074460300946,0.005258630961179733,0.003502519264485223,4467.806702936357
1684731284330418348,180,1684731284330418348,camera_1,181,0,0.0800715695385266,0.19555632770412845,1.5607497090248712,0.9966484115050123,-0.038168684824228145,0.04150881002116938,0.05926309166716658,0.009484112335485406,0.0063238816545219375,4467.048236051225
1684731284340431928,181,1684731284340431928,camera_1,182,0,0.0801340273929272,0.19507742079443888,1.562221258922398,0.996789439811077,-0.03784973661778715,0.040159561791135716,0.058012237638515166,0.005233854055404663,0.0034964221916582985,4460.1662103353265
1684731284350506067,182,1684731284350506067,camera_1,183,0,0.08013306879321487,0.19445023347027893,1.5626023393178665,0.9969562011454552,-0.037952307741179164,0.044922757119236045,0.05118497071941675,0.009099890070501715,0.006076677150110089,4463.18839710596
1684731284360407829,183,1684731284360407829,camera_1,184,0,0.08003336567672098,0.19339050639888994,1.5611157639764817,0.9964092413156675,-0.03840427182281582,0.04421856276791306,0.06114290174039248,0.003903727018041536,0.0026040401104010704,4459.458148210251
1684731284370233058,184,1684731284370233058,camera_1,185,0,0.07999338973827944,0.19240459836781146,1.561037174076045,-0.9958833181000353,0.034914223482963566,0.005555350364700634,0.08346587213329398,0.0010419051541248336,0.0006953415666640043,4456.856400512422
1684731284380292177,185,1684731284380292177,camera_1,186,0,0.0799600361872079,0.19015897495522557,1.5617075424053608,-0.9960269244514987,0.034831646977779934,0.005218363880402415,0.08179175273165071,0.0075481564563233405,0.00504203097533601,4454.95372365939
1684731284390305280,186,1684731284390305280,camera_1,187,0,0.07995078857889337,0.18904773993772817,1.5629916061050675,0.996863540643596,-0.037785425770821626,0.04209380034351788,0.0553484860449831,0.0006256713531911373,0.0004184121237559939,4452.568279101604
1684731284400505065,187,1684731284400505065,camera_1,188,0,0.07998602843680662,0.1879935238342238,1.5640450694776564,0.9971115335705875,-0.0381294461378046,0.03222452263868913,0.05723910462650637,0.012326146752457134,0.008249851036707102,4453.219051254039
1684731284410664796,188,1684731284410664796,camera_1,189,0,0.07983221701191091,0.18665297690430604,1.5621740695838877,0.9968226032869142,-0.036914641315011314,0.03887336792605868,0.05891407386158896,0.003159343745210208,0.0021122154347090047,4451.744197570253
1684731284420733928,189,1684731284420733928,camera_1,190,0,0.07970918635913121,0.1847486805169928,1.5612200772155487,0.9966560230529957,-0.038064307155383136,0.03972502975051858,0.060413593207883864,0.002898768871091306,0.0019360477927353513,4452.919305848889
1684731284430935382,190,1684731284430935382,camera_1,191,0,0.07977576129759409,0.184345119932347,1.5629473346506715,0.9973729819839947,-0.03694773815209196,0.04237718377969077,0.04567465105176924,0.004316072911024094,0.0028853121323319745,4458.693271086202
1684731284440733432,191,1684731284440733432,camera_1,192,0,0.07978550601543788,0.1840134534936173,1.56354002721873,0.9973088720229131,-0.0377436544919415,0.040580022786775,0.04799679239910161,0.003428977521252818,0.002294805374846955,4453.135344547482
1684731284450457572,192,1684731284450457572,camera_1,193,0,0.07973853071481028,0.18377612251362435,1.562990478266243,0.9971624052409461,-0.03720904832878478,0.03638893834375148,0.054391814299323764,0.005779932587756775,0.003868992298279694,4450.279299726302
1684731284460792541,193,1684731284460792541,camera_1,194,0,0.07970559814387952,0.1840605760216512,1.5618807094665204,0.9969811037545679,-0.037555017908555505,0.04099958509753891,0.054197171587097505,0.0049114862631540745,0.0032810604679577673,4455.619823441724
1684731284470935344,194,1684731284470935344,camera_1,195,0,0.07971793842379007,0.1845906171390477,1.5617150771625568,0.9969567490102544,-0.03803605572145146,0.03578369575190251,0.05787941072950223,0.00706070035812445,0.004719271336419529,4454.518496163364
1684731284481056213,195,1684731284481056213,camera_1,196,0,0.07977640373724312,0.18537575721014293,1.5621819746121752,0.9970129493192496,-0.036717743573036685,0.043839505124449826,0.051914198318763094,0.008125887281494215,0.005427877316856369,4456.7496106041335
1684731284490998029,196,1684731284490998029,camera_1,197,0,0.07980330412261111,0.1863546993635753,1.5620024140750695,0.9959341995455332,-0.0347147672180675,-0.0053782316110403666,-0.08295197247402702,0.004351855051936582,0.0029083958956537246,4450.872710042608
1684731284499991655,197,1684731284499991655,camera_1,198,0,0.07988264437564849,0.1885840996218086,1.5624321510442944,0.9967861943726671,-0.037313679291687316,0.042055623692111514,0.05706396903160603,0.0008778461633482948,0.0005867209035051405,4453.355115586777
1684731284510373592,198,1684731284510373592,camera_1,199,0,0.07982706943194316,0.18955729582611944,1.5605915372012626,0.996649909748456,-0.03846947169491869,0.04113255765235855,0.059305731990117176,0.0018167075904784724,0.001211543544055674,4462.617931501445
1684731284520496368,199,1684731284520496368,camera_1,200,0,0.0799443390671532,0.19090618937605278,1.5614392405067858,-0.996278809250023,0.03451557169984479,0.007264671971833042,0.07864117299946051,0.00605860493669752,0.004043694509607049,4459.728263795841
1684731284530924320,200,1684731284530924320,camera_1,201,0,0.08052150445016842,0.19332968957481636,1.5718631086414212,0.9984135907317172,-0.035984896631685366,-0.012618750062573823,-0.041426515705095875,0.06194270962441806,0.04161031197034077,4463.8643175185425
1684731284540580034,201,1684731284540580034,camera_1,202,0,0.08080343241712772,0.19579098024478742,1.575692050647229,0.9990380262428573,-0.03741488870821012,0.022520409140460076,-0.003997423654612261,0.07403124620032031,0.04988186730661055,4460.69755261729
1684731284550764799,202,1684731284550764799,camera_1,203,0,0.08010588712794366,0.19474860710645758,1.561457108661845,0.9966577394682264,-0.038648866375102134,0.03802393108168488,0.06110479646557607,0.010773206420708448,0.007192448042801994,4461.271572803964
1684731284560939073,203,1684731284560939073,camera_1,204,0,0.08009832699624242,0.19526162119046298,1.5611835436956827,0.9965356988400621,-0.038584043609217335,0.0369750330331577,0.06372377459244097,0.00480708027316723,0.003209461016494639,4460.309648414843
1684731284570614337,204,1684731284570614337,camera_1,205,0,0.08006479352610787,0.1954859051283711,1.5604811871617466,0.9966548833625143,-0.03782895332713505,0.04253979019783027,0.0586377012659191,0.004242673880071379,0.002827459364688532,4468.890001838969
1684731284580284595,205,1684731284580284595,camera_1,206,0,0.08011300675586827,0.1955353272554383,1.5616881528649325,0.9968059664886277,-0.038029484518070616,0.03720932408186169,0.05955744857978274,0.00493465579347685,0.003295544534145225,4462.865282736309
1684731284590799570,206,1684731284590799570,camera_1,207,0,0.08022825681631934,0.19543494386882446,1.5641769547731306,0.9972968105160775,-0.03719301083985323,0.043026520766485506,0.04652386688417691,0.0017198548302985728,0.0011507367238451933,4460.6175910792645
1684731284600701332,207,1684731284600701332,camera_1,208,0,0.08003651826651323,0.19436912830838857,1.5605950115712983,0.9963749952362039,-0.03793076082397546,0.03944351453693992,0.06513321282067261,0.0014554625959135592,0.0009709548927673274,4460.220299429146
1684731284610739946,208,1684731284610739946,camera_1,209,0,0.08011776916116103,0.1938137178834531,1.5628435912870497,0.9968866409421794,-0.03831856217615952,0.04010615857516045,0.05603756729297249,0.002651694361702539,0.001772741998165162,4457.841302822574
1684731284620737075,209,1684731284620737075,camera_1,210,0,0.07999114672974873,0.1916190006221176,1.5618278704656943,0.9964797349807666,-0.038917569197129645,0.04254112962947807,0.060858958833484904,0.0020345735392766073,0.00135875957026652,4454.814915586964
1684731284630488872,210,1684731284630488872,camera_1,211,0,0.08005074018266463,0.19065831742085293,1.5636598534468662,0.9970589085210368,-0.038412105339536484,0.03653493421064519,0.05534655982486229,0.006634354416746646,0.004441670142864278,4452.32976303104
1684731284640573978,211,1684731284640573978,camera_1,212,0,0.07995095344336718,0.18936825044620814,1.5625104403761718,-0.9957653748190186,0.034878198703437245,-0.0004225015980553635,0.08505675199031872,0.0020091224723728374,0.0013445464286138524,4448.076190326858
1684731284650410413,212,1684731284650410413,camera_1,213,0,0.0799557126920396,0.18827743285952664,1.563369082164544,-0.9965685067366146,0.03506644060499964,0.00517421722324229,0.0747982860778047,0.003455320169450715,0.002311735259708632,4453.522554746186
1684731284659807443,213,1684731284659807443,camera_1,214,0,0.07987496534160506,0.1861519385463993,1.5637051551139467,0.997413806419256,-0.03700288069059959,0.03930965766066359,0.04744719590713037,0.002197749650804326,0.001470896493524433,4455.559295805871
1684731284670117855,214,1684731284670117855,camera_1,215,0,0.07978675243061457,0.18512437679758914,1.5625167659102313,0.9969999587718136,-0.037854514991347794,0.036074573138729915,0.05706788130490197,0.006238450951059349,0.004173591372911844,4451.34113667434
1684731284680325031,215,1684731284680325031,camera_1,216,0,0.07966184091333534,0.18425914889866407,1.5609664874320215,0.9968169439789254,-0.03784118619416109,0.033795812596478944,0.06149689321322147,0.0004878800973528996,0.0003260140130709423,4454.422550014221
1684731284690570831,216,1684731284690570831,camera_1,217,0,0.0797143899960448,0.1839318056571177,1.5621921904632807,0.9970623272760458,-0.03751070624191126,0.04170215656313847,0.05215930005369908,0.005400102789280936,0.0036084307735521916,4455.755295446024
1684731284700706005,217,1684731284700706005,camera_1,218,0,0.07969143747395506,0.18366246087289717,1.5617720809033704,0.9969757435088774,-0.037483771719423374,0.03968216194746039,0.05531419108856953,0.006978201010497287,0.0046625385855397754,4454.937539310368
1684731284710542917,218,1684731284710542917,camera_1,219,0,0.07973376263048157,0.18403747273057913,1.5625787816989343,0.9970887484895354,-0.03740183879041814,0.0432106756354281,0.05047739693959442,0.003990335259004496,0.0026670744804356333,4454.906076708196
1684731284720401763,219,1684731284720401763,camera_1,220,0,0.07972405209887573,0.1844538996692782,1.5620285950118302,0.9970883819692306,-0.03787544359615336,0.040072615921454016,0.052672523839171224,0.005811266280943528,0.003882892197791008,4457.342334002666
1684731284730463266,220,1684731284730463266,camera_1,221,0,0.07976348104892649,0.18518124511761075,1.5621892008275344,0.9968605942961035,-0.036874885558507015,0.04397956120721678,0.05454352895336958,0.004980871788575314,0.003327938603230299,4453.337052417279
1684731284740153789,221,1684731284740153789,camera_1,222,0,0.07978629066690679,0.18704440302896627,1.5613846628705765,0.996616174785432,-0.03823573364997371,0.03855681025973926,0.06170576319028908,0.0037066634540678933,0.0024761069018550425,4453.268924426172
1684731284750281810,222,1684731284750281810,camera_1,223,0,0.07987082981456542,0.18829482495673938,1.5624028136217414,0.9969157903716083,-0.037961420668716654,0.04129707935166108,0.05488523194436773,0.0024580580356996506,0.0016426504910762652,4456.150894554914
1684731284761140823,223,1684731284761140823,camera_1,224,0,0.07989417444741304,0.18944630360481884,1.561835833512188,0.9966538809693117,-0.03888505692737124,0.039228127126944255,0.060250709030487556,0.004580171938869171,0.0030600630223455213,4454.778419473907
1684731284770533084,224,1684731284770533084,camera_1,225,0,0.07994529117147453,0.19069173178070653,1.5621968557819457,0.9967898583945781,-0.03829812708159909,0.0467110157821055,0.0525481937687934,0.001761355233611539,0.0011759430124136164,4459.8686595523895
1684731284780596256,225,1684731284780596256,camera_1,226,0,0.08008323302359042,0.19305318758497886,1.5630512136421872,0.9967734275084308,-0.03793207486375725,0.04341132022160884,0.055851134153589645,0.004051575961057097,0.002708793599491009,4454.808449006638
1684731284789922475,226,1684731284789922475,camera_1,227,0,0.08016740842862177,0.19409295730439874,1.5636649363049493,0.9970496860125875,-0.03787587322354068,0.04708649811739182,0.047330788550328996,0.009674601489678025,0.006467656874546603,4459.702634929564
1684731284799748420,227,1684731284799748420,camera_1,228,0,0.08020287261765721,0.19488363292340685,1.5637151669680052,0.997171893932367,-0.03791688914106745,0.03964201510626587,0.0513715301262763,0.004168285464402288,0.0027886601942195234,4459.160417796811
1684731284809802770,228,1684731284809802770,camera_1,229,0,0.08018257702951738,0.19537822957535697,1.5628736902779077,0.9970428258090094,-0.03803788280728226,0.03821896030517772,0.05475430620066841,0.0068078385083936155,0.004550747628534588,4461.20410992351
1684731284819934129,229,1684731284819934129,camera_1,230,0,0.08009865401501896,0.19559226809681446,1.5608245162357879,0.9966564239406008,-0.03757952493945734,0.041291113524981216,0.059655644050880634,0.008638636048999615,0.005760336267311192,4466.249105472814
1684731284830097675,230,1684731284830097675,camera_1,231,0,0.08019609303397315,0.19579180423984735,1.5631957683628803,0.9970816491379709,-0.03786315296935735,0.041416257564896475,0.051761570772545853,0.0030697280453750864,0.002052039662443767,4461.789959889833
1684731284840005874,231,1684731284840005874,camera_1,232,0,0.08017203948016188,0.1953739988867547,1.562640752131908,0.9968653916738069,-0.03805614092081548,0.038255894439645784,0.05785851330500503,0.004729195963591337,0.003161280164328753,4458.878369035023
1684731284849875688,232,1684731284849875688,camera_1,233,0,0.08013491289932198,0.1948446050568171,1.5628455649735127,0.9971578578731741,-0.037886481357455336,0.04167170423638774,0.05004288239269397,0.0007370211533270776,0.0004924384265396031,4464.834552288987
1684731284859892368,233,1684731284859892368,camera_1,234,0,0.08006440691089631,0.19307135563222047,1.5621945280092413,0.9966632972524198,-0.03812064524895536,0.042139167695760094,0.05859504127182353,0.0018872969230869785,0.0012607534403840165,4457.038308638148
1684731284870087385,234,1684731284870087385,camera_1,235,0,0.07999088572725874,0.19195432113362265,1.561835974658807,0.9966219130671459,-0.03849003277809091,0.04074825913739745,0.06002382150776157,2.2256936063058674e-05,1.4866184211655024e-05,4456.923399017044
1684731284880501031,235,1684731284880501031,camera_1,236,0,0.07994661983248462,0.19077247755491344,1.5615632013576721,0.9962138893394384,-0.03817869324363908,0.04371422926810085,0.06472511281483548,0.0015587996604153886,0.0010409817079285691,4449.927981045619
1684731284890666007,236,1684731284890666007,camera_1,237,0,0.07994603423371979,0.18964921357424416,1.5619067035541405,0.9958462418436573,-0.03470220695093101,-0.0046100548235891835,-0.08405216733149938,0.01210073457332328,0.008087351014165871,4451.029428473704
1684731284900157213,237,1684731284900157213,camera_1,238,0,0.08002631328051826,0.1877245277165296,1.5655077375829207,-0.9968841663850893,0.03506038928999786,0.0004038628726265496,0.0706580838143777,0.008210220097680576,0.005509136814514191,4447.458168559358
1684731284910241127,238,1684731284910241127,camera_1,239,0,0.0798052180468497,0.18620505035290882,1.5621308887220713,0.9966980348232439,-0.03767673077350488,0.04031781627318341,0.05956479689100232,0.004296106082620099,0.0028718428063310084,4450.11449125342
1684731284920141220,239,1684731284920141220,camera_1,240,0,0.07990001603889357,0.18555945347833905,1.56427369986096,0.9969005125540552,-0.034791342515036204,-0.005757214104920339,-0.07032627561028566,0.0032323475170414895,0.002164568536759765,4452.05373315583
1684731284930414676,240,1684731284930414676,camera_1,241,0,0.07966549688717572,0.18435436815342346,1.5607070339726004,0.9966734354642449,-0.03736002521296056,0.04022820609642428,0.06023274018547035,0.0027543963224161416,0.0018384421182962905,4455.522684205032
