%time,field.header.seq,field.header.stamp,field.header.frame_id,field.image_seq,field.transforms0.fiducial_id,field.transforms0.transform.translation.x,field.transforms0.transform.translation.y,field.transforms0.transform.translation.z,field.transforms0.transform.rotation.x,field.transforms0.transform.rotation.y,field.transforms0.transform.rotation.z,field.transforms0.transform.rotation.w,field.transforms0.image_error,field.transforms0.object_error,field.transforms0.fiducial_area
1682301959675742864,0,1682301959675742864,camera_1,1,0,0.6630030655201818,0.49756541282055755,1.8126442207219575,-0.9799949261363569,-0.04463211285478601,0.1567061856052505,0.1142851287008372,0.20808333734748885,0.01959135321762542,20473.12788904505
1682301959715694904,1,1682301959715694904,camera_1,3,0,0.6633040386080458,0.4871112114027955,1.8124962324427454,-0.9800447734549304,-0.044500719862374756,0.15616523183694606,0.11464880427077018,0.20121612772345543,0.018906458352170145,20552.68699188158
1682301959725787639,2,1682301959725787639,camera_1,4,0,0.6631257278061552,0.48158029253545787,1.8117884883524784,-0.9800000685489781,-0.04464852047590983,0.1567202901646059,0.11421526130089701,0.1975959128467366,0.0185366698463135,20600.51741546718
1682301959745682239,3,1682301959745682239,camera_1,6,0,0.6635285682324961,0.4793676073469548,1.8127397107577463,-0.9801108605456398,-0.04473818806186481,0.15619001928077128,0.11395557663624477,0.179082834511064,0.01681041194417028,20605.928310871353
1682301959775892972,4,1682301959775892972,camera_1,8,0,0.6631975914964844,0.47230539611176003,1.810988640959514,-0.9799962281158765,-0.04464229262843136,0.15695490295592773,0.11392812218951019,0.19219085841905326,0.017990963768265544,20672.9161016437
1682301959805811643,5,1682301959805811643,camera_1,10,0,0.6630852321515239,0.4678005084769546,1.8105456875466217,-0.9800076728865031,-0.044549892666628496,0.15680573826306882,0.11407115584032095,0.18442698958097026,0.017244180256427342,20710.7494883854
1682301959815466403,6,1682301959815466403,camera_1,11,0,0.6632066303010571,0.4669810849670953,1.8108250820398186,-0.9800227964663831,-0.04463471761580821,0.1565851107594156,0.1142110479683506,0.18454811145784333,0.017258027151359878,20711.67397535185
1682301959825792074,7,1682301959825792074,camera_1,12,0,0.6628423737130857,0.4661384435302217,1.8096891206091341,-0.9799457695663247,-0.04443533778850619,0.1576646609938237,0.11346208238168169,0.16624142916407436,0.015528364820268382,20730.774280922953
1682301959835689067,8,1682301959835689067,camera_1,13,0,0.6627693154647691,0.465890707677128,1.8093966966768242,-0.9799048508471223,-0.0445351610821669,0.15776729088176575,0.11363355420602039,0.1743622774956748,0.016281392039563816,20734.667018247535
1682301959845774650,9,1682301959845774650,camera_1,14,0,0.6628720798994207,0.4661022611828645,1.8096252704437605,-0.9799297318038145,-0.04444231259146577,0.15767177983036396,0.11358790174817099,0.17487876006634906,0.016334215147533374,20730.290027787567
1682301959855811595,10,1682301959855811595,camera_1,15,0,0.6631871785614868,0.466847346075203,1.8105851510459885,-0.9799781136773859,-0.044530686937353174,0.15679699177557335,0.11434429589765618,0.1639077445724979,0.01532394159220597,20712.09760679899
1682301959865660190,11,1682301959865660190,camera_1,16,0,0.6630204622366158,0.4675854424864112,1.8102729642519337,-0.9799680720192666,-0.04449860102171969,0.15716709659079078,0.11393399878514081,0.1827726837946102,0.017085075788666505,20713.06836965448
1682301959885757923,12,1682301959885757923,camera_1,18,0,0.6632408206571203,0.4703861951378339,1.8111954096199947,-0.9799954278410205,-0.04457411993677025,0.15653981043338228,0.11453120531994164,0.18024947948288172,0.01686993503958193,20681.498061111775
1682301959895673274,13,1682301959895673274,camera_1,19,0,0.663234879421321,0.4721150412858892,1.811249614355167,-0.9800258057748635,-0.04464854421987679,0.15686751505285887,0.11379152092979654,0.189573472016491,0.017749950547869313,20672.160904889002
1682301959905633449,14,1682301959905633449,camera_1,20,0,0.6633261232358216,0.4742178514690861,1.8115322796029925,-0.9800211733793056,-0.04462915359453066,0.15656314311006747,0.11425725621238089,0.1972665839130059,0.01848065241353608,20652.86331898883
1682301959925867795,15,1682301959925867795,camera_1,22,0,0.6633207094133785,0.479048870239591,1.811949739673187,-0.9800592348143661,-0.044664874243809743,0.1561216910798845,0.1145205782303822,0.21274408657336608,0.019952525643917963,20618.669555338813
1682301959935614347,16,1682301959935614347,camera_1,23,0,0.6632583201828983,0.4815721573825759,1.8120774925280176,-0.9800520159004578,-0.044586113039619034,0.1564183912364166,0.11420775602593097,0.20961667457595468,0.019670367869602187,20598.971927009174
1682301959945712566,17,1682301959945712566,camera_1,24,0,0.6633889280665389,0.4843516030197463,1.8126760489959557,-0.9800855363739385,-0.044639119520559566,0.1563594147444164,0.11397992726713875,0.21496104152174667,0.02019388913804207,20571.842885137303
1682301959955682277,18,1682301959955682277,camera_1,25,0,0.6634640607335759,0.48730258492111933,1.8130868040077348,-0.9800335178308957,-0.044589718766760746,0.15584102975932823,0.11515048567788584,0.23883269965881482,0.022454055583762872,20539.492371881846
1682301959965654611,19,1682301959965654611,camera_1,26,0,0.66352400289135,0.4902132731361512,1.8133892956021322,-0.9801278182060087,-0.04442166061520504,0.15632579456014614,0.11374718458957823,0.2199696652824059,0.020700865667815847,20520.455992603434
1682301959975660562,20,1682301959975660562,camera_1,27,0,0.6633919793241085,0.4929766435142357,1.8131374045419166,-0.9800642040956657,-0.04445031676908495,0.15647334100208732,0.11408075536698394,0.22512189153349024,0.021190234930805962,20500.27874355391
1682301959985661268,21,1682301959985661268,camera_1,28,0,0.6630565425610235,0.4980257624996928,1.8126109992252633,-0.9800343167223159,-0.044192001931033224,0.1565728307662712,0.11430115344032085,0.22639061912195757,0.021317089382558236,20471.424219341254
1682301960005731821,22,1682301960005731821,camera_1,30,0,0.663241672612934,0.5007035169769549,1.8133763660668702,-0.9800842795029588,-0.04446239186341271,0.15569751260423903,0.11496166904583133,0.1978011691244319,0.018646378791680594,20443.204729042714
1682301960025811433,23,1682301960025811433,camera_1,32,0,0.6628690332716831,0.5049035005471328,1.8128720975180674,-0.9800667978614588,-0.04438463733930746,0.15624825748550666,0.11439212267716446,0.2123290963936597,0.020022726025194542,20420.703551746203
1682301960045804977,24,1682301960045804977,camera_1,34,0,0.6629636902125804,0.508187359672962,1.8132283628264423,-0.9801702983454146,-0.04436960759997753,0.15566495000213854,0.114306375603973,0.20674607931869105,0.019515836259360056,20397.87404362287
1682301960085821151,25,1682301960085821151,camera_1,36,0,0.6626606451946325,0.510538268761977,1.812756294962804,-0.9801205582543676,-0.044527221812431315,0.1559380501234096,0.11429935401620721,0.18600819981656969,0.017557399456555062,20385.979116195584
1682301960095558404,26,1682301960095558404,camera_1,37,0,0.6628411037260221,0.5103979783607342,1.8132967906040875,-0.9801630933585815,-0.04452764718704225,0.15555771666359647,0.11445259210752486,0.19003895297646523,0.017946667147763985,20380.670919897268
1682301960105680227,27,1682301960105680227,camera_1,38,0,0.6628697668392202,0.5097555859997217,1.8132158975724546,-0.9802293606038038,-0.04444559839848542,0.1555025757792797,0.11399095718199756,0.19775858463253826,0.018672788845696918,20392.63168582041
1682301960115909337,28,1682301960115909337,camera_1,39,0,0.6627545825694638,0.5086924908821734,1.812695241696572,-0.9801150586837915,-0.04433384031873739,0.15609601536531964,0.11420602580831968,0.20483705529477447,0.019327550420937225,20399.150878237917
1682301960125784397,29,1682301960125784397,camera_1,40,0,0.6631157504574954,0.5077268624391982,1.8135120227136858,-0.9802935533986955,-0.04429453115881667,0.1549862031255705,0.11420079034358316,0.21114151790970936,0.019934394537786854,20406.944574194953
1682301960145781755,30,1682301960145781755,camera_1,42,0,0.6631208267486249,0.5044834100475729,1.813312147519788,-0.9801095657828495,-0.044476415334064726,0.15534719351023277,0.11521430904397426,0.21829147631069645,0.02059093545216071,20418.949582594447
1682301960155682802,31,1682301960155682802,camera_1,43,0,0.6630288039144634,0.50234846592801,1.8130577273514712,-0.9800513275927288,-0.04449223130413458,0.15611997123863686,0.11465771329377039,0.21202241879655048,0.019987388650236214,20434.855490054128
1682301960166017293,32,1682301960166017293,camera_1,44,0,0.6631170509784572,0.5001125842961751,1.81318740285679,-0.9800869039122012,-0.04443077627043475,0.15621053466436563,0.1142533840184843,0.2146138529642485,0.02022659990757247,20451.88099395857
1682301960175981521,33,1682301960175981521,camera_1,45,0,0.663285220382503,0.4977867068934282,1.8134262824434588,-0.9801115567790822,-0.04447581498678643,0.15602155348498675,0.11428260146442393,0.2129996278672479,0.020070659881896977,20466.264883751166
1682301960185821533,34,1682301960185821533,camera_1,46,0,0.663251092496414,0.4952690078804217,1.8130320624609175,-0.9800401994102194,-0.04443843684840735,0.15632061794671917,0.1145002064417509,0.22574204608099535,0.021253507680646672,20484.772134258877
1682301960195573091,35,1682301960195573091,camera_1,47,0,0.6631972731805523,0.49259081514099873,1.8125527707536957,-0.9799733522148072,-0.044485489666530154,0.15677545721726585,0.11443219028018221,0.22064480220433325,0.02075446565888345,20506.426643419425
1682301960205889463,36,1682301960205889463,camera_1,48,0,0.6632999714035934,0.4898747283801797,1.8125857645728856,-0.9800754552239214,-0.04444597958979587,0.1565784292337675,0.11384134778108014,0.21038039174163714,0.019781203232809772,20533.623545627343
1682301960215801239,37,1682301960215801239,camera_1,49,0,0.6633664730769688,0.48715428638332386,1.8126584990654426,-0.9800814810815297,-0.04458675812440864,0.15614519684149364,0.1143284257930719,0.2253814161522314,0.02118179213353151,20552.565935553757
1682301960225764513,38,1682301960225764513,camera_1,50,0,0.6633463800169379,0.48437482291601747,1.8125263271811325,-0.9801277995777996,-0.04457960295489376,0.1562237394475006,0.11382573842591182,0.2088424112298526,0.01961616057974518,20578.429620547224
1682301960235667943,39,1682301960235667943,camera_1,51,0,0.6633051537135836,0.4817351628302927,1.812306273989357,-0.9800753572117099,-0.04466194556309297,0.15618194291099788,0.1143013801902871,0.19045058189658448,0.0178755450770148,20596.356665109404
1682301960245723962,40,1682301960245723962,camera_1,52,0,0.6631482957892143,0.47910252907953216,1.8116557351338365,-0.9800239203376072,-0.044610952160486245,0.15662186487505295,0.114160281869409,0.19452887715306133,0.018239374956144357,20621.184963500007
1682301960255500078,41,1682301960255500078,camera_1,53,0,0.6632233379114167,0.47665696634732085,1.8115915161786251,-0.9799654985357347,-0.044505188338775765,0.15691718884312233,0.11429744413638919,0.19016036816174167,0.017822378576141485,20631.43673750002
1682301960265736103,42,1682301960265736103,camera_1,54,0,0.6632513876231955,0.47441035793556274,1.8114031444419365,-0.980034798007821,-0.04460142962834882,0.156294897282089,0.11451817433254102,0.18103808036539704,0.016957185743736204,20656.366210255426
1682301960275523900,43,1682301960275523900,camera_1,55,0,0.6632451187354345,0.47235933791078516,1.811175149412532,-0.9800067396441541,-0.04459139235471821,0.15668543110071723,0.1142281649186633,0.19028436427470297,0.017815016641328122,20670.14475114178
1682301960295438528,44,1682301960295438528,camera_1,57,0,0.663181657195882,0.46908846658341224,1.8108225457720308,-0.9800143609972027,-0.04457069005611833,0.1567798519975645,0.11404114974336,0.20290420239325613,0.018981307172194487,20697.627996028055
1682301960316109657,45,1682301960316109657,camera_1,59,0,0.6632061850833669,0.46696924273041207,1.8108334444387462,-0.9800140905934205,-0.04461800319352813,0.15641342262087105,0.11452710270236642,0.16755188477691263,0.015667775176498526,20711.165374960285
1682301960325986385,46,1682301960325986385,camera_1,60,0,0.6629328147701044,0.4662029056891036,1.8099313333998972,-0.9800116871064352,-0.04455423556270463,0.1570904995033157,0.11364236971315118,0.18049296300159767,0.016863015822965226,20732.464955281117
1682301960345780372,47,1682301960345780372,camera_1,62,0,0.6629725453819644,0.46618450576675496,1.8099068714283415,-0.9799621484866996,-0.044428437682421135,0.15770830181417256,0.11326249598751142,0.17993706493871287,0.016812601739483214,20726.530310315662
1682301960365954399,48,1682301960365954399,camera_1,64,0,0.6630658989007869,0.4676114597084187,1.8104021588989214,-0.9799636333154199,-0.04460800742599036,0.15669988054481757,0.11457115906703554,0.18941498512867838,0.01770660162948666,20711.080753187314
1682301960385730266,49,1682301960385730266,camera_1,66,0,0.6631185498466117,0.4702946279951634,1.81088052856613,-0.9799904855730951,-0.04456114131533164,0.15678847214505787,0.11423803164140599,0.18585164344403893,0.017389070539384065,20687.89991613174
1682301960406003713,50,1682301960406003713,camera_1,68,0,0.6632685507338812,0.47418120425166477,1.8113910334914187,-0.9800227788387837,-0.04453964351709532,0.15669687551051212,0.11409497060660241,0.1996210208744742,0.018698833613587502,20655.743005525786
1682301960425779342,51,1682301960425779342,camera_1,70,0,0.6632012651028248,0.47895188695113516,1.8115929601553153,-0.9799879098382177,-0.04469007778472825,0.15695752928739456,0.1139773114199192,0.22228765621548519,0.020842212573587034,20619.018640210965
1682301960445851087,52,1682301960445851087,camera_1,72,0,0.6632285746831948,0.4842520599478839,1.8122793607195888,-0.979964755099392,-0.04489877245005345,0.15655530970341322,0.11464560174352784,0.19118457927834243,0.01795099651622169,20570.981553010406
1682301960465672016,53,1682301960465672016,camera_1,74,0,0.6635601591593693,0.49027702501516995,1.8134563964075523,-0.9801030496722604,-0.0446129946651413,0.15601496056545483,0.11431108786947348,0.24621924379607663,0.023171826162280817,20517.238114552114
1682301960485859870,54,1682301960485859870,camera_1,76,0,0.6632981779463825,0.49559511644087656,1.8130555625863987,-0.9800908536106694,-0.044279211556013436,0.15605910166086354,0.1144850509083688,0.20798637880943716,0.019583357658679332,20485.69532027538
1682301960495740890,55,1682301960495740890,camera_1,77,0,0.6632461716593472,0.4981484814003239,1.8131203388613903,-0.9801161347618668,-0.04442801185615785,0.1558524642374537,0.11449246059492574,0.22188025654759258,0.02090242280200067,20469.238868593115
1682301960515855550,56,1682301960515855550,camera_1,79,0,0.6630347184016837,0.502929046946374,1.8130993586732107,-0.9800853634621611,-0.044490874251222536,0.15590521821330236,0.11465951931465629,0.22882735932944342,0.021574880434443996,20432.909372177786
1682301960525929927,57,1682301960525929927,camera_1,80,0,0.6630421442730099,0.5050125545095148,1.8133252872505525,-0.9801435476721746,-0.04447084120470738,0.15570696721217392,0.1144391130721321,0.18688760686200112,0.017631247138775456,20418.579803318484
1682301960536036491,58,1682301960536036491,camera_1,81,0,0.6629440902816426,0.506695878806074,1.8131350520169809,-0.9801920213181593,-0.04445979577390563,0.15565029895437513,0.11410483048222586,0.20067146280780435,0.018934887781842994,20413.942356856533
1682301960545751333,59,1682301960545751333,camera_1,82,0,0.6629206992205141,0.5081540144477387,1.8131159842925955,-0.9801574267191163,-0.044421218363170666,0.15530230836126055,0.11488849909436379,0.19507760123815387,0.018410603426430944,20399.75912472268
1682301960555842638,60,1682301960555842638,camera_1,83,0,0.6627439541256819,0.5092364549329562,1.812696559011643,-0.98009513034021,-0.044339581115432423,0.15577528400620064,0.11481114023779364,0.19851785275386646,0.01873201414696187,20393.280561555057
1682301960565850019,61,1682301960565850019,camera_1,84,0,0.6628785538064824,0.5101589011685793,1.8131228435191864,-0.9802002971868881,-0.04431659014205805,0.1556828206998706,0.11404506377677692,0.19083313987357542,0.018019098022955617,20387.365891700378
1682301960575851917,62,1682301960575851917,camera_1,85,0,0.6626488613917567,0.5104486194884751,1.8125988699788642,-0.9801350807403956,-0.0444958265759652,0.15577076635377007,0.11441509196298874,0.18576450168620795,0.017531133938284493,20390.67648977191
1682301960585793018,63,1682301960585793018,camera_1,86,0,0.6626612043276198,0.5105284510058266,1.812740557045608,-0.9801265576166285,-0.044485008499871435,0.15601662661200205,0.11415702910445626,0.17011923575773835,0.01605746607835876,20386.6857110879
1682301960615866184,64,1682301960615866184,camera_1,88,0,0.662872546503894,0.508797902837214,1.8130343282765966,-0.9801886934204627,-0.04443912565169284,0.15547958384230381,0.11437389741642708,0.21274790511233732,0.02008041775271547,20399.272259429446
1682301960625682353,65,1682301960625682353,camera_1,89,0,0.6629485648174078,0.5075937676883487,1.8130544233014962,-0.9802063685420657,-0.04442145068273535,0.1555682355574596,0.11410843033867622,0.19751893525244668,0.018639467831194013,20409.258378521543
1682301960635797977,66,1682301960635797977,camera_1,90,0,0.6630377932107356,0.5061566562535267,1.8131638719427288,-0.9802077113420539,-0.04443132927877847,0.1552539980657227,0.11452028505335822,0.18931957689346746,0.017861670644784066,20418.297753944058
1682301960645836114,67,1682301960645836114,camera_1,91,0,0.6627773704205523,0.5042267044550242,1.8124149160282326,-0.9800389496512426,-0.044378595301107285,0.15615569220129638,0.11475886562145836,0.2090612848987803,0.01970228509398327,20431.832091949876
1682301960656122446,68,1682301960656122446,camera_1,92,0,0.6628432200034081,0.502192541391751,1.8125101304418114,-0.9800447901627598,-0.04434185525061078,0.1565433503040483,0.11419364528444648,0.2193447431200184,0.020666884138400936,20445.43432899692
1682301960665968179,69,1682301960665968179,camera_1,93,0,0.6631306947547978,0.5000983240212911,1.8132004762003744,-0.9800696350263861,-0.04446296058946535,0.15644607514456746,0.11406656480637253,0.19897119991946965,0.01875296897892665,20449.996475749074
1682301960675884723,70,1682301960675884723,camera_1,94,0,0.6632025594492131,0.49772442308034714,1.8131944409084344,-0.9801074110013862,-0.044461241736824086,0.15624455730009856,0.11401885457009205,0.1996384328813292,0.018807379832989805,20470.858494687585
1682301960685796022,71,1682301960685796022,camera_1,95,0,0.6632401630823722,0.49525893692825024,1.8130218501461373,-0.9800890013534256,-0.04452435931923522,0.15608883545813734,0.11436523203569811,0.20370780996745452,0.01917817961478451,20490.30272564153
1682301960695788145,72,1682301960695788145,camera_1,96,0,0.6632300055731972,0.4926075396724043,1.81268094687556,-0.9800595793072229,-0.044514574137195326,0.1561397821091757,0.11455148248902142,0.22426242468645796,0.021096321474902868,20512.53896858288
1682301960705784559,73,1682301960705784559,camera_1,97,0,0.6631541193461179,0.4897638411930994,1.8121834327784796,-0.9799703868675735,-0.04444946051124161,0.15721400421226853,0.11386853473380092,0.21622041845694184,0.020322281403893416,20532.450624139627
1682301960715863227,74,1682301960715863227,camera_1,98,0,0.6634168229323469,0.4871733465490859,1.8127806738435492,-0.980040433302354,-0.04456276279697967,0.15627569282048107,0.11451120948585362,0.22121963911922649,0.020793218153953134,20545.905872707714
1682301960735834121,75,1682301960735834121,camera_1,100,0,0.6631722716717635,0.48165598798345016,1.8119505058129,-0.979980564896196,-0.044725985430234934,0.15679040106145,0.11425606674490708,0.2026071347645484,0.019010202500639017,20595.23918129888
1682301960755812406,76,1682301960755812406,camera_1,102,0,0.6632851962391665,0.47670513956542776,1.811729735980343,-0.9800029311605375,-0.04443632879383888,0.15680031145863801,0.11416361034302747,0.20619595947209746,0.019328705720211246,20631.265436695663
1682301960775793552,77,1682301960775793552,camera_1,104,0,0.6631909282643189,0.47232155474541243,1.811020030622979,-0.9800083054412425,-0.044558394340426195,0.1569336761978545,0.11388631188608532,0.17231560905929655,0.016130619487482036,20673.29830394767
1682301960795819759,78,1682301960795819759,camera_1,106,0,0.6632596355847739,0.4691395488761015,1.8110588098578206,-0.980011330809826,-0.04449612226126981,0.15695967185663828,0.11384879445440026,0.18719043728196993,0.017516206044381005,20691.60925107543
1682301960805952310,79,1682301960805952310,camera_1,107,0,0.6632198260233368,0.4678633929721306,1.8108882663617372,-0.9800606043866825,-0.04455791174902822,0.1564171036295253,0.114146808636628,0.19884844089392573,0.018599123638246378,20708.263086922118
1682301960825891494,80,1682301960825891494,camera_1,109,0,0.6628589663078115,0.46615435652923765,1.809733868791862,-0.9799363316426613,-0.044467892175566626,0.15778751571939706,0.1133600122410348,0.1808064800570719,0.016890229349851904,20728.773068439914
1682301960845809936,81,1682301960845809936,camera_1,111,0,0.6628566286674065,0.4660915078520052,1.8095928715253404,-0.9799456268375109,-0.044462251182979244,0.1573907635422823,0.11383243919620153,0.18584193178685382,0.01735684376544891,20733.028726883007
1682301960855812311,82,1682301960855812311,camera_1,112,0,0.6631756067714741,0.4668408202669117,1.8105496462198627,-0.9800106817634925,-0.04462259374227955,0.1570633032005681,0.11366180776713226,0.1767300926730968,0.016523777200100915,20715.498226396747
1682301960875687599,83,1682301960875687599,camera_1,114,0,0.6629318401413568,0.4687091684987315,1.8102293701112158,-0.9799189888732865,-0.04461255037757541,0.1572331591572891,0.11422009129650715,0.18411273322999477,0.01721138653017012,20704.025239461793
1682301960885880231,84,1682301960885880231,camera_1,115,0,0.6631849769688328,0.47033149489789255,1.8110074898032822,-0.9799820144482412,-0.044560657273435424,0.15664358843356832,0.11450932444120754,0.19947399047669023,0.018665885126892597,20684.1980701664
1682301960895838022,85,1682301960895838022,camera_1,116,0,0.6632096616268724,0.47209313041539563,1.8111970509407478,-0.9800279738831593,-0.044603570915292295,0.15680343937760435,0.11387876565641278,0.19589040341088548,0.018340111116808163,20673.612559332403
1682301960905995607,86,1682301960905995607,camera_1,117,0,0.6630631020239832,0.47407004750102244,1.810848343792404,-0.9799142540585231,-0.044661292535859036,0.15735976711890143,0.11406720534071038,0.19293663708958775,0.018062660487632224,20657.865258609647
1682301960915845632,87,1682301960915845632,camera_1,118,0,0.6633370167386403,0.47657625274262383,1.8118017126219839,-0.9800326422036346,-0.0446021637069098,0.15622216719727372,0.1146355166787841,0.20545856014359742,0.019258844129296956,20634.53528351628
1682301960925856828,88,1682301960925856828,camera_1,119,0,0.6634317314001132,0.4791228324443308,1.812251016504931,-0.9800311467269283,-0.04465727656797992,0.15622997195010283,0.11461620722700251,0.2016887438367121,0.018921774966693193,20609.211687194766
1682301960935902357,89,1682301960935902357,camera_1,120,0,0.6630136370834767,0.48136474242126687,1.8113893966705397,-0.9799852408743817,-0.0446542547905886,0.1569002703970822,0.11409307755863198,0.19379120582016185,0.018172123036359622,20608.313449864865
1682301960945848226,90,1682301960945848226,camera_1,121,0,0.6634409087013714,0.4843942652693254,1.8128372870507967,-0.9800327140372547,-0.04472878791212576,0.1566233552979099,0.1140365709932978,0.1942548804800026,0.018251839676987,20563.598458548207
1682301960955932617,91,1682301960955932617,camera_1,122,0,0.6632743545486731,0.48718729313117537,1.8125990060304966,-0.9800117665725474,-0.044708991770917375,0.15643679069696242,0.11447957874930328,0.21546089148614556,0.020247637791204347,20548.301819622044
1682301960965913057,92,1682301960965913057,camera_1,123,0,0.6632812959026294,0.4900565680266892,1.8126967206276516,-0.980043361079118,-0.04452542626448206,0.15669234597891418,0.11392982722858805,0.22054056235356256,0.020739209909189017,20528.02218144876
1682301960975790023,93,1682301960975790023,camera_1,124,0,0.6632118342459634,0.4928093695983376,1.8126359252394226,-0.9800877435548596,-0.04450042266986477,0.15621489411734005,0.11421310858064966,0.20998726721154526,0.019753825851180642,20514.435805118297
1682301960985741138,94,1682301960985741138,camera_1,125,0,0.6633422463221188,0.4956154412836764,1.8131342209774008,-0.9800957042642899,-0.04444421570226342,0.15611112187454357,0.11430852899223096,0.220150412467774,0.020731072646918838,20484.756200115204
1682301960995707750,95,1682301960995707750,camera_1,126,0,0.6630250903463751,0.4980083188338674,1.812564709224244,-0.9800011377453512,-0.044520109781564184,0.15659708811428757,0.11442500529596175,0.20035098737571388,0.018863270776344292,20471.084351778492
1682301961005787611,96,1682301961005787611,camera_1,127,0,0.6632547670438609,0.5007313894871647,1.8134527914713223,-0.9801489178916781,-0.04443476802128335,0.1557002076486469,0.11441632525490202,0.21130659990012646,0.019922182139366022,20447.43520162511
1682301961015804767,97,1682301961015804767,camera_1,128,0,0.6631602688000867,0.5030122546830822,1.8134720753850213,-0.980158332094688,-0.04450159872035815,0.15556526216370592,0.11449323536623911,0.1982906929915771,0.01870266756907463,20432.00212662096
1682301961025694370,98,1682301961025694370,camera_1,129,0,0.6630673718059228,0.5050398021163752,1.813381473608341,-0.9801494147645534,-0.044437829592147426,0.1554704519967044,0.11472289481085785,0.20159247040282935,0.01901925862103958,20417.7258881611
1682301961035519838,99,1682301961035519838,camera_1,130,0,0.662940316889173,0.5066817654150226,1.8130981504079478,-0.9801271789574483,-0.044530521550197065,0.15553642432686643,0.11478748375582869,0.2038483441574499,0.0192327940614566,20408.974065547336
1682301961045561552,100,1682301961045561552,camera_1,131,0,0.6628792171556177,0.5080983743361908,1.8129667225542396,-0.9801649574367152,-0.04440909589540185,0.15569893336737112,0.11429055325396886,0.20587901450926438,0.019428441468711515,20403.384317085147
1682301961055893421,101,1682301961055893421,camera_1,132,0,0.6627643469889838,0.5092455947892964,1.8127560572282722,-0.9801376230906051,-0.044369197707407645,0.15580173268937927,0.11440032424817295,0.200040687690489,0.018877515885993117,20396.125928096015
1682301961065878868,102,1682301961065878868,camera_1,133,0,0.6627375854450842,0.5100383668660947,1.8127389907877482,-0.9801320672296814,-0.04429812902996471,0.15572357570740072,0.11458173729446357,0.19640206469921395,0.018536449993542415,20389.52964450163
1682301961075755834,103,1682301961075755834,camera_1,134,0,0.6626179132812764,0.5104285243658642,1.8125349780522158,-0.9801279983103135,-0.044607518488104805,0.1555037926299195,0.11479480258383885,0.17769278527703136,0.016767244417512997,20392.193401306286
1682301961085860967,104,1682301961085860967,camera_1,135,0,0.6627038140063413,0.5105444003078162,1.812835302901856,-0.9801705192719419,-0.04438023064085832,0.15578169806308487,0.1141411881268903,0.1846782531356439,0.017433536877851808,20388.31773344509
1682301961095750093,105,1682301961095750093,camera_1,136,0,0.6627754510890485,0.5103366578187652,1.813046124774589,-0.980146208394284,-0.04465562317342792,0.15528092837041632,0.1149222292410106,0.17048185074236244,0.01609436625560466,20385.081923399463
1682301961105565786,106,1682301961105565786,camera_1,137,0,0.6627003161708537,0.5096036873625042,1.8127302244576708,-0.9801289429819021,-0.044389359488182414,0.15605862970715265,0.11411636161100662,0.18018846365157515,0.017004961809982944,20393.594814864337
1682301961115814685,107,1682301961115814685,camera_1,138,0,0.6627868710340798,0.5087231093641873,1.8128013998233667,-0.9801362679566439,-0.044351380861388526,0.15612951964013144,0.11397115577483694,0.20304553676396608,0.019161048408410486,20398.904478710036
1682301961135887145,108,1682301961135887145,camera_1,140,0,0.6629900967784298,0.5061354609445612,1.8130635832500819,-0.980176613411461,-0.04439458115996809,0.1555011069490713,0.11446542457215603,0.19586222991347313,0.018477367703846424,20417.362834733907
1682301961155899047,109,1682301961155899047,camera_1,142,0,0.6631403411782645,0.5024169420978385,1.8133474920132335,-0.9801331260773255,-0.04446392684190149,0.1560639830842836,0.11404405972937083,0.20182279840810224,0.019032677670430296,20435.91256643878
1682301961165767669,110,1682301961165767669,camera_1,143,0,0.6630961283854988,0.5000728428557691,1.8131131990650196,-0.9801065130230645,-0.04449003482476166,0.1558073990092566,0.11461201658216894,0.19750816095620394,0.01861154176410158,20456.10322780232
1682301961175987482,111,1682301961175987482,camera_1,144,0,0.6632956235863754,0.4978034784835105,1.8134392805612518,-0.9801661592219264,-0.044369390857070194,0.15581511886235913,0.11413722532556446,0.2272032322944142,0.021409719728032718,20470.527195377865
1682301961185922861,112,1682301961185922861,camera_1,145,0,0.663232985197269,0.4952296832786551,1.8129880528014204,-0.9800111532983841,-0.04462729255600077,0.15653173849836557,0.11438688304421855,0.19449701847042888,0.0183107365985737,20483.974981415675
1682301961205743312,113,1682301961205743312,camera_1,147,0,0.6633385349397765,0.4898915650030399,1.8126930422331482,-0.9800600570376733,-0.044602844844721955,0.15618740077646365,0.11444809596390278,0.2097216373658739,0.01971971436555666,20531.037174272584
1682301961225799322,114,1682301961225799322,camera_1,149,0,0.6632428085060044,0.4843057044180201,1.812202542279205,-0.9800555345135186,-0.04466038766534823,0.1571111805925559,0.11319309155516362,0.23435923282522708,0.022008503763542592,20577.976507803425
1682301961245830774,115,1682301961245830774,camera_1,151,0,0.6631531091164143,0.47910150975600885,1.8117083872519115,-0.9799760061078859,-0.044676560551235964,0.1570157348504747,0.11400478673947835,0.19503153284313157,0.01828824891063312,20615.65063159797
1682301961265623569,116,1682301961265623569,camera_1,153,0,0.6632181202546656,0.474386391330748,1.8112954433744433,-0.9799746213604764,-0.04458487901768222,0.15691184359099627,0.1141954613513352,0.19244193646591157,0.01802492390023882,20652.27102737174
1682301961286584615,117,1682301961286584615,camera_1,155,0,0.6632834809282956,0.47064357193754697,1.8111689711146497,-0.9800884046919476,-0.044549197081022715,0.15630686505235447,0.114062491491877,0.20436907291878015,0.019128840914838883,20688.1955493656
1682301961305791139,118,1682301961305791139,camera_1,157,0,0.6631284973190206,0.46781327436479353,1.8106673339927335,-0.9799842397812304,-0.04456030383351244,0.15664608634241298,0.11448699811015328,0.19052558101247996,0.01781581502350411,20706.38060533279
1682301961325286865,119,1682301961325286865,camera_1,159,0,0.6628367080015792,0.46612149686139404,1.8096420081736257,-0.9799498472612053,-0.044571867498504954,0.15760526892722074,0.11345582702891352,0.1750914205913432,0.016354200574672118,20732.693691903027
1682301961345914602,120,1682301961345914602,camera_1,161,0,0.6629601058841007,0.466161607616113,1.809882004558837,-0.9799942938258943,-0.04450281961991619,0.1573704656667566,0.11342495162173163,0.18557824287563562,0.017338348791583098,20730.94927154133
1682301961366000413,121,1682301961366000413,camera_1,163,0,0.6630998063980883,0.46763856697031553,1.8105022300679712,-0.9800305945315323,-0.04452027734455541,0.15671499827542731,0.11401047321570092,0.1797241716994904,0.016803410218264123,20714.362690094847
1682301961385925531,122,1682301961385925531,camera_1,165,0,0.6632064529604992,0.47035964895579513,1.8110998319748925,-0.9800408887370923,-0.04446434210899662,0.15671007558112807,0.11395056338422216,0.18230612785555422,0.01706193439394535,20686.954863158295
1682301961405775547,123,1682301961405775547,camera_1,167,0,0.6634326885529265,0.47432601739327784,1.8118963773639587,-0.9801074306948074,-0.04457655949069787,0.1563974445174661,0.11376376395496739,0.18583420157665387,0.017416810829771607,20652.651936249105
1682301961426070690,124,1682301961426070690,camera_1,169,0,0.6634762775263808,0.47914398662351404,1.8123743611758787,-0.9801087183901591,-0.044532765177984546,0.15602387319961794,0.11428159936311677,0.20928971481043845,0.019638027619235773,20613.18832219764
1682301961455831527,125,1682301961455831527,camera_1,171,0,0.6633121452940293,0.4872368735010901,1.81271686609579,-0.9800052937743214,-0.04461251446063106,0.15625351066704693,0.11482241998856008,0.2254738707561046,0.02119053871184995,20544.865400220842
1682301961475797653,126,1682301961475797653,camera_1,173,0,0.66319864568548,0.49284101505935013,1.8126610579001867,-0.9800303397071357,-0.04445729645813401,0.15646505762140592,0.11437992738535793,0.21515508001903072,0.020240520259292655,20508.323571604793
1682301961495819568,127,1682301961495819568,camera_1,175,0,0.6631564000605916,0.49809334408162476,1.8129338699863682,-0.9800892985984597,-0.044352939254362365,0.15643700566872798,0.11395282712456335,0.21583050885237753,0.020329855118474217,20470.428213835694
1682301961515823364,128,1682301961515823364,camera_1,177,0,0.6630247505678131,0.5029298983464394,1.8130586931961066,-0.98006569095098,-0.044503952414714956,0.15544614634220957,0.11544321213308106,0.20321479282574728,0.019157164351919036,20432.315442435094
1682301961525780200,129,1682301961525780200,camera_1,178,0,0.6629541287209266,0.504960384611956,1.813101248109368,-0.9801694975155982,-0.04430446679818189,0.15602766080796393,0.11384304732632354,0.20356551761506125,0.01920159186788052,20425.040115767388
1682301961545795917,130,1682301961545795917,camera_1,180,0,0.6628772627728367,0.5081146308554046,1.8129947277554486,-0.980177739068747,-0.04444359701996077,0.15559199954663802,0.11431314970328608,0.18297436618013307,0.017266938236278142,20404.361662932322
1682301961575805902,131,1682301961575805902,camera_1,182,0,0.6624620667072852,0.5103075793419741,1.8120793579432743,-0.9800490228228165,-0.04460203355214103,0.15614639810220626,0.1145987514188695,0.1829521424951963,0.01725599325598361,20394.38801807561
1682301961586023569,132,1682301961586023569,camera_1,183,0,0.662808574220679,0.5106598732910643,1.8131648771235438,-0.9801768154081021,-0.044497525460316045,0.15560392824536373,0.11428384959805875,0.19690392527263612,0.01859402266673435,20382.09847801109
1682301961595894336,133,1682301961595894336,camera_1,184,0,0.6628252946636746,0.5103678797277966,1.8132038752798751,-0.9801816290684026,-0.04454537359299576,0.1551342239521408,0.11486103032377909,0.18137432407820597,0.017125680286839293,20384.647638659924
1682301961605792045,134,1682301961605792045,camera_1,185,0,0.6628255950803092,0.5097107861724336,1.8130986495807302,-0.9801389286256761,-0.0442525653511451,0.15600662480977287,0.11415482498702054,0.210388777195476,0.019863496414692993,20385.684179767966
1682301961615793943,135,1682301961615793943,camera_1,186,0,0.6628801703353628,0.5087786838399304,1.8130404950266665,-0.9801861148332577,-0.04443840038038694,0.15543918125873973,0.1144511677062699,0.2017917509074323,0.019046100015002475,20399.035279163858
1682301961625782251,136,1682301961625782251,camera_1,187,0,0.6630133350970754,0.5076556647518947,1.8132288986526939,-0.9802007665078639,-0.04425812280444334,0.1554099804260772,0.11443519514200724,0.18748806917574257,0.017695633006605718,20404.174428658098
1682301961645975351,137,1682301961645975351,camera_1,189,0,0.6630919304181027,0.5044839461801478,1.8132956378185396,-0.980142239403691,-0.04437242873342678,0.15563138892450343,0.11459122517210757,0.2166362294810824,0.020435606734246346,20422.00698313175
1682301961675844907,138,1682301961675844907,camera_1,191,0,0.6630900377637756,0.49766734591374123,1.8128787895940568,-0.9800994335437092,-0.04447310775520488,0.15631770331982245,0.11398253674449471,0.21228048769989982,0.019991958179784417,20476.86749788467
1682301961695819616,139,1682301961695819616,camera_1,193,0,0.6632011686378247,0.49259329036554306,1.8125929510098069,-0.9800373550839703,-0.0444464218492272,0.15626892610866983,0.11459197597414854,0.21902898623375222,0.020602205697388423,20511.96743028053
1682301961705903530,140,1682301961705903530,camera_1,194,0,0.6634026796154848,0.4899273752904711,1.8128724409214454,-0.9800801082305818,-0.04438610095404986,0.1563015317501478,0.1142045825060685,0.23097887419862673,0.021723932106830553,20527.808561299928
1682301961715818166,141,1682301961715818166,camera_1,195,0,0.6633726924331566,0.48711805581765744,1.812691573449238,-0.9800218715809704,-0.044570354590463906,0.15690881903312462,0.11379910906611929,0.19537993601989,0.01836413685919488,20545.941540620985
1682301961725784540,142,1682301961725784540,camera_1,196,0,0.6631187742076348,0.4842213598547879,1.811906649226994,-0.9800855857593319,-0.04457049124171325,0.15658925573396013,0.11369046083970435,0.18642191227991134,0.017498716297216353,20588.16658927244
1682301961735990047,143,1682301961735990047,camera_1,197,0,0.6631335479906812,0.4816451548353344,1.8118582543439405,-0.9800008501138369,-0.04455211256375142,0.15688361245395907,0.11402181890173461,0.19829551369184628,0.018604435900294976,20598.27331230382
1682301961746016025,144,1682301961746016025,camera_1,198,0,0.6631540710106263,0.4791354458389614,1.8117430854331351,-0.9799788764697298,-0.04474796850375923,0.15674837439107653,0.1143195876202662,0.20356870093382895,0.019088563611488897,20615.773074849145
1682301961756017208,145,1682301961756017208,camera_1,199,0,0.6633260156779152,0.4767275934977751,1.8118880260083239,-0.9800571826263383,-0.04451632088898992,0.1567400109666544,0.1137487798580964,0.197092680784408,0.018478843946779497,20633.274371176034
1682301961765943288,146,1682301961765943288,camera_1,200,0,0.6631725874387479,0.47435636286401794,1.8111882143955589,-0.980007978296737,-0.04450797287811626,0.1569304516544799,0.1139132835473732,0.18071582744596526,0.01692490196271003,20657.486981285037
1682301961775896549,147,1682301961775896549,camera_1,201,0,0.663137250232209,0.4722827594437756,1.8108449478610686,-0.9799795655533404,-0.04443326103946243,0.15710661705394324,0.11394405332947734,0.1948615763685666,0.018238397042773257,20673.689067614498
1682301961795776844,148,1682301961795776844,camera_1,203,0,0.6632205237147862,0.4691438222449527,1.8109860243556435,-0.9800208819586306,-0.04453502340517844,0.1567353721835986,0.11406018464739147,0.19323221931699663,0.018079403246232986,20694.651150268044
1682301961805859804,149,1682301961805859804,camera_1,204,0,0.6630128488366493,0.46774319815728416,1.8103535040664613,-0.9799884330156903,-0.04451874713380503,0.15719039912065305,0.11371864725443369,0.18770765757653862,0.01754846821039895,20712.68360932637
1682301961815850734,150,1682301961815850734,camera_1,205,0,0.6631975832314909,0.4669669941194663,1.810800836157091,-0.9799861448278485,-0.044647485040712566,0.15678188973712018,0.11425058895011399,0.17352325090905651,0.016226640616305046,20708.795873647327
1682301961825863361,151,1682301961825863361,camera_1,206,0,0.6629218544389897,0.4661905073948009,1.8098799647845236,-0.9800243150529586,-0.04447084061818193,0.15712329765836913,0.11352072750229848,0.18923947412986308,0.017679724451471604,20734.20667032595
1682301961835882902,152,1682301961835882902,camera_1,207,0,0.6628345439924135,0.4659301187123318,1.809583282311496,-0.979917527064701,-0.044468058229910776,0.15781913242914852,0.1134784269717078,0.1856961211306043,0.017343754090946024,20731.251362427494
1682301961845783710,153,1682301961845783710,camera_1,208,0,0.6628874811305001,0.46611076059018425,1.8096729184124296,-0.97991460008556,-0.04443232108268978,0.15773217332209036,0.11363849207663712,0.1678537255502306,0.015678779607760113,20727.796408567803
1682301961865833044,154,1682301961865833044,camera_1,210,0,0.6631037836625389,0.4676496474955863,1.8105284851887462,-0.9800016451128403,-0.044590615215092486,0.15682868398494146,0.11407548593110474,0.1834798789350316,0.017155098330335787,20711.311719696034
1682301961885839939,155,1682301961885839939,camera_1,212,0,0.6631607932777908,0.470310302074155,1.8109384443112206,-0.9799975342578787,-0.044503538884815425,0.15667015225933986,0.11436228078453478,0.1937552384333685,0.01812965773046786,20686.87500204915
1682301961895796537,156,1682301961895796537,camera_1,213,0,0.6632993891067547,0.47215671253177627,1.8114192294367917,-0.9800313024566262,-0.04459250987736803,0.1565908170813032,0.11414670505019288,0.193966870137956,0.01816374466231182,20669.020306917257
1682301961905886411,157,1682301961905886411,camera_1,214,0,0.663042079617205,0.47404866179591254,1.8107474375447297,-0.9799655968446082,-0.04444886153899386,0.1575101515641173,0.11350013155554972,0.2046587344375439,0.019159903468183262,20663.27255044784
1682301961915611982,158,1682301961915611982,camera_1,215,0,0.663268628541834,0.4765348491565873,1.8115387501393194,-0.9799733890646245,-0.04454976478770486,0.15705189499864322,0.11402709090338786,0.20610857213614509,0.019317082589864545,20633.13634846767
1682301961925561904,159,1682301961925561904,camera_1,216,0,0.6633337778563985,0.479052408456536,1.8120218463198956,-0.9800814143830662,-0.044646607663142546,0.1562022626880905,0.11422764436064857,0.2274695317610167,0.021336133818466548,20619.004029075615
1682301961935578107,160,1682301961935578107,camera_1,217,0,0.6634107686113011,0.481679721474215,1.8125103869289871,-0.9801258503294004,-0.04444802516131855,0.15628398883034586,0.11381127101743939,0.22235343913780525,0.02087629441800197,20595.509995386703
1682301961945573806,161,1682301961945573806,camera_1,218,0,0.6633813506798881,0.48435203321909576,1.812673164737567,-0.9800775527912632,-0.044822789745057795,0.15616405561080896,0.11424401852763719,0.1950398982735351,0.01832123848581369,20572.317760458325
1682301961955993890,162,1682301961955993890,camera_1,219,0,0.6635930135842483,0.48744447140956865,1.8134802777364711,-0.9801390630078747,-0.04448738354177841,0.15626162043948577,0.11371277786281765,0.2174833117169328,0.020458786671518618,20539.17880138813
1682301961965962409,163,1682301961965962409,camera_1,220,0,0.6635489982202843,0.4902513954286867,1.8134199372565376,-0.9801029464771639,-0.04457694938035596,0.15634912447377772,0.11386861361677389,0.20130048907594755,0.018944347596650958,20517.72001363663
1682301961975923061,164,1682301961975923061,camera_1,221,0,0.663335730863706,0.4928965761823306,1.8129746820441912,-0.9800622812572861,-0.04456596010186648,0.15633194492407843,0.11424588856155027,0.19864532753126696,0.018693708424168766,20504.696418805866
1682301961985913753,165,1682301961985913753,camera_1,222,0,0.663554794803337,0.4957596818343962,1.8137433999324728,-0.9802066682153031,-0.044410365993690526,0.1555332376580682,0.11415786859502962,0.22110294742742553,0.02083401990679747,20481.927359037334
1682301961996047973,166,1682301961996047973,camera_1,223,0,0.6633853227194076,0.4982930363844572,1.8135415893128377,-0.9801109518796685,-0.04439760091669073,0.15558127962087012,0.11491666750260932,0.21489239687798545,0.020252283869102883,20459.437030920988
1682301962005849599,167,1682301962005849599,camera_1,224,0,0.6632027550548665,0.5007267557969981,1.8133358129849437,-0.9801106293102,-0.04444997786222914,0.15623546580955866,0.1140080392098797,0.2012569570215419,0.018973486343098565,20446.051827057265
1682301962015846729,168,1682301962015846729,camera_1,225,0,0.6630004313975639,0.5029194032176197,1.813028627802593,-0.9800299505367805,-0.044476794974008534,0.156162399998473,0.11478856905821522,0.21557616948848587,0.020323883983854835,20429.140817885287
1682301962025846004,169,1682301962025846004,camera_1,226,0,0.6630125248631373,0.5049962711181188,1.8132485701487577,-0.9801471815377252,-0.044535963567991006,0.15587213106297823,0.11415747557917329,0.22405854985117912,0.021137496643355503,20420.63202562825
1682301962036021471,170,1682301962036021471,camera_1,227,0,0.6629924918385753,0.5067278939134783,1.813248322816772,-0.9801644215926955,-0.04425500049888125,0.15573769766320542,0.11430210453559034,0.1778236188692972,0.016780810480703835,20407.897830275822
1682301962045766830,171,1682301962045766830,camera_1,228,0,0.6629493137212228,0.5081868742364501,1.8131935782603112,-0.9802232990602194,-0.04438730119252604,0.15526177451861298,0.11439332517972715,0.18963167432229966,0.017898748841605312,20404.016994090638
1682301962055851936,172,1682301962055851936,camera_1,229,0,0.6628386911450806,0.5093205372556573,1.8129399656925886,-0.9801664498168897,-0.04443119401574677,0.15564928023317676,0.11433678854412471,0.22451587714022025,0.021191917633369767,20394.67939036258
1682301962065864562,173,1682301962065864562,camera_1,230,0,0.662843834438514,0.510130043498041,1.8130151660576912,-0.9801915413161254,-0.04428071665962019,0.1556891730015269,0.1141255531181754,0.2231981728109531,0.021073113615413874,20388.586516879266
1682301962076008081,174,1682301962076008081,camera_1,231,0,0.662673506045992,0.5104620771565507,1.8126564031125483,-0.9801535039593645,-0.04450460622304031,0.15560650276719412,0.11447735582933151,0.17915740719763562,0.016908393697030327,20391.21271753195
1682301962085952520,175,1682301962085952520,camera_1,232,0,0.6626579789495407,0.5105352492373789,1.8127441325374303,-0.9801304448693308,-0.044537525378429484,0.15564374506910506,0.11461127559833272,0.18002023495500907,0.016991182495088564,20387.382527604816
1682301962095978498,176,1682301962095978498,camera_1,233,0,0.6627316348137305,0.5103140244413956,1.8129600265896697,-0.9801130120877074,-0.044542329457393476,0.15567677682148556,0.11471358063169239,0.1912770222988911,0.01805682740651121,20383.24656490761
1682301962105869770,177,1682301962105869770,camera_1,234,0,0.6629427964744276,0.5098069434760988,1.8134180440541223,-0.9801964389409006,-0.04450755916669118,0.15541550511257687,0.1143679983002393,0.18989328062161803,0.017933371676223858,20385.36727609509
1682301962115882396,178,1682301962115882396,camera_1,235,0,0.6628251291843816,0.5087341311938168,1.8128636519916863,-0.9801576212387394,-0.04434969786267133,0.15577564114233228,0.11427200643114976,0.195586807501968,0.018457571745495716,20399.602467178607
1682301962125828027,179,1682301962125828027,camera_1,236,0,0.662961465742424,0.507615650701825,1.8130847109990398,-0.9801930545009682,-0.04431724186249782,0.15582673743944325,0.11391042920093718,0.17340995679842308,0.016365224434578416,20406.6904892202
1682301962135797500,180,1682301962135797500,camera_1,237,0,0.6629768341485719,0.5061463494023682,1.8130100440055623,-0.9801463329007976,-0.044424493312252435,0.15547561419624545,0.11474739162773506,0.19556501234183088,0.018447932973044322,20415.601354920298
1682301962145856142,181,1682301962145856142,camera_1,238,0,0.6630800152575401,0.5044434652514403,1.8132544219974702,-0.980145893067107,-0.04443664599145242,0.15558387954697453,0.11459960393398555,0.20601469208486378,0.01943242017124125,20423.80194461276
1682301962155912637,182,1682301962155912637,camera_1,239,0,0.663352464165281,0.5025752474678811,1.8139372817551385,-0.9801957350587535,-0.04444128904268168,0.15542126148649038,0.11439197646165004,0.21465397375868633,0.02025451111827969,20428.959356693194
1682301962165998220,183,1682301962165998220,camera_1,240,0,0.6631735872753681,0.500135167400653,1.8133506589942676,-0.9800687051960053,-0.04449496069044368,0.15630654693242596,0.11425320544581127,0.1898622108856216,0.01789670589009471,20447.00343620917
1682301962175975561,184,1682301962175975561,camera_1,241,0,0.6631734152022828,0.497727780831098,1.8131209964613586,-0.9801246282436266,-0.04433608680346756,0.1561345747300827,0.11407023753418029,0.20682689402019605,0.019483073851467827,20473.488367069855
1682301962186006784,185,1682301962186006784,camera_1,242,0,0.6630359419934584,0.495122590298926,1.8124527060324864,-0.9800101537885999,-0.044595844045823944,0.15654602814676663,0.1143881560151973,0.21203783090459183,0.01995077515490507,20495.47633477813
1682301962205887317,186,1682301962205887317,camera_1,244,0,0.6633661700507447,0.48989906108852094,1.812756187947709,-0.9800785713121408,-0.04447623817182398,0.15587486996652017,0.1147644683939958,0.23498892836505547,0.022096539667007715,20531.04942420765
1682301962225950717,187,1682301962225950717,camera_1,246,0,0.6634734782614886,0.48450295086439843,1.812861433735722,-0.980126036413779,-0.04459981770069811,0.1561895984010713,0.11387984174643054,0.20856044377433136,0.019596905797286217,20570.489925842274
1682301962255924224,188,1682301962255924224,camera_1,248,0,0.6634537103428678,0.4768398628071431,1.8122510142664465,-0.9800878920487168,-0.04456132840540353,0.1564261119497788,0.1138985661477964,0.1967372657964006,0.018452104771955493,20628.39631836221
1682301962287738084,189,1682301962287738084,camera_1,250,0,0.6631562293486646,0.47055917807785036,1.8108033167025896,-0.9800031636067564,-0.04447791803654957,0.15695402751034085,0.11393396059194295,0.19587100349599496,0.018327314430056467,20687.490913036505
1682301962306090593,190,1682301962306090593,camera_1,252,0,0.6632350284184191,0.46789351214135627,1.8109665459996505,-0.9800622578154643,-0.04451566998595394,0.1565496971175913,0.1139671806431424,0.1937222009873949,0.018121606320257718,20706.358400422498
1682301962326310634,191,1682301962326310634,camera_1,254,0,0.6628107344412123,0.4661417520544566,1.8096098620489465,-0.9799090087752893,-0.04448904370910029,0.15783613847409372,0.113520099112301,0.16535696416394785,0.015444495793014114,20729.18646523077
1682301962356356382,192,1682301962356356382,camera_1,256,0,0.663271821699691,0.46692196464307284,1.810838063818213,-0.9800374222000767,-0.04466200966335462,0.1563939646201473,0.11433671243590705,0.1829034608672373,0.01710421146797186,20712.73469291766
1682301962375885248,193,1682301962375885248,camera_1,258,0,0.6629072865327008,0.46869318556293404,1.8101321931309262,-0.9798957665339763,-0.04455056284211114,0.15747493578473645,0.11411037936504938,0.19525532238185406,0.018252006094155063,20703.27822712483
1682301962396015882,194,1682301962396015882,camera_1,260,0,0.663311247016528,0.4721703913759213,1.8114843147422819,-0.9800694755036584,-0.04463260639823546,0.15634849215734664,0.1141354573837955,0.18067893420811743,0.0169199927642486,20671.69127198332
1682301962415815114,195,1682301962415815114,camera_1,262,0,0.6631328030192786,0.4764513611747408,1.8112327927700096,-0.9799863231913538,-0.04457145627444743,0.15652090067684254,0.11463594242111212,0.1875807514297776,0.01757233663849455,20642.599959698746
1682301962436090946,196,1682301962436090946,camera_1,264,0,0.6631441399297119,0.481462029873301,1.811759803268798,-0.979943425633611,-0.04453381543058472,0.1570832296672111,0.11424745422973914,0.20398885739268735,0.019136435286317012,20595.432541231843
1682301962465862989,197,1682301962465862989,camera_1,266,0,0.6633842413937784,0.49017452908489556,1.8130038738548697,-0.9800368711079965,-0.044686167951010256,0.15676049654125035,0.11382892596718644,0.22242076211841777,0.020923312106925045,20520.94810290029
1682301962485952138,198,1682301962485952138,camera_1,268,0,0.6632210605935455,0.495540755342637,1.8128515417176503,-0.9801119116807135,-0.0444382108951497,0.15596736848787987,0.11436811601570243,0.20670141483424231,0.019457874553535218,20493.01657596929
1682301962495891094,199,1682301962495891094,camera_1,269,0,0.6634726367471135,0.4983632837861202,1.8137961646522995,-0.9801680455828307,-0.04434296968635449,0.15541226959345383,0.11467924798123116,0.20726215199101716,0.01953865575733817,20459.008640862776
1682301962505898714,200,1682301962505898714,camera_1,270,0,0.6631905445135226,0.5007116814821786,1.8132429803629004,-0.9801130220639754,-0.04439821503340315,0.15590048089586717,0.11446528966855497,0.22958361479686576,0.02164122388561014,20447.9578090792
1682301962515807628,201,1682301962515807628,camera_1,271,0,0.6631630853901264,0.5030451967221703,1.8134216071345575,-0.9801362165889862,-0.04438351011140541,0.15560687932131945,0.11467170561520036,0.22718324442394078,0.021427293963376566,20429.83514333178
1682301962525840282,202,1682301962525840282,camera_1,272,0,0.6630559588278815,0.5050404637186664,1.8134421471580473,-0.9801734565378003,-0.04434777759129906,0.1556792711792685,0.11426825563797496,0.19722834543790668,0.018609301714586746,20418.663469234496
1682301962535902738,203,1682301962535902738,camera_1,273,0,0.6630352767774437,0.5067528597337951,1.8133740381801289,-0.9801515783054467,-0.04440644758927167,0.15546101121223502,0.11472935522660466,0.2037879772251472,0.019232930283395934,20404.716006911363
1682301962555945634,204,1682301962555945634,camera_1,275,0,0.6627291624970744,0.5092429279890789,1.812649900470452,-0.9801384424609214,-0.04433079205091237,0.15585348488416653,0.11433768292159381,0.20014679280575365,0.018885650313415207,20398.11610507266
1682301962576054096,205,1682301962576054096,camera_1,277,0,0.6626752597582413,0.5104792454766228,1.8126810566730582,-0.9801275732951708,-0.044640950406982266,0.1556041650015996,0.11464933252067361,0.1853337757056579,0.01749153860622628,20388.791746619157
1682301962595918893,206,1682301962595918893,camera_1,279,0,0.6628738986083231,0.5104227680131437,1.8133599373761309,-0.9801718336525964,-0.044585289707694264,0.15546347256346396,0.11448334880801322,0.18332326906966048,0.017313502962505247,20380.21594301425
1682301962615923643,207,1682301962615923643,camera_1,281,0,0.6628893338967644,0.508814338320116,1.8130882577188348,-0.9801599089527646,-0.044443928555008144,0.1555248190989742,0.11455706325031502,0.2011969379382208,0.018990926592837833,20395.399850915303
1682301962636055231,208,1682301962636055231,camera_1,283,0,0.6631024164497581,0.5062528239442032,1.8133482202355629,-0.9802336416401957,-0.04443980497804905,0.15504701718823982,0.11457545108505195,0.18437963438918814,0.01739890217388162,20416.452987623874
1682301962655802965,209,1682301962655802965,camera_1,285,0,0.6633407056137572,0.5025682964815504,1.813879702696621,-0.9802000307970745,-0.04436026895108381,0.15522029628896142,0.11465917226270594,0.21021177049260587,0.019833545742204566,20430.282689074054
1682301962676071882,210,1682301962676071882,camera_1,287,0,0.6632699705560355,0.49782611062825927,1.8133899782992409,-0.9801425262639418,-0.044498055792436986,0.1556772926871468,0.11447764751789632,0.2197416570270434,0.020704566196322213,20469.973794086254
1682301962696105003,211,1682301962696105003,camera_1,289,0,0.6631669816169692,0.49257825523147736,1.8125041134277962,-0.9799890948622697,-0.04458745580780855,0.15677545702263407,0.1142575547216044,0.2147279328200966,0.020196909064394707,20509.522832012266
1682301962705669641,212,1682301962705669641,camera_1,290,0,0.6633113144966698,0.48986260997458275,1.8126387170529372,-0.9800385705416842,-0.044395510034530426,0.1567857669045113,0.1138932053967684,0.21162474632728845,0.019899472722362272,20528.92273875768
1682301962726177930,213,1682301962726177930,camera_1,292,0,0.663400376820894,0.4844748973474788,1.8126757680947099,-0.9800990474750012,-0.044614658952376283,0.156589264645174,0.11355699689161584,0.20432462863391265,0.019196037749711497,20571.756973416082
1682301962735691070,214,1682301962735691070,camera_1,293,0,0.66343242592162,0.48188851542551203,1.812640345769236,-0.9800886612360493,-0.04448777389059171,0.15625809402392074,0.11415104967892264,0.21125261747511104,0.01983638138499205,20588.625737662427
1682301962745588064,215,1682301962745588064,camera_1,294,0,0.6631788909472129,0.47913770640447345,1.811749074360525,-0.9799847466208254,-0.0445918497396482,0.15689202105928138,0.11413306731726518,0.19748544157482684,0.01851895895142443,20615.08853832388
1682301962755791187,216,1682301962755791187,camera_1,295,0,0.6631172402054998,0.4765867859284758,1.8113231648995405,-0.9799431130167588,-0.044520564211481733,0.15701545502644487,0.11434842148518562,0.20088376657804474,0.018821940108421316,20635.539355180226
1682301962776052713,217,1682301962776052713,camera_1,297,0,0.6631795351260789,0.4723374498452643,1.8109539828489987,-0.9799604523614677,-0.044611076446464115,0.15668501687291064,0.11461749060824493,0.2022795950761065,0.018933120234954047,20670.70507789078
1682301962796006679,218,1682301962796006679,camera_1,299,0,0.663245669356098,0.46914692636842426,1.8109980364332734,-0.9800160052391972,-0.04450714117329992,0.1566297007795503,0.1142579568051797,0.2003054039669223,0.01874122580810131,20693.72153804731
1682301962805934190,219,1682301962805934190,camera_1,300,0,0.6633041675670642,0.4679327635858808,1.8110982604806207,-0.9800881900178876,-0.044571087162873196,0.15627870037411032,0.11409437227996672,0.18660765513777733,0.017458008722176514,20706.060354550842
1682301962826057672,220,1682301962826057672,camera_1,302,0,0.6627778034318034,0.46611268532175126,1.8094728904699608,-0.9798867808037633,-0.04454451382912166,0.15785683591530472,0.11366134984493843,0.18785120773827657,0.017543058895373408,20730.197343470994
1682301962845870256,221,1682301962845870256,camera_1,304,0,0.6630084912637823,0.46622404938788614,1.80999450294668,-0.9799927900826954,-0.04455954764941801,0.15741721189292526,0.113350780760748,0.19581220293184742,0.0182972475093333,20728.04109830934
1682301962875938415,222,1682301962875938415,camera_1,306,0,0.6630487829649313,0.46879587888245455,1.8105587413960715,-0.9799639864149315,-0.04461106274011563,0.1570342571645794,0.11410819640903155,0.19072809471981603,0.01783623978405778,20700.834711900687
1682301962905978679,223,1682301962905978679,camera_1,308,0,0.6633683043862543,0.4743311800322372,1.8116730085615997,-0.9800387636522218,-0.044356627627243635,0.1570941604866174,0.11348099429229475,0.20863398839719596,0.019551366582911126,20648.979890416376
1682301962926134347,224,1682301962926134347,camera_1,310,0,0.6633312918669866,0.4790117378968427,1.8119222899406748,-0.9800752725795122,-0.04452138427254003,0.15683135562104566,0.11346467430313663,0.21872256754431874,0.020516199780593786,20618.962579645096
1682301962955519676,225,1682301962955519676,camera_1,311,0,0.6634231919534599,0.48735300745810894,1.8129932749097573,-0.9801277034260714,-0.04452613778230001,0.1565651178132164,0.11337756354350012,0.2422846468980424,0.02278158736298966,20548.427463921136
1682301962965806007,226,1682301962965806007,camera_1,312,0,0.6633384615970626,0.4901158818175929,1.8128928716998909,-0.9800553626439656,-0.04465063696478201,0.15705337241046124,0.11327861663149492,0.21119643695419654,0.019866184947945054,20524.93637727667
1682301962985944986,227,1682301962985944986,camera_1,314,0,0.6633871303511876,0.49564329321969686,1.8132576649501042,-0.9801597229764804,-0.04448730019796234,0.15543737519142978,0.11466045512452999,0.20876776019576937,0.019660126310588964,20488.787404703908
1682301962995959281,228,1682301962995959281,camera_1,315,0,0.6631799655634458,0.4981432325082063,1.8129837316440602,-0.9800737463736277,-0.044379891841223,0.15602594010495674,0.11463761548326168,0.19936854008119553,0.01877852641347906,20468.118376759114
1682301963006037473,229,1682301963006037473,camera_1,316,0,0.6632625612298259,0.5007888134367027,1.8134970754075528,-0.9801662360221493,-0.04441365158745774,0.15551929155039723,0.11452216934071159,0.21193277114070952,0.019981905371175765,20447.8671261617
1682301963016027212,230,1682301963016027212,camera_1,317,0,0.6631026078010909,0.5030041985416727,1.8132833424606492,-0.9801111676986289,-0.044472073122730646,0.15582030299119404,0.11456162900521716,0.22262461856007576,0.02099440663801627,20430.968919369858
1682301963025864124,231,1682301963025864124,camera_1,318,0,0.6629960411619379,0.5049870198270126,1.8132037265197634,-0.9801897967825881,-0.04454446689427371,0.15527374518671477,0.11460286561908,0.20835404266836122,0.019653311865925473,20426.09889968229
1682301963035970449,232,1682301963035970449,camera_1,319,0,0.6630401353587904,0.5067583544734737,1.8134030263667802,-0.9801719178528343,-0.04436023813952989,0.1558151661852929,0.1140912560696502,0.20355195080628619,0.019212657072487274,20405.604161957166
