%time,field.header.seq,field.header.stamp,field.header.frame_id,field.image_seq,field.transforms0.fiducial_id,field.transforms0.transform.translation.x,field.transforms0.transform.translation.y,field.transforms0.transform.translation.z,field.transforms0.transform.rotation.x,field.transforms0.transform.rotation.y,field.transforms0.transform.rotation.z,field.transforms0.transform.rotation.w,field.transforms0.image_error,field.transforms0.object_error,field.transforms0.fiducial_area
1683662037119259595,11,1683662037119259595,camera_2,13,0,-0.1867625496905158,0.9007217927893132,4.627779381001014,-0.7188193503737988,0.6856718429216874,-0.08762016764304115,0.07399710517832604,0.007384547003312036,0.002285299729056951,11612.912452063523
1683662037138504028,12,1683662037138504028,camera_2,14,0,-0.1867487508965564,0.9005585324695455,4.626878071299974,-0.7190093495872307,0.6854828476719758,-0.08701211988692822,0.07461710089817845,0.009112499552429654,0.0028184631308869534,11618.017014081008
1683662037157274723,13,1683662037157274723,camera_2,15,0,-0.18678216821280802,0.900731710627998,4.627793669710118,-0.7191040212420795,0.6852544583571343,-0.08751110686131607,0.07521662124190821,0.005110404716106132,0.0015815070723863224,11609.971634512824
1683662037175655126,14,1683662037175655126,camera_2,16,0,-0.18678052714798052,0.9007005986133649,4.6275888945651635,-0.7187833995365619,0.6853808731906642,-0.08802432443130583,0.0765192885714321,0.006581280249520205,0.0020368363183147363,11605.496671196275
1683662037195580720,15,1683662037195580720,camera_2,17,0,-0.18675206244668574,0.9005137397112214,4.626650259362247,-0.718809149000007,0.6853042998153072,-0.08890963461551203,0.07593747981776391,0.006549362311488949,0.002026679514528279,11608.464932271545
1683662037214493751,16,1683662037214493751,camera_2,18,0,-0.1866800213311739,0.9002111265480529,4.6250260857451275,-0.7186064435324326,0.6852901840946102,-0.08943926746437184,0.07734830529934354,0.006676638586213812,0.0020650263164477003,11610.699517999368
1683662037233627557,17,1683662037233627557,camera_2,19,0,-0.18680562778254745,0.9008384982759667,4.6283168908501136,-0.718988066496821,0.6856571470483164,-0.08762848119721497,0.07246851881883522,0.009519383747829124,0.002946575706577341,11614.147035748896
1683662037253650188,18,1683662037253650188,camera_2,20,0,-0.1867695597801311,0.9007481587930545,4.627695557127623,-0.7185098646361908,0.6856236611709349,-0.08951701651030074,0.07516963095652726,0.0077627894934266806,0.0024037141000280743,11603.03487048755
1683662037272265195,19,1683662037272265195,camera_2,21,0,-0.18673168533116097,0.9004944826974272,4.6264958920227786,-0.718841849880979,0.6855523604470121,-0.08718434415922002,0.07538730714615534,0.0053766023920616135,0.0016627632870844494,11617.201015773615
1683662037291561365,20,1683662037291561365,camera_2,22,0,-0.18677640224515346,0.9006844212534348,4.6274897414408604,-0.718925372326295,0.6854650046252562,-0.08858305304202502,0.07373655249162017,0.006014180762576871,0.0018615015371211882,11611.409731217806
1683662037310333490,21,1683662037310333490,camera_2,23,0,-0.18676453674787197,0.9005396117621116,4.626910506691639,-0.718964838110514,0.6855303537241967,-0.08786536299450408,0.0736028102000462,0.005643837197567336,0.0017460530754544823,11617.34683132725
1683662037330639123,22,1683662037330639123,camera_2,24,0,-0.18681943621193536,0.9010258165370048,4.6291105794904475,-0.7190626031003755,0.6857831647761073,-0.08751666672149276,0.07064882715330502,0.006786739002563991,0.002101355163586981,11615.208684260375
1683662037349413633,23,1683662037349413633,camera_2,25,0,-0.18673602685160853,0.9006780751826908,4.627326143703238,-0.7188756327402461,0.6856762790702782,-0.08787945234577753,0.07309628463920034,0.017202995033585463,0.005323186109326064,11616.61001054334
1683662037368511438,24,1683662037368511438,camera_2,26,0,-0.18684261144524347,0.9010310058936342,4.629260789717006,-0.7191716093097709,0.6856226376668744,-0.08679726230804181,0.07197242761878517,0.008048775314819068,0.00249170952439264,11613.752238366287
1683662037387977838,25,1683662037387977838,camera_2,27,0,-0.1868172909698137,0.9009793726060461,4.62894736178486,-0.7190786136986038,0.6854540565680235,-0.08776323487372249,0.07332324501980715,0.00754151088767685,0.002335105653726538,11608.286524196154
1683662037407604932,26,1683662037407604932,camera_2,28,0,-0.18682781257692527,0.9007947768592043,4.628006416240912,-0.7188733804993832,0.6856411957790527,-0.0878203463622734,0.0735173464215762,0.010977826284943148,0.0033977749129583353,11612.211407414903
1683662037426252126,27,1683662037426252126,camera_2,29,0,-0.18683024789435532,0.9009813523171951,4.62888215133239,-0.7189384447491415,0.6856026517677807,-0.08799696832671143,0.0730277352516211,0.006260325448238291,0.0019385007575797796,11608.486754865447
1683662037445492029,28,1683662037445492029,camera_2,30,0,-0.1867475156573415,0.9004956346988693,4.626429481275133,-0.7188107383872495,0.6855772978293604,-0.08914694114540155,0.07312806550557609,0.0031345772149506956,0.0009699333516850168,11616.160138993117
1683662037464607715,29,1683662037464607715,camera_2,31,0,-0.1868576739196519,0.901103229679934,4.629839384437809,-0.7190565272563035,0.6855898951038019,-0.08721583041501804,0.07292191211619212,0.008583374496083707,0.0026582112088353654,11606.87618500378
1683662037483975172,30,1683662037483975172,camera_2,32,0,-0.1867820272674704,0.9006281323781922,4.627078620664479,-0.7187558823422692,0.6852762363200807,-0.08943169681796115,0.07608175298737188,0.01383852757862769,0.0042839623359089436,11603.958923377566
1683662037503112554,31,1683662037503112554,camera_2,33,0,-0.18669741248794658,0.9002041487953871,4.625184777265976,-0.718369447355336,0.6854289013712371,-0.08958971141683021,0.07814244608186563,0.0036332832096377388,0.0011238240176610513,11607.021978632456
1683662037521818637,32,1683662037521818637,camera_2,34,0,-0.1868736779763587,0.9011242008942082,4.62972557793051,-0.7191165298259947,0.6854066108238505,-0.08722548520552013,0.07403316216833855,0.009433968283701688,0.002921498199570082,11604.463630794435
1683662037541421413,33,1683662037541421413,camera_2,35,0,-0.1868603200577426,0.9009172400092862,4.628549510546834,-0.7187036465592547,0.6858538050804424,-0.08785446554210104,0.07315202911348702,0.006899029918713495,0.0021358103357384103,11610.271797852474
1683662037560855150,34,1683662037560855150,camera_2,36,0,-0.18675047023081684,0.9005951264177336,4.627087488892371,-0.7189121797479286,0.6853689516809903,-0.08890020145336533,0.07437359789154432,0.008701314756763168,0.002693120832498498,11610.58463115711
1683662037578954458,35,1683662037578954458,camera_2,37,0,-0.1867729291317102,0.9008383813346162,4.6280813784089965,-0.7187983711667097,0.6857368321245721,-0.08855977918600963,0.0724642269424485,0.009265616099582985,0.0028686229426961645,11611.8904877053
1683662037597682952,36,1683662037597682952,camera_2,38,0,-0.18677519874458792,0.9007947691913453,4.627889178398083,-0.7189320271928561,0.6853961703802193,-0.08829590536506021,0.07465027126718432,0.005498845057445578,0.001702185628752074,11608.091651278693
1683662037616805076,37,1683662037616805076,camera_2,39,0,-0.18670964537287754,0.9003868078136124,4.625998181548225,-0.7188710050520852,0.6852972942651887,-0.08864945658039688,0.07571902281604356,0.006607608389458619,0.002043981524505499,11613.345535444905
1683662037637187242,38,1683662037637187242,camera_2,40,0,-0.18683795751738988,0.9010635074160048,4.629495683003758,-0.7191774129569555,0.6854224213075095,-0.08627930111087473,0.0744031938918659,0.004834955179831013,0.001496752680718935,11608.158510716454
1683662037656556367,39,1683662037656556367,camera_2,41,0,-0.1868408252122773,0.9009732571106702,4.629008511126374,-0.7189408048556518,0.6853429766905774,-0.08815002158818706,0.07522431195038229,0.008937511025578715,0.0027677897160397792,11601.4521489953
1683662037675796508,40,1683662037675796508,camera_2,42,0,-0.1867464305565883,0.9004883840985182,4.626483194947448,-0.7186363945810788,0.68551521954979,-0.08952893420018218,0.07493454537188235,0.005524832638911903,0.0017098438405561314,11609.668608649834
1683662037694869041,41,1683662037694869041,camera_2,43,0,-0.18676985924595566,0.9006038606622936,4.6270976201875715,-0.7187875009882438,0.685530311931877,-0.09008245783934372,0.07264895481203765,0.011217548119020648,0.003473206156753771,11610.541687594461
1683662037714268207,42,1683662037714268207,camera_2,44,0,-0.18667375310167933,0.9002509881629084,4.625269011314042,-0.7185345758327626,0.6854221978533089,-0.08933489950128345,0.07696589994190416,0.005865980725502595,0.0018143815730516427,11610.950455715041
1683662037733236074,43,1683662037733236074,camera_2,45,0,-0.18682179692058384,0.9009421842774744,4.628824662762362,-0.7189702166229217,0.6855708750673809,-0.08809441385087209,0.07289565910811183,0.01085784011229407,0.003362202220146844,11608.789187158953
1683662037752414226,44,1683662037752414226,camera_2,46,0,-0.18671347405704014,0.9004971112681837,4.626443272948377,-0.7187968988529806,0.6854249486092163,-0.08950731292138438,0.07424351121131434,0.0031855657434789464,0.0009858545797323769,11611.844376939232
1683662037771732568,45,1683662037771732568,camera_2,47,0,-0.18671335821734403,0.9004156936097044,4.6261038965087415,-0.71884518112757,0.6855212349439234,-0.08896839928755898,0.0735313942397323,0.004709530068794265,0.0014570335543772895,11617.472063307072
1683662037790909767,46,1683662037790909767,camera_2,48,0,-0.18678118101225127,0.9005831933643048,4.626976257143543,-0.7188452634610277,0.6852764139831703,-0.08898134122892351,0.0757630817160599,0.007525948269176297,0.0023291922453749048,11606.995813341171
1683662037810282230,47,1683662037810282230,camera_2,49,0,-0.1867928011718199,0.9006447657065133,4.627405415946771,-0.7189126443298226,0.6854380037894863,-0.08863741027021292,0.07404567701342514,0.0019231281330576167,0.0005952419946323962,11610.787830411427
1683662037829475402,48,1683662037829475402,camera_2,50,0,-0.1868715781248982,0.900977101317296,4.629035126257787,-0.7190757103170222,0.6857975025669222,-0.08628526284979175,0.0718801900385949,0.004495081011555158,0.001391214146910336,11616.930947779065
1683662037848542213,49,1683662037848542213,camera_2,51,0,-0.18676391508745577,0.9006709655659827,4.627222412052948,-0.7189814494183219,0.6854055425601379,-0.08715666452180816,0.0754230299683409,0.012466694199247286,0.003856578853112706,11613.56423053972
1683662037868010282,50,1683662037868010282,camera_2,52,0,-0.18675993143979935,0.9005322851397457,4.626808075154193,-0.7188242728230608,0.6852731377936743,-0.08870515135699174,0.07631374411954459,0.0027995834534522146,0.0008663387114207895,11607.412063588683
1683662037887044191,51,1683662037887044191,camera_2,53,0,-0.18676690668238388,0.9006314612781641,4.627059461957568,-0.7186658916305901,0.685676771081592,-0.08764901778984349,0.07539463831338912,0.009173136000754312,0.0028379468538963517,11612.605689578664
1683662037905997276,52,1683662037905997276,camera_2,54,0,-0.18673930886959414,0.9006012600372444,4.626855538779556,-0.7187503647685767,0.6852607111532695,-0.08840407179673535,0.07746219067720231,0.006817405141191557,0.0021094936524286827,11605.122091766272
1683662037925091981,53,1683662037925091981,camera_2,55,0,-0.18673275207145085,0.9005108291096536,4.62653103771816,-0.7187063412878673,0.6855392215504651,-0.09032035786572425,0.07307122322499891,0.0059283157606842,0.0018351947211001115,11611.360928598238
1683662037944726228,54,1683662037944726228,camera_2,56,0,-0.18678478117414518,0.9007346798910547,4.6278361581235465,-0.7188556815084686,0.685504104087192,-0.08808005707430494,0.07464942054965101,0.003861841993057169,0.0011953319565329152,11609.147496792746
1683662037963909149,55,1683662037963909149,camera_2,57,0,-0.18677013140913512,0.9006310442613702,4.627221445849675,-0.718913388146096,0.6856238518873513,-0.08730836138632561,0.07389671237265569,0.009117651075939648,0.0028206070727928158,11617.076605745908
1683662037982851743,56,1683662037982851743,camera_2,58,0,-0.18677983150638047,0.900811148997315,4.628145732293113,-0.7190294538135809,0.6854694523190406,-0.08770028482863493,0.07373557165272698,0.006638621183810756,0.002054839505119747,11611.474866053497
1683662038001954555,57,1683662038001954555,camera_2,59,0,-0.1866757795086882,0.9002381659925054,4.6250847942127775,-0.7184699879587373,0.6854110604080997,-0.08840011657962499,0.07872721296683044,0.007358499482506886,0.0022751420178749996,11610.379580366423
1683662038021919012,58,1683662038021919012,camera_2,60,0,-0.1867722362084145,0.9006783948255959,4.627349003516162,-0.7189308228702157,0.6853820857608568,-0.08840164397903971,0.07466604172617676,0.0052756738441530615,0.0016327566186670253,11610.328797498776
1683662038040606975,59,1683662038040606975,camera_2,61,0,-0.1867636641067451,0.9007518991094747,4.6275912533371875,-0.71877722762973,0.6854853270773078,-0.08774016118912448,0.07596596288563899,0.016460485552670434,0.005093729081026754,11608.074514957963
1683662038059541463,60,1683662038059541463,camera_2,62,0,-0.18668276787455385,0.9002254766904009,4.625309082373452,-0.718682288788069,0.6856743443005728,-0.08876555570999828,0.07394009379097072,0.007922450924525037,0.002449923847425383,11621.110262313625
1683662038078467845,61,1683662038078467845,camera_2,63,0,-0.18674170925105843,0.9005306845914691,4.626660133905962,-0.7187168381339687,0.6853808542544819,-0.08854819297675365,0.07654024251763897,0.01918925238715019,0.005937688033522815,11608.16889329712
1683662038097586870,62,1683662038097586870,camera_2,64,0,-0.18673577827721888,0.9005412668700075,4.626813916205291,-0.7186549947234774,0.6854201792062609,-0.08902242599459213,0.07621800421090362,0.0073725660622585565,0.0022817283025453917,11606.491934256366
1683662038116805553,63,1683662038116805553,camera_2,65,0,-0.18667694124077094,0.9002880970721647,4.62528400621972,-0.718933140820842,0.6851960755072521,-0.08988070354892921,0.07458509414413246,0.007838333112886176,0.0024249067592611337,11615.339267166799
1683662038135784626,64,1683662038135784626,camera_2,66,0,-0.18679361556808663,0.9007848546756239,4.628080164750348,-0.7189293594407529,0.6854591581732142,-0.08767329243600913,0.07483122612925198,0.008921317887143232,0.0027613217835790824,11608.96910141624
1683662038154620170,65,1683662038154620170,camera_2,67,0,-0.186650489894365,0.900228993239149,4.625025170082307,-0.7186419781107145,0.6855984135137569,-0.08976015560912513,0.07383520264456897,0.012016179724014364,0.003716774768188677,11619.102728483125
1683662038174062013,66,1683662038174062013,camera_2,68,0,-0.1868280272740831,0.9009537452058946,4.628856181006683,-0.7191828197350961,0.6855280880312233,-0.08571796481356923,0.07402528504741683,0.007941269694129005,0.0024572733765120766,11614.391134117057
1683662038193233728,67,1683662038193233728,camera_2,69,0,-0.18679594676195663,0.9007706739757443,4.628063118544423,-0.7189500352855406,0.6856515818169133,-0.0867553760867919,0.07393415878282303,0.00478318207024131,0.001479963811214535,11614.785280320855
1683662038212633371,68,1683662038212633371,camera_2,70,0,-0.18678311412677867,0.9007427904032774,4.627870175895494,-0.7189119116605811,0.6854397573579211,-0.08754090592061897,0.07532988846560486,0.005547268970985897,0.001716664294989695,11609.118906262967
1683662038231466293,69,1683662038231466293,camera_2,71,0,-0.18682259973573356,0.9009964047507687,4.62905408323706,-0.7189233662760591,0.6855147082363399,-0.08722689644231622,0.07490158043049924,0.004097755459952168,0.001268670015758931,11605.542675020111
1683662038250665426,70,1683662038250665426,camera_2,72,0,-0.18683112523323903,0.9010545467290859,4.629268095645053,-0.7188081546692952,0.685672894897249,-0.0874400380637566,0.07430853065131716,0.012202962170704268,0.003778791643810991,11605.301315150222
1683662038270073652,71,1683662038270073652,camera_2,73,0,-0.18682960634611886,0.9009641317175809,4.628765275460507,-0.7190332968146829,0.6854443083510635,-0.08843215468931746,0.07305458396257662,0.0056897995818872005,0.0017620044262968244,11607.378533492823
1683662038289468050,72,1683662038289468050,camera_2,74,0,-0.1868888474119952,0.9011385976075852,4.629875094204157,-0.71903547239299,0.6855042214787693,-0.08754333193486205,0.07353989943641988,0.0052855578396702185,0.0016371398894856977,11603.843369896353
1683662038307571649,73,1683662038307571649,camera_2,75,0,-0.18678095124067073,0.90068088203863,4.627525460973695,-0.719142748968828,0.685142785619736,-0.08740136840902883,0.07598730630187432,0.009120517745031975,0.0028220487208653537,11609.606908224032
1683662038326524734,74,1683662038326524734,camera_2,76,0,-0.18666700174180267,0.9001856729124967,4.624893738130352,-0.7185750533108732,0.6854240447294816,-0.08910752008924316,0.0768350280113069,0.0035620377311715856,0.0011015304911115233,11614.064527499524
1683662038345289468,75,1683662038345289468,camera_2,77,0,-0.18676179122365144,0.9006643023115637,4.62715078472407,-0.7185153805560694,0.685508306797792,-0.09099681894272423,0.07438809150594226,0.008809198785456829,0.002728430628804385,11602.17811619048
1683662038364848613,76,1683662038364848613,camera_2,78,0,-0.18678477209784822,0.9006723761943034,4.627409098832486,-0.7188857709556487,0.6853909927067466,-0.08803639977306744,0.07544552835628969,0.006438667347538285,0.0019925171912758277,11609.278117682026
1683662038385388374,77,1683662038385388374,camera_2,79,0,-0.18679592377395093,0.9005595774082417,4.62694844198474,-0.7185130378741125,0.6855687345991549,-0.08910009227468957,0.07612948247341292,0.011119776972918771,0.0034415432794800797,11605.657381231487
1683662038404390811,78,1683662038404390811,camera_2,80,0,-0.1867978854058382,0.9006775217658161,4.6272264360020685,-0.7186181065401133,0.6855110192153605,-0.08914725701061926,0.0756004368671399,0.015244067995809019,0.004718726469664956,11605.563470027235
1683662038423804998,79,1683662038423804998,camera_2,81,0,-0.1866844503244684,0.9003611452198207,4.625738400397626,-0.7187917918548415,0.6853061251126249,-0.08856990365693208,0.07648037010519174,0.01100504798523616,0.003403822845053049,11612.872695501923
1683662038442943334,80,1683662038442943334,camera_2,82,0,-0.1868359832321973,0.9010475437839839,4.629368806103209,-0.7189262226303702,0.6854671617145109,-0.0886382334595455,0.07364183725743874,0.005492652038810775,0.001701491280880094,11602.059716909598
1683662038461749076,81,1683662038461749076,camera_2,83,0,-0.18682088598009122,0.9009012412728381,4.628586545486041,-0.718830012933802,0.6855973594924993,-0.08760080825903532,0.07460409878060371,0.005677903856849298,0.001757726298896346,11607.274450374382
1683662038480624675,82,1683662038480624675,camera_2,84,0,-0.1868296356141239,0.9009029306238063,4.6284681615121,-0.7189088570490174,0.6856810880275485,-0.0870792722196239,0.07367971992029715,0.0027863318973686546,0.0008623679662618435,11612.210646504886
1683662038499811410,83,1683662038499811410,camera_2,85,0,-0.18667773832670784,0.9002861994393907,4.625465134741251,-0.7185799595885378,0.6853518963454115,-0.09043675592460391,0.07587366493927503,0.00697556312661618,0.0021585918004790707,11608.809973386898
1683662038518891811,84,1683662038518891811,camera_2,86,0,-0.18668715089261173,0.9003157577535255,4.625575740547857,-0.7189554919245507,0.6850084019648028,-0.08877314576436239,0.07736807132308206,0.005000027784262784,0.0015465039517526603,11610.440679586785
1683662038537711381,85,1683662038537711381,camera_2,87,0,-0.18674830172069293,0.9004539818472174,4.626200576732218,-0.7186670408143843,0.6854399335470458,-0.08958800840521215,0.07525802745292606,0.0037234379415167496,0.001152224661030594,11609.963292612905
1683662038556884527,86,1683662038556884527,camera_2,88,0,-0.1866982475164632,0.9004275222419768,4.626139635544812,-0.7189251595269126,0.6856054917502579,-0.0874265674968352,0.0738127358713377,0.007790781441144645,0.0024090668038852033,11622.315598007695
1683662038576091051,87,1683662038576091051,camera_2,89,0,-0.18684143628712258,0.9008445450713609,4.628403028599487,-0.7190670806610239,0.6856990945283521,-0.08716518345822392,0.07184369189653844,0.008941388077801093,0.0027672285260028446,11616.95306969559
1683662038595429182,88,1683662038595429182,camera_2,90,0,-0.18684559605979711,0.9009230220674979,4.6288579294613665,-0.7187464783232067,0.685626818964172,-0.08792529234268148,0.0747563240235421,0.003718484178534709,0.0011513898879795786,11604.275949142871
1683662038613715648,89,1683662038613715648,camera_2,91,0,-0.1868072177969276,0.9008166839089307,4.628231314023571,-0.7188799084408649,0.6855264001431184,-0.08741701333658554,0.07498998417243563,0.009722604096168652,0.0030092135257214184,11608.705320166599
1683662038634162664,90,1683662038634162664,camera_2,92,0,-0.1867142864459245,0.9004642948028418,4.626184402934547,-0.7186066302044266,0.6853880170832254,-0.08944832223064939,0.07646420544990194,0.004153461646637879,0.0012852648224902128,11607.32778904101
1683662038652932405,91,1683662038652932405,camera_2,93,0,-0.1868032434179525,0.9009586889695614,4.628769965600753,-0.7189576029355885,0.6853977625051278,-0.08762068439065264,0.07518303000671553,0.0123607932619052,0.0038269376819634656,11604.775380855017
1683662038672221422,92,1683662038672221422,camera_2,94,0,-0.1867675676222763,0.9006072326535559,4.627020310693799,-0.7188841713689793,0.6855116083895899,-0.08788335114684435,0.07453790652717646,0.006043192595825531,0.0018696737631936457,11614.226428261867
1683662038691565752,93,1683662038691565752,camera_2,95,0,-0.18685254558610848,0.9009848281577078,4.629105999599975,-0.7189204351733599,0.6856935757286663,-0.08763104050936353,0.07279099418079756,0.00942520599346608,0.00291840353225537,11609.322050502082
1683662038710945129,94,1683662038710945129,camera_2,96,0,-0.18682678261442118,0.9009698332448784,4.628973990062636,-0.7190853132820221,0.6856048447551191,-0.08696532483664432,0.07279657510118459,0.01089556973602157,0.003372774633672129,11612.459087002793
1683662038729686021,95,1683662038729686021,camera_2,97,0,-0.18672774181128635,0.900307493219985,4.625639457269392,-0.7188498330370127,0.6853050755751943,-0.08818437679906581,0.07638970233020094,0.005236146054812707,0.0016192630071856756,11615.005888422456
1683662038749195814,96,1683662038749195814,camera_2,98,0,-0.18676675257489456,0.9006407956481989,4.627389156106021,-0.7187491748777427,0.6855688618796,-0.08757289261498342,0.0756699921548733,0.00669878457847517,0.0020726592191023948,11610.499163965258
1683662038767969846,97,1683662038767969846,camera_2,99,0,-0.1868196999147087,0.9009358896244041,4.628724750428644,-0.7188109562740906,0.6855366835152755,-0.08874758308086017,0.07398737184486472,0.0064557431323919445,0.001999364995893563,11603.949871496825
1683662038786654710,98,1683662038786654710,camera_2,100,0,-0.18678692792355409,0.9008823955991823,4.628442119489455,-0.7187691234370982,0.6853690514195026,-0.08848775611945123,0.07622419279166785,0.009240691942977719,0.002861488771164312,11600.368698097156
1683662038805735349,99,1683662038805735349,camera_2,101,0,-0.18671725712761067,0.9002837969572732,4.625562345436511,-0.7182355763810454,0.6855942652774514,-0.09117736928901823,0.07605818541612035,0.006426992724300362,0.0019892747091004243,11604.842282876136
1683662038824858665,100,1683662038824858665,camera_2,102,0,-0.1868196859914577,0.9007504826629507,4.627900066291641,-0.7189823719643577,0.685462878853516,-0.08792949663045668,0.07398239074719506,0.0038807855889899656,0.0012011139944043516,11611.09310916418
1683662038844615459,101,1683662038844615459,camera_2,103,0,-0.18668837966894702,0.9002935994544337,4.625580363905244,-0.7186968927026633,0.6853582378451575,-0.08983549754320261,0.0754217847739109,0.0038201902789296582,0.001181941516523639,11611.73690933493
1683662038863335609,102,1683662038863335609,camera_2,104,0,-0.18677921509764595,0.9006921145307376,4.627422086361535,-0.7189796808510474,0.6854625719178958,-0.08775525202821273,0.07421790056647012,0.007572458533104509,0.002343117962730182,11613.555227028382
1683662038882431745,103,1683662038882431745,camera_2,105,0,-0.18679821760404197,0.9008883727407292,4.628497869934656,-0.7188941026009602,0.6854692190821386,-0.08779263976982696,0.07493778311858902,0.007225387147627771,0.00223687628275274,11606.152123937965
1683662038901740789,104,1683662038901740789,camera_2,106,0,-0.18685064447770974,0.9011107474636999,4.6295826152122626,-0.7189563203098773,0.6855190737150012,-0.08869353925570958,0.07279330431917284,0.0054719156614737585,0.001695305623879108,11603.010799819836
1683662038920985698,105,1683662038920985698,camera_2,107,0,-0.18688394455483487,0.9011831058590732,4.6300113615693785,-0.7188589389715372,0.6857536749818792,-0.08758929147711315,0.07288236500073318,0.012720338985673152,0.003940099230428657,11604.693187004948
1683662038940680980,106,1683662038940680980,camera_2,108,0,-0.18667973275818367,0.900356030326019,4.625742393856985,-0.7186700838943213,0.6855366377976352,-0.08890456668942193,0.07515854425286285,0.006043992063496262,0.0018695975359082134,11615.212857076465
1683662038959883451,107,1683662038959883451,camera_2,109,0,-0.1867119268775946,0.9004436659295754,4.626174980464907,-0.7188655119183017,0.6853077873799193,-0.08982146115483487,0.07428133982965072,0.006124320105300285,0.001895353212416924,11611.909845535127
1683662038979014158,108,1683662038979014158,camera_2,110,0,-0.18669284457548022,0.9003876303849103,4.625981296390776,-0.7187563518210628,0.6855026267713297,-0.0893201260206722,0.07414425462660752,0.002563813657616265,0.0007932424569865187,11615.148269410387
1683662038998165845,109,1683662038998165845,camera_2,111,0,-0.18675123592236265,0.9005563909995487,4.626742163736441,-0.7188025179298241,0.685741060244934,-0.0871924834390559,0.07402438343970835,0.01063290613819845,0.0032885641151546314,11619.565761047365
1683662039016818523,110,1683662039016818523,camera_2,112,0,-0.18675571922100107,0.9004845104961673,4.626629418346748,-0.7187473541581201,0.6853770988921508,-0.08788651709247554,0.07704825318094428,0.0032476305059390143,0.0010046443295087686,11609.322113596108
1683662039036084651,111,1683662039036084651,camera_2,113,0,-0.18672288365005907,0.9003812349622834,4.625840298139162,-0.7188057912399095,0.6853387028677365,-0.08925327089107432,0.07525257780820817,0.007934086417662911,0.00245460201991528,11613.094491054067
1683662039055568695,112,1683662039055568695,camera_2,114,0,-0.18671779005987676,0.9004551695756131,4.626309981796167,-0.7190467320005471,0.6853112755398966,-0.0883497165093477,0.07426022091221633,0.011665730067761615,0.003608761441461888,11616.861881149614
1683662039074401617,113,1683662039074401617,camera_2,115,0,-0.18681648221435326,0.900914306301167,4.628753276988449,-0.7187643719943506,0.6856137503957032,-0.08815406961168865,0.07443401662414081,0.008659148254082538,0.0026813460989901683,11604.866558808602
1683662039093764781,114,1683662039093764781,camera_2,116,0,-0.18669642229787942,0.9004817907566408,4.6261821500586695,-0.718684891631939,0.6854351714010757,-0.09002706756805161,0.0746041517039351,0.011302103273919784,0.0034979610142377307,11610.22904188794
1683662039112933874,115,1683662039112933874,camera_2,117,0,-0.18688781920276193,0.9010945662875202,4.629657737775618,-0.7188986493417966,0.6857613729601779,-0.08729090660152374,0.07277615650057549,0.006906504102516919,0.00213877904550732,11607.82540881779
1683662039131927490,116,1683662039131927490,camera_2,118,0,-0.18668755976923734,0.9001877010685521,4.624722087856154,-0.7188945865448841,0.6853621627238322,-0.0886346602223514,0.07492113420283866,0.004779918148415163,0.0014777635600778669,11621.915287230051
1683662039151567459,117,1683662039151567459,camera_2,119,0,-0.18679062902223878,0.9006450142830749,4.627371892316033,-0.7190025633282875,0.6853293847869473,-0.0876438644287282,0.07534919576807293,0.006568164244526997,0.0020323232932896017,11611.19081355134
1683662039170281648,118,1683662039170281648,camera_2,120,0,-0.18677659340582692,0.9006841235812282,4.627375680176796,-0.7188789902009489,0.6855478116358332,-0.08851970547163444,0.07349460627963844,0.0082612620171858,0.0025569349069284584,11612.876065842021
1683662039189511775,119,1683662039189511775,camera_2,121,0,-0.1867032720651465,0.9003169866315486,4.625474641417773,-0.7188611557159295,0.6852595859692923,-0.08941577892155789,0.07525129314372962,0.006732481706421822,0.0020826636843712886,11614.330719762711
1683662039210348129,120,1683662039210348129,camera_2,122,0,-0.1867226924953549,0.9003454958336635,4.625833609488961,-0.7187778049001087,0.6854344822820535,-0.08790006798588977,0.07623395391681305,0.0023414652241626754,0.0007240475513800856,11615.489079660125
1683662039228729009,121,1683662039228729009,camera_2,123,0,-0.18677135070492365,0.900794179102323,4.627835077516429,-0.7187596147185052,0.6856832946483182,-0.08693611299088808,0.07526717709579028,0.015478611836442724,0.0047892720885632945,11611.746665049866
1683662039248068332,122,1683662039248068332,camera_2,124,0,-0.18675230794745568,0.9006123830946648,4.627101531965553,-0.7188448011856711,0.685448064051224,-0.08896865551356388,0.0742137563587178,0.009335139213362709,0.0028893936463334434,11610.680872470026
1683662039267221450,123,1683662039267221450,camera_2,125,0,-0.18677669617986262,0.9005382136109882,4.626810523200477,-0.7187419420665084,0.6853421894406118,-0.08912909175565346,0.07597439759566907,0.007790709627442994,0.0024110494748524596,11606.674351485184
1683662039286746978,124,1683662039286746978,camera_2,126,0,-0.18668719799330638,0.9003753506682521,4.625827224224167,-0.718934451611336,0.685394169756597,-0.088891164004424,0.0739354266364339,0.00490420320420526,0.0015170151736186247,11618.093841947262
1683662039306157350,125,1683662039306157350,camera_2,127,0,-0.18671470509414245,0.9003940851143054,4.625863416820104,-0.7186090565107424,0.6855295348701957,-0.09024274088599801,0.07420598654270608,0.007701954236836173,0.002383542211557188,11612.011994217784
1683662039325917959,126,1683662039325917959,camera_2,128,0,-0.1867838645922459,0.9007012015305043,4.627626893973104,-0.7187770066721609,0.685520426972468,-0.08820872233044631,0.07510379609396527,0.004627368674846366,0.0014322124049325278,11608.480745943378
1683662039345019102,127,1683662039345019102,camera_2,129,0,-0.18683371697262402,0.9009983381802806,4.62904931460045,-0.7190731825669849,0.6854912101782958,-0.08823949359047083,0.07245240266671735,0.006902931534568779,0.002137812303287105,11608.252428458596
1683662039364527702,128,1683662039364527702,camera_2,130,0,-0.18673152683755123,0.9005634385025526,4.6268535822984385,-0.7189122070548263,0.6852721893865759,-0.08782092753227778,0.07651633608751747,0.005000536126317456,0.0015470318296985695,11609.97889343539
1683662039383695363,129,1683662039383695363,camera_2,131,0,-0.18687551276536324,0.9011662849073996,4.629941121748668,-0.718947754641942,0.68589844652193,-0.08710710852565867,0.07120251960718961,0.010616764397127554,0.00328786408778051,11611.11661361175
1683662039403219938,130,1683662039403219938,camera_2,132,0,-0.18682170131234369,0.9007935119008417,4.628128660139802,-0.7191365837538287,0.6853679892556968,-0.08757535813605731,0.07378244952437461,0.004901710417470895,0.0015171375737930508,11611.844002257596
1683662039422693014,131,1683662039422693014,camera_2,133,0,-0.1867434985905017,0.9003595343227278,4.6257955207513275,-0.7186066922363171,0.6854557076923095,-0.08942690786157682,0.07587966009103754,0.009059372096089646,0.0028028417631074483,11610.914880822646
1683662039441974639,132,1683662039441974639,camera_2,134,0,-0.18668159034354864,0.9002939078587526,4.62544355710543,-0.718861301693734,0.6852826632319695,-0.08828959516564673,0.07636129769965781,0.004269385332008824,0.0013202175508942348,11615.713737835173
1683662039461188554,133,1683662039461188554,camera_2,135,0,-0.18671486600923487,0.9002723116509939,4.625307248269523,-0.7186420925819722,0.6853652436519835,-0.08935617449937708,0.07644278672378678,0.006787270831409842,0.0020993767272378706,11612.081473615046
1683662039480789184,134,1683662039480789184,camera_2,136,0,-0.18670979150096312,0.9003860069032639,4.625756564180003,-0.7187533738500664,0.6853871704780247,-0.09018768812916204,0.07419026238793602,0.0073462024301989,0.002273281920872254,11612.799261211148
1683662039499850988,135,1683662039499850988,camera_2,137,0,-0.18679741662665822,0.9008701560664969,4.628578683509773,-0.7191037040620198,0.6853625934366565,-0.08701980053317154,0.074803292957129,0.006903273198986426,0.002136683546191151,11608.97663302542
1683662039519445419,136,1683662039519445419,camera_2,138,0,-0.18672689734531556,0.9003092464853435,4.625550577882462,-0.7184805017972079,0.6855660697193322,-0.0904920387934776,0.07480724230861673,0.004309240612201393,0.0013335096940475194,11610.96443058333
1683662039538689851,137,1683662039538689851,camera_2,139,0,-0.1868270679710932,0.9008757996165909,4.628575303199705,-0.7190157816727001,0.6855087167436084,-0.0876377305619986,0.07357807524031916,0.004422046506078914,0.001368985276321356,11609.93183930556
1683662039558016300,138,1683662039558016300,camera_2,140,0,-0.18675460154261217,0.9006708113198283,4.627495113075254,-0.719045019386504,0.6854264944134664,-0.0880231624636056,0.07359825895654148,0.002893186072469689,0.0008953725446506851,11613.897336678463
1683662039577636718,139,1683662039577636718,camera_2,141,0,-0.18674862325557773,0.9005686350912017,4.626720542575637,-0.7188363267740475,0.685507849301208,-0.08846308017695927,0.07434788027934619,0.007889319691457786,0.002441045930097522,11614.101792612928
1683662039596672534,140,1683662039596672534,camera_2,142,0,-0.18673896791181077,0.9006427138087232,4.627123424987009,-0.7190256204755192,0.68542523722109,-0.08745143795674289,0.07447581674278694,0.009302290229243226,0.0028777746658948597,11615.544315602368
1683662039615752220,141,1683662039615752220,camera_2,143,0,-0.18679627133136484,0.9007092124490472,4.627658874120479,-0.7193888366143683,0.685337609704185,-0.0863579283358067,0.07303677630569311,0.009127656350756297,0.00282332379494275,11620.622218866049
1683662039635083198,142,1683662039635083198,camera_2,144,0,-0.1867638441936821,0.9004566347269026,4.626380053311049,-0.7186792900949873,0.6855795099176384,-0.0866373692746825,0.0772966998960391,0.012213693888043053,0.0037761767555940973,11614.437018737892
1683662039654692173,143,1683662039654692173,camera_2,145,0,-0.1867918823858571,0.9006574630207005,4.627498115308306,-0.7188445947952082,0.6854574847336303,-0.08833888863588943,0.07487807363263123,0.007604251688462682,0.002353453984158274,11609.21131434472
1683662039673731803,144,1683662039673731803,camera_2,146,0,-0.18681476160108906,0.9007734259182227,4.6279536768024485,-0.7191826676169559,0.6855110787635121,-0.08729538161825931,0.07232128206805721,0.0048995127726811916,0.001516166853705937,11617.54689903974
1683662039692891120,145,1683662039692891120,camera_2,147,0,-0.1867166386277785,0.9003279844851917,4.625636062976586,-0.7188092317675114,0.6854875419689661,-0.08837108108940597,0.07490440680116607,0.0028723809082293883,0.0008882835154026705,11618.351849362056
1683662039712502241,146,1683662039712502241,camera_2,148,0,-0.18683385858373813,0.9010220578493594,4.629303655435029,-0.7189900529149644,0.6855259719803728,-0.0870813410353083,0.07432553796101485,0.009873245988273993,0.0030569737578910656,11606.3898305654
1683662039731786251,147,1683662039731786251,camera_2,149,0,-0.18668840084100838,0.9003030256988374,4.62556084124554,-0.7186843474891834,0.685372417341449,-0.08948471583929278,0.07582838421558469,0.0025603256945032626,0.0007920754917293323,11612.075912782368
1683662039751144647,148,1683662039751144647,camera_2,150,0,-0.18671371820970625,0.9002216543835655,4.625248316595042,-0.7187474569243935,0.6852419250109685,-0.09007025758323298,0.07571622065891608,0.0018716548511292785,0.0005790599842641034,11611.67483944615
1683662039771161079,149,1683662039771161079,camera_2,151,0,-0.1868578972999245,0.901096415596178,4.62936066537563,-0.7188529226015488,0.6857021401657256,-0.08763480759415047,0.07337023331904977,0.010368509116233326,0.0032108319667066166,11606.516616880082
1683662039790789365,150,1683662039790789365,camera_2,152,0,-0.18677634230615148,0.9007515778736913,4.627772585306792,-0.7190993362069023,0.6854899843750798,-0.0871383018736115,0.07352919375886592,0.007451452795066871,0.0023056009893841563,11615.940241227363
1683662039809870243,151,1683662039809870243,camera_2,153,0,-0.18676186203830825,0.9006791318215495,4.62741394142651,-0.7189113080093797,0.6856112489948356,-0.08889358337446952,0.07212265457420691,0.009621158955269493,0.002978131430238348,11614.842052381282
1683662039828809499,152,1683662039828809499,camera_2,154,0,-0.1867535815899123,0.9005656786910738,4.6269529274296834,-0.7187708396774696,0.6853607216815701,-0.09004126730501678,0.07444280615055641,0.002247736250865273,0.0006959082918772481,11606.711972039215
1683662039847537517,153,1683662039847537517,camera_2,155,0,-0.18675566553548067,0.9006102479302445,4.6271382494623685,-0.7187130140049531,0.6855772918574777,-0.08895135660933731,0.07431713494639906,0.01129624221357517,0.003496329664049129,11610.263207037646
1683662039866413116,154,1683662039866413116,camera_2,156,0,-0.18676828935065007,0.9004213908296629,4.626243745217568,-0.7188034676181931,0.6855652593528494,-0.08841581928168879,0.07419227054935983,0.004668797642807476,0.0014442203625317912,11617.013838193843
1683662039885518312,155,1683662039885518312,camera_2,157,0,-0.18670641125774481,0.9004421749908309,4.626138614574593,-0.7184722378025012,0.6853417622925373,-0.09090683933110476,0.07642158679099889,0.017783990551833995,0.005505681742596838,11602.109256652651
1683662039904383182,156,1683662039904383182,camera_2,158,0,-0.18666321673412642,0.9000737780137323,4.624211866353498,-0.7187327531579168,0.6851284847315352,-0.09027022205385837,0.076638606184212,0.009711301827337591,0.0030032485436191606,11613.549074591137
1683662039923265695,157,1683662039923265695,camera_2,159,0,-0.18675282918347422,0.9005453991404262,4.6268882617481175,-0.7189633154290372,0.6853011361670881,-0.08720312494322058,0.07648345465211304,0.003164133260725066,0.0009787250808917871,11612.162304048023
1683662039942037582,158,1683662039942037582,camera_2,160,0,-0.1866083984308263,0.8997946771940266,4.623025804607564,-0.7185538620562643,0.6855406258240873,-0.08837221878128916,0.07684236212153958,0.0037576922331936657,0.0011607771674671402,11626.147448725736
1683662039960712671,159,1683662039960712671,camera_2,161,0,-0.18668032521099237,0.9003250672336399,4.625552678902713,-0.7187988650368652,0.6854316179366641,-0.08848848640423004,0.0753755698375141,0.0061078311409801245,0.0018888379921881508,11617.0968950761
1683662039979647159,160,1683662039979647159,camera_2,162,0,-0.18680648086353013,0.9007598326861408,4.627770713546638,-0.7187301361081093,0.6853948529719345,-0.0885663406451841,0.07626854052832152,0.00799138106231112,0.00247386210530826,11603.222280293934
1683662039998294830,161,1683662039998294830,camera_2,163,0,-0.18682019361899724,0.9007767579540926,4.627803587976667,-0.7189650510545916,0.6855251863438508,-0.08827471379121951,0.07315770058835473,0.006040373773430474,0.0018696843542785324,11612.471703997202
1683662040017080307,162,1683662040017080307,camera_2,164,0,-0.1866735150717197,0.9004238190003853,4.626062956077451,-0.7188177327441203,0.6853333279976889,-0.08969712708826492,0.0746573641399605,0.0045727336837444454,0.0014150763414190754,11611.992011745606
1683662040035720586,163,1683662040035720586,camera_2,165,0,-0.18672167478569912,0.9003921429734552,4.626079119808632,-0.7189316039816178,0.6854687582485859,-0.08804375234864742,0.07428477592299935,0.005156396044185385,0.0015947607357483095,11619.049386805737
1683662040054821729,164,1683662040054821729,camera_2,166,0,-0.1867078074225662,0.9004732997081933,4.626339903896276,-0.71878194177809,0.6854664286994662,-0.08940008163337221,0.07413447715917829,0.007200030755484477,0.0022279928805452594,11613.047979790015
1683662040073755979,165,1683662040073755979,camera_2,167,0,-0.18677486329986276,0.9006981175486326,4.627613061400978,-0.7189957674527369,0.6854823166142807,-0.08701188611759036,0.07475300441071418,0.007200843014288692,0.0022278213105827393,11613.944304448843
1683662040092199325,166,1683662040092199325,camera_2,168,0,-0.18671703114255706,0.9003791021077789,4.6257785077338465,-0.7185501545665844,0.6853520092451746,-0.08971613701010761,0.07700203605050727,0.0047822460473980755,0.0014797038041729214,11606.81900051469
1683662040111167430,167,1683662040111167430,camera_2,169,0,-0.18682065466248873,0.9008614401632359,4.628389941192761,-0.7190748924868726,0.6856826796694482,-0.08636941977869135,0.07287581988155985,0.008515677604009397,0.0026349285182477927,11617.340189890767
1683662040129747867,168,1683662040129747867,camera_2,170,0,-0.18667120036695123,0.900231616993842,4.625209628436094,-0.71868673514273,0.6852403192222706,-0.09001487090481983,0.07637018173366436,0.0035960230306955054,0.0011124877276527726,11610.31783492066
1683662040148967027,169,1683662040148967027,camera_2,171,0,-0.18674048125213025,0.9004789308629797,4.626442063546854,-0.7188371054740489,0.6854116871572531,-0.08729526839994885,0.07657395782457638,0.007446384290233254,0.002302866190654595,11613.784160313311
1683662040167350769,170,1683662040167350769,camera_2,172,0,-0.18683047661481078,0.9009022553550307,4.62854995774351,-0.7188915844012174,0.6855404999654018,-0.08739149413214976,0.07477860347482347,0.005752851546276361,0.001780758002690334,11607.741467441894
1683662040185800075,171,1683662040185800075,camera_2,173,0,-0.1867866701354225,0.9006414366225199,4.627217709411345,-0.7189170292106476,0.6853653455543198,-0.08792280045061511,0.07551310737260113,0.00347199228417594,0.0010743125492032532,11610.45429537405
1683662040205065727,172,1683662040205065727,camera_2,174,0,-0.18671790001978006,0.9004612738910054,4.626427668844317,-0.7187272818329081,0.6854519779418862,-0.08819532715063676,0.07621197119500034,0.004662036764784716,0.0014422419959743142,11611.559709995081
1683662040224164247,173,1683662040224164247,camera_2,175,0,-0.18687058864314066,0.9011036749679489,4.629575755650799,-0.7189904070644655,0.6855005489505933,-0.08772154520070219,0.07380191356130698,0.0226952439697925,0.007029217149954659,11604.031427551061
1683662040242607116,174,1683662040242607116,camera_2,176,0,-0.18680388810345006,0.9009613949065769,4.628894483877688,-0.7189090493895016,0.6855630351918975,-0.08685089927451126,0.07503349105276162,0.00715058455534745,0.002213501447220074,11607.414271446822
1683662040262196063,175,1683662040262196063,camera_2,177,0,-0.1867558032632853,0.9005991307993529,4.62703034834074,-0.7190395208594985,0.6853758606227309,-0.08881151330953166,0.07317521589626236,0.012956777616636828,0.00400996205971298,11614.364948382809
1683662040281621456,176,1683662040281621456,camera_2,178,0,-0.18679044430142644,0.9007005892579458,4.6275387947659725,-0.7187889998899285,0.6853141470633171,-0.0898940693678759,0.07487289071885832,0.005708021897589788,0.001767602318998118,11603.178092667597
1683662040299568414,177,1683662040299568414,camera_2,179,0,-0.1868313320260512,0.9008954459313254,4.628564505233613,-0.7190239599791175,0.6856221254986855,-0.08695868661261835,0.07324638438326786,0.007318382107769139,0.0022650542622469623,11613.334085762912
1683662040319620370,178,1683662040319620370,camera_2,180,0,-0.18679867262083263,0.9008352041520542,4.628182593948601,-0.7188986817643677,0.6855185692276713,-0.08720516977631144,0.07512812366740974,0.011397222813684493,0.0035273279723841157,11609.388860713603
1683662040338898181,179,1683662040338898181,camera_2,181,0,-0.18680559571433936,0.9008165640877747,4.628171746028076,-0.7190251063330672,0.6856850593519709,-0.08641773028572519,0.07328623156138829,0.01033238071249798,0.003196949864726831,11617.226478810713
1683662040357656240,180,1683662040357656240,camera_2,182,0,-0.1867868866782385,0.90069886137786,4.62764262757621,-0.7188232205591631,0.6855417837048261,-0.08922184725325859,0.07324685899391395,0.0033303213713224977,0.0010310980529893118,11609.523661395566
1683662040376312017,181,1683662040376312017,camera_2,183,0,-0.18675456259584042,0.9006904474740379,4.627520032481183,-0.7189024106907044,0.6855252645458922,-0.088827091763535,0.07310392151732237,0.0053164783312240615,0.0016457112448373071,11612.034333161484
1683662040394896984,182,1683662040394896984,camera_2,184,0,-0.18670905852542416,0.9002540900258091,4.6252661567788795,-0.7184828666710409,0.6852814542304049,-0.08983235509925067,0.07811431856802487,0.005398360415711068,0.0016700359233474745,11605.789627532886
1683662040414055347,183,1683662040414055347,camera_2,185,0,-0.18674684186058124,0.9005072699469672,4.626616827038434,-0.718837436775958,0.6856076018865876,-0.08822652759781643,0.07369555992544398,0.00548395344230812,0.0016965274408561003,11617.208242368946
1683662040432775259,184,1683662040432775259,camera_2,186,0,-0.18682675952295477,0.9008870043434514,4.628661807562207,-0.7187978182607675,0.6856925926886287,-0.08742764260300084,0.07424130995873578,0.002916647703386843,0.0009029049729396656,11608.506353612083
1683662040451013088,185,1683662040451013088,camera_2,187,0,-0.18664138222764975,0.9001225275659035,4.624519047439853,-0.7189624892505998,0.6850663294667322,-0.08957571228187677,0.07585021457289563,0.004801353279617616,0.0014847559682469014,11616.922323567447
1683662040469099998,186,1683662040469099998,camera_2,188,0,-0.1867865732831973,0.9008341358850478,4.628266269964392,-0.7188787119176185,0.6854124438980533,-0.08796376577934803,0.0754026207189073,0.00798791300621815,0.0024728378899514405,11605.424341257083
1683662040489044427,187,1683662040489044427,camera_2,189,0,-0.18686836845035362,0.9011724465806097,4.630106086185893,-0.7192373576547558,0.6857099745358479,-0.08544555461476953,0.07210070299536721,0.009183199988910928,0.002842766540537986,11614.12269673881
1683662040508066654,188,1683662040508066654,camera_2,190,0,-0.18666667910757312,0.9001632536785685,4.624901646808103,-0.7186259641948891,0.6854400020358039,-0.08916448613045312,0.07614736769721997,0.0037342396681196988,0.0011547700083577638,11615.701202320637
1683662040526607990,189,1683662040526607990,camera_2,191,0,-0.18694675728901639,0.901415175068476,4.631051994580809,-0.7190758087753819,0.6855501914590211,-0.08654963122658446,0.07389233762083929,0.010851882238057442,0.0033618264992554448,11600.651732312192
1683662040544936418,190,1683662040544936418,camera_2,192,0,-0.1867843632214372,0.9006467236531115,4.627332286179832,-0.7186425824963003,0.6855595396266373,-0.08913975093997195,0.07493371105397932,0.006254167848965153,0.001935997187313974,11606.8761881766
1683662040564127922,191,1683662040564127922,camera_2,193,0,-0.1867743442042941,0.9006033362294932,4.627160582774974,-0.7188503255793354,0.6854072567210623,-0.08917208137094071,0.07429294551009584,0.004109236106160097,0.001271970263418889,11609.358030845213
1683662040582548141,192,1683662040582548141,camera_2,194,0,-0.18678135208127233,0.9006947485991371,4.627480461963138,-0.7190135100524213,0.6855515291957475,-0.08624548080912768,0.07483575495357246,0.019955089650466107,0.006171774536866447,11617.17215062282
1683662040601773977,193,1683662040601773977,camera_2,195,0,-0.18670162525624157,0.9002133949667012,4.625055553747213,-0.71850544976102,0.6854601899860265,-0.08917447607622381,0.07708540344686332,0.0071179047372424975,0.0022012993842197605,11612.249991010056
1683662040620506525,194,1683662040620506525,camera_2,196,0,-0.1867040501169429,0.900310239594093,4.6256280895516,-0.7188157186388603,0.6852588253654842,-0.08843034593510911,0.0768399558446826,0.007403524374240078,0.0022896554758817514,11612.913158358975
1683662040639464855,195,1683662040639464855,camera_2,197,0,-0.1867419350846779,0.9004607604173995,4.626358640032075,-0.7188462950070511,0.6855844699866553,-0.0880442918098498,0.0740414839630776,0.007783016102621332,0.002407381598550577,11618.271768472998
1683662040658233642,196,1683662040658233642,camera_2,198,0,-0.18679989397140162,0.900695573373601,4.627479289044964,-0.7189297448326137,0.6852337580631939,-0.08751163609915671,0.0770482469155143,0.004574608145048842,0.001415476745317985,11606.438134280965
1683662040677423954,197,1683662040677423954,camera_2,199,0,-0.18684977003418535,0.9010859321229271,4.6294555524251555,-0.7190614777191866,0.6856532104478155,-0.08612915675020752,0.07356653193131635,0.013916750060161576,0.004307593057664529,11611.05520933869
1683662040696542501,198,1683662040696542501,camera_2,200,0,-0.18682010163022453,0.9009890363237434,4.628946338311677,-0.7187659875494047,0.6857396594392873,-0.08692726885343183,0.07470090055616846,0.0040904527850216255,0.00126622216888346,11607.709225549333
1683662040716067790,199,1683662040716067790,camera_2,201,0,-0.18675804974019658,0.9005659897285588,4.626809070726253,-0.7190665003052152,0.6853149440058395,-0.08873194092978812,0.07357607165319249,0.008294993414892815,0.002566874460939202,11614.697602330709
1683662040735317468,200,1683662040735317468,camera_2,202,0,-0.18673990842845276,0.900341174010775,4.625795270157819,-0.7187047726742177,0.6854021694259126,-0.08884765710563224,0.07611445137681681,0.012178152363048866,0.003766925448277349,11612.454363240367
1683662040754837036,201,1683662040754837036,camera_2,203,0,-0.1868686897872708,0.9010712626552122,4.6292721895743405,-0.718862443521813,0.6857331876415624,-0.08769784911707766,0.07291001248819254,0.008204278710763901,0.0025406720206620896,11607.930538248269
1683662040774055480,202,1683662040774055480,camera_2,204,0,-0.18680584199207723,0.9007935773555191,4.628110291164714,-0.7190532181215179,0.6856126088656544,-0.08609824625312877,0.07406019217943888,0.008506205907906406,0.002631437742961082,11616.618883631894
1683662040793776988,203,1683662040793776988,camera_2,205,0,-0.1866415615090645,0.9000929469704648,4.624558846999168,-0.7188288705070507,0.6854697008405062,-0.08773232639199838,0.07562660286587493,0.007988187164301053,0.0024686925226396965,11624.239025484741
1683662040812780141,204,1683662040812780141,camera_2,206,0,-0.18677869374006278,0.9007344172178425,4.6276356527043445,-0.7190588188743454,0.685235269317889,-0.08762523816245608,0.07568922194635323,0.015797908214153722,0.004888680036739979,11609.04458618196
1683662040832047939,205,1683662040832047939,camera_2,207,0,-0.1867954420774126,0.9006539121445154,4.627396061297598,-0.7187898318239281,0.6857373226181719,-0.0871553612914788,0.07422563595646874,0.004792200677911751,0.0014825460822483227,11615.859435539582
1683662040851488828,206,1683662040851488828,camera_2,208,0,-0.18686772187202716,0.9011978396853543,4.63005926472556,-0.7192048557691254,0.6856465057208584,-0.08596321679830517,0.07241249884223203,0.007326802719035186,0.0022684886955390503,11611.697611973856
1683662040871216297,207,1683662040871216297,camera_2,209,0,-0.18672880013093737,0.9004634256873315,4.626328258988608,-0.7187823425440893,0.6854521824350014,-0.08748044355087854,0.07651419239635543,0.002143083649571054,0.0006627858815458733,11613.841541932103
1683662040890260934,208,1683662040890260934,camera_2,210,0,-0.18677739122524556,0.9007475787639097,4.627758748980231,-0.7190493541819315,0.6854161042764331,-0.08667349449943615,0.07523626519386283,0.008109783302643336,0.0025089875677521824,11613.17432821915
1683662040909986495,209,1683662040909986495,camera_2,211,0,-0.18674203729594527,0.9005741406504404,4.626984974744545,-0.718767231560157,0.6854483520202065,-0.08876622472354044,0.07519827721737103,0.011319418903440237,0.0035032386427383314,11609.405570550647
1683662040929192543,210,1683662040929192543,camera_2,212,0,-0.18688894053818783,0.9011466866709927,4.629780955387164,-0.7187939970317327,0.6856987494983177,-0.08810651571758282,0.0734142810064642,0.003221919381758198,0.0009980933187284451,11602.531259852458
1683662040948511123,211,1683662040948511123,camera_2,213,0,-0.1867078511812787,0.9003474563116127,4.625744648335143,-0.7187272236451263,0.6855591488985143,-0.08815644875910171,0.07528792662238168,0.00394871381286066,0.0012211357122285948,11617.60347219301
1683662040967968702,212,1683662040967968702,camera_2,214,0,-0.18684171942638123,0.90090649190229,4.628636063139157,-0.7188676728752509,0.6855102869499476,-0.08752962822725023,0.07512309606985637,0.007289881104952656,0.002256750515036125,11605.873871841412
1683662040987195491,213,1683662040987195491,camera_2,215,0,-0.18666247492921517,0.9002209183630099,4.625164844036833,-0.7188971540554119,0.6854877934380254,-0.0882210842628651,0.07423211724032222,0.002880616666516289,0.0008906370926595758,11623.15874042574
1683662041005942106,214,1683662041005942106,camera_2,216,0,-0.18675857974780255,0.900490535510428,4.626304454395554,-0.7186615282674716,0.6855110182536601,-0.08833988834254121,0.07613353905289998,0.011289672387647443,0.0034924242561129555,11611.775003151708
1683662041026442289,215,1683662041026442289,camera_2,217,0,-0.1867415451860524,0.9005022003034275,4.626443179424858,-0.7186669095025726,0.6855680084155389,-0.08809259240690785,0.07585561407175581,0.0060340342606650665,0.0018665943607717496,11612.798918798684
1683662041045213699,216,1683662041045213699,camera_2,218,0,-0.18677324619045516,0.9007523599197255,4.627890916561277,-0.7190103251213612,0.6854678136317265,-0.0872067050472187,0.07451858451837898,0.0061728496657451615,0.0019101081032347061,11612.47195721482
1683662041064958810,217,1683662041064958810,camera_2,219,0,-0.18675042493829447,0.9005834346487979,4.626955867662187,-0.7189471122272901,0.6853135967438925,-0.08826742441804372,0.07529399527581691,0.012331244754022919,0.003815450588572045,11611.106999634732
1683662041084038257,218,1683662041084038257,camera_2,220,0,-0.18673679258053708,0.9004934732673253,4.6264566839341,-0.7188579928371799,0.6853293956560537,-0.0878497411798742,0.07648024946637157,0.009644218647736123,0.002983194365143822,11611.941836776827
1683662041103427648,219,1683662041103427648,camera_2,221,0,-0.18684009977797633,0.9009140470748799,4.628567117195189,-0.7191530878208285,0.6855410758803835,-0.0866746555175667,0.07307375486072487,0.014304307653219439,0.0044268266026774306,11614.816773674567
1683662041122165679,220,1683662041122165679,camera_2,222,0,-0.18679960754652278,0.9006849267429168,4.627533133469772,-0.7188800951881504,0.6854367302206906,-0.08768462228667605,0.07549373895288825,0.0030589223169954494,0.0009465584370299142,11609.812309118337
1683662041141865968,221,1683662041141865968,camera_2,223,0,-0.1867181021432912,0.9002421026691776,4.625205503780373,-0.7186723381707452,0.6855561578943455,-0.08811677147535657,0.07588319514950116,0.008003176204510964,0.0024743373584420777,11618.78676436652
1683662041161469936,222,1683662041161469936,camera_2,224,0,-0.18675859231462402,0.9005055702321757,4.626557143703859,-0.7188925853190339,0.6852930801039867,-0.0886422481265929,0.0755605517579782,0.009644495366956107,0.0029841533177572366,11610.98017896968
1683662041180081844,223,1683662041180081844,camera_2,225,0,-0.18688829670906304,0.9011508818349794,4.630009481885095,-0.7191322844129686,0.6855769599086016,-0.08606490356674674,0.07366017873662564,0.0033482600556453686,0.0010366549518351466,11608.276369043975
1683662041199925184,224,1683662041199925184,camera_2,226,0,-0.1867392921584219,0.9005992857025011,4.627137789424745,-0.7187740576520236,0.6855238743473184,-0.0877685001429643,0.07561456294221328,0.012724683838314377,0.003937042968258808,11611.234235449227
1683662041219463348,225,1683662041219463348,camera_2,227,0,-0.18671446944830958,0.9002850221891531,4.625401291852708,-0.7187760459914099,0.6857119296651633,-0.08750739947530092,0.07417951375482887,0.004067755042342469,0.0012574725738442435,11624.680871792805
1683662041239078283,226,1683662041239078283,camera_2,228,0,-0.18685395371526548,0.9011017537628246,4.629590696505569,-0.7189997295117319,0.6855182400356075,-0.08725770418956104,0.07409604982795502,0.011905154169653542,0.0036867689603312204,11604.904155879864
1683662041258204698,227,1683662041258204698,camera_2,229,0,-0.18665125756992007,0.9000755665213007,4.624442965990351,-0.7184440804320789,0.6855407405461779,-0.09049303502304479,0.07538572116668268,0.00499974716512952,0.0015464952554583701,11615.016064690368
1683662041277214050,228,1683662041277214050,camera_2,230,0,-0.18667281337638786,0.9001292005214161,4.6246967810792095,-0.7185431493370615,0.6854150623944716,-0.08844421996145534,0.07797149953008391,0.004696259187767282,0.0014518034083809898,11614.316289299224
1683662041296785593,229,1683662041296785593,camera_2,231,0,-0.18674137932870977,0.9005673016109328,4.626608923645517,-0.7189702823142573,0.6851930903158165,-0.08929612698304316,0.07495574586545489,0.008180342687410302,0.0025316478465855683,11609.895919534516
1683662041315979480,230,1683662041315979480,camera_2,232,0,-0.1867370992400354,0.9006546904901431,4.627295727212982,-0.7188803270868039,0.6853490449871711,-0.08864812560120193,0.07516163709057967,0.011717298621078953,0.0036266355282101384,11608.401195404727
1683662041335437774,231,1683662041335437774,camera_2,233,0,-0.1868499124202225,0.9010249409107726,4.629179801871732,-0.7188716601884642,0.6856019941681819,-0.08838519916919654,0.07322225302676061,0.0036150201194686815,0.0011196841078795368,11605.031719673578
1683662041354911088,232,1683662041354911088,camera_2,234,0,-0.1867018992225029,0.9003908053781097,4.625995583348163,-0.7187230005828992,0.6853256841861637,-0.08954161711746154,0.07581723967456444,0.005477464364957996,0.0016948901719337855,11609.724726624288
1683662041374794244,233,1683662041374794244,camera_2,235,0,-0.18676441841588964,0.900626459889786,4.627259862738031,-0.718724186303089,0.6856846720171417,-0.08887076150557888,0.07330799637915474,0.004235026921378449,0.001310788766256449,11612.586402658835
1683662041393719434,234,1683662041393719434,camera_2,236,0,-0.1869192921093521,0.9013573176098574,4.631051879555464,-0.7192682663795428,0.6858709101605949,-0.08494101711272196,0.07084687139670005,0.006374255346599966,0.001973661174820649,11614.3216552333
1683662041413105249,235,1683662041413105249,camera_2,237,0,-0.1867983756454352,0.9007794852498572,4.627936438699394,-0.7189870754207283,0.6853624070343993,-0.08888182274063439,0.07372908509038213,0.008136159012792632,0.0025190337883270264,11608.070838008307
1683662041432462692,236,1683662041432462692,camera_2,238,0,-0.1868173229399764,0.9009096417859582,4.628741159710102,-0.7190688581714693,0.6855501115255743,-0.08635483283791381,0.07418803569840858,0.006007922493154183,0.0018593111414175996,11612.22511612024
1683662041451707363,237,1683662041451707363,camera_2,239,0,-0.18666856663290957,0.900210989706198,4.624964832630407,-0.7186615667117942,0.6853998407990727,-0.08882934954509313,0.0765634209224678,0.008961657746112905,0.002771071910361653,11615.507537049074
1683662041470506906,238,1683662041470506906,camera_2,240,0,-0.18671567940937164,0.9003983844415278,4.62596326055415,-0.7188529904633628,0.6856137812979194,-0.08747196590066537,0.07438263357613767,0.010247953599900939,0.0031688005849558215,11621.512920597363
1683662041489610195,239,1683662041489610195,camera_2,241,0,-0.18672120820880928,0.9003009340723336,4.62551766183581,-0.7188895133430581,0.6855891118504939,-0.08816962497888729,0.07342720577902051,0.01101540403033141,0.0034061613287282217,11623.650521739997
1683662041508479118,240,1683662041508479118,camera_2,242,0,-0.18682027840065732,0.900936412789253,4.628690077270518,-0.7190268243852501,0.6853436790520246,-0.08875317879318306,0.0736704869809051,0.010111135852639563,0.0031314623227945335,11604.963884938912
1683662041526945829,241,1683662041526945829,camera_2,243,0,-0.1867589785742552,0.9006740323008465,4.6275761869964676,-0.7190255766804118,0.6854089772239343,-0.08742803837929616,0.0746531454487354,0.0042302046495024115,0.0013089003328523921,11612.875293648976
