%time,field.header.seq,field.header.stamp,field.header.frame_id,field.image_seq,field.transforms0.fiducial_id,field.transforms0.transform.translation.x,field.transforms0.transform.translation.y,field.transforms0.transform.translation.z,field.transforms0.transform.rotation.x,field.transforms0.transform.rotation.y,field.transforms0.transform.rotation.z,field.transforms0.transform.rotation.w,field.transforms0.image_error,field.transforms0.object_error,field.transforms0.fiducial_area
1684735363401183843,28,1684735363401183843,camera_2,56,0,0.7450765529042542,-0.15900826568036977,1.5188118391313457,-0.9686558021176608,0.07946399016705917,0.23482096469831196,-0.015828007729182234,0.025497626629658043,0.022971494225584647,2956.289945104858
1684735363421480655,29,1684735363421480655,camera_2,58,0,0.7441122643798304,-0.15829582315745688,1.5168705517334446,-0.9683223041144942,0.08033171383025192,0.23594151424987975,-0.015176724316051797,0.015005003326223232,0.01348653551492932,2961.3905463184947
1684735363441587209,30,1684735363441587209,camera_2,60,0,0.7436407530557312,-0.1569701021472818,1.516097693545891,-0.9681295607270183,0.07977967874533254,0.23666731800519936,-0.018679857976651726,0.0009433969535166398,0.0008485605981395926,2962.4776130028768
1684735363471134185,31,1684735363471134185,camera_2,62,0,0.7429150008521485,-0.15704909581091542,1.5146853842413512,0.9679361604736972,-0.07903841107624127,-0.23782010922834387,0.017149765846756773,0.0015259912179317325,0.0013698432320713844,2964.8063934668903
1684735363491481542,32,1684735363491481542,camera_2,64,0,0.7444299669910234,-0.15863955969619847,1.517581064506714,-0.9685474547891583,0.08084283878931475,0.23462513344551167,-0.01820192279964857,0.016462680272525176,0.014825146528300944,2961.1576398470193
1684735363511637449,33,1684735363511637449,camera_2,66,0,0.7442822428165544,-0.15880430562868061,1.5173711994641572,-0.9690584611863533,0.08636589915608751,-0.22702634002623137,0.043882470308672566,0.024464423826429993,0.022012646232660277,2958.2673674967373
1684735363531627416,34,1684735363531627416,camera_2,68,0,0.7443537320411808,-0.15769753859865204,1.5174336091054605,-0.9684771311901063,0.08085030476370741,0.2349927297613825,-0.017137430982828494,0.002922460625995882,0.002629267857967753,2962.242687770863
1684735363551787853,35,1684735363551787853,camera_2,70,0,0.7429514492605719,-0.15672843004770204,1.5147397907593072,-0.9680732801869373,0.07938389264665992,0.23690147048912386,-0.02024882852063608,0.0025389797665411606,0.002281816125210545,2966.54098875227
1684735363571635961,36,1684735363571635961,camera_2,72,0,0.7434622428514919,-0.1573347753966423,1.5157604280973391,-0.9681566088947354,0.07980466652558411,0.2366362107584671,-0.017529963264677116,0.0018324259581277147,0.001646639287967822,2963.8899911056506
1684735363591860294,37,1684735363591860294,camera_2,74,0,0.7441880544989523,-0.15839103314541145,1.5170905698435493,-0.968401661355069,0.08071992760583864,0.23534558491605861,-0.017174726564602245,0.01178515779611189,0.010603775351268361,2961.544692321915
1684735363621881008,38,1684735363621881008,camera_2,76,0,0.7440515229415339,-0.15829153488170994,1.516722408571362,-0.968191202207727,0.08036720684700636,0.23634739497570686,-0.016935670029980875,0.01311098133737687,0.011796572146405667,2959.978605862008
1684735363641582489,39,1684735363641582489,camera_2,78,0,0.7424214457812137,-0.15672022743434544,1.513633353559833,-0.9676552716956286,0.07968130059779728,0.23863797451340807,-0.01860329580587292,0.0019365517800906673,0.001738295695264351,2966.040139781312
1684735363661679267,40,1684735363661679267,camera_2,80,0,0.7433338606180975,-0.15683814974964566,1.5155543413768797,-0.9682067204528921,0.07906718705640509,0.23651519566056842,-0.019613480631593166,0.0052798161341343075,0.004747117191207464,2964.823861847167
1684735363681783199,41,1684735363681783199,camera_2,82,0,0.7447785676625377,-0.15832286287755604,1.5183313473321822,-0.9688584816840853,0.08041489521128505,0.2336884319428581,-0.015375430825024,0.011434317348175682,0.010282879872726702,2962.7575816046456
1684735363701770305,42,1684735363701770305,camera_2,84,0,0.7448750012086658,-0.15894585636918068,1.51838326580916,-0.9686472519959133,0.07953841110306506,0.23483352314606057,-0.015791097706438443,0.015987193590262908,0.014394882652817687,2957.9330566260032
1684735363721874952,43,1684735363721874952,camera_2,86,0,0.7445399419572563,-0.15821035964473332,1.5177655592591721,-0.9685335756095279,0.08048093013427783,0.23506407100257323,-0.014505699757049718,0.009741786940139718,0.008757589335161957,2961.098960984965
1684735363751598834,44,1684735363751598834,camera_2,88,0,0.7430226377543263,-0.1567403481892814,1.5148595806286118,-0.9677546415854112,0.07970509764996007,0.23813778532512203,-0.019709041045896696,0.0006512223772006109,0.0005856605276217209,2962.4540916141123
1684735363771879911,45,1684735363771879911,camera_2,90,0,0.7434008435379814,-0.1573137862973575,1.5156450843753406,-0.9682630929560048,0.07964522716598386,0.23622369642717841,-0.017932815039206976,0.001658589084399864,0.0014901146513399228,2965.459417141742
1684735363791308641,46,1684735363791308641,camera_2,92,0,0.7444652192420739,-0.15845139017259022,1.5176621647468431,-0.9686042164906687,0.08047924778071129,0.23467063177830777,-0.016082818593721633,0.008242599564255215,0.007414080858656711,2961.8100424333247
1684735363811558961,47,1684735363811558961,camera_2,94,0,0.7441796506478012,-0.1586795976873815,1.5169598300458467,-0.9682580543397108,0.07955786795330164,0.23633058261476228,-0.017168039316404884,0.015039249119581655,0.013538381127024787,2958.4811877209004
1684735363821277618,48,1684735363821277618,camera_2,95,0,0.7439731194897945,-0.1582763056432568,1.5166052795760614,-0.9683066331850709,0.08077375443845679,0.23582573021504571,-0.015623370066961307,0.016348224482499063,0.014691805675018224,2962.6392748903017
1684735363861606121,49,1684735363861606121,camera_2,97,0,0.7432793897604184,-0.15682658276431888,1.515420168602612,0.9681018890105578,-0.07954886172696894,-0.23666155639174308,0.02102424358617478,0.0013086824910715225,0.0011775380122896596,2964.2438024029825
1684735363891959905,50,1684735363891959905,camera_2,99,0,0.74393577780523,-0.15853699851710049,1.5165355472470263,-0.9682457136009331,0.08030169599852136,0.23616182955227744,-0.016717235887009747,0.02048239352006931,0.01842169025563732,2961.0797816886334
1684735363911664485,51,1684735363911664485,camera_2,101,0,0.7444640540415662,-0.15882959222322862,1.5175567289783065,-0.9684684002940745,0.07951475817469127,0.23553702098784002,-0.016391235720051682,0.02249030130042229,0.020243723222090493,2958.815029478633
1684735363931445360,52,1684735363931445360,camera_2,103,0,0.7440501532325409,-0.15764790590746297,1.5168455508599061,-0.9683949383798991,0.0803939842046336,0.2354903679495619,-0.01709787199848294,0.0035596451489254832,0.003200829529512631,2963.0246582539985
1684735363961214780,53,1684735363961214780,camera_2,105,0,0.7441313212970478,-0.15714091445828832,1.517154432992422,0.9684143294734012,-0.07976332718466138,-0.23543912942827547,0.019491394025864264,0.002643825893756002,0.002380570524202459,2961.751872928231
1684735363981569290,54,1684735363981569290,camera_2,107,0,0.7443875140906376,-0.1580182988574667,1.5175762084371889,-0.9684796101501614,0.08013990882724512,0.23536905315221648,-0.015041560915716817,0.002698644660995342,0.0024261959502571433,2961.004468902363
1684735364001377820,55,1684735364001377820,camera_2,109,0,0.7452404236021638,-0.15905684453116528,1.5193160470269562,-0.9692776976713712,0.0865251850956472,-0.2258254444475756,0.04491108750748633,0.020146787661360577,0.018171400820291825,2953.8981848485996
1684735364031485557,56,1684735364031485557,camera_2,111,0,0.7440897006854994,-0.15785978600092077,1.5168753662595438,-0.968407130139341,0.08057021448334396,0.2354785212667027,-0.015682374037135207,0.005372404775698669,0.0048278181533739535,2963.2054166017338
1684735364061952829,57,1684735364061952829,camera_2,113,0,0.7433760433744776,-0.15684312353685564,1.5156464788953863,-0.9681122481511705,0.07969656913508366,0.23672056191637372,-0.019248569135910255,0.003780251383432187,0.0033992186302312867,2964.025998950236
1684735364081739187,58,1684735364081739187,camera_2,115,0,0.7442973167717742,-0.1582317773853426,1.51735096302821,-0.9685317345689594,0.08024621958277348,0.23511183793577506,-0.015140906114831054,0.006283219350734726,0.0056473027542453084,2962.3039867628827
1684735364111279249,59,1684735364111279249,camera_2,117,0,0.744008978050398,-0.15873286150581356,1.5166292501984309,-0.9682268059885274,0.07954557117595806,0.2365413054122605,-0.01604883501718824,0.024009335451410152,0.021594153585856746,2959.4868393875668
1684735364141358613,60,1684735364141358613,camera_2,119,0,0.7434340616096563,-0.15711621610985999,1.5156434672848165,0.9680546147310521,-0.08002611905942304,-0.23693578395242126,0.01809744316341046,0.0020499042730079964,0.0018426234437705852,2963.399749731878
1684735364161312341,61,1684735364161312341,camera_2,121,0,0.7442980965417056,-0.15716064490885517,1.5175220082010934,-0.9685986642802888,0.07943128924349806,0.2348079812983787,-0.019300511965652887,0.001712172874249518,0.0015416007153316801,2962.3737020546096
1684735364181323051,62,1684735364181323051,camera_2,123,0,0.7446111567997021,-0.15806308465499286,1.5180492974851143,-0.9686478137367946,0.0803811991676235,0.23452399933837362,-0.01608631398541965,0.0032486495038028806,0.0029226656720071752,2961.372293893015
1684735364201149225,63,1684735364201149225,camera_2,124,0,0.7451364562815508,-0.15901425359423077,1.518893499009242,-0.9687277855087105,0.07945416988630054,0.23454193442502694,-0.015607481130379342,0.019933375544496812,0.017955233605336043,2956.867727242061
1684735364221053361,64,1684735364221053361,camera_2,126,0,0.7440126316799477,-0.15827475757428502,1.5166594445912966,-0.9683389176335322,0.08026532349507422,0.2358556058536685,-0.01579087166528318,0.018719373634667136,0.016825215662565528,2962.2308877557516
1684735364250998735,65,1684735364250998735,camera_2,128,0,0.7428115714089625,-0.15663136619407608,1.5144506659343704,-0.9678148708356445,0.07974055551535345,0.23787165931175033,-0.019821536059603403,0.0035996963852085173,0.00323514083507364,2964.953836201923
1684735364271198272,66,1684735364271198272,camera_2,130,0,0.7433995911160355,-0.15715826738389402,1.5156740417315164,0.9681811914053302,-0.07961793888618274,-0.23658184010371952,0.017753798174177788,0.003532440823619254,0.00317388868646046,2964.5516808955003
1684735364301241636,67,1684735364301241636,camera_2,132,0,0.7451672024527835,-0.1590050233539692,1.5191638353774348,-0.9693679163355097,0.08667269871406233,-0.2254407231032951,0.04461128157358042,0.022453577563283034,0.020240011228345702,2955.814309501439
1684735364321787118,68,1684735364321787118,camera_2,134,0,0.7442947509171343,-0.15814885287142863,1.5172562439463846,-0.9684558457501342,0.08038197629374218,0.2353690353680602,-0.015278413183757963,0.011837008758448064,0.010640501092836147,2961.856959728407
1684735364351654767,69,1684735364351654767,camera_2,136,0,0.7426195405460383,-0.1566600075954308,1.5140538476087448,-0.967711605397018,0.07966179691198219,0.23836828602953872,-0.01920435127829752,0.0025963653024518862,0.002332141283679702,2965.1281410290385
1684735364371167182,70,1684735364371167182,camera_2,138,0,0.7435569349552696,-0.15734277150648585,1.5159618110233684,-0.9681724216956024,0.0798565414807101,0.23660437796497039,-0.0168363588290917,0.005853496753843501,0.00525929313300325,2963.524849595853
1684735364401443958,71,1684735364401443958,camera_2,140,0,0.7450755989942542,-0.15901283533677377,1.5188042121678758,-0.9688807438579197,0.07911026728219323,0.23399677568073393,-0.016036794033863926,0.0239559764158912,0.02157306046681405,2958.7202848792076
1684735364421565294,72,1684735364421565294,camera_2,142,0,0.7441203724877221,-0.15831249993348745,1.5168868984915012,-0.9683180211018536,0.08071322339110579,0.2357821532135733,-0.01588589957096269,0.014402426284505054,0.012949512150992434,2961.53772141179
1684735364451397180,73,1684735364451397180,camera_2,144,0,0.7432268288046298,-0.1567067026463567,1.515282145539003,-0.9679616085937894,0.07950807852707253,0.23720829549755656,-0.021471243201093563,0.002457723137922585,0.0022123319296531965,2962.9911150807748
1684735364461435317,74,1684735364461435317,camera_2,145,0,0.7438940110979472,-0.15694226473674008,1.5166749217634006,-0.9683882575026487,0.07959682980336324,0.2355279022052067,-0.020374854577468803,0.0022980120411375538,0.002068927716410024,2963.1555348157417
1684735364511116027,75,1684735364511116027,camera_2,148,0,0.7444313594944776,-0.1588293720324544,1.5174581335885704,-0.9685773480705304,0.07923443506111102,0.23512890781138668,-0.017152895284167396,0.020956394175300375,0.0188634373540073,2960.08355824952
1684735364551128625,76,1684735364551128625,camera_2,150,0,0.7430469012069281,-0.1567527704470268,1.5149286065385679,-0.9680296142735192,0.07948984710410154,0.23716074076645569,-0.018836484171269128,0.002669138688361272,0.002397898489163527,2965.6127535122214
1684735364581057310,77,1684735364581057310,camera_2,152,0,0.7450026119380211,-0.15814748241530463,1.5188293674427176,-0.9687658784773001,0.08030432020115058,0.2340580721438739,-0.016146446030917062,0.001988989024539478,0.0017907923478666433,2959.696955773397
1684735364611093759,78,1684735364611093759,camera_2,154,0,0.7439325225503439,-0.15863728281494144,1.5164522174798414,-0.9681630729469599,0.07966014881643946,0.23667535365654577,-0.017300342308496124,0.01946472970303148,0.017516005452156626,2959.334351883385
1684735364631187438,79,1684735364631187438,camera_2,156,0,0.7440397948994518,-0.15785999865698322,1.5167637759871013,-0.9682433832829108,0.08055307714267634,0.23619721224614598,-0.015060857175389892,0.005953287778538652,0.00534961706397225,2961.6492167410906
1684735364661083459,80,1684735364661083459,camera_2,158,0,0.7432059695223322,-0.15679989789921134,1.5152559275233806,-0.9679087536918982,0.07947709008506694,0.23754872709459854,-0.020165290326259674,0.0011830941075459123,0.0010643924859123856,2962.5240172983604
1684735364691130161,81,1684735364691130161,camera_2,160,0,0.7439081367647842,-0.15853781829369112,1.5164571592506833,-0.968305252181683,0.080241744488368,0.23587722399412564,-0.01755380983308488,0.017378399454173632,0.015632924998164387,2961.8729066266687
1684735364711097002,82,1684735364711097002,camera_2,162,0,0.7448953384403812,-0.15894226638389242,1.5184418191700595,-0.9687171805222401,0.07945790712307285,0.23456490749466957,-0.01589872097623298,0.019490221689920872,0.017548166550548125,2958.515949902473
1684735364741286993,83,1684735364741286993,camera_2,164,0,0.7437613800182094,-0.15718442601767524,1.5162827748873127,0.9679834453000957,-0.08005076802434781,-0.23728960890488757,0.017133758181851845,0.0003979218454333022,0.00035788109623364307,2960.1758636027807
1684735364761204004,84,1684735364761204004,camera_2,166,0,0.7444750056551248,-0.15718631425780702,1.5178575165360007,-0.9686859898641532,0.07960452736225744,0.23428876009672223,-0.020478016424395645,0.006674409567494877,0.006014232547243507,2962.135170314579
1684735364781134843,85,1684735364781134843,camera_2,168,0,0.7441822522444638,-0.15797113608960994,1.5171784226249398,-0.9685532829459944,0.08026294230050342,0.23501310244513368,-0.015206573148335636,0.0033998457656707615,0.003054599357460185,2963.619565085507
1684735364801304817,86,1684735364801304817,camera_2,170,0,0.7446705360546256,-0.15891525505888215,1.5179429695528472,-0.9685213762612569,0.07945987123314546,0.23540010104176476,-0.015468193758155436,0.013707426856854,0.012337229204795302,2957.991896709077
1684735364831220388,87,1684735364831220388,camera_2,172,0,0.7442097236702852,-0.1578872441836939,1.5171294287942636,-0.9683238578357539,0.08060785939612228,0.23575858621844212,-0.01640635163401859,0.004570239470922388,0.004110673075207807,2961.0756905750595
1684735364851108074,88,1684735364851108074,camera_2,174,0,0.7427463188603528,-0.1566131938780125,1.5142849344460756,-0.9678259323754715,0.07977320199531036,0.23776280277121792,-0.020446282873416172,0.001861477125203237,0.0016730889427173767,2965.621011613518
1684735364881609439,89,1684735364881609439,camera_2,176,0,0.7446704358891582,-0.15828289237888338,1.5180728323211743,-0.9686117836018704,0.08013613114155363,0.23482847176274949,-0.015000066761149438,0.014586481687729247,0.013119561595774223,2960.409038878278
1684735364901561260,90,1684735364901561260,camera_2,178,0,0.7449540144002701,-0.15896072420312635,1.518568713520149,-0.9686435411046899,0.0792279042009488,0.23490108656764747,-0.016556237538491628,0.022917177542694844,0.020648700238120314,2956.72062167991
1684735364931181669,91,1684735364931181669,camera_2,180,0,0.7432199170585531,-0.15747152348240714,1.5151233575593834,-0.9680482195966678,0.08058204877660989,0.23690839406737024,-0.01623547877660167,0.0056105411786120385,0.005035784020362342,2965.717148993049
1684735364951222896,92,1684735364951222896,camera_2,182,0,0.7429020495979388,-0.15670710294872334,1.514583761250156,-0.9678736935688383,0.0797591682979724,0.23764742623984353,-0.01956244287936448,0.0035758611193159595,0.0032135000143698224,2965.115169885568
1684735364981236934,93,1684735364981236934,camera_2,184,0,0.7441761088627319,-0.1579677388291255,1.517147465095204,-0.9683963620974594,0.0799847801905887,0.2357199112663744,-0.015717641262037032,0.0022620759555138648,0.002033723003182695,2961.3389556622137
1684735365001392126,94,1684735365001392126,camera_2,186,0,0.745155242795896,-0.15902588029323983,1.5189520511960415,-0.9688413872215668,0.07941453418393579,0.2340313779343843,-0.016401594711252916,0.018343020870815966,0.01652572916695436,2957.8896432449105
1684735365021467685,95,1684735365021467685,camera_2,188,0,0.7444109102718013,-0.15836263310054105,1.517425627469382,-0.968574682331106,0.08032848963611551,0.23483460384114416,-0.016221200286988164,0.020800589132704772,0.01870773354553632,2962.152333207893
1684735365041272640,96,1684735365041272640,camera_2,189,0,0.7442125752070845,-0.15708543109689566,1.5172743313487527,-0.9684689933702895,0.0796089277829369,0.2353325403543393,-0.018676802401979126,0.0011261521722190082,0.0010136350919068672,2962.0042410587193
1684735365081499338,97,1684735365081499338,camera_2,191,0,0.7440840133390967,-0.1581797855420059,1.5169048125981046,-0.9684409561021072,0.0801171946077938,0.23547844566778947,-0.015913871247917804,0.012209798791445792,0.010974914375829013,2962.615285600768
1684735365111284494,98,1684735365111284494,camera_2,193,0,0.744653776623474,-0.15887781915430016,1.5179231689503079,-0.9684966162232981,0.07954977959874644,0.23547065371827272,-0.01548251165999182,0.021872387747862376,0.019686575083811213,2957.9206230752166
1684735365131487369,99,1684735365131487369,camera_2,195,0,0.744102935720124,-0.15764375796125693,1.5169025761318684,-0.9683061306646013,0.08081729544530515,0.2357539075800412,-0.016489303654059116,0.0034616313059814274,0.003112557343727007,2962.2231589843286
1684735365161453723,100,1684735365161453723,camera_2,197,0,0.7439477686285147,-0.1570820057785458,1.5167898821174968,-0.9682973425724595,0.07947615439869767,0.2360377894301388,-0.019234323747946067,0.003653986583231017,0.003289252534443945,2961.4811598558454
1684735365191603899,101,1684735365191603899,camera_2,199,0,0.7442049376793499,-0.15838841817270444,1.5170986631559902,-0.9683917326393631,0.0805591042059891,0.23543976930333912,-0.017198776574264323,0.010944974608719349,0.009848532535310308,2961.186324442969
1684735365211553812,102,1684735365211553812,camera_2,201,0,0.74444870660855,-0.15873637757649423,1.5175349401857918,-0.968387985057679,0.08001464907541218,0.23565488510639526,-0.017004159925119052,0.021283376918290742,0.019164719796480018,2958.444644622039
1684735365231409311,103,1684735365231409311,camera_2,203,0,0.7443300747906885,-0.1579065657391824,1.5173471899937732,-0.9683371352224478,0.08067172070128115,0.23568900893957154,-0.016308190989803052,0.0037222600949462503,0.0033486552573832856,2960.457002565963
1684735365261574029,104,1684735365261574029,camera_2,205,0,0.7424725237457669,-0.15665152083647133,1.5137660286157553,-0.9677671184994809,0.07926472334772047,0.2382206564151282,-0.01987025014856863,0.0006673956813756377,0.0005993999708033607,2966.3799161213674
1684735365291486501,105,1684735365291486501,camera_2,207,0,0.743642037448526,-0.15848031807819332,1.5159134895892439,-0.9680564977469491,0.08036868622042764,0.2368232042901791,-0.017951639335882147,0.020077727749594487,0.018063309390422548,2960.919841484399
1684735365311925172,106,1684735365311925172,camera_2,209,0,0.7442714344853851,-0.15880312417957473,1.517155123685674,-0.9683572743193605,0.07955414836542533,0.23595772894110364,-0.01671157992493054,0.017317204750725068,0.015586003513088286,2958.9315783642232
1684735365341782331,107,1684735365341782331,camera_2,211,0,0.7434632830114614,-0.15712232290400538,1.5156975937956767,0.9679143554036668,-0.080092378157291,-0.2375159443074117,0.01769711175227284,0.0032922707177931443,0.0029600383306582047,2961.5620993219786
1684735365361674070,108,1684735365361674070,camera_2,213,0,0.7438773942311664,-0.1570703405800711,1.5166439621700163,0.9682763989909536,-0.07955795034534711,-0.23603849214425687,0.01992932312509418,0.0011757999891415238,0.0010586458008337838,2961.7269477725495
1684735365392416477,109,1684735365392416477,camera_2,215,0,0.7446464018211306,-0.15848751873276848,1.5179972336422942,-0.9685309812185865,0.08073787913654958,0.23475898369309664,-0.017814400570282763,0.0104048593348125,0.009372952751909906,2959.5098817888643
1684735365411771297,110,1684735365411771297,camera_2,217,0,0.7442017889509983,-0.15868481855426586,1.516999981597197,-0.968068587371502,0.07987137566190294,0.237024020681442,-0.016834105691214414,0.018843449026462622,0.016968723413335107,2956.3366741545015
1684735365431570529,111,1684735365431570529,camera_2,219,0,0.7444231200293039,-0.15791878175087873,1.517569844700656,-0.9685111838916578,0.08050815137714981,0.23507563169081816,-0.01561959102462066,0.008950728544732556,0.008048366968459994,2961.791186874033
1684735365471973180,112,1684735365471973180,camera_2,221,0,0.743448290344993,-0.15715312578473495,1.51574383060816,0.9681807077661532,-0.07926091120561013,-0.23673908610751812,0.017275131642462777,0.002348340247408487,0.002109761751727464,2963.961130245356
1684735365491952180,113,1684735365491952180,camera_2,222,0,0.7440132879514761,-0.15856375552652785,1.5166963584572903,-0.9682538060515238,0.08003696093099452,0.23619507674147594,-0.017045165729824497,0.01674352228292264,0.015064853577011485,2960.18711493304
1684735365511586666,114,1684735365511586666,camera_2,224,0,0.744673845579328,-0.1588790911334998,1.5179687589231872,-0.968605337159296,0.0797871924759405,0.23483468979952635,-0.01704034066837012,0.018572995220893063,0.016725851150505726,2959.0837253641794
1684735365541437864,115,1684735365541437864,camera_2,226,0,0.7435642767949662,-0.15713677467725634,1.5159000793091175,0.967954563686503,-0.07976177425469332,-0.23753578956523796,0.016696427217636693,0.0030872887728037313,0.0027748697012148047,2961.108816641964
1684735365561706781,116,1684735365561706781,camera_2,228,0,0.7448701092621598,-0.15726871558067598,1.5186853377823002,-0.9688290034282162,0.07969042330253659,0.23375785718378536,-0.01941810379509468,0.0024438316613668576,0.002202473505844176,2961.013994039037
1684735365571779251,117,1684735365571779251,camera_2,229,0,0.7443319399960437,-0.15799512056319012,1.5174818938838688,-0.9686775064512524,0.0803366408628732,0.23438768210515087,-0.01650233642937996,0.004943341788020916,0.004444611508031162,2963.853002657299
1684735365602065563,118,1684735365602065563,camera_2,231,0,0.7450636954525924,-0.1590014747559178,1.5187762031191248,-0.9686685962232781,0.079728439984879,0.2346543194199778,-0.01618261183952017,0.01858092834299896,0.01674109343314818,2956.795475219376
1684735365621722936,119,1684735365621722936,camera_2,233,0,0.7439777159355487,-0.15827155622257522,1.5165772096728785,-0.9680929938564158,0.08002468241510852,0.23694184910942345,-0.01582926375704052,0.014839604147709906,0.013345628082716061,2959.156625953504
1684735365651491165,120,1684735365651491165,camera_2,235,0,0.7428736924810871,-0.15663653451090748,1.514563635164082,-0.9677115495415286,0.07965817563952203,0.238383193050915,-0.019036417955253546,0.0015179842885117978,0.0013642768225864562,2963.24664384406
1684735365671721458,121,1684735365671721458,camera_2,237,0,0.7434230446458495,-0.15716630530189254,1.5156815736072442,0.9679660403503828,-0.07964065907576831,-0.2374644384209669,0.017599733969386522,0.0008365139074157923,0.0007519785541102406,2961.7951265164884
1684735365692307949,122,1684735365692307949,camera_2,239,0,0.7445663324375047,-0.15867688642658043,1.517792118320633,-0.9684059785957211,0.08014581942452044,0.23549669333951484,-0.017544676542775233,0.019871698765200563,0.017902811617251827,2957.8326004908886
1684735365731852054,123,1684735365731852054,camera_2,241,0,0.7441332459897514,-0.15763665307337343,1.5169745439573807,-0.9682414517447041,0.08096651202349404,0.2359040477821339,-0.017383765244103625,0.003373819126863964,0.0030357113180559526,2961.1484050148856
1684735365751640319,124,1684735365751640319,camera_2,243,0,0.7427074895311223,-0.15667258064867598,1.5142121117110472,0.9676650208323513,-0.0799803503959818,-0.23833794409980869,0.020556639081758376,0.0008384715474676341,0.0007538893197907628,2963.9929786915886
1684735365771822690,125,1684735365771822690,camera_2,245,0,0.7426805603386254,-0.1571580168665945,1.5141525640869515,-0.9677748850754634,0.07974786503870247,0.23826775616174428,-0.016748916758708064,0.0025144682149402797,0.0022560733150740644,2965.4357971439604
1684735365801471948,126,1684735365801471948,camera_2,247,0,0.7454077650081853,-0.15907135685342808,1.5194629870227623,-0.968939257924316,0.07934620421962456,0.23364134140181883,-0.01651114523502144,0.0227949285908835,0.020546592799044673,2957.0509427371435
1684735365821564674,127,1684735365821564674,camera_2,249,0,0.7439911134728548,-0.15826685386966866,1.516587906053862,-0.9681557137958652,0.08032963702883458,0.2365976494078193,-0.015595369631049846,0.01566076176823117,0.014079978627903715,2960.2712351911473
1684735365851909637,128,1684735365851909637,camera_2,251,0,0.7425450385518959,-0.15657926716675577,1.5138882353648164,-0.9677153997611948,0.08014355488934605,0.238045854996705,-0.02093051823574937,0.0014887144352542236,0.0013380039662330308,2966.0938189876038
1684735365871468782,129,1684735365871468782,camera_2,253,0,0.7435593768732901,-0.15718366000652267,1.515954528407869,-0.9683082739214321,0.07946817261780724,0.23609201508905503,-0.01801267906982291,0.0013449977559503168,0.00120873109165513,2964.8090719019524
1684735365892585277,130,1684735365892585277,camera_2,255,0,0.7442593937526716,-0.15861386605248404,1.5171970047273482,-0.9683831085112647,0.08019625070558892,0.2355993174599796,-0.017195293984634114,0.014112879944150336,0.012702768044229906,2960.008668785682
1684735365911779403,131,1684735365911779403,camera_2,257,0,0.744894100843841,-0.1589311704043755,1.5184245026761052,-0.9685655045767452,0.07953700018647204,0.23512167002601317,-0.016508459331836856,0.02470379593432881,0.022257457215140847,2956.6409010458733
1684735365951843500,132,1684735365951843500,camera_2,259,0,0.7434121349292948,-0.15682063839519483,1.5156468243936438,-0.9680200345618192,0.07958292339874201,0.23699838736889495,-0.020869484296157294,0.0014846655103610829,0.0013364756121135748,2962.387723703171
1684735365971775293,133,1684735365971775293,camera_2,261,0,0.7439353163693994,-0.15742518512113673,1.5167306927190314,-0.9684230793643415,0.0795814428724486,0.23558008596317825,-0.01804318160434166,0.003876849077641964,0.0034868539131807483,2963.154675797443
1684735366001670837,134,1684735366001670837,camera_2,263,0,0.7448886530725097,-0.15896212279418104,1.518411697471521,-0.9686913456998787,0.07937272065751183,0.23463101465885816,-0.01689186022134637,0.020918497946695425,0.01884475305450471,2957.9791955092223
1684735366031330347,135,1684735366031330347,camera_2,265,0,0.7439910720460645,-0.15784358253577793,1.5166649659091365,-0.9680750456612022,0.08035822404610565,0.23692517602922378,-0.015482982908296321,0.00932230545731727,0.008381640694152112,2959.6300839647874
1684735366051401138,136,1684735366051401138,camera_2,267,0,0.7432179763603324,-0.1567063037844122,1.515271243686506,-0.9679889414964085,0.07934976299275484,0.2372814241156813,-0.019963717672076803,0.005441034765681252,0.004893687949817948,2963.5060104223658
1684735366071802616,137,1684735366071802616,camera_2,269,0,0.7439322799610724,-0.15726067632622193,1.516728298008649,-0.9685464007015745,0.0793593000935304,0.23518057512424906,-0.017608755234756714,0.001517112148576416,0.0013636886674754075,2964.7676395475864
1684735366101836204,138,1684735366101836204,camera_2,271,0,0.7450910251905127,-0.1589853581465137,1.5190078824441648,-0.9695387562053419,0.08626614842065183,-0.2247112492834227,0.04536084542805816,0.02410565434547607,0.021722718628838907,2958.352560640429
1684735366131758451,139,1684735366131758451,camera_2,273,0,0.7440750551213494,-0.1576355920616142,1.5168613470812917,-0.9682895673273295,0.08026253255258893,0.2360525891766684,-0.015887567979050714,0.00577079935465008,0.005187544745997925,2961.705414482276
1684735366151674032,140,1684735366151674032,camera_2,275,0,0.7428011588140402,-0.1566822365607155,1.5144079155921932,-0.9679046443130489,0.07978458808782467,0.2374689786421935,-0.020087389166340414,0.0017238459695363417,0.0015490450401783181,2966.1582812069682
1684735366182184934,141,1684735366182184934,camera_2,277,0,0.7449650617349625,-0.15813079338606592,1.51874473344588,-0.9686646957775431,0.0802836764700793,0.23451633018256757,-0.01566299219014761,0.0041373971762368456,0.0037247669891500666,2958.8315914893756
1684735366202218294,142,1684735366202218294,camera_2,279,0,0.7448604614565538,-0.15895580513113422,1.5183463234162797,-0.9687487563615064,0.07939425494350297,0.23449469585935534,-0.015317863553036066,0.018493440016754903,0.016642820314544744,2959.2686300117066
1684735366232109308,143,1684735366232109308,camera_2,281,0,0.7440148003899273,-0.15783062686792013,1.5167157598685255,-0.9683050737613003,0.0807105736352895,0.23584684617915552,-0.0157274466755208,0.007253056173794903,0.006518187251623225,2962.7012675510477
1684735366251638889,144,1684735366251638889,camera_2,283,0,0.7424446473324171,-0.15655845532261908,1.513685071397449,-0.9676597017186137,0.07973295708543714,0.23850012258974465,-0.019875833289001416,0.0010376113496022301,0.0009319891031675294,2965.9326498021824
1684735366301665782,145,1684735366301665782,camera_2,285,0,0.7448963860931724,-0.1589505371889968,1.5184560875315372,-0.9687875661304235,0.07974474908973156,0.23413380849938478,-0.016516247191164644,0.01939143422350753,0.017461303154971134,2959.5398795821247
1684735366311356067,146,1684735366311356067,camera_2,286,0,0.7449297738498686,-0.15894054905132998,1.5185055259702493,-0.9687116840252292,0.07978818527339222,0.2344205745713044,-0.01668870700332134,0.01797927673032973,0.01619518107025346,2958.408515294199
1684735366351736307,147,1684735366351736307,camera_2,288,0,0.7425687886556279,-0.1566410827148945,1.5139253655936713,-0.9676892838904455,0.07954706290774352,0.23844428376543483,-0.019850394604064413,0.0010055175807792693,0.0009034081347464769,2965.081935033785
1684735366371462821,148,1684735366371462821,camera_2,290,0,0.743042108317948,-0.15724097590076958,1.5148917931057506,-0.967920705225525,0.07971340689227231,0.23754077978220517,-0.01869917372001924,0.0011892364273080602,0.001068750127700175,2963.9775742834913
1684735366421550989,149,1684735366421550989,camera_2,292,0,0.7433472621555588,-0.15813712276981606,1.5152561775415576,-0.9678435069940479,0.07982960709195752,0.23805380142693808,-0.015380748590047278,0.02159206752548926,0.019393362533812027,2960.9998967553256
1684735366441495895,150,1684735366441495895,camera_2,294,0,0.7444733859241771,-0.15714704353613268,1.5178023257580093,0.9686781976078654,-0.07972645381282216,-0.23438575385282645,0.019223954651724388,0.0002743746299529448,0.0002470629993654805,2962.589010463562
1684735366471412658,151,1684735366471412658,camera_2,296,0,0.7431610566907337,-0.15710985736538327,1.5151556654089715,0.968016685170087,-0.07939355767895179,-0.23737807882628612,0.01708823935158658,0.004359378508524969,0.003914661454468181,2964.3389002851914
1684735366502548456,152,1684735366502548456,camera_2,298,0,0.7450580644780412,-0.15897761653053397,1.5187575414523238,-0.9687605689051585,0.07937264107781715,0.23436626966707141,-0.01659504821407124,0.017781926682800986,0.01602083298897945,2957.5893073179745
1684735366521955728,153,1684735366521955728,camera_2,300,0,0.7446209978741928,-0.1582250031663726,1.51792957263265,-0.9686093889144085,0.08042457674007653,0.23470065034512935,-0.015599483664826188,0.011193263460882008,0.010068354625072929,2961.152690970921
1684735366541821956,154,1684735366541821956,camera_2,302,0,0.7435157429740389,-0.15712473474714833,1.5158040545238396,-0.9681915734420928,0.08013352075494426,0.23636373875814284,-0.017772984201138296,0.0019795166444964707,0.0017788048045117033,2964.691801429027
1684735366571521997,155,1684735366571521997,camera_2,304,0,0.7436228797848959,-0.1573542323508698,1.516076128342307,-0.9683327678429984,0.07969435788948918,0.23591629114086882,-0.01799898931708832,0.0043350466003175825,0.0038963895470098316,2964.691126494319
1684735366591938972,156,1684735366591938972,camera_2,306,0,0.744350635166075,-0.1584214178774453,1.5174043103827235,-0.9685798098283426,0.08044493562177865,0.23472263268018795,-0.016942550970305146,0.0140988044149708,0.012683910748065253,2962.3015974787995
1684735366621753692,157,1684735366621753692,camera_2,308,0,0.7440897798839881,-0.15830563298985958,1.5168076405107713,-0.9682716211534221,0.0801389168628418,0.2361470847636845,-0.016198025515091932,0.01614166214130819,0.014517002364432248,2960.55634111818
1684735366641322612,158,1684735366641322612,camera_2,310,0,0.7431044387388219,-0.1568592282034265,1.5149696164090938,0.9679121839949726,-0.07961566611767411,-0.23763776616710583,0.018320531483263902,6.694832700304687e-05,6.0153097260594786e-05,2963.9719487526436
1684735366671303510,159,1684735366671303510,camera_2,312,0,0.743673349277342,-0.15720938992888517,1.5162306761805946,-0.9683696782197218,0.07959239279615517,0.23563750348678233,-0.020004606072899427,0.0013397509610513223,0.0012054541609325233,2964.316645517363
1684735366691312313,160,1684735366691312313,camera_2,314,0,0.7441272863898135,-0.1585804327251607,1.5169075434824462,-0.9680505427416376,0.08005931381569194,0.23701642645453366,-0.017084102543128046,0.017485050891991705,0.0157450709327443,2956.8021624914836
1684735366721335411,161,1684735366721335411,camera_2,316,0,0.7457664355278495,-0.15845034178628603,1.5202577421916155,-0.9690964319917058,0.08050385315520478,0.23268886719722912,-0.015070707036514724,0.013023103019804694,0.011732320199197357,2958.4179598267665
1684735366741994857,162,1684735366741994857,camera_2,318,0,0.7438734316022042,-0.1571907656314113,1.516526275476519,0.9682501656131699,-0.08016704332495685,-0.23608491541231794,0.01813214464321355,0.0008293866412714124,0.0007460164214314648,2962.5778158270978
1684735366761596441,163,1684735366761596441,camera_2,319,0,0.7443332568533517,-0.1571629130914578,1.5175723333644526,-0.9686284817690494,0.07945955040045882,0.23465737574619613,-0.01951820083542371,0.002271974299219437,0.002045841927343108,2962.529965056805
1684735366771504402,164,1684735366771504402,camera_2,320,0,0.7444732967037985,-0.15801739115006963,1.5177255624962627,-0.9685666566343506,0.08011588891692843,0.23495997145673875,-0.015933857419191493,0.005510186791070737,0.004956100698395173,2961.328916582046
1684735366791605234,165,1684735366791605234,camera_2,322,0,0.7445299632793083,-0.1584504266685227,1.5177508506594124,-0.9685955292084568,0.08036373110860422,0.23471999118509498,-0.016458956764092092,0.01897380042646546,0.01707297183546509,2961.14639751648
1684735366821164369,166,1684735366821164369,camera_2,324,0,0.7439340156650729,-0.15826733037033572,1.5165147845377214,-0.9682165992031209,0.08015349298956803,0.23640992822030557,-0.015568571802983272,0.01414464293338824,0.012713502659934251,2961.1732016379237
1684735366841584920,167,1684735366841584920,camera_2,326,0,0.7440428495063652,-0.15706844899809488,1.5169395165241635,0.9683848284717977,-0.07984725590392613,-0.2355366071898793,0.019435698694419013,0.0030343340622493997,0.0027315085104985307,2962.3553090679925
1684735366871107101,168,1684735366871107101,camera_2,328,0,0.7432692573310752,-0.15712173725065626,1.5153685013405889,-0.9680540186814217,0.07925247947625715,0.23716230375203068,-0.018560794450792353,0.0029222910525277257,0.002626741751504409,2963.5648611468487
1684735366901173591,169,1684735366901173591,camera_2,330,0,0.74535069728544,-0.1590556570080187,1.5193775095927835,-0.9688944806077957,0.07956729694720324,0.2337399328315042,-0.016678564212470604,0.01896580189350061,0.01709583319842232,2957.061691732844
1684735366921053409,170,1684735366921053409,camera_2,332,0,0.7448742133236375,-0.1582812224859424,1.5184219882238892,-0.9685196026734145,0.08035277308617687,0.23517720026008607,-0.014314173832958405,0.011973736298386939,0.01077298690317841,2958.2375202602707
1684735366951095342,171,1684735366951095342,camera_2,334,0,0.7428162316566618,-0.15669332036559325,1.514424959992666,-0.9678144031993048,0.07958633869397656,0.23791562716453515,-0.019936148177792788,0.0013498912448994818,0.0012132694088506353,2964.734348484315
1684735366971173048,172,1684735366971173048,camera_2,336,0,0.7437628739928959,-0.15738184828783952,1.516368895073376,-0.9683112418536942,0.0794207581898647,0.23613279952598487,-0.01752093194795363,0.001821140423999168,0.0016372197390281977,2963.06866962707
1684735366991092920,173,1684735366991092920,camera_2,338,0,0.7443531207985313,-0.1584182373534939,1.5174186866167612,-0.968606272542776,0.08032758117654204,0.23470309278918122,-0.016242743866374577,0.009227832109900191,0.008298445527229048,2962.5865723381294
1684735367021114349,174,1684735367021114349,camera_2,340,0,0.7444366806433645,-0.15836647315787025,1.5174869823912664,-0.9683000290590726,0.08004240419398907,0.2360342739580192,-0.0166159192389675,0.019446624966803938,0.017507829216912945,2958.072468101396
1684735367031095981,175,1684735367031095981,camera_2,341,0,0.7444077632673037,-0.15791723358033258,1.517496847178023,-0.9683617361925169,0.08078062412057795,0.23563297487526827,-0.015071157763606312,0.008773235502303578,0.007888691465344044,2960.544394578086
1684735367071111679,176,1684735367071111679,camera_2,343,0,0.7436679257799943,-0.15720836136239033,1.5162071772460486,-0.9684453251564179,0.07966202960095549,0.23549778967658663,-0.01756144299249823,0.002161257521947846,0.0019417599238177236,2965.8829620785564
1684735367091118097,177,1684735367091118097,camera_2,345,0,0.7444898675139107,-0.15865532777746943,1.5176190350868388,-0.9683911568444995,0.08029612496173344,0.23551137541755712,-0.017478321155997522,0.01951470083440654,0.017577070532104368,2958.4777638242804
1684735367121092081,178,1684735367121092081,camera_2,347,0,0.7442777300329458,-0.15814526385956112,1.5172274505044205,-0.9683866958233498,0.08005980466984683,0.23575411342033478,-0.015415350594549728,0.010288523699273355,0.009250794340497047,2960.7228982066754
1684735367141220092,179,1684735367141220092,camera_2,349,0,0.7437675572544142,-0.15717922834220618,1.516308942001619,0.9680992446061161,-0.07986883444075449,-0.2368788748535537,0.01712368319776618,0.002958607714390382,0.002660184867448255,2961.3660223431643
1684735367171451807,180,1684735367171451807,camera_2,351,0,0.7437373047420434,-0.1573907099156151,1.5163146711756523,-0.968262281032193,0.08005809122457555,0.23607530636594126,-0.018091624693181308,0.0022563708189409226,0.0020290566771574976,2963.2287560629184
1684735367191295862,181,1684735367191295862,camera_2,353,0,0.7439917825637685,-0.15833977081568135,1.516664093386563,-0.9684497764580212,0.08067210259810563,0.23524030223600176,-0.01609479868541845,0.014844723351416178,0.013340392876800406,2963.95455784921
1684735367211896896,182,1684735367211896896,camera_2,355,0,0.7432041172300506,-0.15847663097695633,1.5149541647177993,-0.9678671239281688,0.07965575865634737,0.2379485049152693,-0.01639205723772207,0.026046548620797694,0.02339986450218753,2961.608555639512
1684735367261327981,183,1684735367261327981,camera_2,357,0,0.7430038723925306,-0.1567747813488856,1.5148541069668722,-0.9680302495247347,0.07990351253389646,0.23687690612840062,-0.020547409395404524,0.002386107182246633,0.0021451959948159834,2966.0187088758685
1684735367281084299,184,1684735367281084299,camera_2,359,0,0.7441556662820697,-0.15819233517294146,1.517028376630668,-0.9683163115651838,0.0804459573310926,0.23593041420104044,-0.015126412687990549,0.010000080044846982,0.00898903971445147,2961.0468974692053
1684735367311117649,185,1684735367311117649,camera_2,361,0,0.7443200798373544,-0.15880946594364662,1.5172769274634001,-0.9682704206949452,0.07962086939508486,0.23628568318243412,-0.016792423500352982,0.02097640137071721,0.018887211447113833,2957.4515551831573
1684735367331175327,186,1684735367331175327,camera_2,363,0,0.743631748506043,-0.15753963809963548,1.5159475522139414,-0.9682194132070754,0.08077917583055162,0.23612977599999427,-0.0163896774610095,0.0031670104508521035,0.0028445568808394507,2964.846184354975
1684735367361270189,187,1684735367361270189,camera_2,365,0,0.7443413695650359,-0.15717141748010638,1.5175938650909695,0.9686423972663423,-0.07972318491254946,-0.23447784207673994,0.019906320115698605,0.0031513150897808373,0.002838073897975113,2962.828033666709
1684735367381143093,188,1684735367381143093,camera_2,367,0,0.7449089769720137,-0.15811902811257783,1.5186128058892387,-0.9687824368363241,0.08028805881241957,0.23405556156760454,-0.015245057851000972,0.0021089466172270477,0.0018973198620796745,2960.8850445873113
1684735367411052703,189,1684735367411052703,camera_2,369,0,0.7434644025202481,-0.1585329039819516,1.5155022238131315,-0.9678991357795103,0.07974826150047795,0.23775774509445038,-0.016814648153654032,0.029543245284003206,0.026563594121628824,2959.918974104802
1684735367431171178,190,1684735367431171178,camera_2,371,0,0.7442174303468648,-0.1578922669468144,1.517130272617481,-0.9682650293573168,0.08066543965317137,0.23604616032590095,-0.015431460223643183,0.0073094246472464874,0.006572221768841422,2960.560141912429
1684735367451012611,191,1684735367451012611,camera_2,373,0,0.7428407172548066,-0.1566313592923132,1.5144715206425456,-0.9677393164582839,0.07975125767648689,0.23815348216751042,-0.02008161376387337,0.0011855998309329152,0.0010659167587006638,2963.8334752351525
1684735367471043586,192,1684735367471043586,camera_2,375,0,0.743474386771223,-0.15717194755758135,1.5158004528457312,-0.9680625612009301,0.07971469927027883,0.2370244794348656,-0.017884084264379048,0.0038676024123560637,0.0034769180867800513,2962.616879795445
1684735367501483201,193,1684735367501483201,camera_2,377,0,0.7448012083806853,-0.15892282103109265,1.5182417411531173,-0.9687311480339388,0.07932849534783745,0.23445393535593004,-0.017271504011298743,0.018551867935457267,0.01671036904295003,2959.0542799187833
1684735367521652936,194,1684735367521652936,camera_2,379,0,0.7447240557416487,-0.15824567216278587,1.5181374253912552,-0.9684824004660362,0.08044367405017788,0.23523341450710575,-0.015358905956525377,0.00865964440163225,0.0077930642930388126,2958.7984979829057
1684735367551773071,195,1684735367551773071,camera_2,381,0,0.742460490615986,-0.15661847257106778,1.513702535084236,-0.9675744226219969,0.0797557833213109,0.23882607543326131,-0.020021423717101954,0.0022772040974814445,0.002046106005358911,2964.69823371328
1684735367581724405,196,1684735367581724405,camera_2,383,0,0.7449432423898509,-0.15811364185406496,1.5187157056682223,-0.9688965164533753,0.08008267538737014,0.23362324564708378,-0.01569982804484066,0.007493920449633151,0.006742551442580524,2961.6795374131743
1684735367601431369,197,1684735367601431369,camera_2,385,0,0.7454607051735018,-0.1590870322037599,1.5195587526739398,-0.9689560233641495,0.07943338785142477,0.2335761606341678,-0.016023072869473663,0.023671624396229163,0.02133327562186575,2957.0568392027644
1684735367621564388,198,1684735367621564388,camera_2,387,0,0.7447906490223754,-0.15845094498157125,1.518236874440756,-0.968648154278321,0.08070205875152618,0.2343717414397085,-0.016667865519793747,0.01643570112355519,0.014797401751684789,2960.2663450757977
1684735367651315689,199,1684735367651315689,camera_2,389,0,0.7431572421385606,-0.15670192202484276,1.5151548782749873,-0.9678954301481231,0.07969062065840035,0.23754794517227432,-0.019970353574458925,0.0011915056529687718,0.0010716905949074808,2963.1260114724273
1684735367671262502,200,1684735367671262502,camera_2,391,0,0.7437812213359418,-0.157225019714906,1.5164446808501437,-0.9682394595436531,0.07957332488040864,0.23640047672958037,-0.017182827244628433,0.002504581498214975,0.002251691980730715,2962.3454128868175
1684735367691303491,201,1684735367691303491,camera_2,393,0,0.7444553041806716,-0.15864612858761232,1.5175591677882114,-0.968342711075271,0.08045921000446751,0.23565508749870234,-0.017475387515882644,0.01825522180297412,0.016442936080926875,2958.2940066279834
1684735367711382627,202,1684735367711382627,camera_2,395,0,0.744013198495449,-0.15874333117324974,1.5165984534292738,-0.9683269700883657,0.07928326107731118,0.23614159503418894,-0.017151985516017803,0.013072616915451363,0.011761113032669792,2960.3105181484702
1684735367741230964,203,1684735367741230964,camera_2,397,0,0.7439011979901052,-0.15720120521236267,1.516608256908374,-0.9682956981827003,0.07972138681300339,0.23610744745021978,-0.01735553583241398,0.0032495823252247646,0.0029218787687324515,2962.5212073338907
1684735367771380662,204,1684735367771380662,camera_2,399,0,0.7432723244453568,-0.15728186747418083,1.5153668632632222,-0.9681580224405901,0.07975581828774424,0.23662055069893148,-0.01788205860947884,0.0013524898968171328,0.0012149491647875392,2965.3358787910547
1684735367791424512,205,1684735367791424512,camera_2,401,0,0.7449623426044993,-0.15854803813722185,1.5186610256163353,-0.9689950352501677,0.08038402942970939,0.2330094798023465,-0.017135104184393506,0.012815396359656006,0.011537137527007565,2962.542500967743
1684735367811424732,206,1684735367811424732,camera_2,403,0,0.7437042344664727,-0.15859002943382738,1.5159887686441003,-0.9681084547663895,0.07953616836317765,0.23704504015195207,-0.01580084400584926,0.017568963303347118,0.015790584581375337,2960.6027226960286
1684735367841186046,207,1684735367841186046,camera_2,405,0,0.7437425509078672,-0.15698324796103164,1.5162914730345074,0.9682048010867016,-0.0797875599121119,-0.23634264342621097,0.018856387094108105,0.001059049624018371,0.0009527220677879671,2962.6393134506657
1684735367861381053,208,1684735367861381053,camera_2,407,0,0.7433171844297944,-0.15683098688848754,1.5154789020631585,0.9680988903214088,-0.07940016335303816,-0.2368254739621269,0.019845591464649686,0.0021491106890607625,0.0019327930061867114,2964.0208586673252
1684735367891194581,209,1684735367891194581,camera_2,409,0,0.7442719764792114,-0.15860355558377218,1.5171813901361015,-0.9681580840846772,0.08054185603735195,0.23636529921790675,-0.017730735268883923,0.023774467787006866,0.021416565064166018,2957.4884549691324
1684735367911262989,210,1684735367911262989,camera_2,411,0,0.7448216702817321,-0.15890357918937092,1.5182552548494088,-0.9684444118588499,0.0796421830027658,0.23555961887657703,-0.01685852249286104,0.02498526634008158,0.022516764619574883,2955.819419394945
1684735367951081514,211,1684735367951081514,camera_2,413,0,0.7426311502019333,-0.15666762822077568,1.5140303923015301,0.9676342473387199,-0.07946624571549558,-0.23876800597593,0.018945144269492006,0.0002955530653707683,0.000265495593056366,2964.005824821186
1684735367971144199,212,1684735367971144199,camera_2,415,0,0.7432977523989139,-0.15729894410934947,1.5154080313417906,-0.9681164593133698,0.0799567837965794,0.2367224002926302,-0.017886842402931348,0.0013440232287393883,0.0012075271393173126,2964.841130227316
1684735368001610517,213,1684735368001610517,camera_2,417,0,0.744303526643868,-0.15883455019145054,1.5172126481353316,-0.9684135436719111,0.0795294626695617,0.23577418889492893,-0.016149453589541098,0.020650990612921305,0.01858023742909029,2959.4612881869552
1684735368021618604,214,1684735368021618604,camera_2,419,0,0.7442470356983358,-0.1583204087179932,1.5171164539400994,-0.9683259888514348,0.08034033375111074,0.2358924174942478,-0.015651755696106932,0.01878744464193005,0.01689586939727004,2960.3760961905355
1684735368041533708,215,1684735368041533708,camera_2,421,0,0.7435472671996494,-0.15695157659292563,1.5158641613455832,-0.9680948656688317,0.08020202699112794,0.23667864828500274,-0.018525209260490134,0.0018330143066123128,0.001648196221483275,2963.395338399335
1684735368071830987,216,1684735368071830987,camera_2,423,0,0.7435418523972205,-0.15717251191367348,1.515933577165306,-0.9682300427287168,0.0792891173722884,0.23652267644945663,-0.017344847911014726,0.0016530137654626742,0.0014853091736651309,2963.858036867575
1684735368091783761,217,1684735368091783761,camera_2,425,0,0.7442515612537667,-0.15861160114278985,1.517142016262573,-0.9684505327702743,0.08015430966417929,0.23527894349096684,-0.017963044536084126,0.014481528385658748,0.013036701767123068,2960.8429016304435
1684735368111301898,218,1684735368111301898,camera_2,427,0,0.7453931457734289,-0.1590309028860623,1.5196142730200872,-0.969360668427353,0.08634093118567138,-0.2257778645691332,0.043697757135447705,0.02637592844257597,0.023781725201743705,2953.4363540912736
1684735368141793251,219,1684735368141793251,camera_2,429,0,0.744160606842435,-0.15725278347379645,1.5170879526565302,0.9682648777147654,-0.08024652825347281,-0.2360317221177439,0.01768183931063479,0.0008522137650288641,0.0007669103377619858,2960.713254548376
1684735368161292076,220,1684735368161292076,camera_2,431,0,0.7436984258022143,-0.15702608910361104,1.5162810302661762,0.9681548769771582,-0.07973589722317992,-0.23649769804256035,0.01967637415603244,0.006705902997055091,0.006035863340397483,2961.8768939782176
1684735368181246519,221,1684735368181246519,camera_2,433,0,0.7444364054426091,-0.15801973402012182,1.517649722505209,-0.9685740545149825,0.0805481220332201,0.234784878917131,-0.0158858927730675,0.003826117448625155,0.0034406510253892886,2962.184159234399
1684735368211207628,222,1684735368211207628,camera_2,435,0,0.7442996067172489,-0.15871605277302958,1.517206779675511,-0.9683705116369719,0.07991940133789426,0.23576571672697982,-0.01691059720872167,0.020733308760100044,0.018661772744847455,2959.3750087362723
1684735368231178998,223,1684735368231178998,camera_2,437,0,0.7447636406001481,-0.15800322239905348,1.5182281777392317,-0.9685225522349543,0.08032214224320877,0.2350868462903296,-0.015703311084580857,0.005319785748724826,0.004787855528089293,2959.0864670168376
1684735368261613368,224,1684735368261613368,camera_2,439,0,0.7427821307327575,-0.1567173745801301,1.5143824595826416,-0.9679268573895141,0.07952436798334551,0.23750773232185887,-0.01958445118549608,0.0010120185906998813,0.000909118056272615,2966.3092694631787
1684735368281529188,225,1684735368281529188,camera_2,441,0,0.7445144527845956,-0.1582673013618418,1.5177490661321438,-0.9686171741388088,0.08058264843861475,0.2346469506542993,-0.015100174919718686,0.009569026529788971,0.008602875957722246,2962.172861642902
1684735368301155090,226,1684735368301155090,camera_2,443,0,0.7449034752940293,-0.1589329822541259,1.5184251389367245,-0.968644803336907,0.07953349465428353,0.23473270783571196,-0.01738459285104389,0.02429971373931039,0.02189883188337623,2957.4471441786727
1684735368321559667,227,1684735368321559667,camera_2,445,0,0.744392521897855,-0.15815708658348368,1.5174399117746595,-0.968493325745262,0.0803250796116465,0.2352273904019126,-0.015382924850977754,0.011993125546723604,0.010783066998996811,2961.531187580083
1684735368341279983,228,1684735368341279983,camera_2,446,0,0.7443759503672618,-0.15730664627015611,1.517534161479046,0.9683848198109691,-0.08017247059923699,-0.2355805976557656,0.017464184087543338,0.0005227615620242432,0.0004705130911702004,2960.4288165306216
1684735368362048864,229,1684735368362048864,camera_2,448,0,0.7439706400707562,-0.157087239391334,1.51682022168859,-0.968419213688064,0.07928407731918198,0.2355571051027334,-0.01977654871451706,0.003460702209849842,0.0031153593160750184,2962.576977259364
1684735368391328334,230,1684735368391328334,camera_2,450,0,0.7440576981562715,-0.1583389238356251,1.5167936943229192,-0.9682827647042621,0.08040705325486258,0.23606822938913527,-0.015329202086828508,0.012992391712032259,0.0116784738594848,2961.208082335653
1684735368401323080,231,1684735368401323080,camera_2,451,0,0.7454697323933599,-0.15909404876369834,1.5195975816595932,-0.9689678841545128,0.07987961752600044,0.23330573144745068,-0.016997701456274744,0.0167078632657649,0.015064061644567717,2957.360963950399
1684735368431519508,232,1684735368431519508,camera_2,453,0,0.7445636778118601,-0.1579691886642691,1.5177789535963095,-0.9683940012971971,0.08062056057565663,0.23554437999086383,-0.015239045862208773,0.003136703628115356,0.002821595925554372,2959.5674640943753
1684735368451362848,233,1684735368451362848,camera_2,455,0,0.74350301936625,-0.15676848414474476,1.5158219045175385,-0.9681852109083044,0.07955038616034242,0.23637678214365676,-0.0203752375100978,0.0009644701058277858,0.0008677951724830263,2963.923591786529
1684735368471404075,234,1684735368471404075,camera_2,457,0,0.7434872239223355,-0.15717689130911922,1.5158095445898232,-0.9679887168012618,0.07975156189448303,0.2373163151186675,-0.01784654306397579,0.0011842603707918897,0.0010648305571508074,2961.664671889857
1684735368491456508,235,1684735368491456508,camera_2,459,0,0.7439014213176468,-0.15854985714084147,1.5164508738250304,-0.9684348953395011,0.08016726275319998,0.23529694211801036,-0.01850439140698202,0.017879595354315825,0.016086098938756063,2963.270163188689
1684735368511638641,236,1684735368511638641,camera_2,461,0,0.7444404339081652,-0.1588263676415857,1.517480214915727,-0.9683833787718615,0.07972706612008115,0.2358053270872795,-0.016524961831694013,0.022864000318804756,0.020583575194062106,2958.217261167475
1684735368531460046,237,1684735368531460046,camera_2,463,0,0.7439529788288827,-0.15760904716930177,1.5165986140254748,-0.9682331796230375,0.08054878801538723,0.23609908557406703,-0.017135472488517822,0.0034865908965002745,0.00313545367684276,2962.0805102838194
1684735368561345338,238,1684735368561345338,camera_2,465,0,0.744621483387224,-0.1572252046496004,1.5181290455548377,0.9687872541250049,-0.07940591117357333,-0.23409163981337103,0.018629591651856826,0.0017478818772360682,0.0015737345073939925,2962.42798765539
1684735368581578254,239,1684735368581578254,camera_2,467,0,0.7448711468629529,-0.15810224249067334,1.5185262238501311,-0.9687452260038875,0.08053317150232757,0.2340813855266192,-0.015905984169240064,0.004127950523979962,0.0037147896829284213,2960.906504280399
1684735368601574659,240,1684735368601574659,camera_2,469,0,0.7449137976060741,-0.15897380947069673,1.5184296988094026,-0.9687891687757623,0.07899207275352961,0.23439225716856552,-0.016372803189861507,0.020010053558507934,0.01801853427528985,2958.786636388745
1684735368631915807,241,1684735368631915807,camera_2,471,0,0.7439928279770556,-0.15783600165695516,1.5166673584377637,-0.9683098350453053,0.08041347196291733,0.23590503107748806,-0.016079589352096038,0.011943818200961687,0.0107353168016054,2962.5512714060014
1684735368651756525,242,1684735368651756525,camera_2,473,0,0.7433956354218761,-0.15673937680580347,1.5155973345606522,-0.9680137703456326,0.07959933450553601,0.2371108626663835,-0.01979204822933195,0.001505272593931295,0.0013541830168029344,2962.801625855034
1684735368681809663,243,1684735368681809663,camera_2,475,0,0.7442661450961727,-0.1582084229155082,1.517211146384801,-0.968358094357947,0.0800899472890421,0.23588712484768687,-0.015015517499434217,0.013354288908885792,0.01200580420919007,2960.4609909118153
1684735368701912164,244,1684735368701912164,camera_2,477,0,0.7449740529586066,-0.15895608193397145,1.5185712632697472,-0.9687602444297924,0.0795196887431047,0.23431490083664616,-0.016635358740990966,0.022598594150622375,0.020355830623402498,2958.4540957526774
1684735368731333494,245,1684735368731333494,camera_2,479,0,0.7444071107462703,-0.15770416834972834,1.5174987629035028,-0.9685265671224567,0.08098201438030499,0.2347238115316356,-0.01740501148976167,0.006022119501722045,0.005418529176867996,2962.6713516509617
1684735368751764774,246,1684735368751764774,camera_2,481,0,0.7432756755037732,-0.15678526652963717,1.5153184021116604,-0.968098048683064,0.07989627571311958,0.23661347808640423,-0.020416053758551673,0.003040301991859451,0.002734407657593943,2965.0435501330066
1684735368781493902,247,1684735368781493902,camera_2,483,0,0.7445810700442004,-0.15803724490155446,1.5179344092674816,-0.9685406259401441,0.0804998107902719,0.23497289812813732,-0.015380946377530572,0.0035432697040960193,0.003186997236014042,2960.6978148974013
1684735368801322221,248,1684735368801322221,camera_2,485,0,0.7449321490833629,-0.15896408760538794,1.5184754588270717,-0.9685444772703637,0.07968109416287514,0.23510787467647348,-0.01722805987906227,0.019501164220855575,0.017578526655487876,2956.12939125346
1684735368821071147,249,1684735368821071147,camera_2,487,0,0.7441742923263127,-0.15831640851802922,1.5169214519222511,-0.968270498870293,0.0803451657643129,0.23606406018442477,-0.016451590957208342,0.015516122919507325,0.013958311896793803,2960.2171403911216
1684735368851126194,250,1684735368851126194,camera_2,489,0,0.7425888424168746,-0.1565776377214147,1.5139394317473311,-0.9677509436709737,0.07924788286956483,0.23822005452375375,-0.020714480619399244,0.003027238606591709,0.0027207347238019774,2965.3894477732256
1684735368871219635,251,1684735368871219635,camera_2,491,0,0.7433935870127651,-0.15715987621034938,1.515597596593275,0.9680454742347678,-0.0795295561162934,-0.237237890508471,0.016768805104107273,0.0024605761282145977,0.0022103293840568636,2963.144198030117
1684735368891327857,252,1684735368891327857,camera_2,493,0,0.7441084940823393,-0.15857973249545887,1.5168231243868004,-0.9681886009300231,0.08024774753252754,0.2363593547590723,-0.017475338709028943,0.019915504453820176,0.017928871421908518,2958.9522769791083
1684735368911262512,253,1684735368911262512,camera_2,495,0,0.7446552138668571,-0.15887987527984937,1.5178984441443406,-0.9686593023878701,0.0794850706259497,0.2346984513574866,-0.01726025421105255,0.016246816972852685,0.01462990594976451,2959.6270486179274
1684735368941414833,254,1684735368941414833,camera_2,497,0,0.7437667843867294,-0.15716197870649296,1.5162683358320137,-0.9682140705984675,0.08004390406631247,0.23630782573818834,-0.017694587077933536,0.0030973578832345083,0.002784808033001103,2963.0518866933417
1684735368971861362,255,1684735368971861362,camera_2,499,0,0.742939110341227,-0.15720848517849104,1.5146353590392532,-0.9678754772170023,0.07998693353281812,0.2377375824173065,-0.01732030520375271,0.0005914618959650397,0.0005310324872277717,2964.923033977392
1684735368991012334,256,1684735368991012334,camera_2,501,0,0.7439339294844244,-0.15832167404178418,1.5165433714791776,-0.9683156710589046,0.08019380822756092,0.23594988749595974,-0.016166783673590614,0.017063042279914953,0.015338258827326458,2962.2025143014025
