%time,field.header.seq,field.header.stamp,field.header.frame_id,field.image_seq,field.transforms0.fiducial_id,field.transforms0.transform.translation.x,field.transforms0.transform.translation.y,field.transforms0.transform.translation.z,field.transforms0.transform.rotation.x,field.transforms0.transform.rotation.y,field.transforms0.transform.rotation.z,field.transforms0.transform.rotation.w,field.transforms0.image_error,field.transforms0.object_error,field.transforms0.fiducial_area
1684908698572430372,8,1684908698572430372,camera_1,13,0,-0.8510164027729615,-0.14240565793878104,1.9514686864295185,0.9740320486198484,-0.059588793351797655,0.21501126156812111,0.03848248130231569,0.009822478343266994,0.012025097891287589,2361.397329562925
1684908698582991123,9,1684908698582991123,camera_1,14,0,-0.8504405598119257,-0.14230028675764278,1.9501208228340514,0.9734037030791616,-0.059928686213219194,0.21780281495997555,0.03815386213797527,0.006912237906362861,0.008460108809177245,2358.917562378687
1684908698592599391,10,1684908698592599391,camera_1,15,0,-0.850825011350277,-0.14236422934733517,1.9510296284767814,0.9738965564828902,-0.05965601817826992,0.21566031589586354,0.03817440128645175,0.009711858758237213,0.011888307395243585,2361.2527695068866
1684908698602732181,11,1684908698602732181,camera_1,16,0,-0.8508665507081578,-0.14237924120875242,1.9511223867357073,0.9737472960234346,-0.05960753194567104,0.21632528098808554,0.038295148881046806,0.006978218327276409,0.008544394617684291,2359.571739290841
1684908698612370967,12,1684908698612370967,camera_1,17,0,-0.8504807046720736,-0.14231748600760116,1.9502238742914864,0.9737450203257354,-0.0591892301121733,0.21651320110882694,0.03793816251705241,0.007235502125695348,0.008852747944244493,2361.5157413699208
1684908698622789859,13,1684908698622789859,camera_1,18,0,-0.8511402927699793,-0.14242151619398313,1.9517635296692926,0.9738309352696458,-0.059600754125921786,0.21580216626360343,0.03912140916946297,0.007250026857946068,0.008879060213234004,2358.7229296673318
1684908698632349252,14,1684908698632349252,camera_1,19,0,-0.8502457663294833,-0.1422658868932533,1.9496736908318815,0.9733046208292258,-0.059311203713103035,0.2182560994751961,0.039045758136491526,0.004145673767197877,0.005070781133407114,2358.609592694207
1684908698642673969,15,1684908698642673969,camera_1,20,0,-0.8511509438374746,-0.14240866985934736,1.9519098000275144,0.97871563154528,-0.054899892992061425,-0.18971317890104905,-0.05577296898715973,0.005860037403181195,0.0071776973249812834,2358.2374339614753
1684908698652467966,16,1684908698652467966,camera_1,21,0,-0.8508301394766812,-0.14237024436029655,1.9510646964571248,0.9739103099819811,-0.05926671797357091,0.2157711008106294,0.0378020674885914,0.005839500459842384,0.007149213248728,2361.1357216209876
1684908698662616252,17,1684908698662616252,camera_1,22,0,-0.8505511054067144,-0.14233302089752192,1.9503811843870236,0.9739137574810552,-0.05964581724037845,0.21547672552916977,0.03878337569225457,0.007931932574138045,0.009700596512320594,2362.8859900039397
1684908698672349929,18,1684908698672349929,camera_1,23,0,-0.8511979521144166,-0.14242745745472205,1.9518433805606301,0.9739975925771236,-0.05968334061319728,0.21510088545939887,0.03870655734884488,0.0032981575350277126,0.004039158454647512,2360.1719392562513
1684908698683038949,19,1684908698683038949,camera_1,24,0,-0.8503591721255652,-0.14228324516102528,1.9499610326426062,0.9735911099592947,-0.05955773913833029,0.21686986292346339,0.0392516098079758,0.006995978124905378,0.008554884329540869,2360.773423784179
1684908698692644596,20,1684908698692644596,camera_1,25,0,-0.8513741722113095,-0.14245014931328942,1.9522704171559762,0.9739334306940297,-0.05968109377621865,0.21554812673387125,0.037826507686421984,0.005680863803718239,0.006963263889209519,2358.651406417833
1684908698703866481,21,1684908698703866481,camera_1,26,0,-0.8500897844328876,-0.14223786065269464,1.9493300433417615,0.9734579436315518,-0.05954887699650367,0.21778726161061474,0.03744692122505671,0.007002667349297553,0.008565469923184042,2361.2249456457785
1684908698712494373,22,1684908698712494373,camera_1,27,0,-0.8508110043830189,-0.14237046762757344,1.9509912272826668,0.973952413462859,-0.059154481387163046,0.2156006432456771,0.037865634468981765,0.004085359920281917,0.005000875498874574,2361.6202984857373
1684908698722711324,23,1684908698722711324,camera_1,28,0,-0.8517501947381148,-0.1425267928857696,1.9531817787427002,0.9742994914106922,-0.059245019268769586,0.21379102637431655,0.0390374918575195,0.006984193227253854,0.008559876369094896,2359.5500443859487
1684908698732519388,24,1684908698732519388,camera_1,29,0,-0.8504625712181202,-0.14230796879671093,1.9501987816069783,0.9736862114471815,-0.05942967193481813,0.21650314906865464,0.039110895856663136,0.006608635769225657,0.008082465844370125,2361.0388278564205
1684908698742801904,25,1684908698742801904,camera_1,30,0,-0.8510435909866592,-0.14240232329666241,1.9515400586582408,0.9739736509822171,-0.05960998153279651,0.21534764413419272,0.03804430916553675,0.010122452222276479,0.012396472586974688,2360.742201158311
1684908698752607583,26,1684908698752607583,camera_1,31,0,-0.8506693893193074,-0.1423400108974848,1.9507068660162832,0.9738597739003415,-0.05909461626631247,0.21583000282611106,0.039017649688236476,0.003432238765526563,0.004198834427689584,2361.2991176138175
1684908698762473821,27,1684908698762473821,camera_1,32,0,-0.851341352987477,-0.14245390237276906,1.9522356206900202,0.974089135636147,-0.0593956006933851,0.21501072361528045,0.037321671778332115,0.007452028046827764,0.009133555695247729,2360.1169334322904
1684908698771966934,28,1684908698771966934,camera_1,33,0,-0.8508204160101863,-0.14237418311688665,1.951070394089666,0.9736301968060155,-0.05952409311876008,0.21691392534761827,0.03807192136150653,0.008009136421605945,0.009808881392855524,2358.5888707693657
1684908698782579898,29,1684908698782579898,camera_1,34,0,-0.8502936737824836,-0.14226394813363308,1.94983721504662,0.9732233010064814,-0.059376393693257506,0.2188237187077479,0.03777605565624247,0.0035643273731693625,0.004363096219758119,2357.6614448352484
1684908698792713642,30,1684908698792713642,camera_1,35,0,-0.8587137923580257,-0.14368690960994931,1.9692762298937416,0.9805763502013569,-0.05556050183439302,-0.18272019882621163,-0.044680879608688905,0.0700391479767859,0.08655457052499609,2360.898576459033
1684908698802680253,31,1684908698802680253,camera_1,36,0,-0.8509116373227705,-0.14237925507251048,1.951229366452381,0.9737740958702436,-0.05979455783354184,0.21614968422908049,0.03831364082477692,0.005553030467126519,0.0067996834163130595,2359.6765430999217
1684908698812410354,32,1684908698812410354,camera_1,37,0,-0.8512089825487542,-0.14242854140703454,1.9519176656988824,0.9740014002089213,-0.05913732521796944,0.21525723424488333,0.038579427968391075,0.004746565944515169,0.005813669227260556,2359.7699777923976
1684908698822674036,33,1684908698822674036,camera_1,38,0,-0.8511730002464815,-0.14241814788495485,1.951799251406325,0.9739620855178164,-0.05981180263047155,0.21508011171068106,0.039508857062692075,0.007546363631263375,0.009238962099865002,2359.941499677137
1684908698832310676,34,1684908698832310676,camera_1,39,0,-0.8506696026109062,-0.1423427679141639,1.950712010319613,0.9739012911108748,-0.05932810023436367,0.21587393519350753,0.03734830383326389,0.007419601664878428,0.009082219810856676,2361.9932035461534
1684908698842549324,35,1684908698842549324,camera_1,40,0,-0.8510618973787313,-0.14241937970417856,1.9515927404440552,0.9741123959577263,-0.05919454727061402,0.21478118076334773,0.0383417527615423,0.010974033444654197,0.01343571096606266,2361.6608699004864
1684908698852419853,36,1684908698852419853,camera_1,41,0,-0.8509206701270869,-0.1423763059032877,1.951260534516156,0.9738680027470817,-0.05883111932932604,0.21593434834467573,0.03863120278775932,0.0051097701652906835,0.00625555989155565,2359.924446658929
1684908698862594604,37,1684908698862594604,camera_1,42,0,-0.8507768278795522,-0.1423643315453106,1.950965942561871,0.9740805088366427,-0.05970946351242732,0.2147715276177851,0.03840746276869527,0.00908761570462957,0.011119152040673532,2363.169252977241
1684908698882685661,38,1684908698882685661,camera_1,44,0,-0.8512165977864915,-0.14244012694877742,1.9519511741701159,0.9739013518192248,-0.05915794574510698,0.21589803313585662,0.03747710858609774,0.006603579793591051,0.008093165159297309,2358.8811894308315
1684908698902781963,39,1684908698902781963,camera_1,46,0,-0.8500882193087055,-0.1422616248076652,1.9493562194104834,0.9734449618284154,-0.059513991757991824,0.21775755744704164,0.038008383951477764,0.005372878047637641,0.006570796688782549,2360.9557398631005
1684908698922528505,40,1684908698922528505,camera_1,48,0,-0.8505507162943938,-0.14233960207990284,1.9504010826462386,0.9738051599396423,-0.05943478464921289,0.2162060884861609,0.037761675679766,0.007453964208252728,0.009121456631532578,2361.8107798002884
1684908698952522277,41,1684908698952522277,camera_1,50,0,-0.851267909468642,-0.14245350866401302,1.9520444064804143,0.9739715673205591,-0.059341204606993526,0.21543237489173708,0.038038130020158434,0.006795666005928069,0.008326641233320796,2359.3435639188383
1684908698972696781,42,1684908698972696781,camera_1,52,0,-0.8491051156208065,-0.14209018061854736,1.947068018552752,0.9729543659705474,-0.06004690649146586,0.21978765598549443,0.038046774318687436,0.008371817995794117,0.010222304151571686,2362.1163256686414
1684908698992430448,43,1684908698992430448,camera_1,54,0,-0.8507196748425369,-0.14234983489178707,1.9508036380035085,0.9736742615283586,-0.05962863499004339,0.2167146499532019,0.03791594416721198,0.010283274110406637,0.01259064770833649,2359.7098581835157
1684908699022682428,44,1684908699022682428,camera_1,56,0,-0.851035287789511,-0.14239287668286874,1.9515996326489904,0.9785665377082237,-0.05532229722227917,-0.1904233988975729,-0.055550912324510565,0.0042209026287309825,0.005170270655122836,2357.6071236775015
1684908699032636165,45,1684908699032636165,camera_1,57,0,-0.8514791989441033,-0.14246586880074133,1.9524828433014476,0.9742738017543537,-0.060095677467119114,0.2139374953963115,0.03754752759422977,0.005059345217887312,0.006200025472260948,2361.6100972376303
1684908699062707662,46,1684908699062707662,camera_1,59,0,-0.8524320719750211,-0.1426260124975656,1.9547713152482555,0.9791501871332632,-0.05572210339478387,-0.18763061885760898,-0.05435723592372421,0.004169555380940437,0.005121123437378319,2356.337415601826
1684908699082766771,47,1684908699082766771,camera_1,61,0,-0.8506856233121627,-0.14234623730126084,1.9507857993961202,0.97862616346517,-0.05531906458741697,-0.189872503087113,-0.05638320535451968,0.006263265677262098,0.007662022300163504,2360.318281555781
1684908699102723836,48,1684908699102723836,camera_1,63,0,-0.8499934695445542,-0.14224047962061082,1.9490400949758269,0.9731085520937416,-0.05968612551566013,0.21885658299141078,0.03998885275016887,0.007397337874863297,0.00904164881381864,2358.350455370731
1684908699112661838,49,1684908699112661838,camera_1,64,0,-0.8502245374103744,-0.14225853505167232,1.9495622563594215,0.9737170353310772,-0.059644615253426965,0.21641366680574578,0.038506879866069536,0.0059096545446664095,0.007224312479203218,2363.01799768582
1684908699122759580,50,1684908699122759580,camera_1,65,0,-0.8509844930752718,-0.14238168519099195,1.9512750985441298,0.9737468555807202,-0.05973203867782753,0.21619985569999342,0.038817099290813055,0.004532964318059385,0.0055501309279770384,2359.1590239380025
1684908699132671833,51,1684908699132671833,camera_1,66,0,-0.8503809532470326,-0.14229352453302285,1.9498642065403313,0.9734373270083662,-0.059484823368620335,0.21774420256575155,0.038324775597730364,0.006476797629147768,0.00792429002877858,2359.5280054020695
1684908699142689943,52,1684908699142689943,camera_1,67,0,-0.8502761389556499,-0.1422699534768637,1.9496548895891146,0.9736818491465358,-0.059309667946340655,0.2166450604449365,0.03861266263141383,0.0075315957656130195,0.009208244260195383,2362.243736711098
1684908699152636528,53,1684908699152636528,camera_1,68,0,-0.8515177343573024,-0.14248027503838423,1.9526316494411873,0.9790055064020196,-0.05551068745078126,-0.18765458082707956,-0.05703104687694359,0.006820571841672063,0.008351561296808285,2360.1417762878123
1684908699162399053,54,1684908699162399053,camera_1,69,0,-0.8500162525567947,-0.14223444470982088,1.9490483469528064,0.9735683993211602,-0.0596761231368058,0.21677947307177295,0.040124708414133084,0.0032309378148056567,0.003946018311034436,2362.6660894282395
1684908699172504663,55,1684908699172504663,camera_1,70,0,-0.8502231821529636,-0.14226704663550105,1.9494845735988973,0.9736276519408738,-0.05972732817889928,0.21660961687392125,0.03952360715375078,0.004147451196331531,0.005068441867626563,2362.244613243267
1684908699182889223,56,1684908699182889223,camera_1,71,0,-0.85041873777475,-0.14230959165349444,1.9499297568492209,0.9734620893908251,-0.06025881451721112,0.21712089732763715,0.03998689454648111,0.006198544870130718,0.007578996718323365,2359.837388937245
1684908699192277908,57,1684908699192277908,camera_1,72,0,-0.8507972960760245,-0.14237817867667665,1.9507894291837375,0.9738397620603318,-0.059950898272096896,0.21563116826572445,0.0393091197943153,0.004614607896655798,0.0056454747206996884,2361.2291207509106
1684908699202685832,58,1684908699202685832,camera_1,73,0,-0.8499266405332646,-0.14222287365854083,1.9487915113682603,0.9734934730481626,-0.059957823627464824,0.21706773892408593,0.03996390917901947,0.004706214589532465,0.005747354414156496,2362.725579295773
1684908699212527990,59,1684908699212527990,camera_1,74,0,-0.8514053447427269,-0.14247287495512906,1.952147667194241,0.9740389730956212,-0.05951450960439181,0.21492368743756435,0.0389090042999917,0.003812565701082349,0.004670032357070457,2359.621519420878
1684908699222759485,60,1684908699222759485,camera_1,75,0,-0.8501553530682571,-0.14225058247766786,1.9492918514485083,0.9733935850215284,-0.06018311693021125,0.21714433433012573,0.04160840232246199,0.003172821190673858,0.0038748082487977662,2360.501079928362
1684908699232536077,61,1684908699232536077,camera_1,76,0,-0.8511754065082775,-0.14242140632256325,1.951619891822379,0.973527440486376,-0.06003562888554468,0.21673619178404113,0.04081015872689398,0.0024811436305753887,0.003037693109842324,2356.137793036294
1684908699242618799,62,1684908699242618799,camera_1,77,0,-0.8506195186288653,-0.14234448464443022,1.9503588278343202,0.9733495940987192,-0.060328846785458606,0.21735600364153182,0.041320280666734974,0.003793025854974985,0.00463817551573882,2357.6059181159367
1684908699252673625,63,1684908699252673625,camera_1,78,0,-0.850681902018138,-0.1423429375968116,1.9504120239668927,0.9733623644708318,-0.06081305502410212,0.21714307390389453,0.04142903843869814,0.001548440137412399,0.0018934641592173202,2357.8148124413565
1684908699262680530,64,1684908699262680530,camera_1,79,0,-0.8504933808635836,-0.14231250578278937,1.9499526110395102,0.9735477675076877,-0.060357723202384514,0.2164868212563752,0.04117214899579619,0.000439727446064353,0.0005373555316716057,2360.4406528322734
1684908699272931337,65,1684908699272931337,camera_1,80,0,-0.8500090617884748,-0.14223215322792693,1.948829022969767,0.9732587326005084,-0.05964024823727282,0.2178057179202746,0.0420850264141806,0.002828985918313265,0.0034534606678329974,2359.910382723784
1684908699282573223,66,1684908699282573223,camera_1,81,0,-0.8503436053210037,-0.14227035704967805,1.9495748740072187,0.9731682647257381,-0.06051403127660825,0.21816857964396077,0.041037195390109,0.002935521421022713,0.0035881837809896063,2357.857699706103
1684908699292503833,67,1684908699292503833,camera_1,82,0,-0.8488803588933415,-0.14205344593129013,1.9462571862504834,0.9727841823721852,-0.060315609107794266,0.21953898501941235,0.043076628014286446,0.002246069721877575,0.0027355689567205186,2361.8977501057097
1684908699302596569,68,1684908699302596569,camera_1,83,0,-0.8506999087664748,-0.14234603593594505,1.9504260210631348,0.9733814461963283,-0.06111839814179714,0.21713428147001687,0.04056852745447688,0.0033104841713793576,0.004049384875089211,2358.225589765236
1684908699312516689,69,1684908699312516689,camera_1,84,0,-0.8503497055742639,-0.14228075238915386,1.9495364768395504,-0.9734957472313611,0.06040131282778305,-0.21661088940364484,-0.0416825397846154,0.0013684469158761203,0.0016713491798834583,2360.8903212752202
1684908699322699785,70,1684908699322699785,camera_1,85,0,-0.8496111594904671,-0.14215784558336483,1.947846566629663,0.9730668766385268,-0.060554339570408615,0.21837326270594967,0.04227462221347522,0.0017984709120355546,0.0021937576586952166,2360.923156384146
1684908699332364559,71,1684908699332364559,camera_1,86,0,-0.9191423643483752,-0.15386431069697182,2.1074610383742414,0.9932033864968767,-0.0594696690044989,0.09994809790669126,-0.0045573286545485025,3.6789291861932725,4.86110837194841,2356.1982069974774
1684908699342777013,72,1684908699342777013,camera_1,87,0,-0.8494426310604586,-0.14214829053943162,1.9474374290442122,-0.9729068642231066,0.060328512512673675,-0.21922475593635596,-0.041871356679894535,0.0028831150848418474,0.003516717110853083,2360.295859476087
1684908699352526903,73,1684908699352526903,camera_1,88,0,-0.8495601521787609,-0.14216106515610466,1.9478024471682782,0.9781127054127744,-0.05566228388284992,-0.19178513069095451,-0.0584440699207527,0.004275358922313899,0.005214635372735104,2362.4323122549104
1684908699362585544,74,1684908699362585544,camera_1,89,0,-0.8492243291408023,-0.1420955544039776,1.9469073170008109,0.9728079358969406,-0.06013374082154344,0.21948884501047913,0.04304997080959545,0.00059835787396878,0.0007292420445056396,2360.383499339223
1684908699372697114,75,1684908699372697114,camera_1,90,0,-0.8499451665180262,-0.14221146284489666,1.9485189698486083,0.9730453406142892,-0.061085692851842996,0.21836770131224745,0.04203391798580512,0.0002361788065172732,0.00028832317119340586,2359.3730073794723
1684908699382735252,76,1684908699382735252,camera_1,91,0,-0.8497479566973898,-0.1421836737827139,1.9480732431621395,0.97287500767815,-0.06047099551801223,0.21933854607020198,0.04181005075469232,0.00038694805698469287,0.0004723407056291972,2358.5048569510695
1684908699392787456,77,1684908699392787456,camera_1,92,0,-0.8494807415535958,-0.14215413861280285,1.947466043149823,0.9730226564646667,-0.06101761493313157,0.2183465626775214,0.04276142234803219,0.0015540200402028859,0.001894600718270654,2361.583094754025
1684908699402698516,78,1684908699402698516,camera_1,93,0,-0.8498650094453951,-0.14220478320418994,1.9482976643236765,0.9728604778752838,-0.06054659052160031,0.21918544179939758,0.04282923146271706,0.0007216417579911649,0.0008807697155185435,2357.7273493827106
1684908699412573337,79,1684908699412573337,camera_1,94,0,-0.850197803303639,-0.14224524250950107,1.9489841775715147,-0.9733827386951823,0.06051732795805209,-0.21683524931408096,-0.04296709999504847,0.0026072945329360664,0.0031816193541309855,2360.9757229975658
1684908699422636985,80,1684908699422636985,camera_1,95,0,-0.8502481991866984,-0.14226678141899413,1.9490953431110543,-0.9731170331599932,0.060817098062870424,-0.21830476302489835,-0.041079810098720485,0.00029121385887265205,0.0003558193008418914,2358.5498372851866
1684908699432505369,81,1684908699432505369,camera_1,96,0,-0.8501932928201981,-0.14225686616510125,1.9489406329898453,-0.9731813343649713,0.0605231400226116,-0.2179364318773313,-0.041937472813637695,0.00020404340466484427,0.0002491639303027261,2359.2543776803645
1684908699442682743,82,1684908699442682743,camera_1,97,0,-0.8489098187477316,-0.142068598334781,1.9460384940364066,0.9727091123993576,-0.06108702279540103,0.21988028445868713,0.041928734867810964,0.0008912771590985358,0.001085933005974813,2362.124129435746
1684908699452384710,83,1684908699452384710,camera_1,98,0,-0.8496979236339256,-0.14218874213022598,1.9478320754064253,0.9729379958294189,-0.060722937854912555,0.2188885344773995,0.04233427174333731,0.0005114946397952735,0.0006240298527697682,2359.701972149546
1684908699462630510,84,1684908699462630510,camera_1,99,0,-0.8504893908164494,-0.1423042826480473,1.9496284004267688,0.9732568346910648,-0.060707917842322975,0.21737464468065315,0.0428245991030729,0.0013222515117377043,0.0016150271726207966,2358.322168750805
1684908699472700595,85,1684908699472700595,camera_1,100,0,-0.8491059358264172,-0.1420731836894079,1.946449191725751,0.973048547828203,-0.06071526346710886,0.21839909737005891,0.042332193653157685,0.0013715052627958357,0.001670601155769535,2364.102218422923
1684908699482771158,86,1684908699482771158,camera_1,101,0,-0.850068436953076,-0.1422325522737707,1.9486175342013292,-0.9731854801082085,0.06095561824596569,-0.21763960326724302,-0.04274853214421379,0.0013279611011967063,0.0016205320680422422,2360.215779267369
1684908699492468595,87,1684908699492468595,camera_1,102,0,-0.8510331570414961,-0.14239784489797985,1.9508228556559453,-0.9737061717736285,0.06063274045690561,-0.21545404007341176,-0.042420731378364177,0.00020174175733700395,0.0002465807596821178,2359.667926822791
1684908699502718210,88,1684908699502718210,camera_1,103,0,-0.848507030564585,-0.14199227802473297,1.9450398989005122,0.9725735209371079,-0.06077917458213936,0.22077599460523134,0.040799491604452426,0.000570527627132833,0.00069489056841228,2363.1729494895544
1684908699512639522,89,1684908699512639522,camera_1,104,0,-0.850874999419511,-0.14238047384961205,1.9504030194125006,0.9733145471483649,-0.060982396392390704,0.21772135981794333,0.03920904383736501,3.594835288822651e-05,4.40022688197318e-05,2357.4885201635766
1684908699522664546,90,1684908699522664546,camera_1,105,0,-0.8497033326369986,-0.14218912369749598,1.9477684428349742,0.9730645331029264,-0.060560828407753335,0.21864936623778441,0.04086875485704897,0.0009304288541898131,0.001135510133106917,2361.0945515746707
1684908699532586812,91,1684908699532586812,camera_1,106,0,-0.8492788476120492,-0.14211122200094523,1.946779843893827,-0.9728039959147826,0.06031887017732759,-0.2195617311042466,-0.04250488992185466,0.001406670839060098,0.001714571526446451,2360.688346226817
1684908699542887449,92,1684908699542887449,camera_1,107,0,-0.8514251490023225,-0.14246383265117546,1.951724848371867,-0.973844853032566,0.0602956290401417,-0.21493077693737173,-0.04237216616755973,0.0010787782375700772,0.0013195068481827719,2358.622666767333
1684908699552443742,93,1684908699552443742,camera_1,108,0,-0.850056872435673,-0.14222239734506414,1.9486166250111558,-0.9730832652877821,0.06081246617496964,-0.2184446864864727,-0.0411426994789173,0.003211698087397963,0.003922356943777931,2359.3738759872494
1684908699562719345,94,1684908699562719345,camera_1,109,0,-0.8486793741993209,-0.14202618575842646,1.9454150757113555,0.9723496675199065,-0.060743731010180955,0.2214329255408433,0.04258852783688876,0.0005772400763817132,0.0007030947207655522,2359.8840251031806
1684908699572620391,95,1684908699572620391,camera_1,110,0,-0.8500871386114204,-0.14223845363291107,1.9486699193417536,-0.9732416995491574,0.060732756781331824,-0.21764655062486069,-0.04173853751040182,0.0009906706982292235,0.0012093722660152498,2360.615479537285
1684908699582684278,96,1684908699582684278,camera_1,111,0,-0.8493571903099383,-0.14212146446374574,1.9469630442478676,0.9727381965984396,-0.06045963003949508,0.22005200315278464,0.04125711965648942,0.00013959896750748158,0.00017029191959124586,2359.8316417611204
1684908699592520236,97,1684908699592520236,camera_1,112,0,-0.8503225329505175,-0.1422894571011382,1.9492261345573452,0.9734561597262323,-0.06083715550300878,0.21648748218836555,0.04260417417461522,0.0009135925793088973,0.0011151719750636978,2361.267608563416
1684908699602648973,98,1684908699602648973,camera_1,113,0,-0.8497781468494577,-0.14218646428528578,1.9479563472405315,0.9728129010544793,-0.06025945455299055,0.2195102377899364,0.042651063109255885,0.00010531040607020259,0.00012850843884828494,2357.884741916786
1684908699612509965,99,1684908699612509965,camera_1,114,0,-0.8496449632026833,-0.14216967880211545,1.9476498244841984,-0.9730681626819513,0.06071481023111418,-0.21839739376580647,-0.041888435034920124,0.0008363652159459889,0.0010201641012165222,2361.396704508226
1684908699623088836,100,1684908699623088836,camera_1,115,0,-0.8495420059984135,-0.14216377378514083,1.94747670028483,0.9730062975934095,-0.0608656833417744,0.2187580777784044,0.04121913198506308,0.0019146217382512987,0.002335807820757474,2361.4200312474277
1684908699632373571,101,1684908699632373571,camera_1,116,0,-0.8501117404439777,-0.14225270081955632,1.9487460387886248,0.9732681353382071,-0.06027168041819956,0.2174948258953855,0.04257301943240284,0.00027426634915173054,0.0003347253434640753,2360.321541920536
1684908699642783641,102,1684908699642783641,camera_1,117,0,-0.8512239767586997,-0.14242901030655497,1.9513359441600753,-0.9735239829094465,0.06026844000672673,-0.21638881798441242,-0.04236330122396239,0.0003126199007965625,0.00038241777755531275,2356.542541849777
1684908699652698040,103,1684908699652698040,camera_1,118,0,-0.8495954821338644,-0.14215983647085934,1.9476257239311858,0.9727671531774904,-0.06106927396484294,0.21965902081284108,0.04176749994806471,0.001366742537356913,0.001667909026010702,2358.8597471147077
1684908699662771463,104,1684908699662771463,camera_1,119,0,-0.8500115903926643,-0.1422197985563724,1.9485853162645042,-0.9732639816137012,0.060930763800501345,-0.21744573667522626,-0.04197637094724528,0.0017193327075801788,0.002098412391732897,2361.1715231795097
1684908699672584533,105,1684908699672584533,camera_1,120,0,-0.8494370086345192,-0.14214749153622666,1.9473008034885708,-0.972874325577572,0.0604961404154899,-0.2191819557182025,-0.042603214835946916,0.0008019052911549807,0.00097778299970378,2360.2595933874845
1684908699682591915,106,1684908699682591915,camera_1,121,0,-0.8499817010099019,-0.14221750811629363,1.948536831511417,-0.9732695793665884,0.060520287156643926,-0.21738253508441607,-0.04276042752749798,0.00025866396026685834,0.00031558154078339663,2361.023547175805
1684908699692472219,107,1684908699692472219,camera_1,122,0,-0.8498420340272725,-0.14218821201824972,1.9482714596412276,-0.9729158159574954,0.06087550131853611,-0.21902246261249966,-0.041930290603978036,0.00344784336630255,0.004209000584624097,2358.639882439282
1684908699703173875,108,1684908699703173875,camera_1,123,0,-0.8496727903209356,-0.14219549999090902,1.9478432015696392,0.9729753037137922,-0.060861769559518705,0.21844667599087683,0.04354254376670059,3.019510768353939e-05,3.6818858242323976e-05,2359.996934890398
1684908699712591171,109,1684908699712591171,camera_1,124,0,-0.8504997796247962,-0.14230845960613336,1.949738771639682,0.9735611289409376,-0.06034447863801749,0.2163331257219881,0.04168034103156426,1.6350531950592995e-05,1.997241391767189e-05,2360.9068569056685
1684908699722687721,110,1684908699722687721,camera_1,125,0,-0.8491371899181562,-0.14208687492447072,1.9466360150653792,0.9726145020228227,-0.06086421030974332,0.22003035246085897,0.0436259367145054,0.0003296372015029192,0.0004016592967132566,2359.50581701775
1684908699732832670,111,1684908699732832670,camera_1,126,0,-0.8491774505437724,-0.14209256776423568,1.9467717684368666,0.972788715850486,-0.0606575598923618,0.2198168035132947,0.041028619707038486,0.0021734328474849463,0.0026506691784465328,2361.040501163342
1684908699742664337,112,1684908699742664337,camera_1,127,0,-0.8500425264749362,-0.1422412008658511,1.9486975131960236,0.9728897522235699,-0.06070460199688824,0.2190752176472905,0.04250329784325674,0.0004920218489132822,0.0006008082957641289,2357.1596726737926
1684908699752471208,113,1684908699752471208,camera_1,128,0,-0.8487586671762499,-0.14202293710677177,1.9457631962370046,0.9723073848861897,-0.06093877950621094,0.2216880994277753,0.04194283037866441,0.001631647755857557,0.0019886600038982465,2358.929054024396
1684908699763119220,114,1684908699763119220,camera_1,129,0,-0.8499318100520008,-0.14222737784900735,1.9484621573449192,0.9733916614158887,-0.06077254347693796,0.21680071448531751,0.04257724326463149,0.0008344004745595157,0.0010178108629390887,2362.535902127739
1684908699772385835,115,1684908699772385835,camera_1,130,0,-0.850156104604454,-0.14224211024564265,1.9489756761692136,-0.9733052535908602,0.059862356830704774,-0.21773203355250148,-0.041062673222738016,0.002034410950727761,0.002484681733312764,2360.1517502348875
1684908699782523632,116,1684908699782523632,camera_1,131,0,-0.8503113595885166,-0.14226938044839482,1.9493583242409973,-0.9732302736359151,0.060643069318308755,-0.21765489322722656,-0.04209037985646068,0.00042748008854687214,0.000522146863431383,2358.8443366902666
1684908699792527675,117,1684908699792527675,camera_1,132,0,-0.85061761162434,-0.14232383983431873,1.950060483946768,0.9730722534195106,-0.060552656064304204,0.21830758642076864,0.042491918993762534,0.0012108550290577114,0.001480212663080375,2355.548753323034
1684908699802542448,118,1684908699802542448,camera_1,133,0,-0.8499074147415767,-0.14220857080549953,1.9484590441957272,0.9729786088126455,-0.060481951165598784,0.21890264695401007,0.04166763171502572,0.0008362804655916989,0.0010211218664924547,2358.592753831066
1684908699812286138,119,1684908699812286138,camera_1,134,0,-0.8492273928627897,-0.1421044789630314,1.9469103446546185,-0.9726438339358497,0.06074711206175586,-0.2197880197646792,-0.04435072773527946,0.0021778856171295047,0.0026535556997286857,2359.0103684636983
1684908699822624683,120,1684908699822624683,camera_1,135,0,-0.849747271886604,-0.1421738923836001,1.9482535277575077,-0.9781472514293467,0.05639184197765571,0.19184405060040902,0.056954147599709036,0.00286591803887859,0.003499179378814325,2362.003772087396
1684908699832087516,121,1684908699832087516,camera_1,136,0,-0.850648821056532,-0.14234128527033826,1.9501411910721336,0.9733329148583065,-0.060314581017474014,0.2174518908314561,0.04122939902476886,0.001219051657244563,0.0014904824860888335,2357.8339484805465
1684908699842273950,122,1684908699842273950,camera_1,137,0,-0.8511988513063939,-0.14244055327550914,1.951424309938975,0.9736059413481285,-0.06122178332555608,0.21589202519651646,0.041641297705643836,0.0006127142114564776,0.0007496818750106275,2357.7881212006323
1684908699852436065,123,1684908699852436065,camera_1,138,0,-0.8491176566536794,-0.1420787855377959,1.9466174125424893,0.9725445198218474,-0.06055025081855928,0.22058694454619768,0.042804485583579355,0.00040955061558634043,0.0004992487899672241,2358.808475349216
1684908699862393617,124,1684908699862393617,camera_1,139,0,-0.8504916078869504,-0.1423089068782204,1.9498269786517428,0.9733382474468251,-0.06067855489062245,0.216974569402973,0.043044224536206904,0.0006427420885302126,0.0007850328675586901,2358.667991985567
1684908699872483253,125,1684908699872483253,camera_1,140,0,-0.8498889533354503,-0.14220947089527344,1.948626382493896,0.9779491385221876,-0.05587661893166401,-0.19216966653504242,-0.05970012717145131,0.0024883331498131156,0.003036807136797949,2358.9786512781866
1684908699882753133,126,1684908699882753133,camera_1,141,0,-0.8502430228365079,-0.14227096282038543,1.9492421869832812,0.9730154262602606,-0.06082997269044243,0.21843257999242702,0.04275397852709758,0.0016940359491854906,0.002069115243112682,2357.125552359968
1684908699892547369,127,1684908699892547369,camera_1,142,0,-0.8498106872022755,-0.14221139715355546,1.9482724254949106,0.9728818398212725,-0.061066262343379314,0.21907350722873387,0.04217387556162446,0.0013036750606261194,0.001591411202664671,2358.409619729733
1684908699902928113,128,1684908699902928113,camera_1,143,0,-0.8495611192550502,-0.1421596864596996,1.947691449351489,0.9727319394159584,-0.060339037650811,0.21990380412368332,0.04235671738195768,0.0019887672387994826,0.0024267040098131165,2357.9563917226624
1684908699912642955,129,1684908699912642955,camera_1,144,0,-0.8492450848838252,-0.1420894965255625,1.946949345697631,-0.9727324160692271,0.06029137962457013,-0.21978698857798085,-0.04301483375432974,0.0013917357427999377,0.0016964318106627236,2359.663259555585
1684908699922595500,130,1684908699922595500,camera_1,145,0,-0.8501248200174227,-0.14225706757904216,1.9490022288471827,0.9732563949701618,-0.059919738507999046,0.21766083584988805,0.042489706093894984,0.0012128184898756444,0.0014805797715976524,2359.5271684272448
1684908699932666063,131,1684908699932666063,camera_1,146,0,-0.8497762060531494,-0.14217554415849137,1.9482309364647625,0.9728516933016204,-0.06043251497649906,0.21929273147971248,0.04264026141983633,0.0006320554530248046,0.0007714147633280168,2357.84915337048
1684908699942696094,132,1684908699942696094,camera_1,147,0,-0.8490603609412941,-0.142062072165478,1.946572421020874,0.9725968986033208,-0.06055158210350192,0.2206144926238944,0.041449057604081005,0.0003204254317097366,0.0003907570311082419,2359.6242126933057
1684908699952638149,133,1684908699952638149,camera_1,148,0,-0.8502681234727002,-0.1422724925803064,1.9493872940899055,0.9731331752507354,-0.06045866657648706,0.21826026240874782,0.041461195297283,0.00323601154377684,0.003954274693529348,2357.884422112489
1684908699962579488,134,1684908699962579488,camera_1,149,0,-0.8488518066656779,-0.14204609135991952,1.9461328959695234,0.9725811796105998,-0.060543894607326884,0.22083252283458876,0.04066057982299559,0.0006428821361623704,0.0007838961647393276,2360.6363977708393
1684908699972453594,135,1684908699972453594,camera_1,150,0,-0.8501041947920884,-0.14224125060185247,1.9492020719008845,0.9780639483098682,-0.055750671270165184,-0.1915885771432625,-0.05980462170817198,0.003594612528104335,0.0043883598637826345,2358.7686629423415
1684908699982929944,136,1684908699982929944,camera_1,151,0,-0.8498144237070127,-0.14219649313056693,1.94836715382362,0.972766893714968,-0.060292811052030035,0.21974235056765026,0.042457588186097524,0.0007929839775897563,0.0009681689336579987,2356.6670180563815
1684908699992525577,137,1684908699992525577,camera_1,152,0,-0.8494263289489671,-0.14212892742745578,1.9476782083132473,0.9778130391411649,-0.05592808293608737,-0.1935918472995085,-0.057235536896028505,0.007288912718649954,0.008898858750748678,2360.047309996328
1684908700002739429,138,1684908700002739429,camera_1,153,0,-0.8501425594793077,-0.1422510275770862,1.949178983072481,0.9731289715320426,-0.06049281137229937,0.21835119998957803,0.04102898975573072,0.0017642135499045253,0.0021557301791921253,2358.4488862921717
1684908700012585163,139,1684908700012585163,camera_1,154,0,-0.8498703476023693,-0.14220061267540002,1.9487727126285999,0.9779450014471628,-0.056043560688471564,-0.192893346751669,-0.05722630713934748,0.003170924785081297,0.0038744872860696986,2358.3929382996876
1684908700022685289,140,1684908700022685289,camera_1,155,0,-0.850306905773234,-0.14229864915926937,1.949611948699549,0.9730395364493577,-0.06018215260162366,0.2187689643083591,0.04138005884604567,0.002538224565796554,0.0031029259253103647,2356.348114932422
1684908700032688856,141,1684908700032688856,camera_1,156,0,-0.8505979489794059,-0.142328313512459,1.9502779587809311,0.9735837091433895,-0.060066838749282196,0.2163433603718477,0.0415004409167504,0.0025725486339069903,0.0031441389903497556,2359.844972061459
1684908700042941093,142,1684908700042941093,camera_1,157,0,-0.8502794805196392,-0.1422854226506651,1.949557374714351,0.9733632529251723,-0.05988928183642176,0.21743980326509188,0.04119688983507341,0.004456409951671959,0.005445216430360753,2359.41974063008
1684908700052646160,143,1684908700052646160,camera_1,158,0,-0.8501991564329121,-0.14226384625471514,1.9493925724018655,0.9732205824798607,-0.06007890136716356,0.21822194879417167,0.04014230327907583,0.00218658777885139,0.002672944491437658,2358.712455096538
1684908700062747240,144,1684908700062747240,camera_1,159,0,-0.8498720819481993,-0.1422061865459596,1.9486361404360275,0.9732120441351068,-0.05935250958632238,0.21846816202563657,0.0400906340348065,0.0019609376904554665,0.0023953598905886828,2360.0590848419815
1684908700072898387,145,1684908700072898387,camera_1,160,0,-0.8503174082247201,-0.14227718043234328,1.949698229534036,0.9731156913669388,-0.059961043840751745,0.21853264731214114,0.04115831016598887,0.0025055648875422776,0.003063101513222899,2356.819216403179
1684908700082714319,146,1684908700082714319,camera_1,161,0,-0.849994496948954,-0.14223145482168514,1.9489637157753525,0.9731171601434471,-0.05985103283325865,0.21873564350558183,0.04019408866169217,0.0041412790305912495,0.005060942698357101,2358.65242418088
1684908700092813014,147,1684908700092813014,camera_1,162,0,-0.8504041070627326,-0.14229612816122203,1.9499236532607507,0.9734596756186139,-0.05942697643525648,0.21747868813291013,0.03934100436256012,0.005261801648885012,0.006435267026156784,2359.4593089002883
1684908700102749109,148,1684908700102749109,camera_1,163,0,-0.8504627203150833,-0.1423104529738158,1.9501277261137278,0.9734944246943361,-0.05982171788575775,0.2172606454787276,0.03908681471298281,0.006704908213578165,0.008202191191085522,2359.576234817853
1684908700112434148,149,1684908700112434148,camera_1,164,0,-0.8509079781106312,-0.14237837391872177,1.9510930283794765,0.9736962037310165,-0.05977314774198712,0.21622916115975352,0.03984750322129036,0.005810687958728522,0.007111052760283781,2359.012364313936
1684908700122601985,150,1684908700122601985,camera_1,165,0,-0.8503403773357152,-0.1422957646718469,1.949803084006238,0.973410017487315,-0.05972025263664178,0.21747985461065028,0.04011162074625204,0.002630224567838013,0.0032156626171047937,2359.3607404730283
1684908700132414102,151,1684908700132414102,camera_1,166,0,-0.8513716999938912,-0.142456092664125,1.952193809787295,0.9737661707852532,-0.059534187284720624,0.2162394585245303,0.03841382245482557,0.004272777354344726,0.00523721048745599,2357.0607246810096
1684908700142815828,152,1684908700142815828,camera_1,167,0,-0.8507136626879214,-0.1423653097806692,1.9507105433399705,0.9738590798402262,-0.05951171970221251,0.21568587689352994,0.03919758078634648,0.00867773441132158,0.010615492569071216,2361.4302061832263
1684908700152445793,153,1684908700152445793,camera_1,168,0,-0.8499994076431526,-0.14224147551488267,1.9490759875715546,0.9733627519924904,-0.05966255117813015,0.21792897763927654,0.03888822091099679,0.0029096153448335826,0.0035565827836304175,2360.79746980383
1684908700162705898,154,1684908700162705898,camera_1,169,0,-0.8510389580188192,-0.14242012745181057,1.951500183858633,0.9737319012107729,-0.05914843289946613,0.21646155576604664,0.038626963708446115,0.007046315120533108,0.008630390457008865,2358.199978804332
1684908700172465085,155,1684908700172465085,camera_1,170,0,-0.8513529787522068,-0.1424604356011052,1.9522406616039116,0.973884233015734,-0.059478742565987994,0.21595526018094285,0.03708241451558453,0.0028626618441194296,0.0035100624167837243,2358.227226672927
1684908700182638883,156,1684908700182638883,camera_1,171,0,-0.851204645132621,-0.1424307344452778,1.9519257418530769,0.9736980418011911,-0.05974689151776906,0.21633553676728026,0.03926025825313278,0.0032268520444631577,0.003953125197012057,2357.1474029682577
1684908700192671298,157,1684908700192671298,camera_1,172,0,-0.8514202176012744,-0.1424691148754504,1.952412513916184,0.9740931860776479,-0.05918716767135885,0.21504888611270997,0.03732720993888954,0.005253596464172006,0.00644011376902731,2359.613116491586
1684908700202679872,158,1684908700202679872,camera_1,173,0,-0.8510029109173236,-0.1424139683069492,1.9515035325436292,0.9737462343539098,-0.059062826298098406,0.2166066975990615,0.037568499923338876,0.0058529238449409595,0.007171478956784643,2358.4396571086263
1684908700212715864,159,1684908700212715864,camera_1,174,0,-0.8504317217285553,-0.14231471435937754,1.9502274036954133,0.9734538946857799,-0.05935306269108996,0.2181919164639675,0.035454427932983285,0.0032819854095578194,0.0040212949416406595,2359.16452668747
1684908700222906589,160,1684908700222906589,camera_1,175,0,-0.850368365809383,-0.142305304248303,1.9500673596334552,0.973440660839851,-0.05891741174450504,0.21807717363318768,0.03720705251915461,0.00783001584932208,0.009586028545939788,2358.980368145276
1684908700232643127,161,1684908700232643127,camera_1,176,0,-0.8511768252399176,-0.14244110063729457,1.9519505263031065,0.9738814024126532,-0.05896102381316392,0.21604200025829662,0.03747620351718747,0.004192596359644085,0.0051384759131955044,2358.6212608641954
1684908700242594242,162,1684908700242594242,camera_1,177,0,-0.8514555586348972,-0.14249700140296281,1.9526311726913015,0.9739487046705713,-0.059543702432371545,0.21557541851705145,0.037492760666023944,0.005039464740548283,0.006179858488135472,2357.955196348019
1684908700252373456,163,1684908700252373456,camera_1,178,0,-0.8509173467759502,-0.14237033420177125,1.9513901604910686,0.9737326877430357,-0.05889813141061858,0.21708516264498415,0.035351026809159546,0.0038406054372899234,0.0047093286136401505,2358.8075111834346
1684908700262897014,164,1684908700262897014,camera_1,179,0,-0.8506176986758882,-0.1423365882428292,1.9507269803923097,0.9737096833232607,-0.058399411256013854,0.21729973753106363,0.035493456247560284,0.004084485524799675,0.005004996610899446,2359.8970805826825
1684908700272250890,165,1684908700272250890,camera_1,180,0,-0.8513037706351348,-0.14246316426970107,1.9523289041829246,0.9738863043908279,-0.0587839595750487,0.21613536472173528,0.037086605847089955,0.005321920965798199,0.006525974353946193,2357.746644396567
1684908700281746387,166,1684908700281746387,camera_1,181,0,-0.8514258343688573,-0.1424837057051441,1.952596742730255,0.9741074997676277,-0.058835202131471705,0.21524570337389184,0.036363237832856346,0.0037272832123562694,0.004571478571173741,2359.292930335272
1684908700291804790,167,1684908700291804790,camera_1,182,0,-0.8509605875153924,-0.14240913542515354,1.9515751005572008,0.9740000238544964,-0.05855398638782857,0.21579845021525673,0.0364199546159494,0.005918173003010452,0.007252124235559235,2360.6050216039876
1684908700302941083,168,1684908700302941083,camera_1,183,0,-0.8508386290776473,-0.14237468292069932,1.9512864689871927,0.9737556488915928,-0.058629192064266,0.2168826945518232,0.03639300610756434,0.0026795562589541078,0.003283855523796504,2359.0351916505024
1684908700311708927,169,1684908700311708927,camera_1,184,0,-0.8512405648477612,-0.14244631573144095,1.9522063028931909,0.9736927294089315,-0.0581668008057635,0.21755775977162378,0.034752167462772536,0.003500071936286986,0.0042966964428467844,2356.1449486524793
1684908700321627855,170,1684908700321627855,camera_1,185,0,-0.8501372661972496,-0.14226397272180438,1.949718085293377,0.9733980278448673,-0.05853697178887844,0.21869716412302082,0.03523141674783436,0.004651208815630525,0.005696881864534458,2359.5343188936818
1684908700331302881,171,1684908700331302881,camera_1,186,0,-0.8503805070033621,-0.14230751854670173,1.9502785192569203,0.9733393836311006,-0.05904502913823105,0.21882532042582004,0.03520806650800179,0.002570820215623826,0.0031508709201885474,2357.905410166597
1684908700342121124,172,1684908700342121124,camera_1,187,0,-0.8516404712887025,-0.142516301972349,1.9533340585043089,0.9789541815457664,-0.05444097084232492,-0.19026978629944938,-0.049822681073638186,0.0036033621872775257,0.004429422932948698,2356.368087437704
1684908700352617263,173,1684908700352617263,camera_1,188,0,-0.8498138384134671,-0.1422241578000284,1.9490261192311966,0.9733392708693996,-0.058377467558048846,0.21907778639391623,0.034751382327557034,0.003247218148317188,0.003975521056116373,2360.635566153098
1684908700362587690,174,1684908700362587690,camera_1,189,0,-0.8506238347940437,-0.14234518387237044,1.9508639858382377,0.9733250096383081,-0.058660719790007414,0.21920747948764585,0.03384415020323252,0.0022294740192592144,0.0027357272741286402,2356.3029233661937
1684908700372379302,175,1684908700372379302,camera_1,190,0,-0.8509355820569131,-0.14239855119769668,1.9516193826163009,0.9737762087065482,-0.05855456344687673,0.2172270338085298,0.03381825305060183,0.007261166872922331,0.008910390788187386,2358.722749443261
1684908700382653951,176,1684908700382653951,camera_1,191,0,-0.8506826310279165,-0.14235970345600973,1.9510223253656935,0.9736945175765896,-0.058176207500502626,0.2176235432052448,0.034271106853234846,0.002168037637602538,0.002658681185675359,2359.1292858347306
1684908700392366886,177,1684908700392366886,camera_1,192,0,-0.8496572319699597,-0.14218597655153942,1.9486513367503973,0.9731258378006453,-0.05865653101833643,0.21989543201117942,0.035092935960160554,0.001946769014466554,0.0023829807968697558,2359.6281447591027
1684908700402337551,178,1684908700402337551,camera_1,193,0,-0.8513180923193316,-0.14246379646934762,1.952440031057114,0.9741253031825418,-0.05878675256893593,0.21565982482181512,0.0333893902271939,0.006797319103498012,0.008344857494737545,2360.1894772248347
1684908700412305593,179,1684908700412305593,camera_1,194,0,-0.850619740915766,-0.14234528288854645,1.9508576324823943,0.9738141138270753,-0.058118556228078835,0.21708006385514578,0.03441730683533672,0.002569266071077436,0.0031494342538160407,2360.6011015990516
1684908700422393560,180,1684908700422393560,camera_1,195,0,-0.8511928059161419,-0.14244052512582767,1.9521909507319921,0.9737546776975823,-0.05824506162060269,0.21741406611118727,0.03377076125719003,0.0035970023600384593,0.004416821589642638,2356.9645504525397
1684908700432164430,181,1684908700432164430,camera_1,196,0,-0.8503289313804765,-0.14229290856885815,1.9503626531816625,0.97862117347894,-0.054086928236603354,-0.1918797640157512,-0.05057033887458916,0.0024412399507127702,0.0029926620537322917,2359.828906952987
1684908700442489862,182,1684908700442489862,camera_1,197,0,-0.8512615792564812,-0.1424454361028764,1.9523190532669554,0.9737995794969255,-0.05849631878295829,0.21709102781790648,0.03411810811605316,0.0028265401488170028,0.003470437480275819,2357.172938877949
1684908700452337265,183,1684908700452337265,camera_1,198,0,-0.8505509142888353,-0.14233348433907583,1.9506850239799483,0.9735326234912868,-0.05849892606554257,0.2179635748648306,0.0361107557314169,0.0038892931770533323,0.004765713302918568,2358.360229521175
1684908700462556838,184,1684908700462556838,camera_1,199,0,-0.8515077596417722,-0.1424923432812343,1.9528926474867083,0.9741085156796405,-0.05813519739117118,0.2156949426458107,0.03476478421790585,0.0038613305659964685,0.004740173851761201,2358.4476935650446
1684908700472311019,185,1684908700472311019,camera_1,200,0,-0.8508614769067578,-0.14238960082429472,1.9514077265075065,0.9736585882838545,-0.05848909625548343,0.2173911524341819,0.03618101606708312,0.004581598099321126,0.005616852042646617,2357.8012191250455
1684908700482391595,186,1684908700482391595,camera_1,201,0,-0.8509671014034952,-0.14241599469825603,1.9518005082378242,0.9786185688225816,-0.05415696882324188,-0.19127282798114564,-0.05279606765295909,0.003548024280462414,0.00435166653869999,2356.632403976284
1684908700492233037,187,1684908700492233037,camera_1,202,0,-0.8513716639537185,-0.14246665796169428,1.9525660693091664,0.9737040849807721,-0.05861869124816573,0.21733382044659,0.03507441258522997,0.0031892441329546273,0.003915889534767852,2355.6312161909887
1684908700502332448,188,1684908700502332448,camera_1,203,0,-0.8510475925835413,-0.14240769840554823,1.9517763226344127,0.9737186952207263,-0.058824251153200204,0.2170932245674699,0.03580700910170767,0.004812686471268535,0.005902606458637485,2357.6898277120204
1684908700512297630,189,1684908700512297630,camera_1,204,0,-0.8514954016125567,-0.14247983682390558,1.9528049722932077,0.973872893074156,-0.0583859650497468,0.21693288376933087,0.0332082995666032,0.003970328543800861,0.004878440584029014,2356.7091859525544
1684908700522387742,190,1684908700522387742,camera_1,205,0,-0.8518702800495692,-0.14254950605863229,1.9536608576344607,0.9742197085963531,-0.05853288970910816,0.21489050200638515,0.035943460492585344,0.00331862858729437,0.0040745997591318354,2357.6965258215787
1684908700532396793,191,1684908700532396793,camera_1,206,0,-0.8508337912141608,-0.142385506737713,1.951289291117074,0.9738133838541373,-0.05890066584116325,0.2165779568710692,0.0362242127254078,0.008966600697021931,0.010988516498519521,2359.7470683121355
1684908700542435884,192,1684908700542435884,camera_1,207,0,-0.8508420501759599,-0.14238953278181993,1.951303035773234,0.9739747561746502,-0.058833608572286,0.2159500500708339,0.035740127466167906,0.005085093667730689,0.0062313173424624335,2361.2586036558496
1684908700552383422,193,1684908700552383422,camera_1,208,0,-0.851281445780445,-0.14245021557947363,1.9523210747201023,0.9739623927123725,-0.05866279279997243,0.21593886618861224,0.03641895649348917,0.0058825218584388494,0.00721427810169036,2358.524001169484
1684908700562374353,194,1684908700562374353,camera_1,209,0,-0.8507862308790675,-0.1423718799580515,1.9513029416957604,0.9786998955505968,-0.054382101144453104,-0.19138440274832802,-0.05060742938572518,0.003400238463655114,0.0041716545574720576,2358.5843082256624
1684908700572358846,195,1684908700572358846,camera_1,210,0,-0.8511246106710243,-0.14243784618795613,1.951970795882399,0.9737632533891217,-0.05869631307314196,0.21696106586607244,0.035605688856009295,0.006010541634168476,0.007373360820046073,2357.5882571877446
1684908700582814455,196,1684908700582814455,camera_1,211,0,-0.8506426307570321,-0.1423515886624479,1.9509710729270409,0.9788734730453083,-0.054348267579883515,-0.19001711537847707,-0.052406921704332296,0.007332358101848513,0.00898272779236151,2361.4517459082413
1684908700592580318,197,1684908700592580318,camera_1,212,0,-0.8512225410194961,-0.1424219021306909,1.9522915120181628,0.9789533727791504,-0.054661576191957724,-0.1891881238215594,-0.053574805808468906,0.0015927752247080207,0.001952671101689869,2359.4698528784793
1684908700602734327,198,1684908700602734327,camera_1,213,0,-0.8509957782920266,-0.14240600603359746,1.9515975464204596,0.9737199319779961,-0.05874166932460078,0.21705430561025568,0.03614330878289871,0.009831482078880072,0.012054588534587171,2358.0097906237916
1684908700612412214,199,1684908700612412214,camera_1,214,0,-0.851066833744941,-0.1424022025263146,1.9517818177478334,0.973774258577889,-0.058741485371964254,0.21699895338249972,0.034994077474303206,0.0031619553919881582,0.003878981758184635,2358.2294740305524
1684908700622739791,200,1684908700622739791,camera_1,215,0,-0.8508624702485138,-0.14238128578513398,1.9513207593303472,0.9738141330024138,-0.058722651283226346,0.2166490948313122,0.03606735781560357,0.003434381913393736,0.0042091987392081165,2359.584157261532
1684908700632448911,201,1684908700632448911,camera_1,216,0,-0.849468750714379,-0.14213947632889842,1.948133274467305,0.9732857269179023,-0.05905861404636317,0.21861728941886283,0.037860991164557815,0.003763995715416968,0.004598749836596028,2362.282774693565
1684908700642769336,202,1684908700642769336,camera_1,217,0,-0.8508274142953305,-0.14237267525675895,1.9512538936400088,0.9737767660399785,-0.05882745638202602,0.2169063283856206,0.03535229840633884,0.004798925656359643,0.0058831596395747575,2359.539354418521
1684908700652457952,203,1684908700652457952,camera_1,218,0,-0.8510945090808997,-0.14241843708014953,1.9518434770511233,0.9738733127798063,-0.05853093912846305,0.2165750914722629,0.03521547349968501,0.007165510265622288,0.008789074955764545,2358.8614532301435
1684908700662287950,204,1684908700662287950,camera_1,219,0,-0.850816515374023,-0.14238595766225015,1.9512253668888897,0.9735532061225727,-0.05864617340294369,0.21785768791700932,0.03595565336781371,0.0056279588607139885,0.006900252290136195,2357.308995286933
1684908700671833276,205,1684908700671833276,camera_1,220,0,-0.8507278146726973,-0.14236243418359237,1.9509785627284277,0.9735717153832072,-0.05837311235521994,0.21794166407177668,0.03538538994258781,0.006860507361125201,0.00841099346981127,2357.981907458974
1684908700682544469,206,1684908700682544469,camera_1,221,0,-0.8512404798978526,-0.14244364615254085,1.9521480193723966,0.9741765604824518,-0.059162692056002664,0.2148238071983216,0.03647652308108647,0.005315394257195294,0.006515255004341581,2361.194371407851
1684908700692291498,207,1684908700692291498,camera_1,222,0,-0.8501350420522156,-0.1422606036803827,1.949599829260029,0.9734509725207936,-0.05877307215725374,0.21832189410158437,0.035699868955164346,0.007357256661634892,0.00900796765669906,2360.3421400698126
1684908700702524900,208,1684908700702524900,camera_1,223,0,-0.8507914675376993,-0.14237500889269097,1.9511164857014285,0.9739223810338545,-0.05927287016427071,0.2157817101772421,0.03741892752099945,0.00214286643313244,0.0026238843519881907,2361.2355678930185
1684908700712588071,209,1684908700712588071,camera_1,224,0,-0.851584054429433,-0.14249819736706837,1.9529330865858454,0.9739749193431205,-0.05846171207942901,0.21618357150236803,0.03492489260948907,0.011201597226317972,0.013754369643717656,2357.1748031666507
1684908700722533941,210,1684908700722533941,camera_1,225,0,-0.8511384277153958,-0.14243224962055637,1.9519489859582644,0.9738785767837811,-0.05893980978555241,0.21630669934306146,0.036028160143842684,0.003485756693407893,0.004274528309322198,2358.7938759663375
1684908700732374668,211,1684908700732374668,camera_1,226,0,-0.8507687920816016,-0.14236121134716964,1.951069740416647,0.9736497450490282,-0.0586369797953803,0.21739147368852452,0.03617769663715353,0.007472901197616011,0.009158655516015387,2358.5577883649385
1684908700742577552,212,1684908700742577552,camera_1,227,0,-0.8516013585722153,-0.14251743248400567,1.9529968619828098,0.973902850764237,-0.05908466598664087,0.21603267524434572,0.036771221700004075,0.005945439625065774,0.0072962936695579635,2356.4769526650184
1684908700752265214,213,1684908700752265214,camera_1,228,0,-0.8510338270125872,-0.1424046255218688,1.9516273449251456,0.9738519920442464,-0.058785986591765815,0.21626158220199582,0.03724826754864166,0.008991252921987325,0.011017623187978245,2359.0674992953423
1684908700762338638,214,1684908700762338638,camera_1,229,0,-0.8513406476390376,-0.142460662639749,1.9523801261349245,0.9737645718001066,-0.058962080101183464,0.21699847272952402,0.03489548180138719,0.0030810869648121297,0.00378235742100778,2356.7954083452933
1684908700772272825,215,1684908700772272825,camera_1,230,0,-0.8518696273388489,-0.14255892012767954,1.9535691301425742,0.9742238055015947,-0.058715143558743875,0.21481938906540374,0.03596023904862232,0.0071797636919654914,0.008814591517304874,2357.997594545014
1684908700782436609,216,1684908700782436609,camera_1,231,0,-0.9081316146746751,-0.15200309505554088,2.082753006447922,0.988011508032747,-0.05784164510150224,0.13797921937989382,-0.03807018657853054,3.285367116273847,4.298603345092568,2359.254454300273
1684908700792343139,217,1684908700792343139,camera_1,232,0,-0.8513533313676126,-0.14246025751862426,1.9523792431365794,0.973873151389414,-0.058895923197394597,0.21654883827173882,0.03477004280610452,0.006296481238678098,0.0077287834747672216,2357.7818869365146
1684908700802497625,218,1684908700802497625,camera_1,233,0,-0.8513430190550723,-0.14246443943984943,1.9523634927732767,0.9739267506399891,-0.05913380528475292,0.2159997417370423,0.03624898660525738,0.007251952192746103,0.008895315649121712,2359.052586981445
1684908700812447071,219,1684908700812447071,camera_1,234,0,-0.850946927767542,-0.14237508388538866,1.951569948155849,0.9787659648667392,-0.054733652684521364,-0.19043362683402038,-0.05250187666295744,0.006365205685142428,0.007803907325478956,2359.099353596569
1684908700822394609,220,1684908700822394609,camera_1,235,0,-0.8512885739481353,-0.1424516142490411,1.9522313598395886,0.9741277764785001,-0.058995191359008874,0.21498466418643278,0.03709766372986224,0.008561256516259164,0.01049311262898583,2360.3577980413106
1684908700832243204,221,1684908700832243204,camera_1,236,0,-0.8507539697432388,-0.14235759049923397,1.9509631237240181,0.9737800961066393,-0.05915823858806963,0.2163844773445835,0.03782043360424263,0.003101022681221366,0.0037968588653656673,2360.121042783255
1684908700842520236,222,1684908700842520236,camera_1,237,0,-0.8505863455126408,-0.1423429222776129,1.9505582144383227,0.9734231598804104,-0.05931268778269222,0.2178356005885389,0.03843186168611439,0.006005556497257203,0.0073526701778273106,2357.707051499514
1684908700852354049,223,1684908700852354049,camera_1,238,0,-0.8514513600361227,-0.14247336681259004,1.952513162588037,0.9739390677169134,-0.0594021733429786,0.21579381355672783,0.03670291824207466,0.004513608233537525,0.005536263954723988,2358.11187937099
1684908700862555742,224,1684908700862555742,camera_1,239,0,-0.8512443578504404,-0.14243975198628825,1.9520417984893261,0.973817108970459,-0.05928531246934252,0.21633850447583855,0.036920745970084295,0.007641032978426665,0.009368887366749056,2358.006950920796
1684908700872486829,225,1684908700872486829,camera_1,240,0,-0.8512728179976273,-0.14244958033074684,1.9521152796536054,0.9741778958391057,-0.05920966419588133,0.21444851731348102,0.03851592328314434,0.007071576546877623,0.008660873073259254,2361.0306052649394
1684908700882506608,226,1684908700882506608,camera_1,241,0,-0.851321790663161,-0.14245849206438613,1.9522170165677266,0.973918651798511,-0.05962513990429708,0.2154955493888904,0.03858718134230636,0.00800815288675949,0.009812712920961142,2358.5463379346766
1684908700892245769,227,1684908700892245769,camera_1,242,0,-0.8507956323221642,-0.14236909106714016,1.9509914238936577,0.9739016777767474,-0.059518085641036084,0.2154940304810025,0.03918472064868753,0.008208356390241534,0.010043434460966696,2361.2114990272094
1684908700902304172,228,1684908700902304172,camera_1,243,0,-0.8508524822151672,-0.14238020706112536,1.951126711957086,0.9739619156874689,-0.05946957104616746,0.21525945885674597,0.039050253298556485,0.0047672727378085256,0.005833580283179917,2361.443725527962
1684908700912429094,229,1684908700912429094,camera_1,244,0,-0.8507662607954773,-0.14235927449616742,1.9508573725510046,0.973531005198751,-0.059094791226430764,0.21725026663730565,0.03933839362040128,0.00795150245539844,0.009733056089413073,2357.742867312977
1684908700922423839,230,1684908700922423839,camera_1,245,0,-0.8508330621812412,-0.14238922695382422,1.951034703010392,0.9737679779934674,-0.059036748518904766,0.21620204495302173,0.039335265563629825,0.006668236514087766,0.008160699901073157,2359.5274934920017
1684908700932160854,231,1684908700932160854,camera_1,246,0,-0.8518889462571476,-0.14254783639449312,1.953410705941824,0.9741806515291441,-0.059307750812632495,0.21441070868365356,0.03850580321941605,0.006162923004012555,0.00755808832550904,2357.92738418898
1684908700942431926,232,1684908700942431926,camera_1,247,0,-0.8501789523991787,-0.14226624075668104,1.949472928197048,0.9732669168926782,-0.05980235943437877,0.21824847418586055,0.03927836304946901,0.0022416036808863282,0.0027411376607567005,2358.957592117017
1684908700952469110,233,1684908700952469110,camera_1,248,0,-0.850871530070645,-0.14238082440424765,1.9510295135564761,0.9737480617216956,-0.059914268876730625,0.21610077340979383,0.039056989257963914,0.006394891126547009,0.00782725925831591,2359.8272847332987
1684908700962468385,234,1684908700962468385,camera_1,249,0,-0.8493952223054352,-0.14213371435170125,1.9476399768044195,0.9731724896203955,-0.059363460808917294,0.2187342119892718,0.03958067043724263,0.008540603797882795,0.01042473444238446,2362.2079681382756
1684908700972136497,235,1684908700972136497,camera_1,250,0,-0.8499472161053971,-0.14222107587264332,1.9488989824298124,0.9734859686850098,-0.05970686331382651,0.21718745763991407,0.03987188847474812,0.005248475354164839,0.006410678176113431,2362.2891577917626
1684908700982057809,236,1684908700982057809,camera_1,251,0,-0.8503821768514739,-0.1423065375525227,1.9498915003574944,0.9736302137983408,-0.05978318079944422,0.21653273796090433,0.03979637500643315,0.005246408341918141,0.006413383827779837,2361.2971443526917
