%time,field.header.seq,field.header.stamp,field.header.frame_id,field.image_seq,field.transforms0.fiducial_id,field.transforms0.transform.translation.x,field.transforms0.transform.translation.y,field.transforms0.transform.translation.z,field.transforms0.transform.rotation.x,field.transforms0.transform.rotation.y,field.transforms0.transform.rotation.z,field.transforms0.transform.rotation.w,field.transforms0.image_error,field.transforms0.object_error,field.transforms0.fiducial_area
1682302783970847606,0,1682302783970847606,camera_2,1,0,-1.2406766393600765,0.31020119493603837,1.7443810923421503,0.956808960596064,-0.0025812509699833447,0.28210200153114334,-0.07020264096622339,0.29987743991659954,0.041906796229052024,13002.592281772522
1682302783990800857,1,1682302783990800857,camera_2,3,0,-1.2406154314394526,0.3086082156910512,1.744300064767945,0.9569235892251794,-0.0028848072923540156,0.2815465156552385,-0.07085535825666782,0.31165070715360343,0.043530614682328134,13015.690445414286
1682302784000749349,2,1682302784000749349,camera_2,4,0,-1.2408835661786286,0.3107604797228449,1.7446739344257867,0.9568451768332364,-0.0025865083492928303,0.2820041486867408,-0.07010190916799769,0.27239352953620255,0.0380793680543445,12999.272323084526
1682302784020770311,3,1682302784020770311,camera_2,5,0,-1.2405617426697468,0.31200675095329566,1.7442438090610122,0.9567847215966224,-0.0025499512593083616,0.2822256272704647,-0.07003705861643346,0.2899382244795561,0.04053657851954288,12998.397871507797
1682302784030977964,4,1682302784030977964,camera_2,6,0,-1.2405617426697468,0.31200675095329566,1.7442438090610122,0.9567847215966224,-0.0025499512593083616,0.2822256272704647,-0.07003705861643346,0.2899382244795561,0.04053657851954288,12998.397871507797
1682302784040708541,5,1682302784040708541,camera_2,7,0,-1.2409550959793436,0.31326954754409275,1.7447619210189302,0.956818292496897,-0.00263179850877258,0.2820888249031473,-0.07012648319068468,0.2855151990079321,0.0399601994009499,12989.381282967513
1682302784050595045,6,1682302784050595045,camera_2,8,0,-1.2410508321276652,0.31399637486342385,1.7449108866695626,0.956882821882652,-0.0026120562322100795,0.2818531894699828,-0.07019417307534086,0.283512611000333,0.039691192571662995,12989.719663336407
1682302784060651063,7,1682302784060651063,camera_2,9,0,-1.2411639192240083,0.3140535427920484,1.7450678884487245,0.9569132375683524,-0.002670855728566983,0.2817184407960501,-0.07031815136629888,0.3125872876262292,0.04377116104203094,12989.3013519391
1682302784070592403,8,1682302784070592403,camera_2,10,0,-1.2406054603834198,0.3132913171832381,1.7442730213966398,0.9568221281850037,-0.0025445060725379615,0.28209116814703755,-0.07006791960524389,0.30854933575028554,0.043158462558600896,12996.718442254933
1682302784080867767,9,1682302784080867767,camera_2,11,0,-1.2413216284031856,0.3123982492230316,1.7452792294962807,0.956915077126346,-0.0024851253657880564,0.2817526090488101,-0.0701628577980103,0.2728728068759665,0.0381887614301431,12990.631635569272
1682302784090595483,10,1682302784090595483,camera_2,12,0,-1.2414713652556835,0.3110801872095331,1.7455022114564038,0.9569829676148686,-0.002649908024558682,0.2815834867859494,-0.06990935310792039,0.277332610974554,0.03879053560232172,12995.478332026167
1682302784100865125,11,1682302784100865125,camera_2,13,0,-1.2410290275301463,0.3097097787458485,1.7448960401772693,0.9569977988271189,-0.0025280243270021326,0.28146395460613993,-0.0701916262137041,0.30610148032428697,0.0427693089026017,13009.02402120456
1682302784110781192,12,1682302784110781192,camera_2,14,0,-1.2396001505151437,0.30853007313310843,1.7428651961769042,0.9567048327234946,-0.0028446622636542516,0.2823638529809245,-0.07055795823210011,0.307877273124177,0.042952046422658145,13022.19994621701
1682302784120603084,13,1682302784120603084,camera_2,15,0,-1.240998746669581,0.30866243784428693,1.7448396496312686,0.9569956649167257,-0.0029870584926422745,0.2812971253553889,-0.07086820217100377,0.31862212117994204,0.04452448327704761,13012.42608600459
1682302784130270004,14,1682302784130270004,camera_2,16,0,-1.2398070026901002,0.3088272219424276,1.743167925175114,0.9567643425852937,-0.002639085553381423,0.28228151160931675,-0.07008691881037402,0.3086086041876115,0.043050143477198384,13020.952026205607
1682302784140604734,15,1682302784140604734,camera_2,17,0,-1.241176107230275,0.3101875918291791,1.745077446444943,0.9569780815248067,-0.002828754484672741,0.281461449722905,-0.07045851225399682,0.3096102956915274,0.043289570304623666,13003.719276088987
1682302784150582313,16,1682302784150582313,camera_2,18,0,-1.2409032639312834,0.31146311441802255,1.7446865611456475,0.9569028170506195,-0.0026635908906000047,0.281781583531633,-0.07020714483983381,0.28609972755657503,0.04000441544616905,13000.90956777334
1682302784160954713,17,1682302784160954713,camera_2,19,0,-1.2409944660944348,0.3127457330473586,1.744812551740154,0.9569256616977692,-0.00260747167899664,0.2816986877309283,-0.07023053756310627,0.2936175396316685,0.04107920352349289,12997.057259267196
1682302784170845508,18,1682302784170845508,camera_2,20,0,-1.240353787873559,0.3135278581385319,1.7439374962843468,0.9567616414795391,-0.002374851656395448,0.28240654878337634,-0.06962803082990789,0.29843537567649037,0.0417247082743554,12997.030440981263
1682302784180967092,19,1682302784180967092,camera_2,21,0,-1.241402510784986,0.3141838140241958,1.7453982061880378,0.9569906707748135,-0.0028136979352811663,0.28139922024843295,-0.07053664294163464,0.28706196800339967,0.04021187000262172,12989.212164975708
1682302784190876960,20,1682302784190876960,camera_2,22,0,-1.2403059666546663,0.31362519068540606,1.743856562017424,0.9567450561610388,-0.0025044744922439583,0.28236096818187134,-0.07003505383966668,0.2832405716762878,0.03961235368671913,12996.738272442717
1682302784200765371,21,1682302784200765371,camera_2,23,0,-1.2403377998099518,0.31270463241271945,1.7438952548595958,0.9567587357517323,-0.002629716051689061,0.28222683227424816,-0.07038338795964569,0.28854692506138235,0.04035145595688932,12999.549233756967
1682302784210800886,22,1682302784210800886,camera_2,24,0,-1.241276010160755,0.31169943901381236,1.7452224851802975,0.956960251434166,-0.0027469086588097938,0.2815815824729408,-0.07022352938946115,0.26582895219326014,0.03719005378337539,12996.334037803575
1682302784220829248,23,1682302784220829248,camera_2,25,0,-1.240381291344284,0.310148659689522,1.7439790731855038,0.9568133408828048,-0.002748575216452967,0.2820108796188579,-0.070502055427931,0.2995243688346818,0.04184764158689456,13009.015801493311
1682302784230732917,24,1682302784230732917,camera_2,26,0,-1.2407912554916223,0.30920412366584477,1.7445502190809814,0.9569169357706513,-0.0025969189455391124,0.28178192216970016,-0.0700155867335747,0.2947334224008955,0.04116275835577613,13009.885120405812
1682302784240764617,25,1682302784240764617,camera_2,27,0,-1.2406766696414915,0.30862255372127245,1.7443802190904196,0.9569108701664705,-0.0029517568187817983,0.28164584148713306,-0.07062926915900865,0.3153447858639993,0.04404645415530914,13013.57891379926
1682302784250734329,26,1682302784250734329,camera_2,28,0,-1.2398271198000044,0.30855260066016105,1.743196961405707,0.9567453457589766,-0.002827180749590287,0.2822391515819435,-0.07050823875158291,0.3368093587923795,0.04699879843768818,13020.133489395956
1682302784260759115,27,1682302784260759115,camera_2,29,0,-1.2407881739771633,0.309539724641735,1.7445542367077975,0.9568934110550265,-0.0026133584335891863,0.28186963575815793,-0.06998341714104232,0.30963531823363155,0.04325138558976855,13007.542257131543
1682302784270722866,28,1682302784270722866,camera_2,30,0,-1.2406397643666514,0.310683244915141,1.7443346713516528,0.956812958177686,-0.0025424622251705407,0.28214261967729637,-0.06998600653510693,0.2854777229949832,0.03989282723604911,13002.261381344635
1682302784280803680,29,1682302784280803680,camera_2,31,0,-1.2402323823540142,0.3119106789024173,1.7437867417773592,0.9567076015331815,-0.002561125098652072,0.28251948679970695,-0.06990526006880102,0.2838218957767822,0.03966503212294652,13000.235654091925
1682302784290821552,30,1682302784290821552,camera_2,32,0,-1.240941990299701,0.31327374539553415,1.7447428142556924,0.956919931231836,-0.0026282619969611827,0.28168658030425636,-0.07035629272941668,0.2819358262931928,0.039453794101125254,12996.27492728853
1682302784300852060,31,1682302784300852060,camera_2,33,0,-1.2410875359340832,0.314001152356676,1.7449582269774173,0.9568859962535203,-0.0028246978187921484,0.2818185191038818,-0.07028181518882007,0.29105560400057584,0.04075376154018083,12989.218533695675
1682302784310912370,32,1682302784310912370,camera_2,34,0,-1.24113646754523,0.31404178111877196,1.745035851032472,0.9569039362549454,-0.0026902181272461796,0.28176998458878894,-0.07023742087415302,0.2945640802499838,0.04124449276651974,12989.20312414598
1682302784320816278,33,1682302784320816278,camera_2,35,0,-1.2406477394670863,0.31331662973989544,1.7443509761090228,0.9567838825856861,-0.002558105885939058,0.2822803748996374,-0.06982727307475595,0.30692518420983106,0.04293245496524075,12993.173570102077
1682302784330760478,34,1682302784330760478,camera_2,36,0,-1.2412020563944648,0.31235854056576784,1.7451521827610073,0.956927250845791,-0.0025457589503644676,0.28176954689348266,-0.06992623358600758,0.28050098731182516,0.03924249798923471,12993.75119508104
1682302784340817213,35,1682302784340817213,camera_2,37,0,-1.241382224866155,0.31105328537002364,1.7453590686802307,0.9569519223589118,-0.0025886691210277295,0.2816124803429984,-0.07021914269506237,0.2776762517169118,0.03884348457136545,12995.411068832733
1682302784350753784,36,1682302784350753784,camera_2,38,0,-1.240679700444126,0.3096107691882888,1.744385844420876,0.9568803213315799,-0.0027078948987722886,0.2819120460340907,-0.06998797221282094,0.29866205487633124,0.041715058631867495,13008.7490516752
1682302784360951900,37,1682302784360951900,camera_2,39,0,-1.2395418481343228,0.30850801823028856,1.742778599119513,0.9566661049224447,-0.0028717616175654792,0.28246807646374383,-0.07066471861263085,0.335591689508874,0.046822990203747666,13020.929842633197
1682302784370825529,38,1682302784370825529,camera_2,40,0,-1.2405099256988255,0.308566340399115,1.7441619923402352,0.9569484990681316,-0.0027926908085677,0.2815289419508035,-0.07059196734302749,0.31357178586767986,0.0437799266380202,13019.46361588221
1682302784380947351,39,1682302784380947351,camera_2,41,0,-1.2397792552035836,0.3088254774553653,1.7431382881370021,0.956734224206709,-0.0027134986968400223,0.2823521662924132,-0.07021050737881404,0.3125843739253469,0.04361110144896852,13019.519546567923
1682302784390877246,40,1682302784390877246,camera_2,42,0,-1.2411746631822118,0.31019601596433793,1.7450936917930409,0.9569507539310419,-0.002747486981353316,0.28149796650181086,-0.07068663750273883,0.3011269679409452,0.0421126821810512,13001.80189253413
1682302784400978803,41,1682302784400978803,camera_2,43,0,-1.2410329232662616,0.3114998326313763,1.7448855166162225,0.9568703532266167,-0.0027637270519916173,0.2818752172903779,-0.07026984279371985,0.29548468912253156,0.04133206816003332,12996.031075092033
1682302784410861730,42,1682302784410861730,camera_2,44,0,-1.2412519649691793,0.31283118758819656,1.7452030594792,0.9569317961828311,-0.0026275328751879014,0.28166451832801365,-0.07028323157296176,0.2676268760696985,0.03745978441479242,12991.868838947037
1682302784420887470,43,1682302784420887470,camera_2,45,0,-1.240409901536599,0.313540678929416,1.7440187502928552,0.9567758802501584,-0.0024370136754209852,0.2823092137271727,-0.06982466455792113,0.3104396107373759,0.043411735018878364,12996.845667043239
1682302784431036710,44,1682302784431036710,camera_2,46,0,-1.2410666126473875,0.3140879845868835,1.744920771846884,0.9568866522844576,-0.002679948513919459,0.28185232496296647,-0.07014285044661922,0.29779518477153033,0.04169192392651523,12989.486479867712
1682302784440985202,45,1682302784440985202,camera_2,47,0,-1.2405873742263913,0.31367391907876213,1.7442424765005868,0.9568295086370593,-0.0024693317351137402,0.28207746894407654,-0.07002496209387772,0.30394801340298727,0.04251701878324699,12996.50630543939
1682302784450773239,46,1682302784450773239,camera_2,48,0,-1.2405566154992644,0.3127627295207128,1.744184740522297,0.9568163404073186,-0.002621847384021666,0.282110498749861,-0.07006627677382213,0.27847164520062506,0.038941443500113374,12998.769431278106
1682302784460826396,47,1682302784460826396,camera_2,49,0,-1.240918102286543,0.31158677744428853,1.744709080064062,0.9568727552908192,-0.0026691675672529448,0.28184647460700346,-0.07035602659515215,0.27747864217963075,0.0388087702079552,12998.279897864675
1682302784470772266,48,1682302784470772266,camera_2,50,0,-1.2406588946762738,0.31021830518175897,1.7443553066554305,0.9568856619194523,-0.002697797671483733,0.2817972439876169,-0.070376595411251,0.29946855251910165,0.041845915654870516,13008.028632281115
1682302784480811595,49,1682302784480811595,camera_2,51,0,-1.2406092289271735,0.3091487936334992,1.744314419711926,0.9568836601289076,-0.0027172223807318784,0.2818492701628789,-0.0701944911619973,0.3127220334135927,0.04367300904303506,13011.529848667795
1682302784490736484,50,1682302784490736484,camera_2,52,0,-1.2404096357064238,0.3085536823058298,1.744009531518167,0.9568314775036388,-0.00292371153439719,0.28186374750544124,-0.0708364553831997,0.31859782966785133,0.04449727263598545,13013.96303279651
1682302784501019477,51,1682302784501019477,camera_2,53,0,-1.2398985584363347,0.3085617215982738,1.743301514559189,0.9567122288736191,-0.0027276371323743083,0.2823841446089083,-0.07038086382562524,0.3199172299937345,0.04464559121995672,13016.422423285436
1682302784510890245,52,1682302784510890245,camera_2,54,0,-1.2404988908472416,0.30947481466592275,1.744133018586528,0.9568672495559968,-0.0025260188522093154,0.2819319572972266,-0.07009320516608485,0.3039236383046955,0.04243880028772804,13011.923683809579
1682302784520859718,53,1682302784520859718,camera_2,55,0,-1.240910016668077,0.31075625014358843,1.7447182132289458,0.9569132273079894,-0.002603899205427016,0.2818264329541556,-0.06988674266463683,0.27931040641851723,0.03903556506829104,13003.11474302039
1682302784530847787,54,1682302784530847787,camera_2,56,0,-1.2403821417955436,0.31194389397751693,1.7439872342986746,0.9566916926282986,-0.00252829086736658,0.2825470067344304,-0.07001287015045905,0.2860076075885445,0.03998424831234474,12996.119573154485
1682302784540836811,55,1682302784540836811,camera_2,57,0,-1.240743121329317,0.3132174994439721,1.7444748981414695,0.9568294619621603,-0.0026148333222390093,0.2820372233260223,-0.070182248656247,0.2984644563985057,0.04175848694466028,12994.5803762488
1682302784550801038,56,1682302784550801038,camera_2,58,0,-1.2410984370122802,0.31400319095788853,1.7449611874478408,0.9569186866044147,-0.002648639979355429,0.2817297213065157,-0.07019954462882795,0.28101381624583155,0.03934094053567776,12991.100509343898
1682302784560868501,57,1682302784560868501,camera_2,59,0,-1.241266474371384,0.3140820570472902,1.7452112961936663,0.9569369602150648,-0.0027392492521103283,0.28160262488845733,-0.07045645707681568,0.28846978867659345,0.04040232829948632,12988.679201471154
1682302784570520401,58,1682302784570520401,camera_2,60,0,-1.2409212646142436,0.31337331868298457,1.744705558857529,0.9569019167481605,-0.0025033066934347383,0.28180751418847455,-0.07012118172284307,0.2979697836562991,0.041691748182597944,12995.347049696142
1682302784580954074,59,1682302784580954074,camera_2,61,0,-1.2412663098082914,0.31237898070984527,1.7452380911188063,0.9569403724082228,-0.002524116351206098,0.2817237550646456,-0.06993195495718128,0.279780009877868,0.03914425157593559,12993.266114281258
1682302784590596437,60,1682302784590596437,camera_2,62,0,-1.2412451257787416,0.3110158179561234,1.7451841281414178,0.9569192086916553,-0.0025527584907422594,0.2817515516099346,-0.07010830640101738,0.28773775789886713,0.04024244770980732,12996.113912079014
1682302784601532697,61,1682302784601532697,camera_2,63,0,-1.2407431292339919,0.30962368092967096,1.7444775478934946,0.956863678525866,-0.002591731791599763,0.28195230139786714,-0.07005771464096698,0.30847756058210507,0.0430932367228969,13006.344763652887
1682302784612542629,62,1682302784612542629,camera_2,64,0,-1.2396281627238,0.30853770104104,1.7429126973740852,0.9567261086023735,-0.0028260088581234764,0.28234408236473485,-0.07034902946103262,0.3176544016459957,0.04430936807653107,13022.95504369028
1682302784622727632,63,1682302784622727632,camera_2,65,0,-1.2404215858510534,0.3085355539973327,1.744026110654598,0.9569229769370636,-0.0028363837605602173,0.2815930532839277,-0.07068043208205525,0.3053361250786111,0.04262952808104726,13019.714479607064
1682302784631017446,64,1682302784631017446,camera_2,66,0,-1.2400490371847641,0.3088805517777683,1.743518002475896,0.9567384316247484,-0.0026757759821295865,0.2823633081772184,-0.07010974162217062,0.31350272480631247,0.04375436992785672,13014.120665461985
1682302784641153335,65,1682302784641153335,camera_2,67,0,-1.2411115572161115,0.3101719779135094,1.7450093094206054,0.9569221995885198,-0.0027806416852938173,0.2816659191852685,-0.07040228644017747,0.2965119025320746,0.041458545397320204,13001.226225829452
1682302784652249097,66,1682302784652249097,camera_2,68,0,-1.2412154594196039,0.3115649906813723,1.745151334421775,0.9569392905380407,-0.002596132832494963,0.2816511479525806,-0.07023592510859965,0.2613264727406204,0.036556020415470805,12996.493303301511
1682302784660853862,67,1682302784660853862,camera_2,69,0,-1.2410061540045443,0.31275102674674654,1.7448489443280255,0.9569629795424949,-0.002524211770002845,0.2815802016472514,-0.0702002434496053,0.2948044862714596,0.04124046930079447,12999.183280932251
1682302784671037912,68,1682302784671037912,camera_2,70,0,-1.2402886053426063,0.3135059033693233,1.7438163982498187,0.9567676626062763,-0.0024808315193214424,0.2823227801545049,-0.06988084910564905,0.3007498093065806,0.04205067250092574,12999.008911479263
1682302784680896520,69,1682302784680896520,camera_2,71,0,-1.2412625129576382,0.31412657615419143,1.7452057253562065,0.9569356424086924,-0.002714608813085627,0.2815837058762276,-0.07055085946936021,0.3034490016871132,0.04250347976237674,12988.581781585935
1682302784691017866,70,1682302784691017866,camera_2,72,0,-1.2404305635351078,0.31363749442071487,1.7440539457861368,0.9567884720874078,-0.002528087294399876,0.2822227643694702,-0.06999814088195525,0.3029265234945342,0.04236861548464803,12996.940067035379
1682302784701047897,71,1682302784701047897,camera_2,73,0,-1.2404510699660585,0.31273044669369027,1.7440642484777202,0.9567872970884135,-0.00265226538069794,0.2821663055828958,-0.07023681094909123,0.28144181740935886,0.03935835851625304,12998.997925152067
1682302784710960388,72,1682302784710960388,camera_2,74,0,-1.2410885944872534,0.3116213392974273,1.744978843543298,0.9568721887796783,-0.0027440112286913673,0.2818792070122763,-0.07022960484364736,0.2873739044880494,0.040201801153524404,12994.53901775042
1682302784720794200,73,1682302784720794200,camera_2,75,0,-1.2405341356592972,0.3101813409879603,1.7441958694280093,0.956809467563869,-0.0025494157414072726,0.28207332172968846,-0.07031205037475956,0.29249596857698634,0.04086864828697962,13005.561602621343
1682302784730879783,74,1682302784730879783,camera_2,76,0,-1.2406725874620066,0.30916941255499436,1.7443848149645114,0.9568995827685881,-0.002739490446167457,0.2818025947817944,-0.0701639598629171,0.29906680155545473,0.04176738831739915,13011.308534813346
1682302784741362571,75,1682302784741362571,camera_2,77,0,-1.2404833384753156,0.3085679543171985,1.7441207261910683,0.9568596427219209,-0.002894400982375876,0.2817591262961964,-0.07087341759669222,0.3173861238756217,0.04433074314830755,13014.247984201647
1682302784750743627,76,1682302784750743627,camera_2,78,0,-1.2397162911534472,0.3085229441196618,1.7430406490080919,0.9567967397516577,-0.0028371516471070407,0.28199187934624087,-0.07079921859671263,0.32720631925622,0.045653446437233125,13025.80636862246
1682302784760850906,77,1682302784760850906,camera_2,79,0,-1.24091646776388,0.3095768577643444,1.7447502474586987,0.9568819445916621,-0.0026329714255791457,0.2818740202710435,-0.0701216676369779,0.29127083730418235,0.04069996064589355,13004.006886183746
1682302784770799875,78,1682302784770799875,camera_2,80,0,-1.2413295092013314,0.31086916481967464,1.745299167424328,0.9570106558019734,-0.002588446186607536,0.2814438201519261,-0.07009479813870699,0.27502694458235055,0.038458113641126036,13000.708431204781
1682302784780816555,79,1682302784780816555,camera_2,81,0,-1.2404908050856456,0.3119825324186571,1.7441427718558709,0.9567821756414352,-0.002484879001599089,0.28225144282376075,-0.069970113442059,0.2694752307725139,0.03766908150535122,12999.666543851137
1682302784790783166,80,1682302784790783166,camera_2,82,0,-1.2408789124394668,0.3132394263105349,1.7446526248772185,0.9568935714708906,-0.0026791008899964015,0.2817968635009309,-0.07027121044313013,0.289151182922069,0.040459993613200955,12995.992014142681
1682302784800847053,81,1682302784800847053,camera_2,83,0,-1.2412475987519476,0.3140464908881251,1.7451913403175878,0.9569343067119971,-0.002693823472442828,0.2816951722892502,-0.07012350434525151,0.28090980008710176,0.03933293217012597,12988.914700540248
1682302784810796260,82,1682302784810796260,camera_2,84,0,-1.2413056625952652,0.31409063465655257,1.7452770105306914,0.9569627808906432,-0.0026309169666576962,0.2815662131597113,-0.0702551199049682,0.2885453864582814,0.04040643850979282,12989.444200075697
1682302784820700883,83,1682302784820700883,camera_2,85,0,-1.2406143154210933,0.31330438848292125,1.744290429772096,0.9568510664013152,-0.002484041033774579,0.28195072017485506,-0.07024000042489324,0.29691103694494814,0.041532338300223445,12998.340208503418
1682302784830746889,84,1682302784830746889,camera_2,86,0,-1.2412971532186985,0.31238801376613073,1.745262113694799,0.9569558999289712,-0.002724711486002296,0.2816590609833258,-0.06997252964158199,0.2758319760323502,0.03859451530032096,12993.800364620747
1682302784841325044,85,1682302784841325044,camera_2,87,0,-1.2414523708851872,0.3110688876225244,1.745468357136497,0.9569551151388831,-0.0025011647593326234,0.28167913479911955,-0.06991077744663639,0.28966747486265376,0.04051604424944212,12994.121465682285
1682302784851022958,86,1682302784851022958,camera_2,88,0,-1.240994573910897,0.30968134467795444,1.7448187941875364,0.9569678072628447,-0.0026674641195253623,0.28160877800870265,-0.07001426030573522,0.2911637463257648,0.040678724705912106,13007.9464289688
1682302784860955238,87,1682302784860955238,camera_2,89,0,-1.2394566930362196,0.30849247605281344,1.7426678744806938,0.9566972154368361,-0.0027932506799519014,0.28239036133199075,-0.07055720766038583,0.3231818085187114,0.045077426167744516,13024.689981864765
1682302784871069908,88,1682302784871069908,camera_2,90,0,-1.2407281136514952,0.3086145875051799,1.7444621601809178,0.9569915261214956,-0.003012143951064347,0.28133167933335074,-0.07078581866409152,0.3095444355276413,0.04323562704653897,13017.763227664169
1682302784880924701,89,1682302784880924701,camera_2,91,0,-1.23994996492885,0.30886372117619665,1.7433695439470114,0.9567681352585377,-0.002648191023091685,0.2822561226169472,-0.07013703503465718,0.31290453381370753,0.04366078303622778,13018.187382038683
1682302784890981674,90,1682302784890981674,camera_2,92,0,-1.2409639366219452,0.31013175881996974,1.7447806099858185,0.956957395848796,-0.0027413918737439376,0.2815091237752121,-0.07055239565172634,0.29680452961474657,0.04148888908810566,13006.76572074043
1682302784900872468,91,1682302784900872468,camera_2,93,0,-1.2408467133207508,0.3114565301512711,1.7446282650413547,0.9568735986772482,-0.002573578167111735,0.2818651467465942,-0.07027326589387552,0.2785177901969292,0.0389452177099563,13000.006677741418
1682302784910802602,92,1682302784910802602,camera_2,94,0,-1.240744293295275,0.31268715255197166,1.744478685065993,0.9568505904321363,-0.0026241353258486463,0.2819237766614172,-0.0703494538459765,0.28118155227275565,0.03933508672162511,12997.251004481222
1682302784921121597,93,1682302784921121597,camera_2,95,0,-1.2404897136986548,0.3135575170743721,1.744135431997538,0.9568387922024238,-0.0023764464619140903,0.2820942307447719,-0.06983353935850552,0.3039631730061956,0.04250395047638439,12999.259958103768
1682302784930808544,94,1682302784930808544,camera_2,96,0,-1.241340583255048,0.31415718900072637,1.7453179249503799,0.9569406593102333,-0.0027121199171208474,0.2816303818408485,-0.07029613779311904,0.2941401661373675,0.04119720488255381,12987.223154440522
1682302784941079378,95,1682302784941079378,camera_2,97,0,-1.2403743466815689,0.31362522034695134,1.7439674158215974,0.9567953164334915,-0.002486450953451177,0.28219705768134806,-0.07000971824383326,0.2926169036654756,0.04092180353860958,12998.596649306826
1682302784950766563,96,1682302784950766563,camera_2,98,0,-1.240687922039128,0.31278412058500554,1.7444073211908466,0.9568402638111454,-0.0025926379973861685,0.28196264112986774,-0.07033531676975499,0.2869734729174524,0.04014372052552347,12997.491426425055
1682302784960911989,97,1682302784960911989,camera_2,99,0,-1.2408120587400417,0.3115662117688488,1.7445761775270874,0.9568439168252341,-0.0024298407976427955,0.2819944734937346,-0.07016360614473827,0.27452682121656835,0.03838572479051564,12998.41438920587
1682302784970881700,98,1682302784970881700,camera_2,100,0,-1.240508790204987,0.31018429481973975,1.7441734983272266,0.9568106768317427,-0.0026298343438717806,0.2821109248391582,-0.07014156227588055,0.3049469720572233,0.04260297940476319,13006.087924290456
1682302784981010198,99,1682302784981010198,camera_2,101,0,-1.2409137935451404,0.3092469149542139,1.744738421704675,0.9569619525695459,-0.0026301604661671633,0.2815778817835614,-0.0702196559411052,0.29927023738855496,0.04180608280462672,13010.211869219318
1682302784990860939,100,1682302784990860939,camera_2,102,0,-1.240608533646133,0.30860243593339104,1.7443011302037172,0.9568798437312822,-0.002848852861510302,0.2817617485675427,-0.07059154157780896,0.3290338416700251,0.04595542667521678,13012.907522433903
1682302785000940799,101,1682302785000940799,camera_2,103,0,-1.2398937719462415,0.3085793640670435,1.7432993613414385,0.9568226525708866,-0.002818703528011525,0.28199999576268897,-0.0704163960131244,0.31717507500434294,0.044251893108166906,13023.68913495028
1682302785010926246,102,1682302785010926246,camera_2,104,0,-1.2409119164167894,0.30956594851606956,1.7447122484125859,0.9569230355836021,-0.0026073979193937686,0.2817473711727334,-0.0700708518772816,0.30976479552919045,0.043276648066551196,13007.010454049328
1682302785020725011,103,1682302785020725011,camera_2,105,0,-1.241156008978571,0.31080355923418956,1.7450663244877491,0.9570010545417118,-0.002583155571729816,0.2815349811171773,-0.06985959719819629,0.29818221274763346,0.04167879752365104,13003.754653397482
1682302785030861139,104,1682302785030861139,camera_2,106,0,-1.2405900126995477,0.31199827215138054,1.744284376524113,0.9567829515587887,-0.002480471557175502,0.2822229297387489,-0.0700745945188697,0.27208498679101467,0.03804243418968659,12997.674227975778
1682302785040767908,105,1682302785040767908,camera_2,107,0,-1.240651211065773,0.31317361343540684,1.7443424386403894,0.9567803393053115,-0.0025102951957695708,0.28219021286539153,-0.07024076095706919,0.28781674592755735,0.04026845086304965,12993.28040418354
1682302785050750732,106,1682302785050750732,camera_2,108,0,-1.2412129528689813,0.3140308464893055,1.7451403784496853,0.9568775855749333,-0.0026064558701880385,0.2818579952517956,-0.0702464456376383,0.28108995786169544,0.03936435249037317,12985.9395277889
1682302785060679197,107,1682302785060679197,camera_2,109,0,-1.2411144635601659,0.3140538496661101,1.745001938797619,0.9568989676766919,-0.0026741339363166006,0.2817765648285398,-0.07027931545198542,0.2805555326049216,0.03928300673737734,12989.325245220214
1682302785070679187,108,1682302785070679187,camera_2,110,0,-1.2409822364276506,0.31339451645724015,1.7447939752605426,0.9568798262021194,-0.002456785232713773,0.281862270286371,-0.07020415231832738,0.30261545605026186,0.04235043485760327,12992.627839199726
1682302785080683231,109,1682302785080683231,camera_2,111,0,-1.2413802302357826,0.3124156416333582,1.7453648872233085,0.9569256651303492,-0.002391917738411488,0.281751495745874,-0.07002602937004578,0.27233653445728123,0.038112144582550384,12990.004495148547
1682302785090578794,110,1682302785090578794,camera_2,112,0,-1.2412131261554546,0.3109930444920254,1.7451387483089844,0.9569170738816075,-0.002553678770624485,0.2817331595483717,-0.07021124731473212,0.2898752417531796,0.040542324843085537,12996.653226257531
1682302785100923299,111,1682302785100923299,camera_2,113,0,-1.2409253377497609,0.30966253471577676,1.744755355988,0.956948686430211,-0.0026731971375915146,0.28166828396951,-0.07003601475118733,0.30354652513051406,0.04240764072872426,13008.002857463433
1682302785110796689,112,1682302785110796689,camera_2,114,0,-1.239684497119718,0.30854148551283794,1.7429891773837778,0.9567764381111582,-0.002800950294674949,0.2821299502508238,-0.07052441651116027,0.3105614344240166,0.043322913009990485,13025.05378123745
1682302785121164560,113,1682302785121164560,camera_2,115,0,-1.2404352408542678,0.30854563125947604,1.7440444316112624,0.9568759876915006,-0.0028709199131663663,0.28173515205008554,-0.07074889467392892,0.32328897836850956,0.045145394421871085,13016.390972782625
1682302785131053686,114,1682302785131053686,camera_2,116,0,-1.239943246071988,0.3088611909991802,1.7433341684174073,0.9567648073604291,-0.0026560719906448186,0.2822569558137122,-0.07017876867627196,0.3019077437929809,0.042126824625554456,13018.247556745546
1682302785140805482,115,1682302785140805482,camera_2,117,0,-1.2413723312065554,0.31022745806548707,1.745363320399432,0.9569977512491196,-0.0028302164690920534,0.28138638055047305,-0.07049112582141757,0.3060280134086497,0.0428010364989037,13000.847791732522
1682302785150607585,116,1682302785150607585,camera_2,118,0,-1.2408980264726746,0.3114623456533451,1.744697705567853,0.9569001574813206,-0.0026504873281186212,0.28175846101589663,-0.07033657068055633,0.29608220304362476,0.041404069496967295,13000.78828997747
1682302785160730361,117,1682302785160730361,camera_2,119,0,-1.241315882645504,0.31281431749107397,1.7452780573252138,0.9569302338719067,-0.002573284443760687,0.28172077965393416,-0.0700807250262791,0.30154711479553953,0.04220543600254641,12990.61255591549
1682302785170718431,118,1682302785170718431,camera_2,120,0,-1.2403920336906447,0.31353709828170984,1.7439667668665098,0.9567860774324841,-0.002473341426757388,0.2822619783766485,-0.06987460322926735,0.2927767432993278,0.04094049637260984,12998.00357828988
1682302785181049108,119,1682302785181049108,camera_2,121,0,-1.241335329227208,0.3141540911210964,1.7452831823157793,0.9569578575698044,-0.002607887620030242,0.2815742808580021,-0.07029069722851067,0.294516590249259,0.04124603489394725,12988.561081900963
1682302785190979957,120,1682302785190979957,camera_2,122,0,-1.2402092251395138,0.31357607754255845,1.7437142364074874,0.9567357336298428,-0.0025804976853663984,0.2824635228467823,-0.06974550371491846,0.2900833571329713,0.040556226844246875,12998.300972634923
1682302785200964689,121,1682302785200964689,camera_2,123,0,-1.2404482793006124,0.3127163236217627,1.7440563902905977,0.9568841250795326,-0.002736231371250718,0.28186208767796644,-0.07013592330951952,0.30251647770637646,0.04229227646051254,13005.475301300405
1682302785211136341,122,1682302785211136341,camera_2,124,0,-1.2410131684141366,0.3116209190905516,1.7448522004175593,0.956853379997889,-0.0026548719539278252,0.2819452636096581,-0.07022413523571608,0.2782756430679001,0.038925204830590726,12994.882430052148
1682302785221077442,123,1682302785221077442,camera_2,125,0,-1.2404667579362798,0.3101582936224245,1.7440885870065101,0.9568440317233493,-0.002672105198262194,0.2819841520001863,-0.07019470656646107,0.3254686837317422,0.04546428959566249,13009.371333128773
1682302785231000661,124,1682302785231000661,camera_2,126,0,-1.2404999439613027,0.30911354940635366,1.7441446757270471,0.9568341030058547,-0.002653003918950949,0.28202712708310246,-0.07015811061053079,0.30139151570620015,0.042086613092058016,13010.643694283674
1682302785241105318,125,1682302785241105318,camera_2,127,0,-1.2403515814508772,0.3085373817672445,1.7439307911697517,0.9568900181569903,-0.002940822474393413,0.28169387484230957,-0.07072061644961944,0.32905125204706565,0.045942354875076294,13019.033020924307
1682302785250833749,126,1682302785250833749,camera_2,128,0,-1.2396692191480292,0.30850946926669565,1.742981384570664,0.9567297638816445,-0.0027771744194157646,0.2822366015135308,-0.07073151328304396,0.3206178842810914,0.04473603924869118,13022.386437108507
1682302785261066436,127,1682302785261066436,camera_2,129,0,-1.2410224312520468,0.3096006085197929,1.744877839957198,0.9569539601272881,-0.0026947002455666906,0.2815960097970912,-0.0702534273444643,0.30283569172024727,0.04231904886751892,13006.64433309645
1682302785271050453,128,1682302785271050453,camera_2,130,0,-1.2412242596554828,0.3108277899541724,1.745163037439155,0.9570012168701255,-0.002664578689080233,0.28150863377126534,-0.069960417678458,0.2842501169652678,0.0397392401129119,13002.306858989643
1682302785281010866,129,1682302785281010866,camera_2,131,0,-1.2406774674575236,0.31200881574344785,1.744402690323407,0.9568315232088161,-0.0024697500968968926,0.28206295150112437,-0.07005589139273019,0.2880515690194443,0.040274496760505235,12999.112462863093
1682302785290854692,130,1682302785290854692,camera_2,132,0,-1.2407549129941926,0.31319432146847037,1.7444797110377208,0.9568405726341148,-0.002628852907989714,0.2819603077997361,-0.07033912509468356,0.2910070176003501,0.040718825467345045,12995.087978582364
1682302785300859451,131,1682302785300859451,camera_2,133,0,-1.2409417432140737,0.3139647477307985,1.7447540745786376,0.9568486639186293,-0.0026804610818263437,0.2819420722822522,-0.07030019461361448,0.2924381401971914,0.04094102600995896,12989.794288973317
1682302785311038255,132,1682302785311038255,camera_2,134,0,-1.2411104678100366,0.3140303145760054,1.7449898307997656,0.9569102681592601,-0.0026502410646944688,0.2817510226433886,-0.070228741645261,0.2813699325779453,0.03939366148323678,12990.215378537767
1682302785320900201,133,1682302785320900201,camera_2,135,0,-1.2408444684298248,0.313366320546471,1.7446139916812837,0.956856501961536,-0.002472886927016727,0.28199345699892187,-0.069994354729338,0.3083803823683411,0.04314500861895819,12993.866975117244
1682302785330942630,134,1682302785330942630,camera_2,136,0,-1.241109305873174,0.31232473120411114,1.744995594764602,0.9568986429892054,-0.0025468316257858713,0.281855553783912,-0.06997104755005136,0.2769617173471488,0.03874498645304501,12993.993243349487
1682302785341051578,135,1682302785341051578,camera_2,137,0,-1.2415210180211516,0.3110612797686033,1.745572936966278,0.9569824788862578,-0.002594047322531437,0.2815221785484338,-0.0701645851448251,0.30310682608978823,0.04240559030553495,12994.527004081525
1682302785350974559,136,1682302785350974559,camera_2,138,0,-1.2406960651807857,0.30960852662903254,1.7444227204393672,0.9568628627591318,-0.002523346491776767,0.28196458546060055,-0.07002190472211586,0.2993821046547964,0.041817821734210246,13007.22927933745
1682302785360922574,137,1682302785360922574,camera_2,139,0,-1.2398195007167456,0.3085886574586882,1.743174919852283,0.9567606880872292,-0.002830673889875086,0.2821760676078809,-0.0705523910688601,0.308437145606149,0.04303888844910504,13021.202323490525
1682302785370937585,138,1682302785370937585,camera_2,140,0,-1.2408517488968658,0.3086447044069799,1.744634378002716,0.9569402293916893,-0.0028556921389774003,0.28154470147141175,-0.07063868251575847,0.3083198280655779,0.04307315191243878,13011.794210266093
1682302785380975961,139,1682302785380975961,camera_2,141,0,-1.2399603895495503,0.30885256239353165,1.7433826443381253,0.9568016595055521,-0.0027967558679795218,0.28209296819798657,-0.07033007761467432,0.3149015440721996,0.04394313848018001,13020.27724562259
1682302785390954494,140,1682302785390954494,camera_2,142,0,-1.2409163677490564,0.3101166014811182,1.7447283106278602,0.9569035089268564,-0.002705514828336941,0.2817663466291835,-0.07025724660293885,0.28486908809281886,0.039815003056121116,13004.137524662776
1682302785400893449,141,1682302785400893449,camera_2,143,0,-1.240807637162652,0.31143097137650066,1.7445871224788312,0.9568380629663159,-0.0027378137228360943,0.28197481618201886,-0.07031094277567695,0.2827030290500261,0.03953432008929167,12998.512540540196
1682302785411032915,142,1682302785411032915,camera_2,144,0,-1.241089654138553,0.3127519946379242,1.7449583961999604,0.956903648735025,-0.0026390344966732092,0.2817960610311253,-0.07013859509473962,0.29892304982058704,0.041828189518272885,12993.604002200997
1682302785420670270,143,1682302785420670270,camera_2,145,0,-1.240357516934851,0.31352534736895793,1.743924177892991,0.9567378885423388,-0.0024524372875370146,0.28247788003774066,-0.06966236766204607,0.30045256443554536,0.04201077947404971,12995.570899146378
1682302785430984973,144,1682302785430984973,camera_2,146,0,-1.241219132199229,0.3141380576356677,1.745139741284986,0.9569708425267879,-0.0026308967090412473,0.281492051986407,-0.0704422430403669,0.28562323754886165,0.039996459528164795,12991.69566123584
1682302785440980195,145,1682302785440980195,camera_2,147,0,-1.240312290289664,0.3135826967290607,1.7438559882542632,0.9567534217202813,-0.002516298895868989,0.28238716104047357,-0.0698143935438966,0.3009770769276656,0.04208556014379295,12997.32279046252
1682302785451099634,146,1682302785451099634,camera_2,148,0,-1.2411174260657367,0.312875728177439,1.744979071313548,0.9569214146953182,-0.0027415569174826238,0.2816828424176599,-0.07034675721514858,0.29225762822898105,0.04090351717058596,12993.972570659591
1682302785461062431,147,1682302785461062431,camera_2,149,0,-1.2412653222718553,0.31166326732699123,1.7452115236909578,0.9569665616140296,-0.0025470848239719656,0.2815599000976717,-0.07023200814806911,0.2726718841586262,0.03814420408217538,12997.010099518113
1682302785470949172,148,1682302785470949172,camera_2,150,0,-1.2408269672750585,0.3102520502693918,1.7445969972902846,0.9568967546188722,-0.002774414030945078,0.2817633724436615,-0.07035840799669398,0.28694623807678,0.04010617898205884,13005.149788422976
1682302785481009960,149,1682302785481009960,camera_2,151,0,-1.240715641940402,0.3091662086009399,1.7444386045817115,0.9569163059701692,-0.0026115305170307523,0.28174165224059594,-0.07018550184691554,0.2997802850441076,0.041867173232899395,13011.527142827399
1682302785490912914,150,1682302785490912914,camera_2,152,0,-1.2404708944830838,0.3085738935756735,1.7441048263778245,0.9568928194090764,-0.0028801864794143093,0.28165985245851294,-0.0708206481348577,0.3103978036670014,0.04334847597127209,13016.600656198338
1682302785501012325,151,1682302785501012325,camera_2,153,0,-1.2396679252559117,0.3085053425583816,1.7429713712411243,0.956711744573138,-0.0027971171039005947,0.28230532305592515,-0.07070020159815509,0.3249484550906345,0.04534155785184678,13021.268852666026
1682302785510977506,152,1682302785510977506,camera_2,154,0,-1.240973526571381,0.3095903033872966,1.744804570919343,0.9569948709453727,-0.002674170887939074,0.2815307639602897,-0.06995780684274643,0.2973623191937804,0.04153765032003418,13010.349631360034
1682302785520924091,153,1682302785520924091,camera_2,155,0,-1.2408866803215415,0.3107425521570158,1.7446756128483267,0.9568471903722251,-0.0026245822201932437,0.282012349394348,-0.0700399931041452,0.2949420521617867,0.04123036003546861,12999.371505181538
1682302785531028747,154,1682302785531028747,camera_2,156,0,-1.240512805787106,0.3119844394226487,1.7441929561172165,0.9568357658141505,-0.0024794597610898,0.28207973398727126,-0.06992991642931798,0.2974819474038668,0.041578777887455155,13002.710200644797
1682302785540986537,155,1682302785540986537,camera_2,157,0,-1.2406992981090927,0.31319052417565096,1.7443911838076391,0.956812780774578,-0.0026151661981224763,0.2820488205127256,-0.07036281901371019,0.28028812661068514,0.03921868316715733,12994.46332041314
1682302785550937175,156,1682302785550937175,camera_2,158,0,-1.240880640345308,0.31392884457756187,1.7446525174717777,0.9568359454608005,-0.002598772410761072,0.28201902363791514,-0.07016758626609627,0.2981646161642857,0.04173506214019174,12990.33574756352
1682302785560884952,157,1682302785560884952,camera_2,159,0,-1.2411560689137529,0.3140533657792163,1.7450652365667298,0.9569294093028496,-0.002709249603018701,0.281661661847581,-0.07032406290272711,0.27961499645607546,0.0391522902379227,12990.422903330998
1682302785570984125,158,1682302785570984125,camera_2,160,0,-1.2407949230360553,0.3133561523893174,1.7445412354650276,0.9568605421203327,-0.002603636526877178,0.2819221090360349,-0.07022142441372843,0.31991672288859263,0.044763359491652666,12995.217988040768
1682302785580915927,159,1682302785580915927,camera_2,161,0,-1.2410454616192155,0.3122971235846018,1.744895878756413,0.9568840653842768,-0.00254485560242297,0.28193702888947225,-0.06984211383254871,0.27899258176330477,0.039023046542216965,12994.404805971077
1682302785590894937,160,1682302785590894937,camera_2,162,0,-1.2411734995840444,0.31099240537617623,1.7451099842828872,0.9568914181250783,-0.0024343367909657287,0.28186164258904767,-0.07004928522096991,0.2940104685840197,0.04111585665082304,12995.645152004668
1682302785600975513,161,1682302785600975513,camera_2,163,0,-1.240645326275287,0.3095876716767852,1.7443363814788282,0.9569103602417066,-0.002576876575457953,0.2817920108975671,-0.07006557473900836,0.30759697791654617,0.04295767393780603,13011.53749686945
1682302785612597703,162,1682302785612597703,camera_2,164,0,-1.2398614152497336,0.30858839105614333,1.7432334724963168,0.9567579458401859,-0.0028093871691999292,0.2822094232900395,-0.07045695013059101,0.32074688450666144,0.04475666896069554,13020.198916259222
1682302785622318744,163,1682302785622318744,camera_2,165,0,-1.2407749420117544,0.30860405469726265,1.7445335188033253,0.9569742236502132,-0.0029247588220484354,0.28139493619700806,-0.07077196434737774,0.33032369799911976,0.04614221461900456,13015.690129430495
1682302785630981206,164,1682302785630981206,camera_2,166,0,-1.2398186465947114,0.3088311870581925,1.7431754631273353,0.9567319499267317,-0.0026181053940220293,0.2823566254209436,-0.07022718557963575,0.29954970127437264,0.04179437639647017,13018.620415201876
1682302785641389131,165,1682302785641389131,camera_2,167,0,-1.2410528638248581,0.31016843472555733,1.7449418659932334,0.9569333120822368,-0.0026772469510929283,0.28163597611176233,-0.07037503488921479,0.280703604046721,0.03924185753604634,13003.05208314396
1682302785651327133,166,1682302785651327133,camera_2,168,0,-1.2410233215839954,0.31149940634823764,1.7448699918692703,0.9569198992143814,-0.0026181043915640316,0.2817111741759913,-0.07025856788547248,0.27005828084656974,0.03776822014921029,12999.354596833005
1682302785661073923,167,1682302785661073923,camera_2,169,0,-1.241117882955948,0.3127653317649858,1.7449955254547163,0.9569490406659213,-0.002715471091640655,0.2815951478468208,-0.07032305805673145,0.29764001263538375,0.04165129024212539,12996.028222096615
1682302785671530485,168,1682302785671530485,camera_2,170,0,-1.240396301646101,0.3135262844934773,1.7439899182289957,0.9567827559053306,-0.002500848087095946,0.28229200959846584,-0.06979774407461499,0.3031540458323434,0.042390589792173104,12997.66593900416
1682302785681032419,169,1682302785681032419,camera_2,171,0,-1.2411058263267525,0.3140997715931867,1.7449768007729398,0.9568639428057097,-0.002635084615652633,0.2818284719531667,-0.07054901617969736,0.28680156922200695,0.040168437523195634,12987.134486139052
1682302785690890312,170,1682302785690890312,camera_2,172,0,-1.2403872687264843,0.3136210817710865,1.7439548457481053,0.9567961121004536,-0.002491927913378843,0.2821712342518442,-0.07010267274164254,0.29635547194629913,0.04144739354648897,12998.561151166916
1682302785700606822,171,1682302785700606822,camera_2,173,0,-1.240532855347052,0.31273404374672514,1.7441702934537662,0.9568110717976284,-0.0026985450288059686,0.2821092094442481,-0.07014046397724144,0.3008034657686949,0.04206632545988653,12998.965107931757
1682302785710995435,172,1682302785710995435,camera_2,174,0,-1.24119663248779,0.3116614452174772,1.7451221881554952,0.956910847915679,-0.0026643932844240036,0.28169930839800694,-0.07042747899653032,0.2856416304712184,0.039966843604134765,12994.816139226312
1682302785721058607,173,1682302785721058607,camera_2,175,0,-1.2406277091909166,0.3102112376260815,1.7443315130587889,0.9568408747629132,-0.002623093844646844,0.2819895934772849,-0.07021772519913076,0.30479787691729143,0.04258894844278707,13005.588574720776
1682302785730922460,174,1682302785730922460,camera_2,176,0,-1.240622396095139,0.30914470444313874,1.7443102162821114,0.9568328812667302,-0.0025553187672886966,0.28202006384158357,-0.07020677505479136,0.2978568628896027,0.04160165368410338,13008.00768484501
1682302785741024732,175,1682302785741024732,camera_2,177,0,-1.24024876159297,0.30851094375315835,1.743773015369095,0.9568439625294772,-0.002922871628558971,0.2818540389221155,-0.070706357108976,0.31427451653871685,0.04387652061782668,13018.17366548325
1682302785750994920,176,1682302785750994920,camera_2,178,0,-1.239864700182046,0.308554405172096,1.7432566671074858,0.9567776410973525,-0.0028081914121309325,0.2821170166246806,-0.07055953860370907,0.3329655884299427,0.046462735339293654,13021.414708050905
1682302785760999441,177,1682302785760999441,camera_2,179,0,-1.2409408255488943,0.30957230798812263,1.7447689091174572,0.9569166202601894,-0.002586167896923665,0.28179647494457105,-0.06996170605580505,0.3064148857956752,0.04280822770002516,13005.901235324334
1682302785771005153,178,1682302785771005153,camera_2,180,0,-1.2411047570565605,0.3107970939778464,1.745009856291883,0.9569693743371317,-0.0026202609370723114,0.28160866246765615,-0.0699950858032052,0.29475262068444863,0.0412041032071145,13002.650901254267
1682302785781023979,179,1682302785781023979,camera_2,181,0,-1.2404966266246193,0.31196329359354213,1.744140175507268,0.9567992704763622,-0.002522095113426351,0.28216465068148316,-0.07008498382632714,0.2864950751536526,0.04004988946786426,13000.81097040349
1682302785791008710,180,1682302785791008710,camera_2,182,0,-1.2410317658406864,0.3132818622003405,1.7448583238983475,0.9568618906670103,-0.0026101862677278317,0.28191436837295275,-0.07023388086729405,0.294974367658142,0.04128662910470701,12990.780624707228
1682302785801053524,181,1682302785801053524,camera_2,183,0,-1.241062941756611,0.31400066254306913,1.7449099960431893,0.9568737275661712,-0.002734317661683221,0.2818363187768167,-0.07038098051944502,0.28728997154394165,0.04022784131752077,12988.969679388447
1682302785811008214,182,1682302785811008214,camera_2,184,0,-1.2412435230702494,0.3140811551456015,1.7451773933916928,0.9569448658596241,-0.002675107063129897,0.2815989604430741,-0.07036613521067181,0.28042058419669047,0.039269685356940275,12989.638284614779
1682302785820897340,183,1682302785820897340,camera_2,185,0,-1.2404564873158292,0.3132440258693825,1.744064004645326,0.956817142140372,-0.0024814323003259846,0.2820988499967176,-0.07010733079072115,0.30927973153302446,0.043251306634828394,12999.50007466413
1682302785830713033,184,1682302785830713033,camera_2,186,0,-1.2408940186586284,0.31226301003416007,1.7447054640239936,0.956853938143975,-0.0025614127008699826,0.28206380269350123,-0.06974232168076651,0.28337531618308276,0.03962754592296679,12995.501015023328
1682302785840831518,185,1682302785840831518,camera_2,187,0,-1.2414236864718093,0.31105668850734136,1.7454326789966024,0.9569596419664038,-0.0025651489430355565,0.28153550291135004,-0.07042317984077122,0.28419096168363467,0.03976207492615186,12995.027806540018
1682302785850256443,186,1682302785850256443,camera_2,188,0,-1.240793639022813,0.3096423161280449,1.7445418917274367,0.9568789596187834,-0.0027006071567851407,0.2818872486559117,-0.07010665021992975,0.30220593797275797,0.042221221444825,13006.310059621932
1682302785861375331,187,1682302785861375331,camera_2,189,0,-1.239598181664153,0.3085201804704292,1.7428571138192315,0.9567118434429279,-0.0028256251401146725,0.28238391885340497,-0.07038314309261816,0.32839615060947835,0.045808175391566675,13022.720621163488
1682302785871037006,188,1682302785871037006,camera_2,190,0,-1.2407594541574711,0.30862149722297694,1.7445139518519042,0.956957172793093,-0.002949707496361611,0.28145898832890787,-0.07074677769626136,0.31479392712935805,0.04397341216207238,13014.84213181632
1682302785880977630,189,1682302785880977630,camera_2,191,0,-1.239973490225733,0.30886113295300965,1.7434054321962837,0.956770522495168,-0.002594419298994543,0.2821634675255867,-0.07047846385074952,0.3008996702264994,0.041996164036167745,13017.818858724559
1682302785891011238,190,1682302785891011238,camera_2,192,0,-1.2410515542986984,0.31015855818628585,1.7449191882781474,0.9569330864235572,-0.002678888907854327,0.2816504251379986,-0.07032019398216094,0.298796642688103,0.041769242999218845,13003.225434512828
1682302785901023626,191,1682302785901023626,camera_2,193,0,-1.2410618550970467,0.31151132143363375,1.7449275151313812,0.9569235350365146,-0.002610168336192891,0.2817293072313504,-0.07013652801087736,0.2735568864736706,0.038256539879875255,12998.729059894096
1682302785911023139,192,1682302785911023139,camera_2,194,0,-1.2412733937043574,0.31280784344272794,1.745230140516857,0.9569404247069309,-0.0026670312985926643,0.28156257797147466,-0.07057212758468047,0.2998470864840783,0.04197864064559239,12992.12263214961
1682302785921064138,193,1682302785921064138,camera_2,195,0,-1.2405291374161418,0.31355218702807314,1.7441810574859018,0.9568506682838076,-0.0024154122927080943,0.2820718940130521,-0.06975966596950503,0.2947724175755866,0.04121800418982943,12999.263350303288
1682302785931127071,194,1682302785931127071,camera_2,196,0,-1.2414043862437094,0.31417533500310535,1.745406012734156,0.9569662116055161,-0.0027676398934305423,0.2815170269008201,-0.07040009644687921,0.2870268451515585,0.04020561757945457,12987.546841100786
1682302785941100120,195,1682302785941100120,camera_2,197,0,-1.2407345793124156,0.3137127295219828,1.7444559223532825,0.9568546219901258,-0.00248744069392058,0.28197103928317063,-0.0701097569564773,0.2993787322775461,0.04188743708457555,12995.077396904586
1682302785950949192,196,1682302785950949192,camera_2,198,0,-1.2403374847280082,0.3126924716978463,1.7438771622697238,0.9567755518147482,-0.0027268334863201752,0.2822852931255815,-0.06991509932572873,0.28426626056898385,0.03973860063591328,13000.80683993268
1682302785960978031,197,1682302785960978031,camera_2,199,0,-1.2409782562698741,0.3116035411819412,1.7448223795357911,0.9568276154109573,-0.0026047663613229296,0.28199147337356195,-0.07039132420825753,0.27468295308062807,0.03842708385687356,12993.889198929073
1682302785971110343,198,1682302785971110343,camera_2,200,0,-1.2403297035100886,0.3101254227769083,1.743915006128757,0.9567671038066036,-0.0026907946830312477,0.28217361999932644,-0.0704806134619553,0.2806011801585555,0.03920419671274917,13007.001218434421
1682302785980929851,199,1682302785980929851,camera_2,201,0,-1.2409438686560488,0.3092284134582584,1.7447649562323873,0.9569891518579217,-0.002680481938618237,0.28147747062356226,-0.07024963896130708,0.31104251841316,0.043450417623918866,13011.509827321632
1682302785990970134,200,1682302785990970134,camera_2,202,0,-1.2404854623598527,0.30857150372251424,1.7441019672603497,0.9568981622546509,-0.0028765002919688533,0.28168986383871647,-0.07062898434968347,0.3178606909350492,0.044384671765211894,13016.80308130616
1682302786001040458,201,1682302786001040458,camera_2,203,0,-1.23972894356252,0.3085187034227943,1.7430482454190412,0.9567447262716904,-0.002741131127211565,0.28220297276846723,-0.07066468079664447,0.31384924054145813,0.04379131725616092,13022.16644533421
1682302786010986328,202,1682302786010986328,camera_2,204,0,-1.2411207628080825,0.30961646775849877,1.7450206076153718,0.95701433892163,-0.002598114901276736,0.2814635504294322,-0.06996481027640952,0.3092527649132535,0.043206121797564306,13008.536182407292
1682302786020920276,203,1682302786020920276,camera_2,205,0,-1.2411101683971892,0.31078005228751004,1.7450016779003925,0.9569046871063647,-0.002602360494004404,0.28181830300617916,-0.07003635916041888,0.3002201994531788,0.041976560055160414,12998.436792746888
1682302786030878543,204,1682302786030878543,camera_2,206,0,-1.2405587183880322,0.3119810273677138,1.744239234683405,0.9568164714042645,-0.0024451781261927152,0.28214351596872084,-0.06993781202062249,0.29534878861159086,0.04128542285321917,13000.534344894346
1682302786041237592,205,1682302786041237592,camera_2,207,0,-1.24085302320027,0.3132470173171075,1.744628676761523,0.9568325667529205,-0.0025992598997688094,0.2820065104188024,-0.0702638678867126,0.29795060568721965,0.04169592936909213,12992.450882787583
1682302786051187753,206,1682302786051187753,camera_2,208,0,-1.2409949299677612,0.3139952453966268,1.7448244677853288,0.9568639373573278,-0.0026291881431415995,0.2818902850321753,-0.0703019200251249,0.2871316115488298,0.04019956892137395,12989.643846305557
1682302786061214447,207,1682302786061214447,camera_2,209,0,-1.2410968445118973,0.3140268507339165,1.7449696186882342,0.9569058788531595,-0.0027052089666658066,0.28176991092563136,-0.07021066982782045,0.2956165625946596,0.04138794991533358,12990.267073816154
1682302786071115255,208,1682302786071115255,camera_2,210,0,-1.2408474722933032,0.3133443488200273,1.744617624574098,0.9568703907622488,-0.00262963113520845,0.2818555787221545,-0.07035320224263718,0.318205121322535,0.044530448670606904,12994.793739723034
1682302786081151247,209,1682302786081151247,camera_2,211,0,-1.2411857575016274,0.31234775450861096,1.7451132352731775,0.9569092359245013,-0.002550984153210899,0.2818075106220345,-0.07001952327207903,0.2686658653547056,0.037589511159139284,12992.996362096626
1682302786091048955,210,1682302786091048955,camera_2,212,0,-1.2414478594527705,0.311044153988973,1.7454696810231836,0.9569526544286276,-0.0026183626507398,0.2816818443455399,-0.06992924942488517,0.28995286824647337,0.04055751299569259,12994.059767086055
1682302786101005077,211,1682302786101005077,camera_2,213,0,-1.2405075485289754,0.30955766583881067,1.7441437017341124,0.9568948725838219,-0.0026448456226827585,0.2818820232910971,-0.06991232051463596,0.3077311693923548,0.04296524738260137,13013.336147218946
1682302786110944747,212,1682302786110944747,camera_2,214,0,-1.239699811018916,0.3085520373097932,1.7430039874801426,0.9567367383074522,-0.0027288239313291883,0.2822426884552231,-0.07061467203306517,0.31965893344022334,0.04459967183246986,13022.20222761156
1682302786121008872,213,1682302786121008872,camera_2,215,0,-1.240655103434114,0.3085847361078386,1.744374466698434,0.9569288447050137,-0.002867404863035581,0.28156742376885857,-0.07070183896510344,0.32109161058906466,0.04484693590948581,13015.134323953189
1682302786130930900,214,1682302786130930900,camera_2,216,0,-1.2401249970530073,0.3088903779455328,1.743613493592189,0.9568226298451881,-0.0027279552424696084,0.2820323333783625,-0.07029065517897658,0.3111079845111817,0.04342106615747405,13018.14898602921
1682302786141161680,215,1682302786141161680,camera_2,217,0,-1.2410193754046797,0.3101521247314368,1.7448666024216484,0.9568858479761235,-0.0027390768514919733,0.28176710627374657,-0.07049304379253186,0.2865053129498847,0.04005917473781443,13000.811593379825
1682302786150975227,216,1682302786150975227,camera_2,218,0,-1.240893745218281,0.3114688139651685,1.7446961913542154,0.9568741107828301,-0.0027213352663387922,0.2818447028140937,-0.07034268933991247,0.2759956855443307,0.038598641614948165,12999.05803661677
1682302786161001205,217,1682302786161001205,camera_2,219,0,-1.2410620882871128,0.31275966075520656,1.7449288831457628,0.9568901555608597,-0.002638072198866033,0.28185116929191006,-0.07010127769570652,0.28885767748579383,0.040418577627985716,12993.223501026867
1682302786170992612,218,1682302786170992612,camera_2,220,0,-1.240384136583216,0.31353389406417703,1.7439734750566003,0.9567751358738489,-0.002485013114789803,0.28228533240247883,-0.0699296445995518,0.29175710590789095,0.0408007676466145,12997.317426871507
1682302786180956125,219,1682302786180956125,camera_2,221,0,-1.2411833614970065,0.31412104922605333,1.7451039401852384,0.9568956406491281,-0.0027151219080992963,0.28177481774628377,-0.07033002988601321,0.29306734312558547,0.041042758796350554,12987.50679530529
1682302786190990447,220,1682302786190990447,camera_2,222,0,-1.2404507774769724,0.31363054409855595,1.7440675406912702,0.9567642914424768,-0.0025755426150711473,0.2823188130663627,-0.0699395809939814,0.29311304196016863,0.040998128349916244,12995.077581321593
1682302786201116085,221,1682302786201116085,camera_2,223,0,-1.2402929910532647,0.3126925798861546,1.7438470155399657,0.9567764947911997,-0.0026377282193061156,0.2822184545959988,-0.07017496199039065,0.2853182964026928,0.03988978827605665,13001.578098666621
1682302786211029052,222,1682302786211029052,camera_2,224,0,-1.2412615539807554,0.3116759586181542,1.74521469785032,0.9569678390852284,-0.0026457683895296,0.28154690059553183,-0.07026306021820675,0.2930738614522852,0.04100019200657177,12997.159586747868
1682302786221101284,223,1682302786221101284,camera_2,225,0,-1.2406772982953371,0.3101997194672577,1.7443633551706763,0.9569151509879477,-0.0027692660871213343,0.28169859501135214,-0.07036779479053049,0.29989782767370343,0.04190375698066052,13009.691190807156
1682302786231074094,224,1682302786231074094,camera_2,226,0,-1.2404501301290736,0.30910357803123895,1.7440736023408918,0.9568265418912403,-0.0026790284844856074,0.282025908006565,-0.07026506067671535,0.2970906797563657,0.04148680841597675,13011.19034609594
1682302786241021633,225,1682302786241021633,camera_2,227,0,-1.2404962583099206,0.30856370994108917,1.7441202422443196,0.9569260662736341,-0.0028669399511326854,0.28156322323920707,-0.07075617047674045,0.318028349429369,0.04440921562793149,13018.405908667944
1682302786251062870,226,1682302786251062870,camera_2,228,0,-1.2397934096005754,0.3085305741238974,1.7431413392771937,0.9567122190361076,-0.0027570907215554944,0.2823310919844047,-0.07059237137717976,0.319150295923464,0.04453739436850187,13018.7135182335
1682302786260997295,227,1682302786260997295,camera_2,229,0,-1.240975398265751,0.30957724841005374,1.7448054883196067,0.9569800004174585,-0.002723835915575311,0.2815179860381026,-0.0702102774240159,0.30745399347506464,0.042956900391798,13009.411126959832
1682302786270901441,228,1682302786270901441,camera_2,230,0,-1.2411287517868015,0.3107921939402468,1.745029062661756,0.9569341044908224,-0.002592429093702717,0.28172956319469,-0.0699918009189016,0.27472957014106214,0.038409211016792066,12999.906491519418
1682302786281034231,229,1682302786281034231,camera_2,231,0,-1.2403263620518168,0.31193348421403716,1.7439145315232987,0.9567603516933136,-0.0024963972591965896,0.2823574256867097,-0.06984040082921282,0.2864034028025344,0.04002383330693046,13001.715843233047
1682302786291036844,230,1682302786291036844,camera_2,232,0,-1.240554866585251,0.3131581551863657,1.7442007727207762,0.9568051468448676,-0.0026174169329520516,0.28207419933119765,-0.0703648077623635,0.2997462648199871,0.04193317517365251,12996.905964199454
1682302786301025629,231,1682302786301025629,camera_2,233,0,-1.24113116069916,0.3140089682163947,1.7450022367223146,0.9569171093486392,-0.0026435212094143286,0.28167192915244094,-0.07045269305713033,0.28504091559443623,0.03991359612819927,12990.37754675607
