%time,field.header.seq,field.header.stamp,field.header.frame_id,field.image_seq,field.transforms0.fiducial_id,field.transforms0.transform.translation.x,field.transforms0.transform.translation.y,field.transforms0.transform.translation.z,field.transforms0.transform.rotation.x,field.transforms0.transform.rotation.y,field.transforms0.transform.rotation.z,field.transforms0.transform.rotation.w,field.transforms0.image_error,field.transforms0.object_error,field.transforms0.fiducial_area
1681938792080763339,0,1681938792080763339,camera_1,1,0,0.659512709491705,0.4691797782815025,1.8084154054928967,-0.9804636955314868,-0.044279231629441175,0.15405893490827147,0.11400059634043791,0.07219077723857481,0.006731234313293455,20758.68454077653
1681938792100685358,1,1681938792100685358,camera_1,3,0,0.6596476578940362,0.4701423726060297,1.8088051232488394,-0.9803967270506464,-0.04445921288818851,0.15377519633875888,0.1148861391496784,0.060540537888300605,0.005647336358414349,20739.772090590668
1681938792110638141,2,1681938792110638141,camera_1,4,0,0.6598937983944468,0.4711670123668138,1.809564633408092,-0.9804730511109007,-0.04438747144719639,0.15315931464485094,0.11508506749932895,0.06822543464659248,0.006369894460643674,20725.102298592214
1681938792120720148,3,1681938792120720148,camera_1,5,0,0.6600226860166815,0.47241814187253517,1.8101135254752956,-0.980563851531424,-0.04432596639878328,0.15285975492869264,0.11473289456739774,0.07662867946783081,0.007159947577358325,20714.666046214632
1681938792130725622,4,1681938792130725622,camera_1,6,0,0.6598734792463193,0.4735899539522936,1.8098180470439929,-0.9805238369268486,-0.04438607700862826,0.15287480914957227,0.11503118756892271,0.07421472536225338,0.006933165339134765,20710.427270162505
1681938792140729427,5,1681938792140729427,camera_1,7,0,0.6597520892534429,0.4750018305274477,1.8095578915614636,-0.9804494595892204,-0.0443476364720562,0.15348113679791503,0.11487247267195029,0.06524493209144566,0.006095132330201994,20699.15156651457
1681938792150652408,6,1681938792150652408,camera_1,8,0,0.6602397953993406,0.47713822436339787,1.811022734529638,-0.9805927184402039,-0.04430667465102802,0.15277703488133368,0.11460373788095608,0.06745092466007918,0.006312878430710119,20668.55277136853
1681938792160985231,7,1681938792160985231,camera_1,9,0,0.6599335906712891,0.4788624818377605,1.8102962997047072,-0.9805510456658834,-0.044198196363621815,0.15291718465468668,0.11481507269966723,0.07272716556326486,0.0068032630265056305,20668.333741932645
1681938792170689582,8,1681938792170689582,camera_1,10,0,0.6599985531273921,0.48096260009012465,1.8106279074943106,-0.9806215261588812,-0.04430248255700759,0.1527700671502791,0.11436791095413053,0.07418605907878373,0.006944629334712173,20654.65631517022
1681938792180604696,9,1681938792180604696,camera_1,11,0,0.6598290009760978,0.482940811404761,1.8103798609462038,-0.9805894990535438,-0.044378574873055576,0.1530686825934171,0.11421363687087614,0.06199858071340715,0.005804070265947793,20644.236190759002
1681938792190752983,10,1681938792190752983,camera_1,12,0,0.659870614474087,0.4851626606523096,1.8107262631432908,-0.9805496101891508,-0.04433475424203866,0.15285040586289822,0.11486359280359357,0.07297606253996491,0.006836248361944581,20618.915547906072
1681938792200619220,11,1681938792200619220,camera_1,13,0,0.6602225780617298,0.48772303213284984,1.8118421099684907,-0.9806291678083692,-0.044366923154204325,0.1523143870377302,0.11488402358297964,0.06209173912066035,0.005825641918574997,20586.352220973582
1681938792210647821,12,1681938792210647821,camera_1,14,0,0.6600991099474102,0.48994735975845083,1.8116858363935022,-0.9806295793955462,-0.04444754880186455,0.15230063627545623,0.11486757423272839,0.06747954864113126,0.0063324988096465475,20574.70907362108
1681938792220612525,13,1681938792220612525,camera_1,15,0,0.6598538096385427,0.4919471845658107,1.8111032945609877,-0.980554434732135,-0.044377137869005746,0.15280950399617885,0.11486046164864773,0.067505880157114,0.006333564625578941,20564.645245032967
1681938792230554342,14,1681938792230554342,camera_1,16,0,0.6598481969751258,0.49405804858110475,1.8112538877909181,-0.9806345910676741,-0.044445572066089796,0.1525267955292038,0.1145249604708336,0.05516398472536821,0.005178287259208916,20554.69787133625
1681938792240550518,15,1681938792240550518,camera_1,17,0,0.6598940546903013,0.4960957873337322,1.8115156646084514,-0.9805383576054744,-0.04443122912406761,0.15238533250552372,0.11553832948448138,0.059773177388706245,0.005614098402492684,20525.81948502472
1681938792250551462,16,1681938792250551462,camera_1,18,0,0.6600068274877877,0.4981059117241222,1.8119564457657749,-0.980663328084479,-0.044312993046352445,0.15250531147945837,0.11435875816089022,0.06938844169781078,0.0065233751618075314,20512.934720588084
1681938792260578155,17,1681938792260578155,camera_1,19,0,0.6598295936478304,0.499732316839746,1.8116145863090836,-0.980609789142361,-0.04435978255572596,0.15258597353801281,0.11469163792203807,0.0859855369781144,0.008083188403823965,20503.095844544358
1681938792270636796,18,1681938792270636796,camera_1,20,0,0.6597724586106904,0.5012325515344285,1.8116385343604593,-0.9806230466860557,-0.044386205002278994,0.1525975361107671,0.1145525952852073,0.06872776577074546,0.006462682643799188,20493.223117470443
1681938792280615568,19,1681938792280615568,camera_1,21,0,0.6596957393790271,0.5024227217314842,1.8115261521008668,-0.9805745583149764,-0.04460826857495603,0.15251520118265835,0.11499022292502518,0.06458937440766022,0.006073883729989105,20483.172692906635
1681938792290692806,20,1681938792290692806,camera_1,22,0,0.6600347014783913,0.5037142727945408,1.8124986339180442,-0.9807670532490139,-0.04443643685643508,0.15215730230497226,0.11388391324512556,0.08096982425195165,0.007624617498284359,20470.903559396334
1681938792300747871,21,1681938792300747871,camera_1,23,0,0.6599439733577531,0.5044321383106326,1.8123039240350654,-0.9808021904299886,-0.04432864657178788,0.15250880875975367,0.11315077371158722,0.06673163993400522,0.006283857207737964,20472.036284626403
1681938792310839653,22,1681938792310839653,camera_1,24,0,0.659887812309425,0.5048943946835985,1.8121301821056586,-0.9807112962687519,-0.04438270647652841,0.15227079658300943,0.11423280283989595,0.07927813957212493,0.007464055464453295,20463.678996705792
1681938792320902347,23,1681938792320902347,camera_1,25,0,0.6597310962742332,0.504996912695015,1.8117764534045302,-0.9807100794825525,-0.04443755679470237,0.15177689366521757,0.11487740463981776,0.057574404185288586,0.005418095572684524,20471.104563300905
1681938792330757617,24,1681938792330757617,camera_1,26,0,0.6598764233180447,0.5050348009575838,1.8121892648921927,-0.9807282921657222,-0.04455997474794988,0.15215041823268746,0.11417826337699495,0.055379170589731075,0.005214141648816768,20464.389200751903
1681938792340608358,25,1681938792340608358,camera_1,27,0,0.6599381922699523,0.504719492280617,1.8123686076824606,-0.9807412468271103,-0.044447474906539004,0.15228883176991026,0.11392603067163168,0.07227000071725342,0.006805680807007719,20463.760089449646
1681938792350881099,26,1681938792350881099,camera_1,28,0,0.6598009921864708,0.5039995109246587,1.8119167463548285,-0.9806757500923957,-0.04455597400976453,0.1523261212997762,0.11439663950712867,0.07618263360927813,0.007169548274731949,20472.599451922986
1681938792360625267,27,1681938792360625267,camera_1,29,0,0.659562585439558,0.5029040239086994,1.8111936440261485,-0.9805442982073604,-0.04458738419324423,0.15293770819235808,0.11469482044411682,0.06958439051231835,0.006542306394051619,20482.978144034052
1681938792370620965,28,1681938792370620965,camera_1,30,0,0.6596769123294324,0.5018483075758946,1.8114173999848,-0.9805979203199603,-0.044414825507231026,0.15289982226128546,0.11435333966176355,0.06618431351671461,0.006223006288095668,20490.629383332394
1681938792380545854,29,1681938792380545854,camera_1,31,0,0.6598414613078183,0.500671836989599,1.8117847282367474,-0.9806962071551236,-0.04430274137966286,0.1522744979141922,0.11438834583462741,0.06521783405332826,0.0061328658030188644,20501.25641610939
1681938792390617370,30,1681938792390617370,camera_1,32,0,0.6596659468993411,0.4989586254886528,1.8111202012139125,-0.980571731097272,-0.044293611049171955,0.15299312800942216,0.11450003919220493,0.06770313056767918,0.0063604515596119545,20514.891798839264
1681938792400708436,31,1681938792400708436,camera_1,33,0,0.6599729414049204,0.49745433559472335,1.8118895927991923,-0.980629535639588,-0.04424034733884452,0.15229001109962836,0.11496198509898715,0.0754759500559885,0.0070938897577547564,20516.184875488863
1681938792410640478,32,1681938792410640478,camera_1,34,0,0.6600656063861817,0.49555951369775036,1.8120377297790367,-0.9806940171599551,-0.0443265661210314,0.15198000148561946,0.11478884698009072,0.057269702141638845,0.005381478823884292,20533.784688436186
1681938792420607089,33,1681938792420607089,camera_1,35,0,0.6599138839923012,0.4934095588077144,1.811522084470843,-0.9806299767277692,-0.04441352527251611,0.15285128172893087,0.11414365155183018,0.05341460039198864,0.005015067646040709,20553.51322989595
1681938792430745363,34,1681938792430745363,camera_1,36,0,0.6598689452863769,0.4913091467315999,1.8112146972057508,-0.9805348141763695,-0.04444664343671333,0.15305338493558837,0.11467622000694337,0.07803246003459208,0.007321443352794137,20565.515018832335
1681938792440667867,35,1681938792440667867,camera_1,37,0,0.6599586032381636,0.489187087872165,1.8112044495069775,-0.9805327084382072,-0.04454274005828216,0.15270194672413523,0.1151245736478252,0.06672112191154156,0.006257403941967688,20580.757671421452
1681938792451052427,36,1681938792451052427,camera_1,38,0,0.6601389696977651,0.4870875985136671,1.811564234085271,-0.9806371856077578,-0.04429160128337274,0.15252399857865845,0.11456611242696564,0.060578176940907724,0.005681602895159291,20596.642183691554
1681938792461066961,37,1681938792461066961,camera_1,39,0,0.6602465028940662,0.48492285785066425,1.8116744344961444,-0.980629109962311,-0.044425836777523126,0.15213703496517658,0.11509655213405602,0.06402667504153214,0.006003190787086275,20609.182711205678
1681938792470992326,38,1681938792470992326,camera_1,40,0,0.6601755542013076,0.4826527026699026,1.8112861851487196,-0.9806927589646589,-0.044480801629011635,0.15206016649116064,0.11463366245308014,0.05494591775641311,0.005147889029420472,20638.405909798457
1681938792480607271,39,1681938792480607271,camera_1,41,0,0.6599925536895941,0.4804666911704846,1.8106615975907918,-0.9805987320904096,-0.04427069956060321,0.15251936027361476,0.11490899235840227,0.07099344284506515,0.006644930008917055,20655.882764331767
1681938792490598201,40,1681938792490598201,camera_1,42,0,0.6601189931719741,0.4786327384440907,1.8108684521681928,-0.980585722880648,-0.04437813403644514,0.15281311798008976,0.11458783650668765,0.06069453712552786,0.005680787672295286,20662.213898959802
1681938792500618696,41,1681938792500618696,camera_1,43,0,0.6600170770148808,0.47666736762668055,1.810422856680102,-0.9805732274967538,-0.04449231704186509,0.15271843664796997,0.1147765583586033,0.05929945259413216,0.005545791383121653,20683.49546983023
1681938792511023283,42,1681938792511023283,camera_1,44,0,0.6597642656670479,0.4747299687915859,1.809525812468708,-0.9804190993177789,-0.04440344119887451,0.1536953476286559,0.11482362222086534,0.07430707156891003,0.006941466233751397,20698.4144822858
1681938792520594835,43,1681938792520594835,camera_1,45,0,0.659878783220663,0.47329963638206773,1.8097187762408524,-0.9804836885794888,-0.04435781151667878,0.15340751521056667,0.114674562410025,0.07391502709651832,0.00690477625567056,20709.245569439256
1681938792530575513,44,1681938792530575513,camera_1,46,0,0.6599626130381266,0.4721253105392265,1.8098644622922717,-0.9805329325868876,-0.044269706459372754,0.15322467895532352,0.11453191241569857,0.06447294937970582,0.006022576823951656,20717.861692044415
1681938792540561914,45,1681938792540561914,camera_1,47,0,0.6599535012135799,0.4710851699050667,1.809738202913141,-0.9805045204929204,-0.044479473514637574,0.1527733259696166,0.11529428693994427,0.06382309379114302,0.0059595283566614065,20725.882758947548
1681938792550620555,46,1681938792550620555,camera_1,48,0,0.6598695450488934,0.470186067102202,1.8094590873113081,-0.9805566229005444,-0.04424063650179658,0.1533482392992241,0.11417439674298009,0.06841684349637944,0.006386822239639051,20739.877185486424
1681938792560647010,47,1681938792560647010,camera_1,49,0,0.6596459788168562,0.4694892872537897,1.8088194687604164,-0.9804535177511132,-0.044391960449150274,0.1533764342204852,0.1149605271506601,0.0739234512730036,0.006894998030017271,20749.13612950168
1681938792570691585,48,1681938792570691585,camera_1,50,0,0.6595667628097479,0.46917171084314874,1.8085578729733982,-0.9803907536608168,-0.044338200274541835,0.15422801043722573,0.11437576198375864,0.07651726512995083,0.007135597957210837,20749.10274086008
1681938792580814599,49,1681938792580814599,camera_1,51,0,0.6594159859751223,0.4690976418360771,1.8081732112497073,-0.9803887130334501,-0.04430960740629406,0.15397783491955333,0.11474082273368245,0.07726819453819189,0.007202163371242974,20758.097017800894
1681938792590602636,50,1681938792590602636,camera_1,52,0,0.659706229709891,0.4695901299790774,1.808939074416109,-0.9804301031613083,-0.04454776822344911,0.15339203354570843,0.11507907371076938,0.06565518736897502,0.006124552525269505,20744.2941879282
1681938792600602626,51,1681938792600602626,camera_1,53,0,0.6596282468974342,0.4701186988464782,1.8087880695689662,-0.9804554413499089,-0.04430406033354084,0.15365328929678373,0.11460778530970811,0.06409926609194373,0.00597930128055334,20745.250338363694
1681938792610958337,52,1681938792610958337,camera_1,54,0,0.6598854962866793,0.47115244098812176,1.8095385060295504,-0.980443691381087,-0.04448302270658936,0.1534225261871674,0.11494762798884095,0.06766058319772128,0.006317171395580526,20722.95902310585
1681938792620955705,53,1681938792620955705,camera_1,55,0,0.6599380253901583,0.47232492691671163,1.8098394732393106,-0.9804644245852535,-0.04443770387811428,0.15326337416359948,0.11500061189723013,0.06904922222020105,0.006449784995929002,20711.769070775073
1681938792631066799,54,1681938792631066799,camera_1,56,0,0.6599015337898837,0.47357895488309604,1.8098521402858687,-0.980544115306677,-0.044338702909971085,0.1528316810878932,0.11493387062809754,0.06515180008136667,0.00608672308697497,20711.314897633332
1681938792640711069,55,1681938792640711069,camera_1,57,0,0.6599577637266281,0.475152180501874,1.8101236920919785,-0.9805583814620804,-0.044376970368497914,0.15291978772036743,0.11467991789732164,0.06783492986869533,0.006340880050960731,20697.06190133019
1681938792650825262,56,1681938792650825262,camera_1,58,0,0.659981516959983,0.4769278323972677,1.810280023492366,-0.9804890941735717,-0.04429653718285709,0.1527997439866558,0.11546077792007606,0.07538630452472717,0.007049366633408501,20676.001826521362
1681938792660598993,57,1681938792660598993,camera_1,59,0,0.6600815454460125,0.4789774014453562,1.810730874386909,-0.9805494820581829,-0.04414827542355578,0.1529388238435363,0.11481881019201899,0.07705575914587824,0.0072116733890516945,20658.16773353424
1681938792670560598,58,1681938792670560598,camera_1,60,0,0.6600310967591106,0.48099126776345663,1.810740954306934,-0.9806000103974373,-0.0443249808572432,0.15266076995261801,0.11468916687300948,0.07191995362518355,0.006733039196218979,20650.567310706363
1681938792680556058,59,1681938792680556058,camera_1,61,0,0.6600878219543868,0.4831308800116947,1.8110737195321482,-0.9805715557405288,-0.04453085007147064,0.1525508732509206,0.11499851535951579,0.05996504475479014,0.00561737250657164,20628.113045012404
1681938792690642595,60,1681938792690642595,camera_1,62,0,0.6600264406023206,0.4852849247796216,1.8111257362170203,-0.9806121465585107,-0.04442173651567801,0.15241867616954535,0.11486981545020776,0.07095957864657977,0.00665006600284435,20616.284886573143
1681938792700594186,61,1681938792700594186,camera_1,63,0,0.6602822502561024,0.4877598477425845,1.8120000034749006,-0.9806927255260401,-0.044189881471905376,0.15191221560054258,0.11494220820543019,0.0738504058244871,0.006929998250429402,20588.382416275905
1681938792710888862,62,1681938792710888862,camera_1,64,0,0.6600015072051989,0.4898686360415612,1.8114123743683712,-0.980555114307949,-0.044465317074705676,0.15287429528528076,0.11473427222499825,0.07098302699159831,0.006659646164675168,20573.39390688234
1681938792720843791,63,1681938792720843791,camera_1,65,0,0.6598124674134156,0.49196214795163057,1.8109915405305037,-0.9805466930887388,-0.04446513297220729,0.15285909201473305,0.11482653269577589,0.0671516262809746,0.0062996293564596805,20566.45993711019
1681938792730937004,64,1681938792730937004,camera_1,66,0,0.659840084928296,0.4940478269499056,1.811234292893481,-0.9806035958133278,-0.04443377413652222,0.15238153512989241,0.11498737037350543,0.05713865830330178,0.005363290648764906,20552.44396594447
1681938792740598201,65,1681938792740598201,camera_1,67,0,0.6598248452717955,0.49604103205767824,1.8113103494672018,-0.9804935957439891,-0.044316450700308305,0.1530838337981099,0.11503782304973768,0.06343600701075047,0.005957361688264693,20524.938261062493
1681938792750596046,66,1681938792750596046,camera_1,68,0,0.6599813416821273,0.49811811581981297,1.8119362184212926,-0.98064177240168,-0.04426101768183965,0.1525747233903062,0.11447108943760076,0.06111658847657964,0.005745483619575614,20511.277547184905
1681938792760682582,67,1681938792760682582,camera_1,69,0,0.6597311007435065,0.4996772325449407,1.8113799263621835,-0.9806190003138503,-0.044435368809004734,0.1525421979451963,0.11464184257207952,0.06233393390721176,0.005858072065270884,20509.876249103923
1681938792770673036,68,1681938792770673036,camera_1,70,0,0.6598322241435374,0.5013057754802037,1.811840009706513,-0.9806592942537004,-0.04437356482533502,0.1526645785346462,0.1141571802356962,0.08098553570744116,0.007617390095671687,20491.936268014375
1681938792780824661,69,1681938792780824661,camera_1,71,0,0.6597502846844432,0.5024863636662517,1.8116956259460089,-0.9806091083628852,-0.04457732126079212,0.15277636785281312,0.11435917300619812,0.062163679584045894,0.005847229210180402,20482.19503340638
1681938792791205883,70,1681938792791205883,camera_1,72,0,0.6598009754325731,0.503526007781886,1.8119008661988354,-0.9807094857741121,-0.044454936711039374,0.15260710812425857,0.11377053073904969,0.06151217344449833,0.005788561431312249,20479.156477002016
1681938792800870895,71,1681938792800870895,camera_1,73,0,0.6600240203317159,0.5044823924473367,1.8125017920025353,-0.9807985253784889,-0.04444669121497388,0.15189573094605846,0.11395802374464542,0.06913914397591725,0.006511326117434326,20468.202038924337
1681938792810689210,72,1681938792810689210,camera_1,74,0,0.6598936977516706,0.5049145798097935,1.8121651284354512,-0.9807411713462078,-0.04438810631498685,0.15198456585038422,0.11435533475753581,0.07125072456256021,0.006708269312486055,20466.02333242406
1681938792820708751,73,1681938792820708751,camera_1,75,0,0.6598409348349054,0.5050730093285786,1.8120676609844817,-0.9806585862785873,-0.04457796846873448,0.1524214280550668,0.1144082608684244,0.06388412232627161,0.006014288472551654,20459.697336817626
1681938792830668210,74,1681938792830668210,camera_1,76,0,0.6599996378067097,0.5051239747477791,1.8124904362168466,-0.9807583986292737,-0.04456719444117378,0.15178632356237198,0.11440122672945605,0.06452327519946266,0.006076987208790338,20460.48801653337
1681938792840641975,75,1681938792840641975,camera_1,77,0,0.6598645934454498,0.5046915703744238,1.8121390436420597,-0.9807093557376527,-0.044458768780091036,0.15236333232898092,0.1140964171602475,0.06874000358220655,0.006471613979612116,20465.54911231972
1681938792850956439,76,1681938792850956439,camera_1,78,0,0.6598554284343765,0.5040236187730358,1.812047598620054,-0.9806973958455167,-0.04455151853955905,0.1523072207336776,0.11423786802117741,0.07847520576615352,0.007386475135430189,20471.64456455806
1681938792860695600,77,1681938792860695600,camera_1,79,0,0.6596431576625053,0.5029560630741114,1.8114013890974991,-0.9805983682737658,-0.04453730652891177,0.15273425093722404,0.1145229979376316,0.0715427231771173,0.006728002575668646,20483.272253617066
1681938792870618581,78,1681938792870618581,camera_1,80,0,0.6598910738864705,0.5020150342343606,1.8119788303533757,-0.9807152055857162,-0.044524815911847704,0.15211004484916346,0.1143580366960183,0.07525617649662308,0.007080098957925973,20489.844145369014
1681938792880630731,79,1681938792880630731,camera_1,81,0,0.6597868529501967,0.5006159616020186,1.8116029256079031,-0.9806752702297602,-0.04429735603995188,0.15233437491653232,0.11449016039138919,0.07307379654957913,0.0068703122392810385,20503.166116580658
1681938792890575885,80,1681938792890575885,camera_1,82,0,0.6597119659076396,0.49900947007556584,1.8112629355176741,-0.9805985752232236,-0.044471408032066784,0.1527783675018636,0.11448798435335866,0.06450795318232849,0.006061082408595433,20515.132527745674
1681938792900738954,81,1681938792900738954,camera_1,83,0,0.6599214927403251,0.4973985251808435,1.811736071691677,-0.9806225565198888,-0.044396327294848416,0.15222755496989232,0.11504407535816304,0.06866356790123973,0.0064523485176287785,20519.80304329656
1681938792910554170,82,1681938792910554170,camera_1,84,0,0.6602055624340908,0.4956762449726604,1.8124209019823958,-0.9806879743970432,-0.044390861410997455,0.1519045767766468,0.11491539431478219,0.06198636362387333,0.005827106075533634,20524.810714187683
1681938792920712709,83,1681938792920712709,camera_1,85,0,0.6599195409214643,0.4934092777722772,1.8114913706064177,-0.9806187511972732,-0.04436808178601566,0.15283939773094846,0.11427360421449395,0.04953355382895097,0.0046504876318267125,20552.755346213882
1681938792930941104,84,1681938792930941104,camera_1,86,0,0.6599144815648945,0.49131436910995135,1.8112918175615627,-0.9805693168020732,-0.04423640555012168,0.15312875215779975,0.11436144731908554,0.07231114312889986,0.006785456015806754,20565.894551449514
1681938792940588235,85,1681938792940588235,camera_1,87,0,0.6599444705758624,0.4891904040563333,1.811178608972776,-0.980597060694694,-0.04440552331340521,0.15247355936791365,0.11493201359877299,0.059776536261779256,0.00560591080208294,20587.032705470454
1681938792950637817,86,1681938792950637817,camera_1,88,0,0.6603474933681647,0.48725529661283196,1.8121127367062613,-0.980771771951919,-0.04417388197671197,0.15156228931182159,0.11473566120417959,0.06526548160763923,0.0061245158336450285,20597.03798191675
1681938792960633754,87,1681938792960633754,camera_1,89,0,0.6599707878914558,0.4847403153614823,1.8109551323457045,-0.9805101326725147,-0.04426270920368418,0.1528585711827729,0.11521696713782563,0.06659879432118032,0.006239686608171333,20613.168778493768
1681938792970920085,88,1681938792970920085,camera_1,90,0,0.6601557580197976,0.4826549409247765,1.8112671937199185,-0.9806553455333581,-0.04442757703548981,0.15265287333076472,0.11418574315328264,0.07161381842161063,0.006710075661310276,20634.32046204969
1681938792980916261,89,1681938792980916261,camera_1,91,0,0.660110709673739,0.48056918610168076,1.8109902840211975,-0.9806556131720925,-0.044403721577605144,0.1524591287354751,0.11445126442877675,0.07805296470178291,0.0073086569426477075,20653.978594357148
1681938792990919113,90,1681938792990919113,camera_1,92,0,0.6599299824007058,0.47850855228558936,1.8103792847451357,-0.9805924155057565,-0.04425031996035854,0.15293961519606158,0.11441109185595763,0.07779306861630175,0.007277561782162722,20673.29086634738
1681938793000901937,91,1681938793000901937,camera_1,93,0,0.659974188619808,0.47663881363371563,1.8102928919382315,-0.9805108820176098,-0.04431197521997149,0.15307476443010398,0.1149042018022911,0.06493432774732355,0.006072107153382502,20679.463704504305
1681938793010945081,92,1681938793010945081,camera_1,94,0,0.6600419137867339,0.4749335725118808,1.8103233383865516,-0.9805254013889625,-0.04441224671993464,0.15286621521444302,0.11501917152506902,0.0697798493783921,0.006523653180031026,20691.426517656015
1681938793021059513,93,1681938793021059513,camera_1,95,0,0.6598492471411933,0.47327879194304723,1.8096075528015547,-0.980416935196732,-0.04443038062646063,0.15349412588903177,0.11510051161657427,0.06859429519681726,0.006406723984137724,20705.80955039098
1681938793030948400,94,1681938793030948400,camera_1,96,0,0.6600427155006646,0.4721511016869488,1.8100585216183156,-0.9805628551449467,-0.04431742151183127,0.15322656283045477,0.11425442531341094,0.0669159064127598,0.006252299720784785,20716.2650102342
1681938793040933132,95,1681938793040933132,camera_1,97,0,0.6598562433469337,0.47101362799047536,1.8095206958921906,-0.9804649553958288,-0.04443182433222909,0.15331752107846416,0.11492615871732716,0.05773160439275671,0.005389764302588606,20726.523288555207
1681938793051015138,96,1681938793051015138,camera_1,98,0,0.6596222467363788,0.47002021112879466,1.8087886766469896,-0.9804224659572831,-0.04423219556951696,0.15430995041041154,0.11403394374341606,0.07092859508702531,0.006617057578025614,20741.441978113377
1681938793061027288,97,1681938793061027288,camera_1,99,0,0.659637983417859,0.46950539807285835,1.8088103920991887,-0.9803573981745798,-0.04448337416962173,0.15380720071777926,0.11516920714416219,0.0626621667179279,0.00584455706910388,20740.427323649812
1681938793070942640,98,1681938793070942640,camera_1,100,0,0.6595108367527618,0.4691374134416446,1.8084206598787598,-0.9804625475494188,-0.0443206607550625,0.15353159851845227,0.11470361868531992,0.07632253467454575,0.007115701562989097,20759.932319546017
1681938793080923318,99,1681938793080923318,camera_1,101,0,0.6594888308797516,0.46913176054528133,1.808315832112351,-0.9803973040580714,-0.04439324876376619,0.15402040289674535,0.1145778388318976,0.07324200010043569,0.006828093450020449,20755.58389761963
1681938793090674400,100,1681938793090674400,camera_1,102,0,0.6598308458675302,0.4696794104157116,1.8092545174456207,-0.9804385024665755,-0.04449586237969781,0.15323186857108081,0.1152408589277298,0.07019523277995177,0.006550248379600056,20737.713303787583
1681938793100644826,101,1681938793100644826,camera_1,103,0,0.6596312253111217,0.47012708553455423,1.8088161169235901,-0.9804225108788992,-0.04435647311201481,0.15383039333541584,0.11463164284458746,0.06269175601482857,0.005848216525075863,20741.674377788848
1681938793110553741,102,1681938793110553741,camera_1,104,0,0.6600711753353015,0.4713145695179417,1.8100765751814196,-0.9805946636448225,-0.04439233614671497,0.15255731499699032,0.11484638332852935,0.07062477625731844,0.006597467313373268,20725.321402984213
1681938793120554447,103,1681938793120554447,camera_1,105,0,0.6599198791856749,0.47233958713924074,1.8098277918126762,-0.9805528897975518,-0.04429703880811646,0.1529587200266173,0.11470585264196945,0.0674349409819115,0.0062989302017097655,20719.97047179944
1681938793130701780,104,1681938793130701780,camera_1,106,0,0.6598928596789865,0.4736105179500053,1.8098448807302718,-0.9805273814356396,-0.04429709992017389,0.15307172996229887,0.11477310956830875,0.0729092328256229,0.006811727732514795,20709.2267688742
1681938793140582799,105,1681938793140582799,camera_1,107,0,0.6598787734361501,0.4750908240267798,1.809880259643458,-0.9805191552008691,-0.0443320291747166,0.15301834532420996,0.11490101595576489,0.07467577619536314,0.006978484683119485,20698.56106710744
1681938793150610685,106,1681938793150610685,camera_1,108,0,0.6602221363847847,0.4770993077020552,1.8109724724313347,-0.9806238813868554,-0.04437504056701671,0.15234448149422297,0.11488610876303061,0.06488701097259764,0.0060721624840545906,20673.643455071324
1681938793160668134,107,1681938793160668134,camera_1,109,0,0.6599496924036765,0.47889120414381425,1.810376443117169,-0.9805409408180563,-0.044290328624087424,0.15292417101936975,0.11485655439743046,0.0735397070820909,0.006879814680346339,20666.060193853053
1681938793170620203,108,1681938793170620203,camera_1,110,0,0.6601359740914885,0.48106593836128897,1.811003557270987,-0.9805752598817153,-0.04433773597700408,0.15275559912498615,0.11476955960665877,0.07117256495985202,0.006665021331367889,20642.1307240515
1681938793180544137,109,1681938793180544137,camera_1,111,0,0.6600057850417322,0.48309646116365085,1.8108841701593725,-0.9805617057212499,-0.044520466280301374,0.15280625695654113,0.1147471881579197,0.06182692086440511,0.005790809542587521,20631.162519547506
1681938793190937995,110,1681938793190937995,camera_1,112,0,0.6601297143386323,0.4853680025558873,1.8114163777567878,-0.9806386011901318,-0.04418674351113412,0.15214041483184257,0.11510325681116751,0.07751467771595344,0.007266540577155842,20611.51957608864
1681938793200558185,111,1681938793200558185,camera_1,113,0,0.660189552276394,0.48772368486380596,1.811792757407063,-0.9806258577742951,-0.04436005351381016,0.15209237983627108,0.11520859652135117,0.06515460446826182,0.006112410750182021,20587.58523052046
1681938793210822343,112,1681938793210822343,camera_1,114,0,0.6600182810714047,0.48987936408890725,1.8114391583683878,-0.9805732831694561,-0.0443529948408977,0.15267341613341565,0.1148898437159262,0.06558497565856669,0.006153209530046936,20574.19996920415
1681938793220680713,113,1681938793220680713,camera_1,115,0,0.6597572719894143,0.4919213322153002,1.810869520586367,-0.9805379506223395,-0.04439332524519138,0.15323718704755526,0.11442431808304496,0.06967735744547099,0.006536087455868987,20567.819921030663
1681938793230960369,114,1681938793230960369,camera_1,116,0,0.6598882099328434,0.4941141246143276,1.8113750750996245,-0.980642255633497,-0.044355277300734505,0.15280957166618359,0.11411665368744169,0.05848551346571185,0.005491161471314115,20551.801828885047
1681938793240987539,115,1681938793240987539,camera_1,117,0,0.659588721577237,0.49588226968144516,1.8107235738887302,-0.9804855602758833,-0.04432377739787653,0.15295647148334027,0.1152726623230196,0.07547119878290687,0.007082870495451411,20537.862549733953
1681938793251072406,116,1681938793251072406,camera_1,118,0,0.6599592376919482,0.49807082730072794,1.8118112400660866,-0.9805935104806937,-0.04437395282470087,0.15278844582407122,0.11455570844146484,0.08041846795822494,0.007559273427529862,20509.50519654085
1681938793260684728,117,1681938793260684728,camera_1,119,0,0.6598956901118854,0.4997901840119276,1.81181856832359,-0.9805878215026697,-0.044490726039929214,0.15257552375506073,0.11484254075889,0.06784346509084571,0.0063788918539350575,20497.225559984156
1681938793270608901,118,1681938793270608901,camera_1,120,0,0.6597917982447566,0.5012543069973028,1.8116654315861667,-0.9806239314379016,-0.044378742328065705,0.1526762354678604,0.11444299648303147,0.08168682773248293,0.007681790569697192,20492.289156559502
1681938793280683755,119,1681938793280683755,camera_1,121,0,0.6596157838743874,0.5023841075666974,1.8113680656358937,-0.9805409495014992,-0.04446053945474481,0.15307350159765787,0.11459149135395459,0.06477077062299941,0.006090267189574516,20482.709978414758
1681938793290993690,120,1681938793290993690,camera_1,122,0,0.6597942207242147,0.503533102633533,1.8118435102450914,-0.9807073777513787,-0.04436345397924236,0.15249200138529231,0.1139785624078246,0.07253485325782094,0.006825443139172213,20479.546149559603
1681938793301002025,121,1681938793301002025,camera_1,123,0,0.6599272941369779,0.5044339182244744,1.8122601207187146,-0.9807781603139191,-0.044297634247181236,0.1523107828283135,0.11363690107343574,0.0641003615455702,0.006035476723581198,20470.768329103237
1681938793311014413,122,1681938793311014413,camera_1,124,0,0.6599043038808567,0.5049253605020598,1.812199714621031,-0.9807168165299811,-0.044444140886738606,0.15226764463191592,0.11416570638500813,0.07041110916179605,0.0066296654422289755,20462.966003488284
1681938793321009159,123,1681938793321009159,camera_1,125,0,0.6599308444522738,0.5051757719281103,1.8123520169855736,-0.9807668612884181,-0.04461380778812889,0.15161831349578642,0.11453322210521563,0.048005845630541444,0.00452047235931241,20464.398026674055
1681938793330929994,124,1681938793330929994,camera_1,126,0,0.6598398624702306,0.5050114671978966,1.8121083178621895,-0.9807359239843655,-0.04444104919180062,0.15235937456165033,0.11388003133318805,0.05500547554402147,0.005178681963995056,20466.345659696963
1681938793340956926,125,1681938793340956926,camera_1,127,0,0.6598065113061697,0.5046541486341534,1.8119842208109578,-0.9807352993380274,-0.04436240757923749,0.1521603566932295,0.11418176420564112,0.08480127656366676,0.00798239012704227,20471.11126228882
1681938793350929260,126,1681938793350929260,camera_1,128,0,0.6597332499282897,0.5039512279244025,1.811746504968753,-0.9805996055034695,-0.04451733515738327,0.15314573405346116,0.11396931472177836,0.06835149678227026,0.006431844208688188,20468.510985947567
1681938793360624074,127,1681938793360624074,camera_1,129,0,0.6597616253256537,0.5030544316010515,1.8116978303491096,-0.9806489520095107,-0.044427547923790146,0.15275315848160584,0.11410652252181429,0.07794608776748646,0.007332963683183713,20480.539636217523
1681938793370643854,128,1681938793370643854,camera_1,130,0,0.6598027154693196,0.5019624005126797,1.8117816260929294,-0.9806737425399353,-0.04458411005590708,0.1522615665366449,0.11448879062618561,0.06850182099151425,0.00644314085725398,20490.76364790798
1681938793380901336,129,1681938793380901336,camera_1,131,0,0.6598581720700316,0.5006518918152022,1.811782409208852,-0.9806920124856165,-0.04436134051878666,0.15262164046896567,0.11393806639946685,0.06669721350772306,0.006272356090230866,20500.698343930708
1681938793391073465,130,1681938793391073465,camera_1,132,0,0.6597378736618105,0.49902406535241617,1.8113594192335882,-0.980592219465436,-0.0444924345003419,0.15235144100718032,0.11510152396523196,0.058730045464471914,0.005518284695281306,20513.136243174195
1681938793400983095,131,1681938793400983095,camera_1,133,0,0.6598072455377821,0.49730093587216895,1.8114426829289045,-0.9805759303408792,-0.04425786695963448,0.15264092923656286,0.11494708682737961,0.06522577576106414,0.006127493252701637,20521.331687661004
1681938793410972833,132,1681938793410972833,camera_1,134,0,0.6598513212227284,0.495436920457635,1.8114684497770794,-0.9806032487000107,-0.044328275404547146,0.15270999361978388,0.11459463550833882,0.0710633778362535,0.006674032909098875,20537.226735034317
1681938793421071529,133,1681938793421071529,camera_1,135,0,0.6600378487036075,0.49349070652900173,1.8118278443656664,-0.9806393780254542,-0.04446645339211108,0.15218750162958025,0.11492653799851527,0.06054395844694227,0.005685812538028043,20548.259651028195
1681938793430963039,134,1681938793430963039,camera_1,136,0,0.659745060220379,0.49118201904548087,1.8108131028281107,-0.9805592947216026,-0.044421668368945,0.15283417742879218,0.1147688944098413,0.07275441360252444,0.006823048127822983,20576.897171705903
1681938793440680503,135,1681938793440680503,camera_1,137,0,0.6598909168201929,0.4891652535227802,1.8110654640906847,-0.9806327744154465,-0.0445739669030207,0.1523899614949116,0.11467267700883176,0.06641796065378003,0.006228072120994634,20593.682317313498
1681938793450970649,136,1681938793450970649,camera_1,138,0,0.6600946549804654,0.4870599608223339,1.8114247800203838,-0.9806143678129751,-0.04436069780507207,0.15285372059266505,0.11429492652775959,0.061636012062081136,0.005780232545005515,20597.34894726368
1681938793460921287,137,1681938793460921287,camera_1,139,0,0.6601019127755325,0.4848104027280368,1.8112532933321241,-0.9805942620390621,-0.04451364152114323,0.15227635713910315,0.11517525789438747,0.06109464791370556,0.005725627212197717,20615.599993009935
1681938793471101284,138,1681938793471101284,camera_1,140,0,0.6601852900244435,0.48268218512167954,1.8113263632493517,-0.9805879811460592,-0.044496449181286146,0.15193643122752992,0.11568317988365973,0.06299454031977803,0.005901725732497181,20628.18398222711
1681938793480813980,139,1681938793480813980,camera_1,141,0,0.6601494796023937,0.4806041912304146,1.8111364950870332,-0.9806314887878642,-0.04438769327111931,0.15241033010187166,0.11472884189254598,0.057715209448360845,0.005404808014093183,20648.89231224649
1681938793490832805,140,1681938793490832805,camera_1,142,0,0.6600658142388828,0.47861269933792844,1.810749243939667,-0.9805636086556562,-0.04438860742860858,0.15268564299773207,0.11494240006679468,0.07333816241589375,0.006863095988903379,20663.1839402467
1681938793500594377,141,1681938793500594377,camera_1,143,0,0.6600266387882543,0.47668671413802793,1.8104599976880995,-0.980509257733699,-0.04455210569716011,0.15295107573746364,0.1149898856735343,0.06353397297789343,0.005942076439155215,20676.72026028135
1681938793510643482,142,1681938793510643482,camera_1,144,0,0.6599110515416667,0.4748532729278827,1.809975738482611,-0.9804920679804939,-0.044303117681058476,0.15322608620782546,0.11486646550018442,0.07846301651443355,0.007333047639583622,20695.256569576217
1681938793520630121,143,1681938793520630121,camera_1,145,0,0.659947133391855,0.4733701903773104,1.8099239658925683,-0.9804874124257839,-0.04436770764266014,0.15293191126976238,0.1152725947851606,0.0739720164128812,0.006911018534790103,20705.761589264384
1681938793530737876,144,1681938793530737876,camera_1,146,0,0.6599823318972449,0.4721114987305923,1.809897048559784,-0.9805130382547412,-0.04444547874888093,0.15285319745658493,0.11512897662420676,0.06232844677288085,0.005821922426931418,20716.727871951356
1681938793540560483,145,1681938793540560483,camera_1,147,0,0.6600012002253479,0.47111805169718435,1.8098670471834686,-0.9804680848104316,-0.04450519176920716,0.15321075066974083,0.11501342727249352,0.07184457828407176,0.006709978386130497,20718.932845154603
1681938793550615549,146,1681938793550615549,camera_1,148,0,0.6597118863599296,0.470088014622885,1.80904699878325,-0.9805112350404028,-0.044404626773458925,0.1534555696126738,0.11435617707628892,0.06913747207727283,0.00645106057567765,20745.756640536936
1681938793560550689,147,1681938793560550689,camera_1,149,0,0.659704862258987,0.4695433310304548,1.8089754925384485,-0.9803957285921139,-0.044441957441564664,0.15365175701679554,0.11506635191380642,0.07248039083788171,0.00676164696136995,20740.02791959874
1681938793570633411,148,1681938793570633411,camera_1,150,0,0.6595012686908133,0.46912937250297676,1.8084161826472975,-0.9803763544125991,-0.04433885271060625,0.15415467378561626,0.11459758461250132,0.07257596153067425,0.0067667243818903405,20751.442870423554
1681938793580606937,149,1681938793580606937,camera_1,151,0,0.6594669170191306,0.4691256014386872,1.8082683446011816,-0.9804105544397934,-0.04443612720939441,0.15395927219979444,0.11452998666461675,0.0702812882955186,0.006551688269113391,20758.13519361179
1681938793590615749,150,1681938793590615749,camera_1,152,0,0.659712039675198,0.46959205358528316,1.808965523470349,-0.9804308502032614,-0.044480612922546715,0.1535050012531009,0.11494797794667942,0.056855625778553076,0.005303897540147397,20743.430094566254
1681938793600593090,151,1681938793600593090,camera_1,153,0,0.6597841479830029,0.4702348881936751,1.8092138838347038,-0.9804817314195426,-0.04425943476498463,0.1536490114589707,0.11440567321816382,0.06918571033747867,0.006456987663260757,20737.62113648752
1681938793610570192,152,1681938793610570192,camera_1,154,0,0.6599160802375962,0.47119342603144176,1.8096508398231455,-0.9804704232507816,-0.04431187902198454,0.15327482103470177,0.11498276281579978,0.06836751733499113,0.006383884470183181,20722.491090028307
1681938793620749473,153,1681938793620749473,camera_1,155,0,0.6599213782827645,0.4723073459001607,1.809747470421191,-0.9804678560487199,-0.04448753106684778,0.15303658820705424,0.11525383075953484,0.06555322842905298,0.006122368780563813,20714.52934703441
1681938793630645751,154,1681938793630645751,camera_1,156,0,0.6598582053341758,0.4735962790728328,1.8097459165272438,-0.9804469590509932,-0.044487555056722076,0.15289230197321918,0.11562249750833731,0.05979708624363411,0.005585440359379626,20705.408564511752
1681938793640608072,155,1681938793640608072,camera_1,157,0,0.6599260613089919,0.47515726950065934,1.8100234315412327,-0.9804866667539521,-0.04439647329640573,0.15345468766927342,0.11457097498446732,0.08056086920259986,0.0075301854029944,20691.73649859214
1681938793650778532,156,1681938793650778532,camera_1,158,0,0.6601424794452918,0.47706269721140926,1.810769875095988,-0.9805852575058582,-0.044376742490903356,0.1525126942885357,0.11499189349218245,0.06050802007666789,0.005661095560636816,20674.53048119467
1681938793660713911,157,1681938793660713911,camera_1,159,0,0.6601160941781747,0.47900196048138394,1.8108491434819385,-0.9805372618956761,-0.04436762398978207,0.15302241404573008,0.11472721026525862,0.07355802606616635,0.006885192930732761,20655.28887599655
1681938793670781850,158,1681938793670781850,camera_1,160,0,0.6599900755459303,0.4809885279265713,1.810646862879001,-0.9806307969232358,-0.044219603380318925,0.1530837041237671,0.11390015950091452,0.07737868482945487,0.007244149357009277,20654.315324992174
1681938793680626630,159,1681938793680626630,camera_1,161,0,0.6600427317784733,0.48312447515115214,1.8110105692543577,-0.9805686078514465,-0.04426542389272043,0.1530654472538361,0.11444101712610281,0.06533960557135288,0.006120990705678508,20627.680178672304
1681938793690592765,160,1681938793690592765,camera_1,162,0,0.6598380746085566,0.48515884385317987,1.8106501245777264,-0.9805640431011267,-0.044368200559731195,0.15281678754310468,0.11477216387813341,0.06384292502480093,0.005980120470854096,20622.17795239255
1681938793700628519,161,1681938793700628519,camera_1,163,0,0.6601592152456371,0.4876609757774932,1.8116748377621497,-0.9806403547370266,-0.04425724499195953,0.1524323372185772,0.11467420589235555,0.06549298885511234,0.006143811044887556,20590.7264853883
1681938793710560798,162,1681938793710560798,camera_1,164,0,0.6599941745405081,0.4898553635497084,1.811373656623516,-0.980595334288287,-0.044350420819889665,0.1527687995287426,0.11457540938477158,0.0660438522027107,0.00619601127396492,20577.617118953254
1681938793720607995,163,1681938793720607995,camera_1,165,0,0.6598361304568366,0.491998406304123,1.8111233373481723,-0.9806028740568905,-0.04421998026247162,0.15321732462951407,0.11396073082569719,0.05999216440250166,0.005629266002575642,20567.599112745847
1681938793730992078,164,1681938793730992078,camera_1,166,0,0.6601863190378772,0.4943586343287555,1.812177528450287,-0.9807034078106672,-0.04434051190122749,0.15192342062997682,0.1147781302207379,0.0748099890333833,0.007029474335829411,20539.923086059047
1681938793741097450,165,1681938793741097450,camera_1,167,0,0.6596987592273439,0.4959497445404576,1.8110025854913008,-0.9805352291633865,-0.04440623643019802,0.15278483262057121,0.11504584067542216,0.06526835473778192,0.006127184838632233,20536.67204432276
1681938793751040935,166,1681938793751040935,camera_1,168,0,0.6599088019862984,0.49803563413448376,1.8117464712043934,-0.980620916957618,-0.044183695414153075,0.15241881747151978,0.11488656303212062,0.06936918171413708,0.006519700582518963,20513.694431781012
1681938793760943412,167,1681938793760943412,camera_1,169,0,0.6596751461256113,0.49963663459198626,1.8112712642766775,-0.980538894270228,-0.04447280100420458,0.15315737032023993,0.11449221244585975,0.06239937839563936,0.005863775338399344,20504.701801365536
1681938793770581960,168,1681938793770581960,camera_1,170,0,0.6596058254299092,0.5011379174459022,1.8112483495178706,-0.9805808926406542,-0.044309283170978396,0.1530766665787217,0.11430369443757683,0.06505251739872618,0.006114720975601912,20497.579880263307
1681938793780771017,169,1681938793780771017,camera_1,171,0,0.6596461944584587,0.5023773157182888,1.811366900498121,-0.9806132225794029,-0.04465166589903444,0.15269535742797744,0.1144030779954003,0.07371807553863619,0.0069316032623869565,20490.22156200383
1681938793790883064,170,1681938793790883064,camera_1,172,0,0.6599120552869714,0.5036198940003604,1.8121489637496622,-0.9807273890471359,-0.04439782319284921,0.15224792898447276,0.11411919114883139,0.06793853967974428,0.006394890121898124,20474.8236240857
1681938793800790548,171,1681938793800790548,camera_1,173,0,0.6598089692445157,0.5043268461669139,1.8119235421268791,-0.9807618652259215,-0.04439072996891572,0.1523574873676048,0.11367859453049466,0.07026419266185258,0.006613417638510379,20477.18823121488
1681938793810934066,172,1681938793810934066,camera_1,174,0,0.6600251578027482,0.5050305399273871,1.8125535358814424,-0.980782628515162,-0.044358329244778595,0.15193065942802295,0.11408264090240906,0.07830191546236165,0.007375473168418572,20461.10178229335
1681938793820629596,173,1681938793820629596,camera_1,175,0,0.6596850481789085,0.5049719627797704,1.8116559474145881,-0.9806550456538634,-0.044526113410486776,0.15245074880046913,0.1144197353971414,0.06546738636097871,0.006160579914905396,20468.353886358564
1681938793830990791,174,1681938793830990791,camera_1,176,0,0.6598191565828371,0.5049753576229644,1.8120412048478147,-0.9806663063909529,-0.04451749371920441,0.1522398396255196,0.11460724014337938,0.06842503044754267,0.00644133799397394,20461.74064962053
1681938793840637207,175,1681938793840637207,camera_1,177,0,0.6597191252590404,0.5045856255717143,1.811756717027327,-0.980681365775368,-0.04441853975379296,0.15260938481667055,0.11402380371210664,0.07050888770027086,0.006635503651369712,20471.223858997
1681938793850578546,176,1681938793850578546,camera_1,178,0,0.6598145825627151,0.5039995533372388,1.811920260936871,-0.9806768039281935,-0.04443519864814896,0.15233239217229724,0.11442622799580897,0.08012367889750749,0.0075405594651223465,20471.910128082432
1681938793860985994,177,1681938793860985994,camera_1,179,0,0.6595658703593148,0.5029124162936922,1.8111763426553151,-0.9805703354514781,-0.04462527750334178,0.15292397270012276,0.11447558872500958,0.07881618247483857,0.007410382929028892,20485.680341095955
1681938793870599269,178,1681938793870599269,camera_1,180,0,0.6596097690883199,0.5018055338831886,1.8112782475424654,-0.9805603641878062,-0.04440817324902588,0.15294619980306634,0.11461564595796526,0.06539268944470678,0.006147473821262411,20490.445577591192
1681938793880664348,179,1681938793880664348,camera_1,181,0,0.6597670942460317,0.5006025407781065,1.8115783711493147,-0.9806503538613424,-0.04430507854318543,0.15265189127116238,0.114277485001392,0.06565133717958815,0.006172429707551445,20501.351520429667
1681938793890676975,180,1681938793890676975,camera_1,182,0,0.6597895426988157,0.4990538951526883,1.8114548724314228,-0.980625081802577,-0.044456586898247684,0.1520017023206954,0.11529762925862068,0.07649694694555365,0.007188378031699097,20513.873292319244
1681938793900739908,181,1681938793900739908,camera_1,183,0,0.6599776621541953,0.4974545293167939,1.811914570559153,-0.9806824563977203,-0.04444953790402272,0.15189590548332405,0.11495126006814133,0.06259560144098941,0.005883134331762679,20521.990208813284
1681938793910638809,182,1681938793910638809,camera_1,184,0,0.6600805274553004,0.49558568478485954,1.812049474276002,-0.9806592999060529,-0.04436339758025441,0.15206457158041337,0.11495909069304548,0.0702204711997183,0.006598635434025084,20529.974136864363
1681938793920599222,183,1681938793920599222,camera_1,185,0,0.6600562850197481,0.4934863320095312,1.8118363117029135,-0.9806681202588219,-0.044446529725525194,0.15247186263251536,0.11431043263306394,0.0599022640963085,0.005626016431833094,20550.126499318576
1681938793930569410,184,1681938793930569410,camera_1,186,0,0.659720251535832,0.49114552607269885,1.8107545902770543,-0.980508890738881,-0.04439352519901845,0.15347191083963838,0.11435865811403699,0.06387703541258816,0.0059905079852519754,20572.933254680363
1681938793940568208,185,1681938793940568208,camera_1,187,0,0.6598788693823043,0.4891118957757983,1.8109743844049933,-0.9806414493524627,-0.044439275748149085,0.15208710920843865,0.11505220465293894,0.0660634823871078,0.006193915723506101,20596.337059346613
1681938793950594902,186,1681938793950594902,camera_1,188,0,0.6602039317221486,0.4871507446603979,1.8117186113707568,-0.9806553908635917,-0.04448623837840797,0.15184250515928313,0.11523815597304797,0.06646395615825895,0.006234097303982165,20596.16607242002
1681938793960669994,187,1681938793960669994,camera_1,189,0,0.6598787411526953,0.4846704915973434,1.8107116949469209,-0.9805132828703219,-0.044495281547563305,0.15280186926316452,0.11517578210956665,0.06108218694862444,0.005721199992722746,20620.07171290344
1681938793970576286,188,1681938793970576286,camera_1,190,0,0.6600009145069125,0.4825111748722275,1.810777074905361,-0.9805691252936274,-0.0443306539399446,0.1529059521241126,0.11462440162184626,0.0631453701062128,0.005913286637512698,20636.76208217367
1681938793980583429,189,1681938793980583429,camera_1,191,0,0.660012759864005,0.4804569183094113,1.8106925135333336,-0.9806278836147901,-0.04445832122550139,0.1524838190818315,0.11463462159926723,0.06754916874342598,0.006322838562211749,20658.5920201813
1681938793990715026,190,1681938793990715026,camera_1,192,0,0.6599855383693198,0.4785435643338376,1.8105182157130795,-0.9805132513307012,-0.04439454582567035,0.15319955817630454,0.11468558601853494,0.06252972243237309,0.005850418075746009,20663.173176902805
1681938794000988245,191,1681938794000988245,camera_1,193,0,0.659954757193839,0.47664073849397137,1.8102492993791328,-0.9805248661005636,-0.044324333016426284,0.15311885627909405,0.11472121125974553,0.07016782779828645,0.006561357269805375,20681.617772042056
1681938794010899543,192,1681938794010899543,camera_1,194,0,0.6599596758588177,0.47490195762671245,1.8100623479879197,-0.9805222564980821,-0.044328741079876305,0.1529164397509957,0.11501143282327501,0.07676425350655336,0.007174760107363089,20696.214680510457
1681938794020711183,193,1681938794020711183,camera_1,195,0,0.6599975571016867,0.4734153350189302,1.8100585549860262,-0.9805011287017538,-0.0444289850666004,0.15294499522883834,0.11511485714272192,0.0719659238238819,0.006724672047971286,20704.071314174096
1681938794030597448,194,1681938794030597448,camera_1,196,0,0.6599457713478144,0.472091881855613,1.8098013523420438,-0.9804528374784536,-0.04423971257043075,0.15352474230603314,0.1148269777186562,0.07275279769964982,0.006795618621927772,20711.49702563533
1681938794040700912,195,1681938794040700912,camera_1,197,0,0.6599666277600273,0.4710852049513431,1.8097690395261383,-0.980480170319692,-0.044467059956651185,0.15287559809758916,0.11537056684867086,0.066322219587164,0.006193134624001371,20722.765601294286
1681938794050698518,196,1681938794050698518,camera_1,198,0,0.6596872940238817,0.47009028805961495,1.8089955978311452,-0.9804860938707539,-0.04426715943125197,0.15343299954943404,0.11465492999091946,0.0688520315597998,0.0064238856549256405,20744.241906856532
1681938794060616731,197,1681938794060616731,camera_1,199,0,0.6597072719728545,0.469554595649943,1.8090143235156666,-0.9804562917384402,-0.044388611961625364,0.15340750871225953,0.11489668136776245,0.06460319554025773,0.006026936147489817,20744.950634753455
1681938794071026086,198,1681938794071026086,camera_1,200,0,0.6595386231276337,0.4691595658466286,1.8084503850276736,-0.9804026516097266,-0.04430055330269889,0.15431516068608941,0.11417063053219217,0.07397343771299347,0.006897774764002315,20752.09896979289
1681938794080940485,199,1681938794080940485,camera_1,201,0,0.6594088395241496,0.46909483035035354,1.8081421985797481,-0.9803577148033912,-0.04429025105138025,0.1541656225201797,0.11476099302569694,0.06991791540349368,0.006516872609778448,20755.578939010855
1681938794090574741,200,1681938794090574741,camera_1,202,0,0.6597482504707712,0.4696350108285635,1.8090614473290465,-0.9804050861202356,-0.044519282509872665,0.15320645240791297,0.11554948522153483,0.060789558570832014,0.005671071992391204,20739.514819372558
1681938794100605487,201,1681938794100605487,camera_1,203,0,0.6595440377532511,0.47006309510424155,1.808534380072944,-0.9804221832356923,-0.04439073308356792,0.15417537760087927,0.11415672725375543,0.07464008819079027,0.00696132982887764,20747.248184342632
1681938794110676527,202,1681938794110676527,camera_1,204,0,0.6599353456723077,0.47118504226428837,1.8096769947068894,-0.9805015835117765,-0.04444681024138575,0.15323413105094852,0.1147189037226475,0.06497598817804828,0.0060674644439730864,20725.19060638565
1681938794120577812,203,1681938794120577812,camera_1,205,0,0.6599524564757722,0.4723473256235105,1.8098939660315705,-0.9805460311415539,-0.04430576376596574,0.15313613960477232,0.11452424571508432,0.07095780067902524,0.006628737290142103,20717.458230496562
1681938794130728006,204,1681938794130728006,camera_1,206,0,0.6600420061792869,0.47374624316461994,1.810295490108842,-0.9805850382514295,-0.04431036371825922,0.15272403735247062,0.11473858478889899,0.07315730741538573,0.006838103881574293,20704.83178432437
1681938794140569925,205,1681938794140569925,camera_1,207,0,0.6599184283329725,0.4751409404418009,1.809973374072354,-0.9805199269850464,-0.04433020145346149,0.1529603911685894,0.1149722782147372,0.08702188220922835,0.008133159289241222,20696.29373627348
1681938794150615453,206,1681938794150615453,camera_1,208,0,0.6602856733179802,0.47714079447542634,1.8111128586403147,-0.9806200800069835,-0.04443369315591428,0.1523009313100095,0.11495360769339577,0.06615905617945828,0.006192136976684133,20670.201079151244
1681938794160561084,207,1681938794160561084,camera_1,209,0,0.6598179380198486,0.47880154865596536,1.8100340723809396,-0.9804910425309354,-0.04432472671712076,0.1536135526262197,0.11434819879475028,0.07120801003475208,0.006659774165311379,20668.494356014413
1681938794170540332,208,1681938794170540332,camera_1,210,0,0.6598843778268846,0.4808984973851268,1.8103057777500366,-0.9805142081068046,-0.04435349094639198,0.15330600377062004,0.11455097009382724,0.0792578526888974,0.00741703154012933,20651.488029103435
1681938794180613279,209,1681938794180613279,camera_1,211,0,0.6599828754296837,0.4831017264476767,1.8108124861742334,-0.980551152137435,-0.044310939439458755,0.15292893136761948,0.1147550462450316,0.05616968925460242,0.005260598225432101,20630.650519448045
1681938794190579652,210,1681938794190579652,camera_1,212,0,0.6601479873878171,0.48543004420334546,1.8115380829455079,-0.980642757138398,-0.04453632533586614,0.1517303175497831,0.11547384696900423,0.06675741431536152,0.006258370735132271,20611.32362536037
1681938794200554847,211,1681938794200554847,camera_1,213,0,0.6601641558919596,0.4876730578411618,1.811703680675728,-0.9806280078374098,-0.04442997229672259,0.15230128428542072,0.11488692968113026,0.061319398126215674,0.005752245952740504,20589.86935787351
1681938794210632801,212,1681938794210632801,camera_1,214,0,0.660045194145724,0.4898957422097049,1.8115778162155447,-0.9806209433561789,-0.04449046280350465,0.15254159799630854,0.11460464672734838,0.06084654733422212,0.0057094540111502085,20576.63399593201
1681938794221046447,213,1681938794221046447,camera_1,215,0,0.6600231143231305,0.4921327390593162,1.8116160840444844,-0.9806028547290048,-0.04426698019440019,0.15269437519630466,0.1146425032228676,0.07135231292340904,0.006698369663510791,20557.061513572284
1681938794230956077,214,1681938794230956077,camera_1,216,0,0.6600097273391928,0.49424190036920373,1.8117203817325642,-0.9806020513557472,-0.04437625925256472,0.1525285402657373,0.11482773574382295,0.06884660079958849,0.0064660417127009664,20540.460623345287
1681938794240944862,215,1681938794240944862,camera_1,217,0,0.659627569554931,0.4959060451700309,1.8108054079138864,-0.9804338250974339,-0.044316685888929674,0.15359138405538855,0.11487050404950108,0.06553753379557747,0.006151578662863573,20530.416324254882
1681938794250778198,216,1681938794250778198,camera_1,218,0,0.6599195510933089,0.4980262816237635,1.8117280521751273,-0.9805745223151923,-0.044339461908076874,0.1525544789698218,0.11504238023563725,0.07595760186086409,0.007138824898994299,20510.070221904378
1681938794260961771,217,1681938794260961771,camera_1,219,0,0.6598205455183639,0.4997206791815101,1.811641785218758,-0.9805982269344081,-0.04458380445524746,0.15259075810801934,0.11469726349574089,0.059094056574394926,0.00555508793174514,20502.93539489068
1681938794270837783,218,1681938794270837783,camera_1,220,0,0.6597140728944614,0.5012145140423063,1.8115017994266585,-0.9806291469822285,-0.044448811580355393,0.15259615490264214,0.11447791379532526,0.07337835736689158,0.0068990355405069755,20497.07972799521
1681938794280599594,219,1681938794280599594,camera_1,221,0,0.6595291661912636,0.5023172409075929,1.8110751215410068,-0.980545997366463,-0.04468253097669996,0.15290483777456323,0.11468709194699836,0.060829120295238674,0.005717678450807951,20490.542606765575
1681938794290927886,220,1681938794290927886,camera_1,222,0,0.659798807664656,0.5035514723033586,1.8118561606818289,-0.9806865705414015,-0.04434390540429327,0.15241979881828033,0.11426142543060956,0.07314483531808946,0.006882785354340126,20477.18746724707
1681938794300538301,221,1681938794300538301,camera_1,223,0,0.6597825269780727,0.5043160495523829,1.811877472986168,-0.980728528226799,-0.04435622370723499,0.1523782969388591,0.11395145441170719,0.06873582689149771,0.006469087647380249,20475.03940208053
1681938794310595035,222,1681938794310595035,camera_1,224,0,0.6599114495076621,0.5049220847114435,1.8122426385297532,-0.9807520996302155,-0.04444684106755854,0.15212091104278747,0.1140571164529061,0.06899711943697186,0.006496768170457184,20465.6896960811
1681938794320688962,223,1681938794320688962,camera_1,225,0,0.6599269544645752,0.5051573488827242,1.812335983185985,-0.9806996488589074,-0.0446357751758051,0.1518173605044546,0.11483612389806329,0.05186223408963997,0.004883489579144111,20458.449379006044
1681938794330701112,224,1681938794330701112,camera_1,226,0,0.6598484978837624,0.5050012508424949,1.8120819623548134,-0.9807063433713279,-0.04441722701024009,0.1526002608212016,0.11382151999187712,0.0668301246187184,0.0062920444525647505,20463.588489606285
1681938794340690612,225,1681938794340690612,camera_1,227,0,0.6597900743758338,0.5046238879915803,1.811950870686324,-0.9807145474803831,-0.04441519816076444,0.15267416713401988,0.11365238766792733,0.06711269484367222,0.00631739700963896,20470.00466291968
1681938794350588321,226,1681938794350588321,camera_1,228,0,0.6597155812493315,0.503921609341629,1.81166488588073,-0.9806399998809743,-0.04459053853926937,0.15278039023788784,0.11408342064024798,0.05970035029167775,0.005617021553312269,20474.7294282887
1681938794360605955,227,1681938794360605955,camera_1,229,0,0.6597517311816867,0.5030595090342458,1.811721424002448,-0.9805949428038472,-0.04459549800353781,0.15298201027784647,0.1141985299234848,0.06645652955921831,0.006252096477333143,20475.76813118649
1681938794370676040,228,1681938794370676040,camera_1,230,0,0.6597711056404246,0.5019232594908858,1.8116605495049773,-0.9806169297288606,-0.04438050308688422,0.15282299081899745,0.11430634957006829,0.08049918962933589,0.0075711626434545685,20486.620246917184
1681938794380710840,229,1681938794380710840,camera_1,231,0,0.6598089326378445,0.5006074724670133,1.8116469403998943,-0.9806477051480263,-0.04437644391125562,0.1523775229041635,0.11463812684832167,0.0716191744140815,0.006733779349165062,20499.989711747796
1681938794390594720,230,1681938794390594720,camera_1,232,0,0.6598000691498096,0.4990710199000579,1.8115332357649243,-0.9806583291363471,-0.04440879874222207,0.15231240791113365,0.11462124796953331,0.05930405962863006,0.005573491950013277,20515.054559800134
1681938794400600671,231,1681938794400600671,camera_1,233,0,0.6598514416009695,0.4973600842741894,1.811578255741955,-0.9805906376340378,-0.044312158290673385,0.15243764681414046,0.11507040386589798,0.0670040039694868,0.006295349946226923,20519.994103143057
1681938794410580396,232,1681938794410580396,camera_1,234,0,0.6600189342156582,0.495532321045426,1.8118645611800155,-0.9806011098356077,-0.04440156931995898,0.15194173165172234,0.11560135904813355,0.0557810457830783,0.005240285463798398,20529.14810996561
