%time,field.header.seq,field.header.stamp,field.header.frame_id,field.image_seq,field.transforms0.fiducial_id,field.transforms0.transform.translation.x,field.transforms0.transform.translation.y,field.transforms0.transform.translation.z,field.transforms0.transform.rotation.x,field.transforms0.transform.rotation.y,field.transforms0.transform.rotation.z,field.transforms0.transform.rotation.w,field.transforms0.image_error,field.transforms0.object_error,field.transforms0.fiducial_area
1684938610887378692,13,1684938610887378692,camera_2,14,0,0.22433587850893627,-0.05216269526533492,0.4680923578929438,0.9727043710840688,-0.0020062350557942385,-0.22434940078230028,0.059241268246637446,0.43279895710293204,0.03662331114879929,31768.990875381976
1684938610897627592,14,1684938610897627592,camera_2,15,0,0.22430546806575694,-0.05154973136758295,0.4680026914825121,0.9726365237097874,-0.002082847945003648,-0.22454596127014978,0.05960675941067968,0.4835990267456509,0.04090162644590922,31780.856609633887
1684938610907431125,15,1684938610907431125,camera_2,16,0,0.22428430652658787,-0.05149406007568518,0.4679719358513194,0.9726930993111665,-0.0019912935444783286,-0.2242077985249091,0.05995858890159577,0.5385709310066886,0.045543444395618554,31794.322335889796
1684938610917550802,16,1684938610917550802,camera_2,17,0,0.2243147202531455,-0.05163328522671451,0.4680399085444758,0.9726550845061888,-0.0019282473134310698,-0.22443734247478406,0.05971806886875621,0.47177934681531053,0.039909719512775096,31777.801358198973
1684938610927434682,17,1684938610927434682,camera_2,18,0,0.22423170954278068,-0.05191299950769627,0.4678941104769008,0.972494698712878,-0.0020364243521751187,-0.22517285349637062,0.059557535203436034,0.48845877463463694,0.0413170160964093,31772.18844919186
1684938610937491416,18,1684938610937491416,camera_2,19,0,0.22430500459226094,-0.052339382505597956,0.4680707352962966,0.9726460469187836,-0.0019049289519595357,-0.22457192968046172,0.05935896780222086,0.48500741249881685,0.04104951460273289,31762.81733217252
1684938610947377681,19,1684938610947377681,camera_2,20,0,0.2242877935661548,-0.053258611549065214,0.46809730750677414,0.9728008405538247,-0.0016675638874024733,-0.22394545501298335,0.05919608962998844,0.5318136881687678,0.045026667933192585,31766.552917433895
1684938610957551717,20,1684938610957551717,camera_2,21,0,0.22424631307496032,-0.05360545661174762,0.46800906674968984,0.9728568719926094,-0.001797575533378304,-0.22387550734300538,0.0585323205662412,0.47041917440947145,0.0398087959674473,31778.94769917684
1684938610967557668,21,1684938610967557668,camera_2,22,0,0.224137598534125,-0.053782078274008244,0.4677745561180018,0.9726771165972294,-0.0016076391321667195,-0.22477480416539966,0.058076929644453275,0.5126314762746915,0.04335483622714842,31782.25243421319
1684938610977567672,22,1684938610977567672,camera_2,23,0,0.224114699058031,-0.05381025271402797,0.4677262037507913,0.972768712025337,-0.001714964576731729,-0.22440247260976198,0.05797949713211259,0.548147912195418,0.046338229128370864,31800.49283291702
1684938610987445592,23,1684938610987445592,camera_2,24,0,0.224229352675745,-0.053675893008659104,0.4679515926543179,0.9727187546187998,-0.0017390371810324023,-0.2245929544941896,0.058079298843090876,0.5305718699237332,0.04489861613771979,31765.806343046024
1684938610997375249,24,1684938610997375249,camera_2,25,0,0.22424300110306758,-0.05292439318204714,0.46795824044750195,0.9725897374850812,-0.0019308821764807845,-0.22496271556396177,0.05879839146447253,0.4933426871430129,0.041751005775935865,31760.61513056817
1684938611007294654,25,1684938611007294654,camera_2,26,0,0.22426948428383137,-0.0524616019156353,0.4679620405624253,0.9725457955559129,-0.0018790581922245291,-0.22513990063414713,0.05884870286822824,0.42913540086010477,0.03630913454584439,31760.122206739376
1684938611017464876,26,1684938611017464876,camera_2,27,0,0.22429597121212275,-0.052032075886735356,0.46801290157280595,0.9725840206661985,-0.002073807259892734,-0.22483054950539208,0.059390622806331526,0.43399957596557215,0.03672220465821154,31765.72539462802
1684938611027369022,27,1684938611027369022,camera_2,28,0,0.22426909499108583,-0.0516805125855985,0.46795329368736976,0.9725977056870952,-0.0019149850579563946,-0.22485875894620877,0.05906415367714231,0.5445003905915655,0.04603953746070176,31780.714140993077
1684938611037524938,28,1684938611037524938,camera_2,29,0,0.22427900889385527,-0.051507795386401954,0.46796112550509283,0.9727011927272693,-0.002057095590733336,-0.22428055043426737,0.05955159713710875,0.5031158020719886,0.0425356842297847,31796.181344999
1684938611047421932,29,1684938611047421932,camera_2,30,0,0.22420933049490813,-0.05168402709934425,0.4678264669981995,0.9725507247878343,-0.001746091702384461,-0.22496704350710803,0.059429523084878186,0.5086581308860332,0.04299779367573479,31791.510296135202
1684938611057460069,30,1684938611057460069,camera_2,31,0,0.2242887549459436,-0.05205202912872126,0.46801485470450593,0.9726098570552099,-0.0018645167622321865,-0.2247213058589517,0.05938791315861383,0.4621195368235931,0.039099042147533444,31769.239269638903
1684938611067376136,31,1684938611067376136,camera_2,32,0,0.2242617033058641,-0.0525007748777735,0.4679913300508781,0.9726429172387525,-0.0017620321271005412,-0.2244715690887136,0.059792687336523744,0.43955542432377115,0.03720123916244989,31770.996167868143
1684938611077528715,32,1684938611077528715,camera_2,33,0,0.22434019925094134,-0.05298847515924317,0.46816864087163873,0.9727570880610693,-0.0016763109054629397,-0.22420998925977442,0.05891280272427566,0.4532158335787244,0.03837592929298747,31754.24255192606
1684938611087256431,33,1684938611087256431,camera_2,34,0,0.22416608226333223,-0.053382933552687445,0.46784272238106467,0.9726597091232357,-0.001663512165290951,-0.22462543998974976,0.05893839737378109,0.5096428229589947,0.043118500049632205,31779.01757170446
1684938611097277641,34,1684938611097277641,camera_2,35,0,0.2241182849633879,-0.05381285284816921,0.4677319492167875,0.972725346053426,-0.0017958688100859215,-0.22457734198877888,0.05802752334638178,0.5127595628728159,0.04335408405815049,31793.761404671237
1684938611107274770,35,1684938611107274770,camera_2,36,0,0.22414856700511426,-0.05377034013219238,0.46778750241273476,0.9727357979636322,-0.001621801972711246,-0.22450069332343087,0.058153897682924796,0.4900562349357642,0.041443635543457966,31788.337166730085
1684938611117485046,36,1684938611117485046,camera_2,37,0,0.22418452480751488,-0.05353411746169902,0.4678492128039215,0.9727128230551705,-0.0015796448047591665,-0.22460871881064262,0.05812221623934471,0.4678814137005247,0.0395729157666967,31780.82877655258
1684938611127748966,37,1684938611127748966,camera_2,38,0,0.22432180929046905,-0.05272304899622226,0.4681124555855204,0.9726067186174873,-0.0019384119928047725,-0.22474010453057358,0.05936580560101002,0.49655556108336896,0.04205237915242004,31745.906973361023
1684938611137832164,38,1684938611137832164,camera_2,39,0,0.22434998475261894,-0.05187377476291653,0.4681112925134234,0.9727473205077574,-0.0020857660954251254,-0.22412386230690973,0.059386819829043085,0.4692013779422268,0.039697805255777735,31776.635287685556
1684938611147666215,39,1684938611147666215,camera_2,40,0,0.22424766651145317,-0.051583748338533034,0.4678945825678551,0.972624545173015,-0.0020254809177205763,-0.2245740037763783,0.0596984788908808,0.5049565130029805,0.04269243730895417,31793.7367267073
1684938611157434463,40,1684938611157434463,camera_2,41,0,0.22423022918234914,-0.051474971627505035,0.4678628011237685,0.9726354533077496,-0.001983780785861124,-0.22450293103616256,0.05978940992177604,0.5300197280012071,0.04480179392576484,31801.369889765745
1684938611167466640,41,1684938611167466640,camera_2,42,0,0.22429440809932313,-0.05156506758293146,0.4680081620964017,0.9726912114405801,-0.002043181968811002,-0.22427768048292318,0.0597256614103112,0.490175194456242,0.04145478132674861,31788.33112746198
1684938611177322864,42,1684938611177322864,camera_2,43,0,0.22430598584422015,-0.05182053629126362,0.4680448709335544,0.972753567827318,-0.0018906959359326933,-0.22407507958745554,0.05947503893211697,0.5330222023767419,0.04508178135741019,31788.201770774547
1684938611187266111,43,1684938611187266111,camera_2,44,0,0.224208176268187,-0.05264118701148468,0.46789466029165355,0.9725514859632454,-0.0016393764838850112,-0.2251129760957518,0.0588648247151133,0.41519127233186737,0.03512182365539873,31768.883385086665
1684938611197446584,44,1684938611197446584,camera_2,45,0,0.22424077499363285,-0.053117110007327537,0.46799786288274386,0.9727577436418745,-0.001531598955072599,-0.22433461637107827,0.058429498432307506,0.5026154108927585,0.04252169917165622,31775.77080916263
1684938611207614421,45,1684938611207614421,camera_2,46,0,0.22428571973833972,-0.05352197584309287,0.46809166279840747,0.9728768284790047,-0.0017630453816166623,-0.22382862490415453,0.05838077554410304,0.4736480728024617,0.040089265924841806,31772.05554160847
1684938611217481613,46,1684938611217481613,camera_2,47,0,0.2241142737981837,-0.053741404765683835,0.46772954723611426,0.9727380546360439,-0.0017385488325189077,-0.2245183236874267,0.058044610769903686,0.468305490037892,0.039591545793016755,31797.23127081083
1684938611227546215,47,1684938611227546215,camera_2,48,0,0.22411862831516355,-0.05381507564312229,0.4677384097856771,0.9727135375610689,-0.001648920232957261,-0.22473357532084073,0.057623563157863586,0.5678316171397455,0.048003565326965494,31791.261049536522
1684938611237639904,48,1684938611237639904,camera_2,49,0,0.22418726236948713,-0.05343407648766869,0.467864454403236,0.9726247713466232,-0.0016754978288407156,-0.22499555487113554,0.058096877353127435,0.48213710577692837,0.040785511907901195,31769.05816844361
1684938611247411966,49,1684938611247411966,camera_2,50,0,0.2242382330895316,-0.05302330326840989,0.467949744614886,0.9725833169669519,-0.0017512822235843765,-0.22504080486189912,0.05861109720218107,0.48237513296771795,0.0408216758292138,31759.048192687802
1684938611257488727,50,1684938611257488727,camera_2,51,0,0.22430207294183813,-0.05256379913405754,0.46805226810138834,0.972606157145279,-0.0017344499444115627,-0.2249224794140106,0.05868673632718994,0.48562282661441714,0.04109799948235581,31755.247615708282
1684938611267543077,51,1684938611267543077,camera_2,52,0,0.22431305049530914,-0.05210741516651404,0.4680706432692502,0.97263414889608,-0.002032099913206937,-0.2245229238738002,0.05973390683941912,0.4653931228676811,0.03939113361508761,31764.699320044823
1684938611277577638,52,1684938611277577638,camera_2,53,0,0.22427360620497802,-0.05173496588054024,0.46796357655181914,0.9726630695314302,-0.0021626791760060533,-0.22451957028638458,0.0592692040346023,0.5213691553799435,0.04408551514098179,31787.52184198446
1684938611287481307,53,1684938611287481307,camera_2,54,0,0.22416126903059672,-0.05147210182758119,0.4677296224583522,0.9724946410261018,-0.0019048069222691608,-0.22525924469930306,0.059235272968070435,0.5058488773647696,0.04273705819038446,31799.979596254183
1684938611297482013,54,1684938611297482013,camera_2,55,0,0.22431082799779187,-0.05165488735064695,0.46804559984821664,0.9726796558201943,-0.0020064608251981236,-0.22436692203779002,0.059579741219254356,0.5155896396026947,0.04361221063725589,31780.43118884416
1684938611307347774,55,1684938611307347774,camera_2,56,0,0.22426735852103186,-0.05196221146888766,0.46796867581253265,0.9726198012319546,-0.0018806917957484017,-0.22470425130737837,0.05928899302799156,0.5081429986748844,0.04297885206721429,31778.098444940522
1684938611317423582,56,1684938611317423582,camera_2,57,0,0.22433676113261145,-0.05241610762415025,0.4681557067683303,0.9726377002198107,-0.001690678342026217,-0.22461379226028166,0.05934382903315637,0.4645630079321563,0.039334450968053464,31749.66465787823
1684938611327345848,57,1684938611327345848,camera_2,58,0,0.2242130164880925,-0.05285475130099673,0.4679106780985079,0.9726321118518564,-0.0020547750749610747,-0.22476416389066353,0.058852557501949475,0.4413554235943593,0.037338916453160106,31774.28660501051
1684938611337489843,58,1684938611337489843,camera_2,59,0,0.22421028714494862,-0.053637177201032296,0.46794315553606075,0.9728665323074508,-0.0014055273134500439,-0.22385068281106987,0.05847740259335022,0.5039310453576036,0.042630398295291375,31788.768505712054
1684938611347357511,59,1684938611347357511,camera_2,60,0,0.22405773695295497,-0.053775114092778846,0.46762707082788807,0.9726867289706921,-0.0016043355510756514,-0.22484967004957526,0.05762446763599531,0.5047974805929698,0.04265563490907939,31803.6299093219
1684938611357583522,60,1684938611357583522,camera_2,61,0,0.2241257679211524,-0.05379619409738727,0.4677550976161707,0.9727444570955069,-0.0016243402004658461,-0.22457026999490107,0.05773886510226791,0.49937403184594586,0.04221697720778466,31793.549222898437
1684938611367489814,61,1684938611367489814,camera_2,62,0,0.224272314849832,-0.05330693243954001,0.4680400584888852,0.9728096017052883,-0.0018573074207163679,-0.2241599769339258,0.05822657451821598,0.4752333339420147,0.040212266323997485,31772.83300507092
1684938611377610206,62,1684938611377610206,camera_2,63,0,0.22434961771094766,-0.05242156194556659,0.46815747585069084,0.9726793879642309,-0.0016675331755319422,-0.22449326692755525,0.059116839114004255,0.4599728328175843,0.03893884563566819,31753.908126548864
1684938611387309789,63,1684938611387309789,camera_2,64,0,0.22431950527785255,-0.05198051059560539,0.4680668214067335,0.972654151990595,-0.0019833647191373153,-0.22457345898206604,0.05921763589234008,0.4485667804838158,0.03795211514834366,31768.79287625967
1684938611397513389,64,1684938611397513389,camera_2,65,0,0.22427117535445698,-0.05165034522632761,0.4679499947417402,0.9726558112501904,-0.00202334025959944,-0.2244771720946521,0.05955315393676407,0.5018540740129538,0.04243617254475016,31789.59581411795
1684938611407332420,65,1684938611407332420,camera_2,66,0,0.2242111572761356,-0.05148461793313821,0.46782615369705305,0.9725938621555799,-0.0019085837526609747,-0.22458894907444676,0.06014433106276781,0.5436211482156068,0.04595620965814294,31801.014975500526
1684938611417387008,66,1684938611417387008,camera_2,67,0,0.22423775262424694,-0.0515154900499144,0.4678949723698285,0.9726146055395719,-0.002005000669986894,-0.22457489969533528,0.059857526596466065,0.5156789246248081,0.04359950413893205,31794.235098494217
1684938611427381277,67,1684938611427381277,camera_2,68,0,0.2243106673253126,-0.05209728940310485,0.46807631590565496,0.972644599500301,-0.0021009309016541133,-0.22446002578563307,0.05979770879020863,0.4380569107597694,0.03707778272153043,31765.86285171727
1684938611437302350,68,1684938611437302350,camera_2,69,0,0.2242882917934362,-0.052542145840433076,0.4680537029641776,0.9726451434615336,-0.0015301892244990018,-0.22471431523591406,0.05884352088109676,0.5037707226583734,0.042630768746569674,31761.821337550657
1684938611447784662,69,1684938611447784662,camera_2,70,0,0.22430497770186242,-0.053031954768163275,0.46811666003191144,0.9727818801595446,-0.001862679802292742,-0.22421293386932561,0.05848507795091818,0.45384362974436954,0.03841224643791453,31764.116051556783
1684938611457941770,70,1684938611457941770,camera_2,71,0,0.22422967526074414,-0.05342985919085877,0.4679756892395565,0.9727843785186294,-0.001649098458021275,-0.22415780509076355,0.05866099045610425,0.4593666438595392,0.03887116866216849,31776.92507859459
1684938611467843055,71,1684938611467843055,camera_2,72,0,0.22423264160837275,-0.0537250659577777,0.46797703752428077,0.9728757944580355,-0.0016950505689354097,-0.22386562553847694,0.058258021451827006,0.47852092096582055,0.04048677256456452,31783.280656498406
1684938611477747440,72,1684938611477747440,camera_2,73,0,0.22417212008733892,-0.05375685724505651,0.4678428795290404,0.972766036797884,-0.0016563335435564547,-0.22445483886026002,0.057823174627007666,0.4618512017186731,0.039058021046755306,31785.180700285135
1684938611497491359,73,1684938611497491359,camera_2,75,0,0.22427312877143465,-0.05311887151399177,0.4680439010778622,0.9727050074141623,-0.0017644628818391727,-0.22457337526836435,0.058383682161434865,0.4934172817738727,0.041758393517122676,31761.76209658454
1684938611507246017,74,1684938611507246017,camera_2,76,0,0.2243428795394838,-0.05266810887181016,0.46816121203981254,-0.9727745873841441,0.001906110841986497,0.2241649315985462,-0.05878819883688843,0.4711684624780901,0.039882561453213936,31762.510860295493
1684938611517330884,75,1684938611517330884,camera_2,77,0,0.22434656889171845,-0.05220622091427796,0.4681390391452604,0.9727170957440926,-0.0018623162481146624,-0.2243018947829538,0.059216918377660875,0.4348355990368873,0.036802056263990975,31764.56278953445
1684938611527457475,76,1684938611527457475,camera_2,78,0,0.22429415789083662,-0.051566726069528765,0.46800643736559916,0.9726694122317354,-0.002095039372561004,-0.22438089579440693,0.059691196346674955,0.49285218358272687,0.041682464108653575,31785.531906335607
1684938611537402629,77,1684938611537402629,camera_2,79,0,0.22428124761704082,-0.05148833550003705,0.46797154208112995,0.9726748283815253,-0.00208060655567974,-0.22429515138051015,0.05992523989543133,0.5219142063288018,0.044135327756580245,31792.126168262454
1684938611547674417,78,1684938611547674417,camera_2,80,0,0.22433128425989338,-0.051601868896262795,0.4680861795271138,0.9727232777470349,-0.002135642624171489,-0.22406487958337157,0.059998280783167296,0.506921958993189,0.04288892314010869,31782.021558891283
1684938611557824611,79,1684938611557824611,camera_2,81,0,0.22428303536336783,-0.05186209008841133,0.4680055281858306,0.9725863325596223,-0.002060657062688803,-0.22471328404390106,0.05979564687248571,0.5081836402532646,0.042999198247350545,31770.852704579014
1684938611567706346,80,1684938611567706346,camera_2,82,0,0.22445611553662217,-0.05229731746292741,0.4683925755288484,0.9728410099270894,-0.001916172351493955,-0.2234896847545407,0.060241667439374535,0.49710501974914223,0.04212546982564588,31747.85730684037
1684938611577773809,81,1684938611577773809,camera_2,83,0,0.22415769425897256,-0.0531524031505223,0.4678168405047154,0.9725588819014779,-0.0017910745377150339,-0.22515234714261967,0.058586976903719314,0.465121389424894,0.03934430807575974,31772.33401179546
1684938611587699413,82,1684938611587699413,camera_2,84,0,0.224240745355656,-0.05354318523536459,0.4680012628628881,0.9728536412861237,-0.0017395573362281932,-0.2239196478998631,0.05841881427250332,0.49391776468837634,0.041792430995345395,31780.77655687648
1684938611597897529,83,1684938611597897529,camera_2,85,0,0.2241093838960606,-0.053756073014807615,0.4677330319747041,0.9727001823845013,-0.0017133892998906347,-0.22475531946797322,0.057762149000138645,0.4869360169977881,0.04116538959582365,31791.669419502377
1684938611607322454,84,1684938611607322454,camera_2,86,0,0.22418089550604953,-0.05369380637168178,0.46786914202568675,0.9727687181293939,-0.0017432975140736432,-0.22438398636450102,0.0580500525912683,0.5016329950885847,0.042428901560959485,31783.71333213988
1684938611617678642,85,1684938611617678642,camera_2,87,0,0.22418040810659892,-0.05296984241839838,0.46782434491472946,0.9724930095355779,-0.001897736043978796,-0.22550456134301466,0.05832184681434811,0.4443688077153638,0.03758699602609187,31764.05100107448
1684938611627488374,86,1684938611627488374,camera_2,88,0,0.2242409532284003,-0.05250072744131056,0.46793485617706493,0.9725994555672325,-0.0020295231912113424,-0.22492500694669873,0.05877857871679833,0.4571715207421221,0.03867173191658827,31771.40884938812
1684938611637572765,87,1684938611637572765,camera_2,89,0,0.22432239222013053,-0.05207500548437091,0.46808613472958394,0.9726277351711566,-0.0019481934629673925,-0.22458621728040856,0.0596030563455784,0.45898033888079226,0.038847789120849775,31762.004384045264
1684938611647545099,88,1684938611647545099,camera_2,90,0,0.22428159667632785,-0.05170942964885555,0.46797935389750916,0.9725910224429041,-0.0021252806557688904,-0.22477883273332416,0.05946984614613583,0.49010142299812287,0.04145404761374993,31776.198315778754
1684938611657351016,89,1684938611657351016,camera_2,91,0,0.22426831371951392,-0.0515101498512924,0.46794317906919375,0.9727012294852267,-0.002025915655211448,-0.22426006864685893,0.05962914919896502,0.5022897449089214,0.042463431036829986,31798.768741897307
1684938611667568683,90,1684938611667568683,camera_2,92,0,0.22427241253883118,-0.05167325766960858,0.4679676368348905,0.9726331960752111,-0.002156333091954797,-0.22453858842033714,0.05968616615530773,0.4878176358179189,0.0412574284399202,31784.450079930015
1684938611677324295,91,1684938611677324295,camera_2,93,0,0.22440665548383135,-0.052043173645130544,0.46827429535679316,0.9728612621662404,-0.0017750559781869388,-0.2236437929400415,0.05934026990144219,0.4773311066091992,0.04040339365487009,31769.002989665132
1684938611687362909,92,1684938611687362909,camera_2,94,0,0.22423127883714475,-0.05244640414143978,0.46793120205965943,0.9724818160666084,-0.0018721463407290605,-0.22520618642201,0.05964718002659345,0.44201213849009946,0.037411372646847,31758.22356624039
1684938611697351932,93,1684938611697351932,camera_2,95,0,0.2241669593615081,-0.05290652763268322,0.46782107069332146,0.9725903445194733,-0.0017462419926537105,-0.22498669189388845,0.0587023070844744,0.4391707254108041,0.03714136631407082,31779.793950323972
1684938611707373619,94,1684938611707373619,camera_2,96,0,0.22418114698179514,-0.05334501824294878,0.4678750078256173,0.9726640941929491,-0.0017642568143050844,-0.2247501574193771,0.05838504950471783,0.4641391430632211,0.03926266905337781,31775.486906859554
1684938611717360496,95,1684938611717360496,camera_2,97,0,0.22409172955279882,-0.05379697046349076,0.4676945384067513,0.9726879359284979,-0.0016252841223961063,-0.22474978723721029,0.057991989856435715,0.5019416536670178,0.04243410725290525,31794.536967790926
1684938611727523088,96,1684938611727523088,camera_2,98,0,0.22415136249930095,-0.05378123420763802,0.46779363920531164,0.9727777765289602,-0.0015657401572755684,-0.22431854631282594,0.05815613234417127,0.48031072836602107,0.040616482574447256,31792.95842632652
1684938611737458705,97,1684938611737458705,camera_2,99,0,0.22420094401711765,-0.05358468780296076,0.4678981229605193,0.9726980579593048,-0.0018316968735969021,-0.2246521203883363,0.05819413831121522,0.4726663863984868,0.03999048537349172,31771.96481415582
1684938611747415781,98,1684938611747415781,camera_2,100,0,0.2242304028377416,-0.053231029460446215,0.46795281486999185,0.9726174010536577,-0.0017021197698569475,-0.22506695261779558,0.057942737208872476,0.4812911518965848,0.04072051866622379,31759.708989148035
1684938611757306098,99,1684938611757306098,camera_2,101,0,0.22425354647698328,-0.052789489263302514,0.4679763983066832,0.9725599705408887,-0.002013136970933642,-0.2250828163354202,0.05882836706519666,0.48578091739909723,0.041113502471292605,31756.364106018096
1684938611767359495,100,1684938611767359495,camera_2,102,0,0.22430677575691887,-0.0519228385009592,0.468037310379117,0.9726749025891964,-0.0019246078248647315,-0.22442387911790865,0.059445371892925,0.44995031284634024,0.03806517537578097,31776.548022797328
1684938611777237415,101,1684938611777237415,camera_2,103,0,0.22436841492832152,-0.051637556857873045,0.4681596168094727,0.9727530455824749,-0.0019490825967816722,-0.22411824015196974,0.059318865618238854,0.4951776184607297,0.04189329854067772,31774.832857121015
1684938611787213563,102,1684938611787213563,camera_2,104,0,0.22422695289005604,-0.051482987056401114,0.4678588211461555,0.9725674235911677,-0.002096337011807398,-0.22486796379249244,0.05951983535082766,0.4997724774875678,0.04224619452769312,31792.37278233213
1684938611797314405,103,1684938611797314405,camera_2,105,0,0.22425147210645532,-0.05153477338512928,0.46792715297288606,0.9726069184715965,-0.002037636063874214,-0.22462064517010116,0.05980966430121411,0.5070262691006064,0.042873676730014514,31788.653374893358
1684938611807515382,104,1684938611807515382,camera_2,106,0,0.22426067828481913,-0.051765714262015095,0.46796707612299615,0.9726073615823262,-0.0018906629275446602,-0.22463083043858628,0.05976901878090264,0.4676495306775905,0.03955585504029061,31780.445285583835
1684938611817369937,105,1684938611817369937,camera_2,107,0,0.22424314671484563,-0.052583592076304406,0.4679642562409967,0.9725998564485502,-0.0018503029378149915,-0.22464298365874288,0.0598466833516764,0.4402584941126406,0.03726496051716676,31767.887888476478
1684938611827354669,106,1684938611827354669,camera_2,108,0,0.22429466453482436,-0.05307161313360101,0.46811473230556677,0.9728044503771034,-0.0018000113786972385,-0.22404905434520037,0.058739105649985475,0.47547850757837296,0.04024593803104117,31767.617443326155
1684938611837469339,107,1684938611837469339,camera_2,109,0,0.22422437425852224,-0.053465427047427634,0.4679774661410628,-0.9727615335208349,0.0016832179013169237,0.2242949858457002,-0.058514314523605136,0.48832664103247225,0.041323479296902325,31773.352538530038
1684938611847411155,108,1684938611847411155,camera_2,110,0,0.22407777665218087,-0.05380745894776297,0.4676555278066188,0.9726984921763243,-0.0017377743180041995,-0.22477049549153996,0.05773082205211014,0.5038437185576186,0.0425829794632103,31800.463515176183
1684938611857686758,109,1684938611857686758,camera_2,111,0,0.22413486043953088,-0.053451865826161474,0.4677580824626023,0.9725876030121232,-0.0017454039310436013,-0.22516392256596063,0.058064757012842874,0.5034807753399946,0.04257608780404523,31778.032492133323
1684938611867297172,110,1684938611867297172,camera_2,112,0,0.22419487540186417,-0.05305517111384797,0.46787483664773705,0.9725924292582725,-0.0017446186797039967,-0.22505762238842728,0.058395115035614835,0.5063726725638844,0.04283365836741861,31770.087672431495
1684938611877352714,111,1684938611877352714,camera_2,113,0,0.22430806698568528,-0.05260921794325362,0.4680901069154048,0.972743101655648,-0.0020559828050580324,-0.22425575007637413,0.0589575243182579,0.5386740565882064,0.04558827929499734,31769.07967104741
1684938611887491226,112,1684938611887491226,camera_2,114,0,0.22433487920359557,-0.05215521567625883,0.46812648276224417,0.9726901039473004,-0.001917132771843944,-0.22444229626897452,0.05912649093625548,0.4666229060967453,0.039489202682773006,31763.785748467788
1684938611897417783,113,1684938611897417783,camera_2,115,0,0.22430362995251993,-0.051772238836511705,0.468039872540163,0.972698754732371,-0.0019846737969822074,-0.22428873332985674,0.05956305661484202,0.5022638310329057,0.04248545033530703,31782.25364082725
1684938611907409667,114,1684938611907409667,camera_2,116,0,0.2242784721330456,-0.0514886733656319,0.4679726437479071,0.9726462994985423,-0.001935759782679818,-0.22452683641317964,0.059524185304337486,0.5339324130327441,0.04514622838263242,31787.966737678733
1684938611917379617,115,1684938611917379617,camera_2,117,0,0.22422882324029406,-0.051611071498393,0.4678815656588796,0.9725894388771298,-0.0019827731233256376,-0.22473939314604058,0.05964945233412139,0.4551239726715721,0.03847881497248798,31791.04296859401
1684938611927395582,116,1684938611927395582,camera_2,118,0,0.22425205794062777,-0.05191292297189552,0.4679415385169061,0.9724838292496323,-0.00200069573165846,-0.22525200990171218,0.05943678238095096,0.43997530825436115,0.037221790373191295,31764.330817643993
1684938611937539100,117,1684938611937539100,camera_2,119,0,0.2243243112450466,-0.0523427331147223,0.4681257178581965,0.9726834039289358,-0.001586449259018213,-0.22457865052175338,0.05872740952736949,0.45310552592854947,0.03834182931848176,31760.27606443197
1684938611947442293,118,1684938611947442293,camera_2,120,0,0.22417297433768438,-0.05277553474360137,0.46784592703108574,0.9724834807155328,-0.0019308118852273495,-0.2253499520696508,0.05907241998658873,0.5249461441417225,0.04441438606097912,31765.21193601563
1684938611957524299,119,1684938611957524299,camera_2,121,0,0.22417421320515865,-0.05358056860095328,0.4678750229908234,0.9727217511020883,-0.0017225897254421268,-0.22455040927102835,0.05819399723114585,0.509386973339133,0.043088478379359904,31779.438489792177
1684938611967372894,120,1684938611967372894,camera_2,122,0,0.2241573013187067,-0.053784050633255975,0.4678335922609864,0.9728020921203341,-0.0016824278353804326,-0.22425681544203946,0.05798396097779888,0.4986873836023733,0.04217183197282454,31791.682278003784
1684938611977416753,121,1684938611977416753,camera_2,123,0,0.22415844925683387,-0.05381478329370223,0.46783130228846653,0.9728172019308957,-0.0017692165670943419,-0.2241859372409178,0.05800195723846822,0.5373825572896749,0.04544361032863365,31793.388665748746
1684938611987510442,122,1684938611987510442,camera_2,124,0,0.2241828227587834,-0.05366284186903171,0.4678679586083247,0.9726823957668822,-0.0016545900454630628,-0.22485853697658292,0.05766157859207943,0.4736000803532079,0.040058134410041295,31772.299732503692
1684938611997385025,123,1684938611997385025,camera_2,125,0,0.22425985699956485,-0.053359064606089926,0.4680154603797464,0.9726774868154918,-0.0017751501535923243,-0.22477119113913344,0.05807983400567,0.43971088883699844,0.03721316274827798,31757.25874946313
1684938612007816076,124,1684938612007816076,camera_2,126,0,0.22428687363109476,-0.05245657200659489,0.4680436856688022,0.972650361306199,-0.00198860509164572,-0.22462885189530024,0.059069442158442516,0.46402183594182134,0.039268051744396654,31765.165737181655
1684938612017294406,125,1684938612017294406,camera_2,127,0,0.22433008176674005,-0.052034910879031684,0.46810826286985097,0.9727536020471735,-0.0019452582464935364,-0.22406010516056707,0.059529110106228106,0.4615694241365418,0.03905581204709148,31776.755541856168
1684938612027345418,126,1684938612027345418,camera_2,128,0,0.2242871073887801,-0.05168295829198405,0.4679973801252605,0.9726607581758382,-0.0021212940537467116,-0.2244576470150172,0.0595425420419982,0.5077706867596135,0.04294512543931158,31783.905791996513
1684938612037252902,127,1684938612037252902,camera_2,129,0,0.22425837384422662,-0.05149793409201477,0.46793680891219097,0.9726560868371259,-0.002013548422833727,-0.22443761234410525,0.05969791057244235,0.5811889684409834,0.049138859478342824,31794.418250016155
1684938612047488451,128,1684938612047488451,camera_2,130,0,0.22427693591149447,-0.051699099382692036,0.46798803899388813,0.9726957077346481,-0.002000334045155954,-0.22438233775334795,0.05925896828871013,0.4769075518124737,0.040324124282753,31789.654134582735
1684938612057298660,129,1684938612057298660,camera_2,131,0,0.22427366832195883,-0.05205241159939507,0.4680102325736774,0.972644244415283,-0.0019870131261651132,-0.22447281553799214,0.059759356331090786,0.45742904441431165,0.038704423515848706,31775.710543012257
1684938612067289352,130,1684938612067289352,camera_2,132,0,0.2242234871885462,-0.052498101913029234,0.4679296856641945,0.9725660784869771,-0.00189805673435691,-0.22485812309584288,0.05958560929378151,0.42287953197956085,0.03578396454411337,31769.301255326718
1684938612077427387,131,1684938612077427387,camera_2,133,0,0.22416999285262626,-0.05296071464481447,0.46783938189164476,0.9725294893398152,-0.0017336565414876781,-0.22518307835795406,0.0589573406851941,0.4491459150449373,0.03799882469858635,31768.849498397685
1684938612087564945,132,1684938612087564945,camera_2,134,0,0.22421399823869398,-0.0533976102513731,0.4679569265732421,0.972657095562201,-0.001904447513923703,-0.2247873557044907,0.05835402511869314,0.48103599791647866,0.04070839954967635,31763.156117046492
1684938612097419738,133,1684938612097419738,camera_2,135,0,0.22415100028483095,-0.05381790583625566,0.4678228264613279,0.9727513591306332,-0.0016226556789248271,-0.22442543766805897,0.058184046142853676,0.5135217272909358,0.043434151333704984,31785.904091538865
1684938612107470512,134,1684938612107470512,camera_2,136,0,0.22417009969189247,-0.053768780564542415,0.46785252578493347,0.9727353475862145,-0.0018001074135270672,-0.22461332308951043,0.057719652288571635,0.4955118141369894,0.041908092447214496,31780.00260035231
1684938612117496013,135,1684938612117496013,camera_2,137,0,0.22420602292898406,-0.053538513282884656,0.46792011739546696,0.9727015737636525,-0.0016024404373651043,-0.22467550908812486,0.05805166835113771,0.509743106609676,0.04312512218003661,31770.668160351925
1684938612127269029,136,1684938612127269029,camera_2,138,0,0.22422751472191818,-0.05270817970771943,0.4679203015607727,0.9724460991526436,-0.002136063422853007,-0.2254886729785175,0.05915132994487816,0.5028728321194649,0.0425648926674472,31750.133498040974
1684938612137543678,137,1684938612137543678,camera_2,139,0,0.22425959313349328,-0.05186506798931409,0.46795623551325505,0.9725732255685007,-0.0021543649851445083,-0.22476896271631056,0.05979626257741256,0.5624980766442604,0.047586948126060624,31775.723572060706
1684938612147510051,138,1684938612147510051,camera_2,140,0,0.22435572631724918,-0.051611052297600185,0.46814813748919964,0.9728152897384287,-0.0019473284608070736,-0.22369616602509948,0.05988860716926028,0.47711296123452485,0.04036485776806077,31786.163956396987
1684938612157280921,139,1684938612157280921,camera_2,141,0,0.22428642365322635,-0.051487197990324085,0.46799962773798026,0.9726614852916698,-0.0019492253031770834,-0.22454673016075463,0.059199675041618875,0.5224983636871912,0.04417650519591034,31786.41648032004
1684938612167383909,140,1684938612167383909,camera_2,142,0,0.22424624066184848,-0.05155575559578776,0.4679303201555006,0.9725391980833787,-0.0020106071340138896,-0.22485067883853657,0.0600469639210886,0.5115035502822138,0.043264423656189495,31779.50182770285
1684938612177326440,141,1684938612177326440,camera_2,143,0,0.22425550794228782,-0.05180595107815626,0.467963040527377,0.9725988873778292,-0.001796217954237043,-0.2247738705235253,0.05937074197231508,0.5041903730016202,0.04264014911925578,31779.13201637938
1684938612187257051,142,1684938612187257051,camera_2,144,0,0.2243080140959522,-0.052654539446124554,0.46811995297145936,0.9727186450525851,-0.0017466519816448892,-0.22422441121334713,0.05948781547464933,0.4342660725233145,0.03676584836104037,31762.25925600389
1684938612197292804,143,1684938612197292804,camera_2,145,0,0.22417875751042063,-0.05309847327002595,0.46788429708441454,0.9726785090101295,-0.0018011646927131697,-0.22463133356449386,0.05860066464314434,0.4736403613933362,0.04006186291003825,31781.181171789533
1684938612207281112,144,1684938612207281112,camera_2,146,0,0.22415784511713202,-0.05349367933991468,0.4678417233068159,0.9726770716380088,-0.0015734570513773296,-0.22474899442269436,0.058178415659103276,0.46485816413769504,0.039317013334209186,31779.351061362762
1684938612217411994,145,1684938612217411994,camera_2,147,0,0.22416646839141105,-0.053754647566332144,0.46784801853811675,0.972831201665603,-0.0017031809608041475,-0.22411662133734436,0.05803699062500869,0.45760527544189245,0.03869666384982171,31794.00891188949
1684938612227215528,146,1684938612227215528,camera_2,148,0,0.22421714018017513,-0.0537240936598766,0.46795562296659293,0.9727483436605108,-0.0016800314894304274,-0.2244512121166647,0.05813338781877113,0.5118733470444568,0.04331526078671584,31769.33241613002
1684938612237271308,147,1684938612237271308,camera_2,149,0,0.2241153261905384,-0.05341229739256612,0.4677303671928683,0.9725237493629647,-0.0016667465244390718,-0.22557188084212887,0.0575508944706287,0.4505124746938236,0.03808747361513286,31773.750650610313
1684938612247378349,148,1684938612247378349,camera_2,150,0,0.2242604986482494,-0.05302084045234215,0.4680180369394513,0.9726140647270973,-0.0015663416126359055,-0.2248861329441689,0.058699700837431576,0.491732353111729,0.041621428356900816,31754.921468262102
1684938612257555246,149,1684938612257555246,camera_2,151,0,0.22427134670972113,-0.05254880609919292,0.46801402806300896,0.9725674269700859,-0.0019378709401601322,-0.2251126572824728,0.0585929704335768,0.4913301181513816,0.041575532903635685,31756.163191412335
1684938612267307758,150,1684938612267307758,camera_2,152,0,0.2243968499772042,-0.05212258188633949,0.4682484820394316,0.9727413645322723,-0.0018283838520746526,-0.22407376559055553,0.05968117219401152,0.4200643180520274,0.035570151096968615,31755.096880990095
1684938612277370691,151,1684938612277370691,camera_2,153,0,0.22434046401555652,-0.051538461753242004,0.46810699838501335,0.9726952256061541,-0.0020053259267762014,-0.22424854112703704,0.05977096747850155,0.4996393365436233,0.04227218664408511,31776.211101397406
1684938612287227869,152,1684938612287227869,camera_2,154,0,0.2243242153569878,-0.05151140629841548,0.4680859441826992,0.9727476496151776,-0.0019144995244751771,-0.22395959999429532,0.06000368680434484,0.5750153349363245,0.04864200315795324,31787.286267822834
1684938612297221422,153,1684938612297221422,camera_2,155,0,0.22427083249902607,-0.05165007639818278,0.4679813678809233,0.9726376699620259,-0.0019168919502649314,-0.22446417720636103,0.05990093193902283,0.49910233641276136,0.04221496593230931,31784.346833823707
1684938612307412147,154,1684938612307412147,camera_2,156,0,0.2242811297841436,-0.051967578841787425,0.4680199799630328,0.9725515520655672,-0.0019198830124945196,-0.22490939595885406,0.059628485084716465,0.4663980526966043,0.03946745832836165,31762.941779916866
1684938612317361831,155,1684938612317361831,camera_2,157,0,0.22430439855668277,-0.05287751125016426,0.468119925460737,0.9727165575858945,-0.0017630940882579745,-0.22433531330516043,0.05910209219442752,0.49596797360572964,0.0419902405054492,31758.272374947563
1684938612327234268,156,1684938612327234268,camera_2,158,0,0.22424080296971866,-0.05329364433489731,0.46801634018375315,0.9726758902504401,-0.0018061438073753624,-0.22472658881891097,0.058277874428269066,0.4851293853134848,0.041057063655249824,31759.659913575284
1684938612337232112,157,1684938612337232112,camera_2,159,0,0.22420171259848903,-0.053633439304493914,0.46793463401984114,0.9727197312494067,-0.001738747953047249,-0.224559654423096,0.0581916041969756,0.4548813842702657,0.03848913726664428,31770.220812649226
1684938612347248315,158,1684938612347248315,camera_2,160,0,0.224132131408385,-0.053793847626437595,0.46779188216534684,0.9726981238968676,-0.0016225212379238785,-0.22469378726058137,0.058038169844018724,0.4985834253602661,0.042166323862536825,31783.439747127246
1684938612357335090,159,1684938612357335090,camera_2,161,0,0.2241137569019269,-0.05379098915819664,0.4677436025834358,0.9726574652392489,-0.0016177228749208888,-0.22495968619803602,0.05768862862593167,0.4977941327379085,0.04208916606466761,31783.877175076632
1684938612367224693,160,1684938612367224693,camera_2,162,0,0.22430882307272634,-0.053320615144836624,0.46812740368971734,0.972785980011235,-0.0018336609729106034,-0.2243038238601675,0.05806779987845932,0.5098805316374637,0.043158502980979285,31758.078379550247
1684938612377489328,161,1684938612377489328,camera_2,163,0,0.22427290509208975,-0.05287588039275668,0.46804610674431923,0.972688090836566,-0.0019506399934168977,-0.2246178260468675,0.05848850459972012,0.4852402315591462,0.04106182603084448,31763.515532836336
1684938612387248992,162,1684938612387248992,camera_2,164,0,0.22430660572349467,-0.05240922972999547,0.4680744731469248,0.9726521483045004,-0.0018027619622291984,-0.22466876323513152,0.05889393240686372,0.4072910868562758,0.034466198213186916,31761.42925346271
1684938612397202014,163,1684938612397202014,camera_2,165,0,0.224286378938708,-0.051971128356007264,0.46802355504768745,0.972642886973902,-0.002125835400989303,-0.2245665445633712,0.05942358375080237,0.47166697052307427,0.03990364000319979,31774.304128261283
1684938612407767534,164,1684938612407767534,camera_2,166,0,0.22424764463822902,-0.05164778519022227,0.4679260686695191,0.9725937027793361,-0.0019533202474141327,-0.2247522065754581,0.05953250787136455,0.47212091187248006,0.039922203379443626,31785.20718159852
1684938612417790889,165,1684938612417790889,camera_2,167,0,0.22431621982214964,-0.05153525094721785,0.4680638441781603,0.9727272891456702,-0.0021673862427701402,-0.22407082485727403,0.059909839225052094,0.49001793446950614,0.04144981379128784,31786.714491054867
1684938612427709102,166,1684938612427709102,camera_2,168,0,0.22423897590452638,-0.05172625901951656,0.46791879337410186,0.9726348078685862,-0.002038197981931521,-0.22442876978337295,0.06007581514175949,0.4612479709321633,0.03900934563137092,31791.403813824516
1684938612437391281,167,1684938612437391281,camera_2,169,0,0.22429874253297874,-0.05209470862618269,0.468081860541246,0.9727180799859183,-0.0018038504708974485,-0.2242133706483271,0.059536941595140024,0.5056264998856932,0.04278302928703242,31775.929985234536
1684938612447620153,168,1684938612447620153,camera_2,170,0,0.22433742863525358,-0.05304109513979368,0.4681998194129316,0.9728377143535474,-0.0016935920565970155,-0.22388757276847263,0.05880704071072871,0.47306267370004207,0.04005245829268494,31761.190451242255
1684938612458399057,169,1684938612458399057,camera_2,171,0,0.22414996351068292,-0.05371654596544312,0.4678341455020681,0.9728046360879746,-0.0017115131054861227,-0.22416603786224393,0.058290635592486394,0.4575769282528199,0.038697075817239995,31793.842730870238
1684938612467679262,170,1684938612467679262,camera_2,172,0,0.2241108343956455,-0.05381762274787377,0.46773914911523445,0.9727295234597088,-0.0016908826967826603,-0.2245505499747795,0.05806432305278128,0.5175412828684784,0.043758491103582056,31794.041975776214
1684938612477633476,171,1684938612477633476,camera_2,173,0,0.22414276662347135,-0.05374825683974078,0.4677936024648905,0.9727090892909986,-0.0016732330255148672,-0.2246822698466611,0.05789737056612221,0.45358565251808614,0.03835690719746459,31784.664947974026
1684938612487714052,172,1684938612487714052,camera_2,174,0,0.2241537672411992,-0.053493208154261555,0.46780788499009296,0.9726152048837551,-0.00191092482383027,-0.22499763529767053,0.05824152904676492,0.4680144607555121,0.03958722028428991,31774.78048786102
1684938612497912883,173,1684938612497912883,camera_2,175,0,0.22419686933919028,-0.053102884163995306,0.46788502056607295,0.972577558196462,-0.0018478379321024687,-0.22516576125980112,0.05822249345295113,0.4446921516209841,0.03761776342654868,31765.835636564985
1684938612507337570,174,1684938612507337570,camera_2,176,0,0.22421973791261215,-0.052183260743049985,0.4678924822058638,0.9725436127958361,-0.001912680238327302,-0.22501385264831003,0.0593635324142136,0.4441036722273566,0.03756483477346726,31775.236611928547
1684938612517417669,175,1684938612517417669,camera_2,177,0,0.22428029746526792,-0.05181298070002681,0.46799341557437313,0.9726128219170714,-0.001987607181768358,-0.22460224534818513,0.0597844414940533,0.44506828422890976,0.03765228921042426,31776.43432311993
1684938612527411460,176,1684938612527411460,camera_2,178,0,0.22423821598589447,-0.05155633452343004,0.4679043660938437,0.9726356035994181,-0.0019517977373775242,-0.22460192673585994,0.05941504525730333,0.5372573306085542,0.04541552141678671,31795.068331859773
1684938612537307739,177,1684938612537307739,camera_2,179,0,0.2242356117398908,-0.05148609871345382,0.46790218388491384,0.972573762138376,-0.0020382840351985433,-0.22472041155709155,0.05997382118732341,0.5353315741522237,0.04526695266702357,31788.73356689139
1684938612547350883,178,1684938612547350883,camera_2,180,0,0.2243568583255221,-0.05187360609501307,0.46816311193234994,0.9727730153908584,-0.002031094456184334,-0.22390677747522733,0.05978536763578741,0.4554803430219181,0.0385473289317753,31774.754033116627
1684938612557265043,179,1684938612557265043,camera_2,181,0,0.22428955916317514,-0.052259269350942106,0.46805633194113033,0.9726251995814217,-0.0018791344955433839,-0.22467793791575494,0.05930020410311869,0.4743402819731273,0.040142271817083006,31763.73208610992
1684938612567399263,180,1684938612567399263,camera_2,182,0,0.22434341554278156,-0.05273322457903981,0.4682076763361875,0.9727798337572742,-0.0019266788144297062,-0.22387176667670805,0.05980898786107001,0.4883309400174767,0.04136111281436516,31758.334177049583
1684938612577279329,181,1684938612577279329,camera_2,183,0,0.22421128752352773,-0.053164121044031426,0.46796299029072835,0.9726926664824496,-0.0017284520057790507,-0.22450717022218217,0.05884317754637285,0.4578180583193898,0.03874045947860082,31771.95942211432
1684938612587441444,182,1684938612587441444,camera_2,184,0,0.2241780937780931,-0.053534036130902164,0.4678829195588985,0.972664526678903,-0.0018370509808090815,-0.22476289287323883,0.058326544312623664,0.4621493796003051,0.039100711318598665,31771.530768071534
1684938612597739219,183,1684938612597739219,camera_2,185,0,0.2240804354060599,-0.05380316124480094,0.4676728467474291,0.9726547476470259,-0.0015129627372201175,-0.2249522547719577,0.05776621760569773,0.5120322884176858,0.04328192275274751,31792.755610076238
1684938612607639074,184,1684938612607639074,camera_2,186,0,0.22410538374243805,-0.05366886612902996,0.4677044795156639,0.9725931997873065,-0.001730875772424971,-0.22526106069546212,0.05759276283443981,0.436457090661861,0.036898659531595546,31781.77933257306
1684938612617705821,185,1684938612617705821,camera_2,187,0,0.22418045550063007,-0.053387894434099574,0.4678702485293898,0.9726296923139321,-0.0017868675875428125,-0.2249863087921568,0.05804696020990765,0.4457423142157495,0.03770474937402926,31770.31963230716
1684938612627779245,186,1684938612627779245,camera_2,188,0,0.22415849493241707,-0.05296071737033444,0.46782061893226967,0.9725152927719968,-0.001774097132307717,-0.22530011756307683,0.058742786195637,0.49056324461707845,0.04149732418624013,31769.52540104559
1684938612637896299,187,1684938612637896299,camera_2,189,0,0.22431602549966564,-0.052064811011143027,0.46808275598142296,0.972722533706896,-0.002142055233073793,-0.22422527350093474,0.05940800233677411,0.42247913900064304,0.03574624514021675,31775.445815527808
1684938612647608041,188,1684938612647608041,camera_2,190,0,0.22427304428616673,-0.05170537985452593,0.4679778355350053,0.9726660199492546,-0.002127162224752583,-0.2244040047065705,0.059658456974676526,0.5014948636526242,0.042412692155608424,31787.311079291627
1684938612657655954,189,1684938612657655954,camera_2,191,0,0.22428368773314045,-0.05151645822213219,0.4679949467912008,0.9727273186946929,-0.001962187716816638,-0.2242177855437946,0.0593641131512504,0.5240160395624116,0.044300731999659435,31795.679242001148
1684938612667663574,190,1684938612667663574,camera_2,192,0,0.22427025944788692,-0.05150510601575804,0.46796882821218927,0.9726497039147659,-0.001958913162750704,-0.22448163605408958,0.05963816905487971,0.5011318715987727,0.042373913355738174,31789.18071158535
1684938612677704334,191,1684938612677704334,camera_2,193,0,0.22426359263276957,-0.05167297903213767,0.4679738954447478,0.9726658999654745,-0.0018967487795613313,-0.2245506830737721,0.059113789588582544,0.5070005255402066,0.042864458195471175,31788.284536657142
1684938612687679052,192,1684938612687679052,camera_2,194,0,0.22429783861134556,-0.05246399493760273,0.46807926300521296,0.9726385496235976,-0.0019621114180886504,-0.22472777882501666,0.05888826138766397,0.43389175162883475,0.036720644648600545,31758.8888227367
1684938612697686195,193,1684938612697686195,camera_2,195,0,0.22435776057435264,-0.05295683446521358,0.4682500493092963,0.972903446945879,-0.0018489197717873414,-0.2234882453229303,0.05923232748240177,0.4511916000628844,0.03820669543997857,31765.34356534599
1684938612707697868,194,1684938612707697868,camera_2,196,0,0.2242824641558585,-0.0533677232173316,0.4681143160417348,0.9728257373144363,-0.0017110305020822405,-0.22403255903142466,0.058451430154236046,0.5056283882004209,0.042799328626376636,31765.99401214835
1684938612717778205,195,1684938612717778205,camera_2,197,0,0.22413678035306916,-0.05365295989344371,0.4678088613359419,0.9727148210329404,-0.0018549693830727755,-0.22456883633531485,0.058234644142858685,0.48887183476472273,0.0413462401211414,31786.402494982587
1684938612727349281,196,1684938612727349281,camera_2,198,0,0.2241163050690288,-0.05380696940898706,0.46776350296292296,0.9727205340357448,-0.0015840357990579252,-0.2246795448469972,0.05771789690511027,0.53411815315485,0.04515742169758548,31789.985846253105
1684938612737379074,197,1684938612737379074,camera_2,199,0,0.2241258568040747,-0.0535770696304216,0.46775789798896744,0.9726248802103316,-0.0018751316928477123,-0.22497172831334586,0.05818116307430629,0.4992236106772907,0.04221849695188117,31781.513284508153
1684938612747431278,198,1684938612747431278,camera_2,200,0,0.224233201242859,-0.05323810039436624,0.4679610175974993,0.9726501244602502,-0.0017649883741169793,-0.22478928086119876,0.05846707974069074,0.44369486940559,0.03754691949762972,31763.31412767782
1684938612757278919,199,1684938612757278919,camera_2,201,0,0.2243481326325992,-0.052826458749240086,0.46820676050338705,0.9727476411945501,-0.0017787595032081793,-0.22439576890733826,0.058355817718143875,0.5207997078541666,0.0440889635989365,31751.01778502251
1684938612767351150,200,1684938612767351150,camera_2,202,0,0.2242831478677539,-0.05192592917713726,0.4680159412752888,0.9725944640899556,-0.002092759217524504,-0.22479083317356643,0.059369268999738094,0.4615274368552491,0.039046352141052114,31769.394258538276
1684938612777622938,201,1684938612777622938,camera_2,203,0,0.2242220465927418,-0.051486038779055394,0.4678894379142097,0.9725940083156214,-0.0020149508251757105,-0.22473783758023838,0.059579688833390605,0.5499074821127579,0.046486090460337436,31793.306790689945
1684938612787363767,202,1684938612787363767,camera_2,204,0,0.2243357972801045,-0.05155656603771878,0.4681244323385545,0.9727088931451646,-0.0019571765420571385,-0.22431207090326097,0.059309978109779296,0.5280268294736743,0.04466548981877874,31775.925784822313
1684938612797722578,203,1684938612797722578,camera_2,205,0,0.2242535441762921,-0.05176396189356047,0.4679613166952613,0.9726590717582011,-0.0020439910046354953,-0.2244128689507113,0.059741246024489846,0.5118737642769702,0.043290584583625946,31788.58310160273
1684938612807389259,204,1684938612807389259,camera_2,206,0,0.22432022934108983,-0.05215565289024399,0.46811413841814,0.9726389313603219,-0.0019406867301196222,-0.2245315818297776,0.059626434559552695,0.45560952031519264,0.038567780559345656,31759.58046476938
1684938612817335605,205,1684938612817335605,camera_2,207,0,0.2243141279397447,-0.052610386394725435,0.4681248043721315,0.9727198815957361,-0.0016536340061673138,-0.22441164689382498,0.05875976668905294,0.4489459011820145,0.037995822474122566,31761.646826456294
1684938612827499151,206,1684938612827499151,camera_2,208,0,0.22429755231057172,-0.05349335930269922,0.46814313423923165,0.9728347710469988,-0.001642298161608935,-0.22400456837684463,0.05841031111871816,0.47486811969429255,0.04020267735671669,31760.942154427998
1684938612837358951,207,1684938612837358951,camera_2,209,0,0.22418645806415635,-0.05374385154898196,0.46790415935345053,0.9728303813567696,-0.0015266649410449601,-0.22419202889565745,0.05776376531225274,0.47123729391023517,0.03985216573762,31786.89999789744
1684938612847616434,208,1684938612847616434,camera_2,210,0,0.22402693386299158,-0.053803142281685805,0.4675688857730023,0.9725603512834704,-0.0016235996068252041,-0.22544032665450023,0.057448987402751325,0.5449109600158408,0.046045803161287285,31794.001297314662
1684938612857404470,209,1684938612857404470,camera_2,211,0,0.22415856318778396,-0.05373728389872878,0.46783020226210453,0.9727149577540435,-0.0017786268699624525,-0.22472352509931193,0.05763492617281503,0.44783462007762864,0.037871597965582565,31780.706924303664
1684938612867386579,210,1684938612867386579,camera_2,212,0,0.22416741932297377,-0.05345677659075368,0.46785962531534436,0.9726251263667921,-0.0015388901031477642,-0.22507871482061254,0.05777168434391978,0.5157205821597017,0.04361787310943863,31770.351036752352
1684938612877345085,211,1684938612877345085,camera_2,213,0,0.22431655337740877,-0.05260559364971044,0.46812834355046945,0.9726428226960562,-0.0018671319635929274,-0.22475382604618377,0.05872112868193662,0.4548373383586295,0.038502036669384884,31750.821709218908
1684938612887297391,212,1684938612887297391,camera_2,214,0,0.22433863088054457,-0.05215905984468409,0.46814666769595503,0.972643110202038,-0.001953723805943008,-0.22447944693578367,0.05975400441142836,0.4332196312607266,0.03667908409991232,31755.624124710455
1684938612897452354,213,1684938612897452354,camera_2,215,0,0.2242893414971616,-0.0517761541217315,0.4680133645813107,0.9725947433556721,-0.001925861097334462,-0.22484291380729626,0.05917280090204283,0.5016568967257626,0.04243200615023217,31771.44565719926
1684938612907306432,214,1684938612907306432,camera_2,216,0,0.22426376435711656,-0.05153998070216479,0.46795851191576326,0.9725810754670663,-0.0019218721451597532,-0.22480745980439268,0.05953120246625864,0.5139963639667258,0.043466527951799304,31780.82492580124
1684938612917261600,215,1684938612917261600,camera_2,217,0,0.22422497863534258,-0.05148260961872644,0.4678769526610409,0.9726300194053087,-0.0019196857744703231,-0.22459098088891724,0.05954873182117496,0.5426604010281153,0.04586750277843042,31799.23040307592
1684938612927342414,216,1684938612927342414,camera_2,218,0,0.22429917002155725,-0.051921590017614684,0.468067863681153,0.97262211663101,-0.0017796730685550107,-0.224647633219796,0.059468410881131445,0.453065033769235,0.038335757056540985,31766.919392323594
1684938612937364578,217,1684938612937364578,camera_2,219,0,0.22423508523777044,-0.05231834981279264,0.4679786978668246,0.972576394214927,-0.0016765052265751354,-0.22488780393697094,0.05931123322375387,0.5975028158864006,0.05055464793683281,31767.994442829855
1684938612947360754,218,1684938612947360754,camera_2,220,0,0.22432499439616602,-0.05280287976432076,0.4681735262884811,0.9727158368760785,-0.0018050474266601444,-0.22442504932791205,0.05877107901359418,0.45892419514711946,0.03885484902615562,31752.289896073504
1684938612957498073,219,1684938612957498073,camera_2,221,0,0.22423096920320862,-0.05322925544748719,0.4679992076855877,0.9726816103930068,-0.001734112595586397,-0.22458530022178066,0.058727511279344155,0.4948295946815051,0.041880384092850186,31764.33060838071
1684938612967509269,220,1684938612967509269,camera_2,222,0,0.2242241558333528,-0.053589238455180224,0.468000824577699,0.9728381822510074,-0.0018282273841161284,-0.22398881697241227,0.058408377913507094,0.4995321936439722,0.04226887085110816,31779.037551901296
1684938612977392435,221,1684938612977392435,camera_2,223,0,0.22414883422593554,-0.05381227913673802,0.4678210688237356,0.9728092501576251,-0.0016843255847664594,-0.22420689819240633,0.058056805441082826,0.5009255386539735,0.042359803378158936,31794.010806374696
1684938612987379789,222,1684938612987379789,camera_2,224,0,0.22417248383768137,-0.0536673070993261,0.4678603591832036,0.972757090680717,-0.0016897223938714943,-0.22435194941079925,0.05836942833532837,0.483313070028089,0.04088286827275694,31784.27488914621
1684938612997345209,223,1684938612997345209,camera_2,225,0,0.22427177938530568,-0.053374298322174454,0.46806658011103774,0.9728458972069607,-0.001687138129200129,-0.2240513583429001,0.058043110506054506,0.4822731330059469,0.04080576317060475,31773.750059242586
1684938613007635593,224,1684938613007635593,camera_2,226,0,0.2242887502501037,-0.05246407316791258,0.4680464290557756,0.9726232363282808,-0.0019044956314765967,-0.22475076593204238,0.05905511208736129,0.4341853766818531,0.03674457554243702,31760.895292497007
1684938613017694950,225,1684938613017694950,camera_2,227,0,0.22432689904512604,-0.05169109431460942,0.4680946023908484,0.9727242207294327,-0.001999560605184853,-0.22420205834943188,0.05947292825800867,0.495594053179957,0.04192250681694737,31779.68437530961
1684938613027468681,226,1684938613027468681,camera_2,228,0,0.22428826414294414,-0.05151202423153946,0.46801047096266835,0.9726936794004657,-0.001996785655590254,-0.22433626305077173,0.05946646098301811,0.5161612565279938,0.043644738436855644,31789.423515756604
1684938613037459373,227,1684938613037459373,camera_2,229,0,0.22426852783471962,-0.05151490217745123,0.4679821008281999,0.9726390641097795,-0.0019947853326589,-0.2244701519310245,0.05985334319143416,0.5112151723005809,0.043233839293499686,31786.619977614617
1684938613047625541,228,1684938613047625541,camera_2,230,0,0.22432529130065595,-0.051723608085331094,0.4681057676272334,0.9727171112558218,-0.0019218454629551347,-0.2241503748892259,0.059785762662737656,0.536557853105478,0.04539728731289259,31777.610294570688
1684938613057420015,229,1684938613057420015,camera_2,231,0,0.22426015719532352,-0.05205664056454314,0.4679786187412121,0.972579931691089,-0.001959434415203871,-0.2249197751602445,0.05912302284553959,0.4395628768252209,0.03718284178204026,31770.448505911023
1684938613067594051,230,1684938613067594051,camera_2,232,0,0.22422202065553107,-0.05298264980421944,0.46797305012456136,0.9726518209451589,-0.001768897857603763,-0.22476798793484606,0.058520575972534045,0.4845103191328235,0.04099375225931533,31767.65688569587
1684938613077317714,231,1684938613077317714,camera_2,233,0,0.22427811588068386,-0.05341788734728146,0.46811234660423334,0.9728518571996425,-0.0016156959611947526,-0.2238739939910579,0.05862668576901737,0.4507765428861603,0.03815749831770006,31769.125890645442
1684938613087400436,232,1684938613087400436,camera_2,234,0,0.22416601343090004,-0.05369401686503505,0.46787014438458224,0.9727754370270225,-0.0016592006342349395,-0.22434063259799522,0.05810745852015932,0.4974325227667578,0.04207241765039041,31785.552902283154
1684938613097492694,233,1684938613097492694,camera_2,235,0,0.224082962266134,-0.05380433008149296,0.4676949637819247,0.9726654439175125,-0.0015987968689254756,-0.22488938467544045,0.057828563164079506,0.5262180992867798,0.04448498570215189,31791.85395812708
1684938613107340097,234,1684938613107340097,camera_2,236,0,0.2240975768376971,-0.053755011018226044,0.46770935012433545,0.9726218042924324,-0.0015650826928918036,-0.22505009061215592,0.057938182975979295,0.46320073830429465,0.039165103320202274,31784.39548286982
1684938613117363214,235,1684938613117363214,camera_2,237,0,0.22423742259048512,-0.05317938115138976,0.46798127249487204,0.9726848159309457,-0.0018562046563998468,-0.22466066476037863,0.058381410321098906,0.47870937001425773,0.04050619043992885,31766.694496104716
1684938613127349615,236,1684938613127349615,camera_2,238,0,0.22426902602701262,-0.05273006121352354,0.468030615059628,0.9725585189195799,-0.001957518300974122,-0.22515148010762262,0.058591009586809906,0.47099279053509235,0.03986398389389502,31750.416708352048
1684938613137473583,237,1684938613137473583,camera_2,239,0,0.22428350699177468,-0.05227071907015486,0.4680354498158422,0.9725470962689624,-0.001952751981164668,-0.2249944004672877,0.05937888561496828,0.4552776286145672,0.03853577139316546,31755.58982755523
1684938613147513866,238,1684938613147513866,camera_2,240,0,0.22426045570507555,-0.05186174491397424,0.4679630795899079,0.972706654013773,-0.0020925202492405337,-0.22436088185914124,0.05915725896054678,0.5020712046534754,0.042450247103026834,31792.25707316165
1684938613157436132,239,1684938613157436132,camera_2,241,0,0.22435811568139066,-0.05161885875157085,0.4681671755440291,0.972804220938923,-0.0019403287684715117,-0.22394663482757232,0.05912772274568945,0.5196099528111517,0.043949424140589624,31781.786578841282
1684938613167537689,240,1684938613167537689,camera_2,242,0,0.22424839410863678,-0.05155041174912345,0.4679288182118216,0.9726492885960749,-0.001984839668563851,-0.224523498268841,0.05948630540016202,0.47140318190213293,0.039852125296641054,31793.772787828697
1684938613177374601,241,1684938613177374601,camera_2,243,0,0.22424519450876979,-0.051798666811634954,0.46793851314570867,0.9725786162981278,-0.002045741867372095,-0.2248071752402315,0.05956831389538591,0.46421862189890817,0.03926167624745615,31779.811654840603
