%time,field.header.seq,field.header.stamp,field.header.frame_id,field.image_seq,field.transforms0.fiducial_id,field.transforms0.transform.translation.x,field.transforms0.transform.translation.y,field.transforms0.transform.translation.z,field.transforms0.transform.rotation.x,field.transforms0.transform.rotation.y,field.transforms0.transform.rotation.z,field.transforms0.transform.rotation.w,field.transforms0.image_error,field.transforms0.object_error,field.transforms0.fiducial_area
1684731282699544668,8,1684731282699544668,camera_2,9,0,0.5528876388024155,-0.17259600784153287,1.4211430166705843,-0.9796834705329311,0.029906435524888468,0.19091985975923656,-0.05362378043611682,0.003359009337145835,0.0017745926193895604,7051.777483955494
1684731282709831953,9,1684731282709831953,camera_2,10,0,0.5524161793070942,-0.1723640857571352,1.4199031133254558,-0.97934579880765,0.0299231763419619,0.19272146255693218,-0.05333711414513188,0.00280050776200369,0.0014780963671929793,7054.363190494943
1684731282719991922,10,1684731282719991922,camera_2,11,0,0.5529124500892283,-0.17161517145796612,1.4210901025017006,-0.9794892345320185,0.02985746547778289,0.1919661053261279,-0.05346387188598889,0.0028464969946071506,0.0015041457199932789,7047.391793444285
1684731282730175495,11,1684731282730175495,camera_2,12,0,0.5533970893290125,-0.1709955373755935,1.422270596751135,-0.9795097518207279,0.029719128115228925,0.19171861286183592,-0.054049912067460446,0.001795085205230862,0.0009501524123156354,7036.739246508339
1684731282740022182,12,1684731282740022182,camera_2,13,0,0.5534393589578608,-0.17006100319100734,1.4223144233747351,0.9793142062536903,-0.029817075228458192,-0.19289219827225013,0.053359416228291746,0.0014940947876311839,0.0007909639567337403,7031.411682445324
1684731282750320672,13,1684731282750320672,camera_2,14,0,0.5537231439789388,-0.16907786713258832,1.4230047685186504,0.9794597807588884,-0.029559782484344307,-0.19199707344064207,0.05405442558622937,0.0006606261013075709,0.0003499578313900796,7029.282782838682
1684731282760166883,14,1684731282760166883,camera_2,15,0,0.5537006121347816,-0.1666850074140878,1.4228442176577445,0.979291253145203,-0.02986909437080615,-0.19300468652190933,0.053344818823811986,0.0007353777764365077,0.0003893895878501814,7027.513347562636
1684731282770259141,15,1684731282770259141,camera_2,16,0,0.5538976378715535,-0.16553009134856278,1.4233261213670123,-0.9794130704635228,0.029627100391213006,0.19249074673418545,-0.05309976223430059,0.005055753339547664,0.0026773280404364178,7026.566412194864
1684731282780291080,16,1684731282780291080,camera_2,17,0,0.5539403152891621,-0.164379267312503,1.423392061353123,-0.979461107045273,0.029750167202812258,0.1925895574734825,-0.051769968989958816,0.004461241653189063,0.0023609065703936102,7027.682635053296
1684731282790462017,17,1684731282790462017,camera_2,18,0,0.5538209894506383,-0.1632826924759141,1.4230559557718385,-0.9794530431808323,0.029671283533368294,0.1926756531782504,-0.05164730205561147,0.0074399280129000545,0.003934745062463099,7030.913006671704
1684731282800438880,18,1684731282800438880,camera_2,19,0,0.5535167068072379,-0.16152303721862613,1.4222229401356348,-0.9795022283278333,0.02946928452693756,0.19254695205694577,-0.051309036473703884,0.012945610389579087,0.0068354329784961355,7040.528840986313
1684731282810357093,19,1684731282810357093,camera_2,20,0,0.5531160121000143,-0.16087998337878925,1.421177240735213,-0.9793361950873352,0.029327311442256938,0.19363621024520072,-0.05045338320971741,0.01298868196317926,0.006848463885682778,7045.888596804813
1684731282820281744,20,1684731282820281744,camera_2,21,0,0.5530821400835761,-0.16058150495310197,1.4210989867976036,-0.9794189997829832,0.029048231873301827,0.19336348533154318,-0.05005182943283623,0.01031876401975751,0.0054379436508995155,7048.80059347884
1684731282830546617,21,1684731282830546617,camera_2,22,0,0.5531233783021333,-0.16055307202220367,1.421229848504247,-0.9795125865910063,0.029017240403303113,0.19293754220449583,-0.049881833138548465,0.009180613793432713,0.004837522239471503,7050.205668105744
1684731282840260505,22,1684731282840260505,camera_2,23,0,0.5532923372847547,-0.16123234234983153,1.4217476457016254,-0.9795657803179585,0.02919095196622008,0.1924681774252512,-0.050544742871807734,0.011627066705841571,0.006132126252680189,7046.921478606296
1684731282850591897,23,1684731282850591897,camera_2,24,0,0.553392593283006,-0.1619238459398719,1.422066959934172,-0.9795426238056187,0.029427511609140533,0.19236583233659837,-0.051241157851338585,0.009691910585388541,0.005115764227210592,7043.371654151011
1684731282860520362,24,1684731282860520362,camera_2,25,0,0.5535782014038559,-0.1628365149492321,1.4225907373624551,-0.9796276581002267,0.029367476582807566,0.19171947596414382,-0.05206577897484726,0.010758422373328358,0.005683931992142806,7040.599036640253
1684731282870893716,25,1684731282870893716,camera_2,26,0,0.5538241882500055,-0.16389655084794888,1.4232781236109109,-0.9797244684297104,0.029635601637699495,0.19111550629216553,-0.052312143240191296,0.013158917718101293,0.0069586695197776825,7036.705599977171
1684731282880565404,26,1684731282880565404,camera_2,27,0,0.5542179029691324,-0.1663234856732296,1.4243933484579405,-0.9798892473761753,0.029737202433183407,0.1901113370751738,-0.05282462667629886,0.008580367197282612,0.004544871283844543,7029.896192540413
1684731282890264272,27,1684731282890264272,camera_2,28,0,0.554507213737125,-0.16763686518691331,1.4251897220697787,-0.9800874507897507,0.029616750881697684,0.18902686351957734,-0.053106324855053275,0.0061222517979331315,0.0032456930216390465,7027.133395534937
1684731282899924993,28,1684731282899924993,camera_2,29,0,0.5538728573116798,-0.16860728170587158,1.4235918050248086,-0.9797560534629728,0.0297793607245838,0.19082753370680486,-0.05268887697487875,0.002496545028407127,0.0013217593286535512,7032.840394831261
1684731282910145044,29,1684731282910145044,camera_2,30,0,0.5541165931596984,-0.16980990138609073,1.424245202423456,-0.9800033810114357,0.029437563695214438,0.18939680510287876,-0.05343831272287049,0.0026078667142428458,0.001381707643154385,7032.509678330274
1684731282919997215,30,1684731282919997215,camera_2,31,0,0.5533508913900544,-0.1714395246494603,1.422349263113826,0.9797855654749038,-0.0298859135022245,-0.19044361328408055,0.0534631463764005,0.0012842417345382273,0.0006792231752903254,7043.974244330773
1684731282930015563,31,1684731282930015563,camera_2,32,0,0.5530270833215616,-0.17199526725592248,1.4215281735617997,0.979662007391766,-0.029862117431585615,-0.19126087903442254,0.05281932758581443,0.0006360741099342704,0.00033609806833268137,7047.9599927104955
1684731282940080642,32,1684731282940080642,camera_2,33,0,0.5525535110364775,-0.17229644906586644,1.4202992904263856,-0.9794945699723546,0.029863338780149108,0.19203556160582752,-0.05311225348550344,0.0015116598224267361,0.0007978865114624509,7054.854346307926
1684731282950070381,33,1684731282950070381,camera_2,34,0,0.5527634239284729,-0.1725491016057722,1.420824322072513,-0.979595289791122,0.030195393115033414,0.19137492923372043,-0.05345037805726709,0.0018803351558744907,0.000993109905724851,7052.6550306891995
1684731282960472106,34,1684731282960472106,camera_2,35,0,0.5527626239192163,-0.17224173008530963,1.4207589133015475,-0.9794486284599717,0.02975667022975888,0.19225739806814396,-0.053216704828326536,0.002186886325944215,0.0011552146550865077,7048.875881247456
1684731282970356464,35,1684731282970356464,camera_2,36,0,0.5529338942494231,-0.17177452125436485,1.4211510204904674,-0.9795132697734764,0.029798353000898985,0.19205861740747573,-0.05271906652849283,0.0018867924809455872,0.000996797457659537,7047.321828314567
1684731282980259418,36,1684731282980259418,camera_2,37,0,0.5530731904993609,-0.17109185510181948,1.4214596145080793,0.9795162727826672,-0.02988045053148763,-0.1920685027083377,0.052580607616916054,0.0008808493730612099,0.00046546652324563664,7044.986020613462
1684731282990424633,37,1684731282990424633,camera_2,38,0,0.5533231545340387,-0.1702573229736902,1.4220641667999463,0.9794526451414093,-0.029598162111918045,-0.19220710996646115,0.053412466741708485,0.0027244764496572316,0.0014413659349518078,7037.589260751384
1684731283000736236,38,1684731283000736236,camera_2,39,0,0.553903343467994,-0.16820990408358477,1.4234547896730898,0.9795547512971514,-0.02963723203272856,-0.1916406602820174,0.05355353410641117,0.0034987906110472977,0.0018535293314460941,7028.231231695273
1684731283010761260,39,1684731283010761260,camera_2,40,0,0.5540712588736129,-0.16703381206444426,1.4238011317824946,-0.9795624178156844,0.029467683559322697,0.19174467621548105,-0.05313289350071711,0.00243087561102584,0.0012879584759637045,7025.4385165893445
1684731283020523786,40,1684731283020523786,camera_2,41,0,0.5540662161893541,-0.16580512788154064,1.4237584968573846,-0.979500763980536,0.029811577877636095,0.1919838835593569,-0.05321382940044215,0.0054546823957934976,0.0028899109534710676,7024.905065481086
1684731283030545473,41,1684731283030545473,camera_2,42,0,0.5540004054765054,-0.16460878039832602,1.423536483219877,-0.9794699182559495,0.029570330155702675,0.19252281097755763,-0.051954230428964424,0.0057331373100169,0.003034865044676947,7026.290053746664
1684731283040819406,42,1684731283040819406,camera_2,43,0,0.5535484883886801,-0.16245709818293722,1.42233147357525,-0.9793960628608361,0.029462118683287387,0.19293450983615534,-0.05188073370402003,0.010860274138394743,0.005738634423773386,7036.351999891922
1684731283051185607,43,1684731283051185607,camera_2,44,0,0.5531535075417425,-0.1615754147645115,1.4213187188409804,-0.9792776819156581,0.029575171183569334,0.1937259659602106,-0.05109580280356901,0.01400613586883992,0.007389827785597516,7043.0799824455735
1684731283060459852,44,1684731283060459852,camera_2,45,0,0.5530888018237272,-0.16098097500943062,1.421132026478444,-0.9792105719187068,0.029449786130588098,0.19401476620861377,-0.051357924729478734,0.010046126146335155,0.005300075343326994,7042.90473390138
1684731283070328474,45,1684731283070328474,camera_2,46,0,0.55291088281296,-0.16058681185466464,1.4206849028228221,-0.9793278951324548,0.029388389233251135,0.19357565521936076,-0.050810059044502004,0.00912179664010182,0.004806772216174974,7050.654772751034
1684731283080427408,46,1684731283080427408,camera_2,47,0,0.5527785634251868,-0.16056825099585528,1.4203775755325458,-0.979324349122712,0.029533923472034394,0.19366659211355572,-0.05044618596927115,0.008956005913205445,0.004716767916872402,7053.733747623164
1684731283090301513,47,1684731283090301513,camera_2,48,0,0.5533352335183526,-0.1611042496928272,1.4218507472313198,-0.9795278655398532,0.0295195967225566,0.1923446326196138,-0.05154897033601121,0.00971886032493785,0.005128718136009003,7045.153889321254
1684731283100213050,48,1684731283100213050,camera_2,49,0,0.5533910528999652,-0.16171064092485313,1.4220701556193052,-0.9794980022930907,0.02960697103620695,0.19241419623721945,-0.05180606003442777,0.012223108438774943,0.006453730464409141,7042.276185704159
1684731283110312700,49,1684731283110312700,camera_2,50,0,0.5537163167448882,-0.16260700759316216,1.4229527990249407,-0.9796960031746943,0.02965768876173909,0.19123323256268523,-0.05240242002491246,0.011105774727184325,0.005869869678617385,7039.3160617954545
1684731283120298147,50,1684731283120298147,camera_2,51,0,0.5541070011286846,-0.1647603379430191,1.4240547876420018,-0.9798222597012117,0.02957792655460454,0.1904432626421068,-0.05296082862806455,0.015066976193338633,0.00797706653468313,7031.678647229914
1684731283130412817,51,1684731283130412817,camera_2,52,0,0.5539909097346258,-0.16588793412690872,1.4238110405595452,-0.9797665850826475,0.029510583867258963,0.19084873697534918,-0.05256732626084983,0.00939236517297104,0.004971799101398329,7032.049738343577
1684731283140667200,52,1684731283140667200,camera_2,53,0,0.5542290564285246,-0.16717618797608383,1.4244787772150809,-0.9799480936997503,0.029772780561419875,0.18977684967184563,-0.052915616981161095,0.0116312027676031,0.006161654053463225,7030.457201212643
1684731283150444269,53,1684731283150444269,camera_2,54,0,0.5538971811820954,-0.1682807803184868,1.423652805517328,-0.9797401598004415,0.029593957334295703,0.19085113872080106,-0.05300245100440981,0.006889473705086857,0.003648255856832805,7031.825752913487
1684731283160500526,54,1684731283160500526,camera_2,55,0,0.5535074594857637,-0.17038129199614108,1.4227095540867865,0.9797204385605861,-0.029609335741428267,-0.19084546254370421,0.0533775133373971,0.0010270195780321956,0.0005434251201843544,7039.133951412976
1684731283170778274,55,1684731283170778274,camera_2,56,0,0.5533029700631618,-0.17122835376726384,1.4222420211567632,0.9797621392367439,-0.02980356172989409,-0.19071694146471305,0.05296174529598741,0.0015062802121974528,0.0007964124748885554,7044.4864179973965
1684731283180539846,56,1684731283180539846,camera_2,57,0,0.5530980151857309,-0.17188379432505108,1.4217217463817162,0.9797760020111063,-0.029571605083916364,-0.19068525511793452,0.05294940544049413,0.0012760261306539178,0.0006742424162304206,7049.212770386366
1684731283190737009,57,1684731283190737009,camera_2,58,0,0.5527670606471756,-0.17227263139878418,1.4208719426787668,-0.979624584993906,0.02956828299320343,0.19157859204575278,-0.052526490327436615,0.0030697009060531855,0.0016206439187019272,7052.819698816398
1684731283200608253,58,1684731283200608253,camera_2,59,0,0.5529347007591867,-0.1725913480104489,1.4212613494763038,-0.9797227030786216,0.030070460117763934,0.1908332371014983,-0.053121258625791465,0.0036397557705640793,0.0019226786312225774,7051.920404840726
1684731283210828781,59,1684731283210828781,camera_2,60,0,0.5529301167069286,-0.1723708838549871,1.4212181945766627,0.9796519423027134,-0.029746535340297562,-0.1913651617220791,0.05269336255025138,0.0012822916032746434,0.000677314413163111,7050.183828267032
1684731283220527410,60,1684731283220527410,camera_2,61,0,0.552924852484097,-0.17189990745494332,1.4211503239316952,-0.9794458406418555,0.029805810523013107,0.19229018573672443,-0.053121966998328975,0.002120694436598569,0.0011207538796656833,7045.2900677854195
1684731283230593681,61,1684731283230593681,camera_2,62,0,0.5534494844758987,-0.17136091975956563,1.4224651559653236,-0.9796586988963827,0.029633560437268915,0.19118543130051793,-0.05328054645827354,0.00408024835633114,0.002158990846271649,7038.8493728090525
1684731283240122556,62,1684731283240122556,camera_2,63,0,0.5536897649900647,-0.1695273382870281,1.4229387387063348,-0.9794639971900564,0.02990880101462095,0.19188284169086264,-0.05419148360198399,0.001456385594792664,0.0007715198498573342,7030.0687667049915
1684731283250227689,63,1684731283250227689,camera_2,64,0,0.5537079560234542,-0.16840466069536458,1.4229670096432987,0.9794478385346113,-0.02978439396011324,-0.19199930545471344,0.05413952503683751,0.0015998197486624122,0.0008473919180842702,7029.9492288683505
1684731283259966373,64,1684731283259966373,camera_2,65,0,0.5541379144795848,-0.1673261433740409,1.4240154353666865,-0.9794900200619857,0.02987346483601073,0.19167480340180276,-0.05447610887850823,0.0033987732604146004,0.00180259684973518,7021.533393980702
1684731283270235538,65,1684731283270235538,camera_2,66,0,0.5539485945975563,-0.16606750364946946,1.4234887579610314,-0.9793448543819716,0.02967496509056327,0.19293334208022986,-0.05272360150996749,0.00440368487033993,0.0023328337444117183,7022.846780076392
1684731283280400753,66,1684731283280400753,camera_2,67,0,0.5540500706321851,-0.16383481996172095,1.4236938620823987,-0.9795308848135613,0.029731987107285248,0.19184289404456642,-0.05321239182389169,0.012250964646227658,0.0064877161429150385,7026.964869962075
1684731283290255308,67,1684731283290255308,camera_2,68,0,0.5538162709937339,-0.16277075357255566,1.4230547024730957,-0.9794862788277711,0.029653933336539075,0.19219381277343392,-0.052809205233638266,0.013077491254080087,0.006918135126391592,7032.048467657297
1684731283300198316,68,1684731283300198316,camera_2,69,0,0.5536572288737529,-0.16191585644659653,1.42263012353672,-0.9795118616563756,0.029524750120897864,0.19260614935389514,-0.05086917766020074,0.011609384382609278,0.006132490716583958,7036.826146132777
1684731283310238122,69,1684731283310238122,camera_2,70,0,0.5534744713891222,-0.1612267183476682,1.4221351562738496,-0.9794125946714219,0.02933178138422957,0.19302782849182132,-0.05129204058675123,0.010682750260457397,0.0056409353675994,7038.726885439131
1684731283320242166,70,1684731283320242166,camera_2,71,0,0.5531482471616772,-0.16054733202184449,1.4213011422852524,-0.9794495141269113,0.029105633903053586,0.19312178806113295,-0.0503536128567733,0.00974819844122976,0.005138804682292614,7047.798444696235
1684731283330329895,71,1684731283330329895,camera_2,72,0,0.5529543953801797,-0.16055955977424483,1.4208323694166987,-0.9793983787537518,0.029074845236258317,0.19346398421775296,-0.0500515322403141,0.009192041645292193,0.004842543720606033,7050.948421631477
1684731283340180397,72,1684731283340180397,camera_2,73,0,0.5531765985722625,-0.16092520576497965,1.421443692139121,-0.9795224040690694,0.029279029553548337,0.19251881541508545,-0.05113808821539664,0.015929495566524565,0.008400161846666612,7048.796917150261
1684731283350284099,73,1684731283350284099,camera_2,74,0,0.5534371776285614,-0.16152637801362071,1.4221578316488426,-0.9795643869842038,0.029220925797808158,0.19238444712112227,-0.050872131404927384,0.009007566841319203,0.0047540180486807335,7042.900842654983
1684731283360201120,74,1684731283360201120,camera_2,75,0,0.5541067256149248,-0.16338516250756355,1.4240010143700725,-0.9798974529209274,0.029511540465749272,0.1902547316615596,-0.052279898802553244,0.015305425389669836,0.008097639293556185,7034.583476668222
1684731283370212078,75,1684731283370212078,camera_2,76,0,0.553940953754407,-0.16441349824146925,1.4236152105060342,-0.9797750511324282,0.029625262976665033,0.1907406197309443,-0.052737168644766526,0.015600518381688744,0.008254477785230268,7034.759946175385
1684731283380361318,76,1684731283380361318,camera_2,77,0,0.553826973775498,-0.16554014702782252,1.4233594860049013,-0.979748060323868,0.02933431688289725,0.19127052725762625,-0.05146670328690152,0.008586853800807148,0.0045407663149639845,7035.865003407233
1684731283390316963,77,1684731283390316963,camera_2,78,0,0.5542327769158552,-0.16689664601511164,1.424468378413927,-0.9799416136553754,0.02987039535593257,0.18984268994647183,-0.052744159692491445,0.008285350690130144,0.004388706017044054,7030.564845648825
1684731283400489807,78,1684731283400489807,camera_2,79,0,0.5535110604902169,-0.16908892601282544,1.422698138091214,0.9797445590666094,-0.029602874094508347,-0.1909508710254141,0.05255505379462311,0.0011726584052667022,0.0006201148652907221,7040.846308700971
1684731283410797595,79,1684731283410797595,camera_2,80,0,0.5534243549018456,-0.17014824283669755,1.4225017350508542,0.9796828512760077,-0.029561669874879945,-0.1910892910959762,0.05322124968805018,0.0017812764272093773,0.0009422578434501391,7040.230108045043
1684731283420904159,80,1684731283420904159,camera_2,81,0,0.5534203592189466,-0.1710829552155149,1.4225296043594546,0.979829875239278,-0.02972200676545529,-0.1903020014962237,0.053246278075998715,0.0009348970488645136,0.0004944518215246454,7043.65005641873
1684731283430955410,81,1684731283430955410,camera_2,82,0,0.5529858672529931,-0.17171456635029814,1.4214211500257625,0.9796420278889304,-0.029647021547659688,-0.19148406165168205,0.05250148036381251,0.0007334043039008975,0.000387425675733882,7048.499409626938
1684731283440776348,82,1684731283440776348,camera_2,83,0,0.5525964346259409,-0.17244381371540704,1.4204293841754423,-0.979508210992184,0.030048054906526414,0.19198432872088664,-0.052941444264545626,0.0024410368059761822,0.001288574506401557,7054.035656665915
1684731283450801134,83,1684731283450801134,camera_2,84,0,0.5528066748346687,-0.17256094298969418,1.4209453888074575,-0.9795421199138244,0.03017706393310233,0.19159017661488348,-0.05366362223877703,0.0022753638331778347,0.001202211642628409,7049.907622854227
1684731283460506677,84,1684731283460506677,camera_2,85,0,0.5526283730528869,-0.1723575777433223,1.4204514607756942,-0.979533209417545,0.02984802913044573,0.19191035452874355,-0.05286021783765316,0.004126376123167574,0.0021780980698679086,7054.375828740649
1684731283470560789,85,1684731283470560789,camera_2,86,0,0.5527412958563327,-0.17196586613368298,1.4206986460567568,-0.9794578125701826,0.029965773382131456,0.19215268211015196,-0.053308466294939995,0.002679148514289409,0.001415068901637509,7050.1644869120755
1684731283480620145,86,1684731283480620145,camera_2,87,0,0.5532507834614283,-0.17067440503543874,1.421890932841695,-0.9793566308032224,0.029701164412872412,0.19270814254281002,-0.05331043361275909,0.0015055824187584221,0.000796559337808126,7036.279872384852
1684731283490731716,87,1684731283490731716,camera_2,88,0,0.5534903325297419,-0.1697580143190561,1.4224547110371573,0.9792965456269073,-0.029972590991759356,-0.19275974270306212,0.05407033480104278,0.004134479502681643,0.002189726577259975,7029.904419005148
1684731283500621080,88,1684731283500621080,camera_2,89,0,0.5537864076516623,-0.16876052367756356,1.4231787136329195,0.9794436291920346,-0.029788899677600553,-0.19198939879180205,0.05424822064083277,0.0034158839844167233,0.0018100626918553986,7027.548005569961
1684731283510712623,89,1684731283510712623,camera_2,90,0,0.554018873722526,-0.16764433963496206,1.4237164782096308,-0.9793121496647657,0.029658918923604023,0.19276184067674587,-0.05395307985807158,0.003149895928800106,0.0016704646155814614,7018.969168264881
1684731283520663499,90,1684731283520663499,camera_2,91,0,0.5539706338504482,-0.1652453664279411,1.4234987355221305,-0.9793212585986442,0.029706585864574562,0.19309464863335585,-0.052553286121791755,0.0050573128391988575,0.0026787989524952307,7022.355905832492
1684731283530408859,91,1684731283530408859,camera_2,92,0,0.5539991217764489,-0.1641455449757468,1.4235500743974707,-0.9794467588775303,0.02970548251709309,0.19258634007775394,-0.052078137910100394,0.006836627377197146,0.0036191805843098813,7025.77056877641
1684731283541224956,92,1684731283541224956,camera_2,93,0,0.5537027434048063,-0.1630180018161915,1.4227340601351544,-0.9792616652282554,0.02984473529404182,0.19354150236793594,-0.0519381329157578,0.005405354604590684,0.0028590413576145206,7028.748777560888
1684731283551118612,93,1684731283551118612,camera_2,94,0,0.5536272405131346,-0.1621326988583186,1.4225285488636383,-0.979448617146479,0.029402592044597112,0.1926687783504917,-0.05190988152402329,0.0062896558083593845,0.003323805092995243,7035.912684857379
1684731283560976743,94,1684731283560976743,camera_2,95,0,0.5533426290737505,-0.16086714801005766,1.4217766793522904,-0.9794563449924027,0.02969802328877372,0.19254544487037334,-0.05205331234928942,0.009794763813260943,0.005170049416176382,7043.898005757015
1684731283570802211,95,1684731283570802211,camera_2,96,0,0.5532534002624039,-0.16060051102622996,1.421564618778294,-0.9795481960988255,0.029287088640841508,0.1926339799951026,-0.05019708865787715,0.009592737362254411,0.00505717869997022,7048.178385566923
1684731283580606937,96,1684731283580606937,camera_2,97,0,0.5532177688810149,-0.16059377910387,1.4215058856007587,-0.9795640398599316,0.02909318646954682,0.19261620145098068,-0.05006872529767522,0.00984051520936191,0.005186904858064452,7049.085829695687
1684731283590702533,97,1684731283590702533,camera_2,98,0,0.5530630544904424,-0.16078844601135284,1.4211358933168026,-0.9794010640472414,0.029591938262024116,0.1928567443927188,-0.052001433396297904,0.009706338692922145,0.005119319135393988,7048.652277014678
1684731283600648641,98,1684731283600648641,camera_2,99,0,0.5536026787665356,-0.16213794097984388,1.4226313435746416,-0.9797115113740456,0.029367559137738055,0.1915120256025619,-0.0512449509813282,0.010003478557337075,0.005282210261682478,7042.635064736941
1684731283610818147,99,1684731283610818147,camera_2,100,0,0.5540677897947774,-0.16317591293292008,1.4238727182914626,-0.9798621924950992,0.02946818401811493,0.19056030754344788,-0.0518505452075343,0.007507285219617188,0.003970777155937554,7034.767685378436
1684731283620441436,100,1684731283620441436,camera_2,101,0,0.5537256673825433,-0.16412093824052404,1.4230557612561694,-0.9796821389536029,0.029616111015253216,0.19159399043984326,-0.051356941215020976,0.009139333269558847,0.004830528921842609,7037.586061654149
1684731283630637645,101,1684731283630637645,camera_2,102,0,0.554000736920126,-0.16537098468937012,1.4237972197664914,-0.979826666692737,0.02976859324226543,0.19053595694090478,-0.05243646829059292,0.009040246135555208,0.004783977931500701,7034.288885320078
1684731283640017509,102,1684731283640017509,camera_2,103,0,0.5538447736514941,-0.16776763932462102,1.4234915638861487,-0.9798283726409874,0.029696815390493396,0.19059335196361504,-0.05223632367089884,0.003709958982653916,0.0019629695915826077,7036.289072976447
1684731283650189399,103,1684731283650189399,camera_2,104,0,0.5538208864005391,-0.1689386343194959,1.4234804663552012,-0.9798656609903196,0.02987491547508025,0.1901553404206992,-0.053025676297895535,0.003278514137491584,0.001735296805781188,7036.9997044228985
1684731283660162210,104,1684731283660162210,camera_2,105,0,0.553686166517511,-0.1700043798830656,1.4231591180082865,0.9797655153437286,-0.0295841697988947,-0.1904847986624908,0.05385028615577438,0.0008869523881003261,0.0004695953163434678,7036.276847736678
1684731283670349597,105,1684731283670349597,camera_2,106,0,0.5532865916167858,-0.17084980271855701,1.4221817876701315,0.9796792871154932,-0.029700062697522005,-0.19105756733011625,0.053323603015366136,0.0010510760475881398,0.0005558391586776967,7042.873273362874
1684731283680649280,106,1684731283680649280,camera_2,107,0,0.5530762370835076,-0.17215763325547215,1.42166053466226,-0.9796759356553038,0.029868244240216474,0.19111211896958039,-0.05309526407193679,0.0014575280947610736,0.000770367113273388,7046.923099925739
1684731283690588951,107,1684731283690588951,camera_2,108,0,0.5524362475465754,-0.1723470494266878,1.4200143882934002,0.9793732762319934,-0.030067920182173653,-0.19257515053060628,0.05327961501966927,0.001263441052287817,0.0006668635552395249,7054.287774145604
1684731283700256347,108,1684731283700256347,camera_2,109,0,0.5528844025914894,-0.17259037270969055,1.4211458889334636,-0.9796446838239635,0.030089143178279782,0.19119506634859426,-0.05324831943075769,0.002120020391885191,0.0011199810221518012,7050.820521578193
1684731283710219144,109,1684731283710219144,camera_2,110,0,0.5525733625662244,-0.17240644683683773,1.420322659944852,-0.979534384492763,0.030052284320224304,0.19174337259753998,-0.05332662438633858,0.0033323512179777026,0.0017589533201478338,7055.809498754099
1684731283720147371,110,1684731283720147371,camera_2,111,0,0.5530993873243549,-0.17165382214296335,1.4215657729832163,0.9795170700507203,-0.029804522065314174,-0.19181244580837972,0.05353490054831516,0.0020841063233092427,0.0011019590487103038,7043.45109070139
1684731283730246067,111,1684731283730246067,camera_2,112,0,0.553399900485082,-0.170981615631541,1.422299235351223,0.9794816269157641,-0.029936332683305773,-0.19184851728397434,0.053978745223124604,0.0010410923277959228,0.0005510975851924121,7035.8785129515445
1684731283740298986,112,1684731283740298986,camera_2,113,0,0.5537854685243925,-0.170156529874092,1.4232299819964598,0.9795852647045471,-0.029779495392095855,-0.19138462636526274,0.053831362781779205,0.003140566754154861,0.0016638104042431539,7030.215727630071
1684731283749953746,113,1684731283749953746,camera_2,114,0,0.5537709553542253,-0.1690900836754115,1.4231329151850878,0.9795121314742908,-0.029801130677176803,-0.19179100887068154,0.053703685361618084,5.067267920821905e-05,2.6840581357588243e-05,7029.748423099287
1684731283760480165,114,1684731283760480165,camera_2,115,0,0.5540089474691519,-0.16678922132869112,1.423648797873532,0.9794499757839543,-0.029553618688874742,-0.1922336430071247,0.05339058957731603,0.0025939904735423625,0.0013745538763062328,7023.903730602936
1684731283770986080,115,1684731283770986080,camera_2,116,0,0.5540376761197974,-0.16556570892420658,1.423676643656507,-0.9793815475529575,0.02969222580489319,0.1926502696210785,-0.0530662760559951,0.004359680344350636,0.0023100254663584226,7022.240018670913
1684731283780213356,116,1684731283780213356,camera_2,117,0,0.5537339759089708,-0.16433413515139472,1.4228635348863383,-0.9792724661357545,0.029940447991300686,0.19341255519702785,-0.05215927659232337,0.00312175159342587,0.0016518475368378794,7027.631432732335
1684731283790562868,117,1684731283790562868,camera_2,118,0,0.5537128980501528,-0.16325417428785818,1.4227771344725568,-0.9794101299452252,0.029432233191499943,0.19279270124363299,-0.05215855976943123,0.009629640786442906,0.005092351532203685,7032.252335618479
1684731283800470352,118,1684731283800470352,camera_2,119,0,0.5534506917113626,-0.1615080593642447,1.4220619405080406,-0.9793200063063152,0.029622135658543852,0.19339474498574855,-0.05151045465847728,0.010814293287694454,0.005711825978511871,7037.010004564884
1684731283810170412,119,1684731283810170412,camera_2,120,0,0.5532469874779906,-0.1609217855290052,1.4215368531967099,-0.979411027602336,0.02921853479037573,0.19313058752430146,-0.05099894506906842,0.011326261213980615,0.005974942592067174,7044.47474782099
1684731283820358753,120,1684731283820358753,camera_2,121,0,0.5529264432722542,-0.16053776667980826,1.4207169891730633,-0.9793280257212238,0.02922715843668991,0.19367959530429835,-0.050503520762913125,0.009429755969904363,0.004968704990944563,7050.167831505414
1684731283830528974,121,1684731283830528974,camera_2,122,0,0.5531829675057482,-0.1605587838236414,1.4213849302683468,-0.9794351113350035,0.0292542357751496,0.19313386935135485,-0.05050109783732384,0.010729512490797788,0.0056573002095776665,7046.6823092969125
1684731283840583562,122,1684731283840583562,camera_2,123,0,0.5532957795589805,-0.16121983894992709,1.4217599377318408,-0.9795402165241226,0.029338742503891412,0.19253701646486682,-0.05069220542620922,0.01191258488688618,0.006283556006958092,7046.198799132835
1684731283850865125,123,1684731283850865125,camera_2,124,0,0.5534813028537954,-0.1619469683221058,1.4223172504239048,-0.9795342080653301,0.02955749065019789,0.19223223988499114,-0.0518252440909775,0.01331980898976326,0.007034766998179483,7040.84268615232
1684731283860522031,124,1684731283860522031,camera_2,125,0,0.5538125193303277,-0.1628993612712947,1.4232165209819287,-0.9797360513037763,0.029297021686474082,0.1911441070555646,-0.05218126707849765,0.013210716657340527,0.006984019934560013,7037.520824983949
1684731283870419025,125,1684731283870419025,camera_2,126,0,0.5538810509280431,-0.1639244515733699,1.4234279663642986,-0.9796731416240679,0.02956793218262434,0.1915170227774079,-0.05184113186795248,0.00847970217000693,0.004484973600126966,7033.658886365591
1684731283880314111,126,1684731283880314111,camera_2,127,0,0.5543657804469999,-0.16637834821010947,1.4247781337786958,-0.9800245174411022,0.029482267169250197,0.18967261107776934,-0.052029239316340105,0.009592637768946588,0.005080589601606892,7029.761950803692
1684731283890378952,127,1684731283890378952,camera_2,128,0,0.5543026802837209,-0.16758786613023785,1.4246615650807124,-0.9799727264789426,0.029770150836663716,0.18967515780981162,-0.052825448284072464,0.004344402696006,0.002301916827994509,7029.1512557663955
1684731283899427652,128,1684731283899427652,camera_2,129,0,0.5542137001393286,-0.16873275621359984,1.4244863488985622,-0.979989194637788,0.02985287330356672,0.18942547312801308,-0.05336641714533148,0.005081931652966887,0.0026929445108428165,7030.822839539496
1684731283910068511,129,1684731283910068511,camera_2,130,0,0.5539174838178466,-0.1697602295513392,1.4237235702899724,-0.9798583730319468,0.029374750988969203,0.1902064069172635,-0.053256131770404364,0.002119830925948918,0.0011226715617696286,7033.394960798552
1684731283920355796,130,1684731283920355796,camera_2,131,0,0.5532535029088026,-0.17141645346943543,1.4221001231329786,0.9796851022802738,-0.029812184255416575,-0.19099840021322517,0.05336614241257532,0.0016453585121780634,0.0008701091980117668,7043.470367266561
1684731283929994583,131,1684731283929994583,camera_2,132,0,0.5529528394717559,-0.17197323681702753,1.421347008081649,-0.9796930580129041,0.029604501514122875,0.1911324801116971,-0.0528531987468744,0.0023807352990843356,0.0012575742506129907,7050.440824752445
1684731283940066576,132,1684731283940066576,camera_2,133,0,0.5525819483191141,-0.17230250307556752,1.4203827510488887,-0.9795590463449366,0.029672447987651247,0.1919262979117303,-0.05242057538902193,0.0016960050561465323,0.0008949182302284508,7055.770260416668
1684731283950021743,133,1684731283950021743,camera_2,134,0,0.5528746084642912,-0.17257623045781653,1.421117497575069,-0.9796349144022426,0.030025390827099336,0.1912236206530643,-0.053361383922492345,0.0020521393162198365,0.0010841473829666308,7050.765161043965
1684731283959975719,134,1684731283959975719,camera_2,135,0,0.5527477917763748,-0.17223040562645275,1.420726122124393,-0.979508322065479,0.029845472795916924,0.19199581460846488,-0.053012280944040785,0.0020892019965685904,0.001103301572796621,7051.031331511684
1684731283970095634,135,1684731283970095634,camera_2,136,0,0.553031194217766,-0.17180296151979416,1.4213986110170913,-0.9795180253971993,0.02972933020377184,0.19210322127084037,-0.05250673504392784,0.0019177552894689143,0.0010134187933407534,7044.952034006829
1684731283980058431,136,1684731283980058431,camera_2,137,0,0.5531044509815795,-0.17110560170145647,1.4215365586006434,-0.9793927145893366,0.029893577965119354,0.19247450441013988,-0.053383984094899466,0.001517342694569379,0.0008023937011948384,7040.636947405059
1684731283990578889,137,1684731283990578889,camera_2,138,0,0.5533950449758149,-0.17028084025709544,1.422227892291711,-0.9794797572072068,0.02979562629250833,0.1921172819587349,-0.05312791966505541,0.0026028520078398287,0.0013771082427147083,7036.899466595609
1684731284000398635,138,1684731284000398635,camera_2,139,0,0.5538593021009852,-0.16820065473834966,1.4233153494099327,0.9794371134047218,-0.02977775980363268,-0.19211688530459275,0.053919646580491844,0.0023171844659373164,0.001227860167262261,7026.296829862984
1684731284010512590,139,1684731284010512590,camera_2,140,0,0.5537443351420831,-0.16695793317013782,1.4229536756218149,0.9793450126589023,-0.02978934715553761,-0.19261744445259113,0.05380019580572676,0.0008353254524990916,0.0004424106561306451,7027.7943664963805
1684731284020103216,140,1684731284020103216,camera_2,141,0,0.5540741513419806,-0.16582710978848061,1.4237834598745602,-0.9795657941348247,0.029727724348289495,0.19163677219131478,-0.0533147719696572,0.006845560215879232,0.0036264508708995346,7026.46840831358
1684731284030307054,141,1684731284030307054,camera_2,142,0,0.5541618975262576,-0.16467461361802874,1.423941991457328,-0.9795064463174635,0.02956777565557918,0.19226184364293927,-0.05223266932039111,0.007652077358216048,0.004053033991286441,7023.339572350029
1684731284040174961,142,1684731284040174961,camera_2,143,0,0.553538162104087,-0.16244818430520294,1.4222791071808607,-0.979350821033167,0.029493098568252496,0.19337986190379006,-0.05105247779076361,0.009788433089852333,0.0051709518992998586,7035.4996478341045
1684731284050111532,143,1684731284050111532,camera_2,144,0,0.5533887160387556,-0.16163359590170975,1.4219046866056113,-0.9793174807515412,0.029767875349173464,0.19329594926025284,-0.051844204027341835,0.012002808856777847,0.006339091959087682,7038.636080868309
1684731284059851408,144,1684731284059851408,camera_2,145,0,0.5530413842501399,-0.1609504245015682,1.4210159181112447,-0.9791632729182296,0.029480368454174462,0.19425739398773462,-0.051325020457480504,0.013996784167829901,0.007383975330590837,7042.717000925217
1684731284070034980,145,1684731284070034980,camera_2,146,0,0.5526197344886853,-0.1604900337910729,1.4199183652706575,-0.9790985579392817,0.029229120706237597,0.1947603241734626,-0.050794571282833205,0.011268961359746754,0.00593532420438144,7051.442319198975
1684731284079766511,146,1684731284079766511,camera_2,147,0,0.5525446392338547,-0.16049298905237572,1.4197606227415636,-0.9791714234388448,0.029301883419529422,0.19436548616365315,-0.05086040638041893,0.012091836717445403,0.006366264768014677,7055.233357947785
1684731284089533090,147,1684731284089533090,camera_2,148,0,0.5531708549804013,-0.161051271388402,1.421416863920853,-0.979342796926025,0.02948112885257713,0.19319226291683003,-0.05191626623480106,0.013262734399177134,0.006998887740689925,7044.079444017258
1684731284100204706,148,1684731284100204706,camera_2,149,0,0.5534140648925585,-0.1617158034830704,1.4221059209636282,-0.979542275827611,0.02949302146312255,0.19229546756979463,-0.05147372828496577,0.010818077949807048,0.005710861124629563,7043.047524494117
1684731284109988212,149,1684731284109988212,camera_2,150,0,0.55344967243457,-0.16253162618680164,1.42222998088608,-0.9795049586787066,0.02937088146078812,0.1924388099903906,-0.05171742119947611,0.010077243961859494,0.0053222222496195765,7040.596568524143
1684731284119953870,150,1684731284119953870,camera_2,151,0,0.5543354943383247,-0.164839102988387,1.4246148608895595,-0.9798820166236749,0.02959141074024958,0.19025464948467402,-0.05252380657745335,0.01217141340021044,0.006447110697810548,7027.831894905538
1684731284130077838,151,1684731284130077838,camera_2,152,0,0.5537314400301607,-0.16580773668111973,1.423109945720319,-0.9794916844201271,0.029638017013555965,0.19234113928526478,-0.052177717828327676,0.009107187506742775,0.004818891000077019,7031.090153419647
1684731284140032291,152,1684731284140032291,camera_2,153,0,0.5540559728292871,-0.16713119695074247,1.424001266224409,-0.9796874889438514,0.02990268087350695,0.19106182733481636,-0.053043678407037755,0.008490258827805519,0.004497993194443931,7027.717997922795
1684731284150502681,153,1684731284150502681,camera_2,154,0,0.5541781605157443,-0.16836124763683905,1.4243503398031283,-0.9799300470810514,0.029960123949168353,0.18961634494004073,-0.053713457645721524,0.0032242838060483336,0.0017086214074095005,7030.713147641157
1684731284160365819,154,1684731284160365819,camera_2,155,0,0.5536171825350372,-0.170399111602161,1.4229922692695327,-0.9797720975421648,0.029824983124206526,0.19033338250967435,-0.05413234487710181,0.0018766832072287796,0.0009935321641038164,7038.025455592434
1684731284170142889,155,1684731284170142889,camera_2,156,0,0.5532718574293577,-0.17120276498959724,1.4221342542336457,0.9796784264732709,-0.029772178950288573,-0.19112102065313477,0.05307121185644832,0.0017987853498198092,0.0009511764429963995,7043.078223133224
1684731284180077075,156,1684731284180077075,camera_2,157,0,0.5531757859383557,-0.17188327572051418,1.4219004989460504,-0.97986642879186,0.02952563312088708,0.19047125118772348,-0.052064586683087596,0.0021030367934145033,0.001110893123441513,7050.03379922849
1684731284190536737,157,1684731284190536737,camera_2,158,0,0.5527981269876282,-0.17226848906065736,1.4209292623395455,-0.9795696228470272,0.029639470263605912,0.19180325410466234,-0.052691247021571415,0.0019439144525676966,0.0010265738366054642,7050.700517920083
1684731284200473546,158,1684731284200473546,camera_2,159,0,0.5528316989581792,-0.17255486596609007,1.4209805685023056,-0.9795138074126023,0.030169465061859253,0.19189474878955495,-0.05309340686885973,0.0019936301396228373,0.0010532727781227308,7048.7234804737345
1684731284210457324,159,1684731284210457324,camera_2,160,0,0.5528975636284257,-0.1723550899211088,1.4211217715732876,-0.9795686914522164,0.029650385136952277,0.1917347617715119,-0.05295105774434306,0.0027836457011289895,0.001470615092422525,7048.625531034075
1684731284220600843,160,1684731284220600843,camera_2,161,0,0.5528107308252386,-0.17186921422969062,1.4208430213542091,-0.9794563960310964,0.029833137908533904,0.19233516246396473,-0.052747866651332825,0.0018178341560997069,0.0009601271182652316,7048.649701210206
1684731284230381965,161,1684731284230381965,camera_2,162,0,0.5533096361303557,-0.17132297685903256,1.4220689742643784,-0.9796196448430916,0.02971515729856009,0.19154324948530166,-0.052664451395874654,0.0015115822316147387,0.0007992834948967186,7041.666265464855
1684731284240327358,162,1684731284240327358,camera_2,163,0,0.5536469610959578,-0.16951692805613566,1.4228278000010288,-0.9795174773704957,0.029621390479889615,0.19183743277571327,-0.053539556757616735,0.001649043522775173,0.0008731217227150274,7032.458801367088
1684731284250125646,163,1684731284250125646,camera_2,164,0,0.5540633657188472,-0.16850293700286115,1.4238540617934101,-0.9796532698722289,0.029529092974838796,0.19108254995473126,-0.053804856653752176,0.0026811123825609684,0.0014209764184464047,7026.876717093865
1684731284259891271,164,1684731284259891271,camera_2,165,0,0.5540699024402914,-0.16729816939937228,1.4238090629525255,0.979468966657576,-0.029739545881987565,-0.1920869110993416,0.053467011790329984,0.0007675425731576979,0.00040683401283347806,7022.782513474347
1684731284270032644,165,1684731284270032644,camera_2,166,0,0.5538833811629533,-0.16602776787481996,1.423288168910575,-0.9793051308984999,0.02970140330561812,0.19302941912887334,-0.053093602141111765,0.004392842587549239,0.002326993942534777,7023.677327785408
1684731284280079364,166,1684731284280079364,camera_2,167,0,0.5541751202857146,-0.1638490357894427,1.4239761503574215,-0.9796059270043824,0.029678833954972585,0.191497996771748,-0.05310284197070157,0.007992241356987506,0.004233102004720794,7026.248033962682
1684731284289877653,167,1684731284289877653,camera_2,168,0,0.5537627684361094,-0.16274085297130292,1.4228945759126752,-0.9794551623430928,0.029724490671288167,0.19249939851637873,-0.052230462228767156,0.009956013411283493,0.005264957954706723,7032.731509381905
1684731284299571752,168,1684731284299571752,camera_2,169,0,0.5534433697035295,-0.16183157063823353,1.4220351356153156,-0.9793647083427667,0.02952173646141703,0.19347072248059555,-0.05042137118154127,0.013072193891275674,0.006900969325358791,7038.365401149727
1684731284309620380,169,1684731284309620380,camera_2,170,0,0.553368056201622,-0.16117649086808516,1.421836198757866,-0.9793554064895992,0.029308126386228362,0.19340420514814397,-0.05097876948628252,0.013738870038650932,0.007251946096709704,7039.956497483189
1684731284320120096,170,1684731284320120096,camera_2,171,0,0.5531431424441245,-0.1605461790305299,1.421271743149413,-0.9794193914783438,0.029129304619054566,0.19335913726920922,-0.05001383051825133,0.010718316887505352,0.005649741601472966,7047.18906413158
1684731284329793214,171,1684731284329793214,camera_2,172,0,0.5529727560977249,-0.1605570692875243,1.4208546430206714,-0.9793866672719959,0.02929765296971219,0.1934225508048876,-0.05031024091027358,0.010992135619744658,0.005791804090341469,7050.5674321558345
1684731284340020179,172,1684731284340020179,camera_2,173,0,0.5533410206576981,-0.1609685876167366,1.4218553341649998,-0.9795885559600749,0.029309526417631914,0.19215838926141793,-0.05120904343655289,0.01288184174336493,0.006795931147718002,7046.65609000344
1684731284350046157,173,1684731284350046157,camera_2,174,0,0.5535375623738752,-0.1615481809829178,1.422400232160478,-0.979476046825221,0.029386521095114828,0.19276068522012466,-0.051053151783525666,0.01147537335054949,0.006060349768998803,7038.08417437505
1684731284359987974,174,1684731284359987974,camera_2,175,0,0.5537325277047487,-0.16327335942344484,1.423016837812505,-0.979753294060424,0.029545121783705938,0.19110467839258669,-0.05186106876068526,0.012357800325844437,0.0065305766174944095,7040.117831429236
1684731284369940757,175,1684731284369940757,camera_2,176,0,0.5543414974474387,-0.16451791280836425,1.4246311441926771,-0.9799664687814469,0.029521051239064604,0.18988010945497558,-0.0523428278862395,0.017391924106050283,0.009209633725810521,7030.137107457036
1684731284379863500,176,1684731284379863500,camera_2,177,0,0.5543182304963651,-0.16567462069258257,1.4246232985649325,-0.9800653330495916,0.029414174788180793,0.18922581530954952,-0.05291823973224807,0.011577133322134614,0.006131033775803788,7032.667795867892
1684731284390001773,177,1684731284390001773,camera_2,178,0,0.5538346259489124,-0.16675365893921157,1.4234049574244074,-0.9796898400879049,0.029824255106750498,0.19118042868173626,-0.05261534685745446,0.007329009065870196,0.0038787371505019787,7033.705170069821
1684731284400413751,178,1684731284400413751,camera_2,179,0,0.553776250624052,-0.1691478614493575,1.4233576336632718,0.979888046481839,-0.029640114435441126,-0.19018284500501761,0.052643759782680356,0.0014465968706645072,0.000765422661929788,7038.49103173334
1684731284410475254,179,1684731284410475254,camera_2,180,0,0.5536317924878617,-0.1701891573278489,1.4230201843468477,-0.9798134135372856,0.02959845945541764,0.19047757927706438,-0.05298959938542709,0.0017054505296982825,0.000902418704655522,7038.907891380137
1684731284420437335,180,1684731284420437335,camera_2,181,0,0.553368592794368,-0.17104848866829853,1.4223938452515168,0.979767945420167,-0.029502932848632427,-0.19082221564769197,0.0526424932519296,0.0011138697736896572,0.0005889651080816069,7043.033879850531
1684731284430485725,181,1684731284430485725,camera_2,182,0,0.5530429618061184,-0.1717216207062343,1.421557580835772,0.9796614069340664,-0.029615886226184586,-0.1912778625238776,0.052907526452289626,0.0006928337970748544,0.000366099354624001,7047.66395139741
1684731284440135717,182,1684731284440135717,camera_2,183,0,0.5527825132303299,-0.17250223147291435,1.4208922343039407,0.9795364550084269,-0.030040572872037066,-0.19175520357534767,0.053252597991280425,0.0019481619819998741,0.0010291041094486373,7050.224126476327
1684731284450363636,183,1684731284450363636,camera_2,184,0,0.5526519449961883,-0.17251643477850828,1.4205296978338158,-0.9794830143414911,0.030057988085964514,0.1921269745982826,-0.05288447409629115,0.003704967035446316,0.0019561943473147794,7052.209952390986
1684731284460334539,184,1684731284460334539,camera_2,185,0,0.5526503675430025,-0.17236263075969552,1.4204777729533964,-0.9795217128218967,0.029905305995348738,0.1919752597185139,-0.05280517436569556,0.0015378075768239796,0.0008117618704420938,7053.789398683699
1684731284470585823,185,1684731284470585823,camera_2,186,0,0.5528517172358899,-0.1719967795735562,1.420958637323461,-0.9794409012633626,0.02998099732239042,0.19234931529930469,-0.052899920943754127,0.004083477717358619,0.0021573931902210356,7047.095868151637
1684731284480895042,186,1684731284480895042,camera_2,187,0,0.5535339644879977,-0.1707461409741318,1.4226149242723498,0.9795669008391706,-0.02985666982735782,-0.19145738099411186,0.05386406325220965,0.0014998692204244435,0.0007940564973323445,7035.343572314598
1684731284490553140,187,1684731284490553140,camera_2,188,0,0.5536872411290134,-0.16979279307042844,1.4229450275071895,-0.9794867549249536,0.029844721452978555,0.19179613143235327,-0.054122393660678135,0.0018007080652751029,0.0009538986513216762,7030.435682344954
1684731284499526500,188,1684731284499526500,camera_2,189,0,0.5539496267425349,-0.16878311031333942,1.4235864117288013,-0.9795457539399995,0.02986587907632686,0.19158462804544307,-0.05379103551527401,0.0062414605636149645,0.00330780113882826,7026.546244958649
1684731284509981393,189,1684731284509981393,camera_2,190,0,0.5539740556435055,-0.16760351879466018,1.4235777792875004,-0.9794452287922278,0.029657348432478258,0.19213692291077952,-0.05376698182409452,0.0031682942644692957,0.0016791981529661938,7024.155501750299
1684731284520291328,190,1684731284520291328,camera_2,191,0,0.5542250117154588,-0.16529093270598877,1.4241434381451847,-0.979613005190553,0.029695335983360865,0.1915226658625585,-0.05287358076835278,0.0074534808518365026,0.003949070137885406,7024.423760404344
1684731284530382394,191,1684731284530382394,camera_2,192,0,0.5539218192754048,-0.16410091132336987,1.4233342604388863,-0.9794177159655246,0.02979028262911652,0.19252795649173546,-0.05278695561280977,0.004797052824869751,0.002539522053826749,7027.151907516643
1684731284540277481,192,1684731284540277481,camera_2,193,0,0.5537954650850964,-0.16303196922706586,1.4229683870840713,-0.9793817846459202,0.029548299055704608,0.19296382128168152,-0.051992130203122704,0.00778352573979646,0.004117109663434867,7029.6522882869485
1684731284550445795,193,1684731284550445795,camera_2,194,0,0.5535915553330977,-0.162113081120482,1.422414216316492,-0.9794239576196211,0.029500775800740533,0.19292462530387422,-0.051366374402258844,0.008676206809468567,0.004583691402426199,7036.350850604472
1684731284560560226,194,1684731284560560226,camera_2,195,0,0.5532671466037498,-0.16084778731583188,1.4215740933182937,-0.979383624321923,0.029566722470981462,0.1929273719646565,-0.05208218965433008,0.010380115010775626,0.005478560537645552,7043.681969288505
1684731284570434331,195,1684731284570434331,camera_2,196,0,0.5530981505302807,-0.16055630795669332,1.421152933237492,-0.9794473136163714,0.02921737020317193,0.19300993036555714,-0.0507589588975909,0.008065433241426945,0.00425149406207835,7049.3084938973225
1684731284580173969,196,1684731284580173969,camera_2,197,0,0.5532600476844993,-0.16060439955310113,1.4215937758315953,-0.9795577779515907,0.029151428530933263,0.19251054467382533,-0.050561290119369065,0.01064947375562042,0.005615112620376497,7048.097609767686
1684731284590425968,197,1684731284590425968,camera_2,198,0,0.5532168257789719,-0.16082840399213919,1.4215152218241913,-0.9794160958461161,0.029452676745787127,0.19286307857070364,-0.05177339040752692,0.012385969806928188,0.0065353777775304265,7045.164811980913
1684731284600191831,198,1684731284600191831,camera_2,199,0,0.5536404974105826,-0.1621435579853146,1.4227067025899225,-0.9796759465679771,0.02943746806945679,0.1914753032522482,-0.05201618434927079,0.009253687516320497,0.004888608930142804,7040.945758472895
1684731284610272169,199,1684731284610272169,camera_2,200,0,0.5540656068316492,-0.16316083131846898,1.4238534763885684,-0.9798999563280368,0.0294106609213512,0.19032692097824278,-0.05202645253544246,0.01093391445465386,0.005782894353174051,7035.993719049262
1684731284620087862,200,1684731284620087862,camera_2,201,0,0.5537394396389052,-0.16410909042237695,1.4230638639754813,-0.9796827119309557,0.029354940272043554,0.19138986291659063,-0.05224932342147178,0.011961626820266247,0.0063243824138482715,7037.312517601997
1684731284630299091,201,1684731284630299091,camera_2,202,0,0.5540397817921796,-0.16536307528460714,1.4238746501673547,-0.979876714348183,0.029425271134182633,0.1903299113155303,-0.05244333089642171,0.008443643630016595,0.004468189300851105,7034.652121134104
1684731284640253543,202,1684731284640253543,camera_2,203,0,0.5542446915262235,-0.1678753428439721,1.4245101274730698,-0.9799459724467489,0.029494345532604226,0.189754786703623,-0.05318924318000419,0.0036107763298787177,0.0019132834903063125,7029.463969797591
1684731284650392293,203,1684731284650392293,camera_2,204,0,0.5534870586062829,-0.1688259402270122,1.4225978484656532,-0.9795044730089344,0.029866434337745513,0.1920208074372765,-0.05298106233905938,0.0025208162260241807,0.0013338484998810702,7035.246536784572
1684731284659566879,204,1684731284659566879,camera_2,205,0,0.5538525143819729,-0.17005359382332874,1.4235718875622527,0.9798593529381632,-0.029551158363432833,-0.19013106905891,0.05340930703070139,0.0005129178171046078,0.00027161056027974565,7034.864114073568
1684731284669594049,205,1684731284669594049,camera_2,206,0,0.5533614695381881,-0.17087207315372221,1.4223516984394091,0.9796948428239343,-0.029806018304890575,-0.19097150735959434,0.05328695519355162,0.0003625280223786831,0.00019175095392840792,7041.703272255138
1684731284680190563,206,1684731284680190563,camera_2,207,0,0.553261414107361,-0.17222400905092233,1.4221257966423637,0.979912175246653,-0.02985295316041191,-0.18999402574326107,0.05275604394611257,0.0004318429855629802,0.00022822600220735988,7049.1220305059105
1684731284690218448,207,1684731284690218448,camera_2,208,0,0.5525594371525269,-0.1723880316982181,1.42031147087432,-0.9794866469726571,0.030086083503410965,0.19204676578715574,-0.053092143791530044,0.003991646051872522,0.0021069935902826424,7054.624701546039
1684731284700200557,208,1684731284700200557,camera_2,209,0,0.552925009424512,-0.17260008236681343,1.4212149941073697,-0.9796616581737508,0.030059055116462532,0.1911061156693775,-0.05327233112531445,0.004116423020604998,0.002174822316016052,7050.555284684055
1684731284710337162,209,1684731284710337162,camera_2,210,0,0.5525635959192251,-0.1723982891718261,1.4202812469590265,-0.9794156459227251,0.029968860076446002,0.19231080495875585,-0.053510879675117605,0.004410768917296082,0.0023289530849087427,7052.681771006901
1684731284720272064,210,1684731284720272064,camera_2,211,0,0.5530709880489034,-0.17163536901265777,1.4214821422511883,-0.9794982682286208,0.029942268464592667,0.19183349358653412,-0.05372628625461016,0.0020448860013857484,0.0010812230252880122,7043.844031193294
1684731284730193376,211,1684731284730193376,camera_2,212,0,0.5534330914514863,-0.1709799123363462,1.422347562804371,-0.9794792609858087,0.029957024051657666,0.19191005768638034,-0.053791112346490595,0.0021635285229422156,0.0011452785062398502,7035.314511358741
1684731284740168809,212,1684731284740168809,camera_2,213,0,0.5535535926104862,-0.17007500375367515,1.4226149468550047,0.979457463480651,-0.02985380975362407,-0.19200705888932934,0.05389913368425803,0.002489917271304875,0.0013184558104682917,7032.640900452626
1684731284750108480,213,1684731284750108480,camera_2,214,0,0.5540507358188768,-0.16916821513761848,1.4238325708896844,0.9795605980778141,-0.029702108288025553,-0.19131746371435004,0.05455682848727449,0.0009852040093392134,0.0005224611161651964,7024.142017266716
1684731284760353088,214,1684731284760353088,camera_2,215,0,0.5540098715479874,-0.16678980456565323,1.4236314553381588,0.9793737650610816,-0.029833184497962826,-0.1923973137502886,0.05403964354494463,0.004607674200087786,0.0024426161027041107,7022.110405561747
1684731284770327329,215,1684731284770327329,camera_2,216,0,0.5538438926672805,-0.16552377439386837,1.4231397566743567,0.9793237166849191,-0.02983272925000027,-0.19285659907764166,0.05330476898119241,0.0038925366243347526,0.002061438205913608,7025.942549800735
1684731284780043601,216,1684731284780043601,camera_2,217,0,0.5539432041613774,-0.16440474587422982,1.4233604967409383,0.9794655068098633,-0.02961688979131442,-0.1924747708796988,0.05218834528507636,0.0023862284724600613,0.0012629222246011245,7027.970723527953
1684731284789402484,217,1684731284789402484,camera_2,218,0,0.5538227916132341,-0.16329656522316893,1.4230321095146214,-0.9793806728776486,0.0297895232215296,0.19272010237326065,-0.052773516475580776,0.009204767004121095,0.004870866047710749,7029.191603736252
1684731284799410581,218,1684731284799410581,camera_2,219,0,0.553486450198607,-0.16152623658500515,1.4221386958606628,-0.9793548599498425,0.02953589038406894,0.19323318014837343,-0.05150366551606739,0.012973769858945161,0.006852580510062598,7037.16357723414
1684731284809566497,219,1684731284809566497,camera_2,220,0,0.5530311937646334,-0.16086514214722727,1.420944675996627,-0.9792942356229258,0.029275547096972578,0.19367850663191566,-0.05113099340628447,0.009962861018721014,0.005253182460364226,7046.968019299673
1684731284819537878,220,1684731284819537878,camera_2,221,0,0.5529075275919841,-0.16052854816915757,1.4206288710288595,-0.9792836287038902,0.029243985633275408,0.19389364474634163,-0.05053333932960978,0.012108238704968244,0.006380132360544516,7049.718154051809
1684731284829609632,221,1684731284829609632,camera_2,222,0,0.5531050738408924,-0.16053811870014512,1.4211606575109665,-0.9794536996527032,0.029127297642470563,0.19307379973567346,-0.05044361827137318,0.009841488266829401,0.0051871018226839595,7049.300692098914
1684731284839587688,222,1684731284839587688,camera_2,223,0,0.5532652305752108,-0.16120926058916718,1.4216549184000664,-0.9794645495928581,0.02920084650172207,0.19304305476472416,-0.05030790853877868,0.015555909485556185,0.008204654472286237,7044.8681578463875
1684731284849563837,223,1684731284849563837,camera_2,224,0,0.5534179976086824,-0.1619279413948283,1.4221016670776478,-0.9794777990116922,0.029445232374599773,0.1926925913193005,-0.05124241196772461,0.009972869011107832,0.0052652327026111384,7041.129961418685
1684731284859717369,224,1684731284859717369,camera_2,225,0,0.5536425459563619,-0.16284887990736482,1.422743949697175,-0.9796070148510955,0.02936807145706448,0.19177413015944164,-0.05225223282318154,0.012831301428377628,0.006781408776919187,7038.483002783495
1684731284869798183,225,1684731284869798183,camera_2,226,0,0.5539821769247344,-0.1639582605295387,1.4236682951547461,-0.9797859471494518,0.02971627014973244,0.19091236242366336,-0.05185470982134299,0.006709704059176147,0.003548974420393942,7034.646936862962
1684731284880051612,226,1684731284880051612,camera_2,227,0,0.5540349498029269,-0.16629188888851062,1.423901551273679,-0.9798243599460008,0.02942881558838055,0.19064221299983056,-0.052284941350278835,0.005669335427228361,0.0030008192894416465,7032.55463476689
1684731284890147686,227,1684731284890147686,camera_2,228,0,0.5543489145455338,-0.1676145170263492,1.4247634526343451,-0.9801241526333921,0.029827830536699653,0.18842448394267894,-0.05443491343874939,0.005041618249379098,0.0026721917144053755,7032.557246759534
1684731284900032758,228,1684731284900032758,camera_2,229,0,0.5537517629287007,-0.1686197797085538,1.4232713685030856,0.9797576901288502,-0.029715659065262502,-0.19068088904894412,0.05322261541113675,0.0009041715529747307,0.0004785718022950085,7035.95499565313
1684731284910250186,229,1684731284910250186,camera_2,230,0,0.554001842583891,-0.16982107625767487,1.4239514865270293,0.9799625534679012,-0.02936959655779108,-0.1897196207248633,0.053078113292748405,0.002975032664835453,0.001575567072752631,7034.1469719491415
1684731284920299053,230,1684731284920299053,camera_2,231,0,0.5531492679104698,-0.17140096786613435,1.4218081390792177,0.9796747045806626,-0.029706011983408977,-0.19115228347062993,0.05306440031505833,0.00165085174376145,0.0008725977539074755,7045.925463988448
1684731284930397510,231,1684731284930397510,camera_2,232,0,0.5529047435345007,-0.17196710011275743,1.4211982251775412,0.9795519209202667,-0.029844302195486335,-0.1917073293776745,0.053250837653133036,0.001322843017987907,0.0006989762476056288,7047.986910566222
1684731284940248727,232,1684731284940248727,camera_2,233,0,0.5525229847660237,-0.1722840889887714,1.4202086676985437,-0.979477651823378,0.02976013780088455,0.19236303841298766,-0.05229077575593637,0.0019853331614285707,0.0010475077455588794,7055.183629363778
1684731284950650930,233,1684731284950650930,camera_2,234,0,0.5527421544716495,-0.1725370271450207,1.4207552178077312,-0.97957547896592,0.030031470434023537,0.19144412299280886,-0.05365761421991475,0.004406936466693878,0.002327650556919553,7052.602478120708
1684731284960496664,234,1684731284960496664,camera_2,235,0,0.5526316054398452,-0.17219947388614176,1.4203770657896506,-0.9793698575288617,0.029883163087007968,0.19283016012045756,-0.05251864502946444,0.003023337689228356,0.001596153930343756,7050.456494609827
1684731284970357418,235,1684731284970357418,camera_2,236,0,0.5527843368367792,-0.17173367686456584,1.4207167151275344,-0.9793000508745938,0.02991548505053315,0.19302985000350914,-0.053065536074105336,0.002474611916113645,0.0013074605813674402,7045.469232589004
1684731284980217456,236,1684731284980217456,camera_2,237,0,0.5532587708368946,-0.17116730443516334,1.4218963064132268,0.9794752871551234,-0.02983293355205463,-0.19197739911188688,0.05369204930250387,0.0016232557827606797,0.0008587523003164726,7039.348389728699
