%time,field.header.seq,field.header.stamp,field.header.frame_id,field.image_seq,field.transforms0.fiducial_id,field.transforms0.transform.translation.x,field.transforms0.transform.translation.y,field.transforms0.transform.translation.z,field.transforms0.transform.rotation.x,field.transforms0.transform.rotation.y,field.transforms0.transform.rotation.z,field.transforms0.transform.rotation.w,field.transforms0.image_error,field.transforms0.object_error,field.transforms0.fiducial_area
1684728703798984527,5,1684728703798984527,camera_2,9,0,0.5575768325970465,-0.180190307914741,1.4172340260613905,-0.9792868571540551,0.030172725678306988,0.19321708432372167,-0.05247872288761382,0.005270113993901759,0.0027828731130501603,7049.9676513054865
1684728703809139966,6,1684728703809139966,camera_2,10,0,0.5577426254015191,-0.18019045459119304,1.4176161014209014,-0.9793845702968608,0.03045319243872602,0.19247310925551653,-0.05322188223125279,0.007341604912653565,0.0038788499439648466,7049.220611376222
1684728703819246530,7,1684728703819246530,camera_2,11,0,0.5574871196942671,-0.1799644152873092,1.4169659808185286,-0.9794046195505988,0.030368937319004412,0.19219391315694367,-0.05390564529325623,0.010238367831334472,0.005405276977302789,7056.3292597930395
1684728703829220771,8,1684728703829220771,camera_2,12,0,0.5580733268259059,-0.17960637587910763,1.4183762087977967,-0.9795872799207861,0.03029195779857632,0.19119053384676873,-0.054197214665630065,0.007691072067245841,0.004066536392180151,7048.0759468367305
1684728703839256286,9,1684728703839256286,camera_2,13,0,0.5579391033654177,-0.17916333188771227,1.4179933297821756,-0.9794578623840127,0.030077008207741163,0.19208707867941008,-0.05348105829003799,0.00675050268182531,0.0035673296998089132,7048.401400717672
1684728703849268913,10,1684728703849268913,camera_2,14,0,0.5581364667665614,-0.17876242744690218,1.4184465635531804,-0.9795852678400534,0.03004958154321084,0.1913146315393096,-0.053929930824980994,0.007967926620040089,0.004212260045001518,7048.010479230433
1684728703859031200,11,1684728703859031200,camera_2,15,0,0.5580692843328101,-0.17821482959910528,1.4182333479884417,-0.9794445333830707,0.030152626149895174,0.1917464583439332,-0.054886436164520803,0.008756205555982888,0.004630449201008415,7046.634726411197
1684728703869414567,12,1684728703869414567,camera_2,16,0,0.5584135265514533,-0.1770414155877412,1.4190031663377194,-0.9796154713164055,0.030252002762779038,0.19110947381413024,-0.053995497079518076,0.004893551173154265,0.002587933870109139,7045.295958714092
1684728703879500865,13,1684728703879500865,camera_2,17,0,0.5582970033624237,-0.17628440855719651,1.4186438919787367,-0.9795575171383785,0.02997987792328096,0.19131933732300166,-0.054453546291203414,0.008763226447626948,0.004632980858061213,7047.548569461331
1684728703889384031,14,1684728703889384031,camera_2,18,0,0.5583453859576294,-0.17552530554633786,1.4186964371704067,-0.9795340961336293,0.030093319642694658,0.19150455972339764,-0.054160412015640993,0.0077728667529299855,0.00410893402576703,7047.082672529851
1684728703899207115,15,1684728703899207115,camera_2,19,0,0.558520048131332,-0.17475835924846594,1.4190812067473453,-0.9795536252614009,0.029864561383476075,0.19147337668065667,-0.054043956490316784,0.007481110573280603,0.003955905058828014,7044.262862250209
1684728703909151792,16,1684728703909151792,camera_2,20,0,0.5589044359527292,-0.17318569351005073,1.4199607248541968,-0.9797334899106752,0.029704347182778486,0.19037094946607439,-0.054761684646103655,0.00589087454136461,0.0031172514806924842,7041.778659766539
1684728703918966770,17,1684728703918966770,camera_2,21,0,0.558708140760605,-0.17223850822676348,1.4193776680193178,-0.9795394569528488,0.02994734525470007,0.19142202343757359,-0.054435445509143476,0.005567496933508664,0.002944454368758538,7042.6474339501
1684728703929288148,18,1684728703929288148,camera_2,22,0,0.558766049414224,-0.17138062112705332,1.4194644787546107,-0.9796067636082213,0.02973251914636693,0.19107907278401068,-0.0545468050598766,0.003931674233172089,0.0020789929024152666,7043.999393443808
1684728703939088821,19,1684728703939088821,camera_2,23,0,0.5587623714267982,-0.17049825747568512,1.4193781926322386,-0.9795075249896017,0.02940738835605736,0.19191463271420386,-0.053562932602621426,0.002689092536456883,0.0014214523924118063,7042.047025732462
1684728703949159622,20,1684728703949159622,camera_2,24,0,0.558910337110456,-0.16885391034195477,1.419640745725541,-0.979602753126683,0.029436753646840872,0.1914281506762615,-0.05354611778667616,0.0041332541150040925,0.002184552894592934,7042.80888139084
1684728703959088325,21,1684728703959088325,camera_2,25,0,0.558834004073629,-0.16804856198829815,1.4194150248365263,0.9794490780319054,-0.02945219937741693,-0.1918980946326839,0.05465521723155972,0.0035272357054054737,0.001864917279152917,7040.896284042161
1684728703969332456,22,1684728703969332456,camera_2,26,0,0.5590549149981623,-0.16734596557594497,1.419912704208686,-0.9795310905523094,0.029470107031287152,0.1916870910486191,-0.053911172852077555,0.002105961670167744,0.0011135959014201828,7038.442797533469
1684728703979175329,23,1684728703979175329,camera_2,27,0,0.5585897559874975,-0.1665168101617894,1.4186989543662245,0.9794566687428125,-0.029448505676857282,-0.19205653503489617,0.05396023460866694,0.001410689961630851,0.0007447590912254626,7048.423806719483
1684728703989155292,24,1684728703989155292,camera_2,28,0,0.5585596810805362,-0.1652452627415444,1.4185981483675176,-0.979418653124472,0.02920980622112297,0.1924482403657738,-0.053381306770134786,0.004074706113897264,0.00215032787794459,7048.231834799515
1684728703999080896,25,1684728703999080896,camera_2,29,0,0.5586214635690128,-0.16474228748531375,1.4187320666800132,-0.9795888999440353,0.029296349576273466,0.19168640313304455,-0.05294935185491315,0.0026503464323468506,0.001397987551699777,7051.88092503557
1684728704008945941,26,1684728704008945941,camera_2,30,0,0.5583219553520636,-0.16421084979248748,1.4179764716848606,-0.9795470105462115,0.029186562034363164,0.19171325359776514,-0.05368265196088432,0.0024101780727505684,0.0012703468954982408,7058.164248669989
1684728704018575191,27,1684728704018575191,camera_2,31,0,0.5583531501926077,-0.16383781569496808,1.4180634414953446,-0.9794149852337233,0.02939943448559733,0.19256560182408677,-0.05291926818919469,0.007275626761838794,0.003835399978802389,7053.6032612486715
1684728704028620243,28,1684728704028620243,camera_2,32,0,0.5585421996089136,-0.16337733157860776,1.4185781023711397,-0.979585058419893,0.02971167868457435,0.19170236631104726,-0.05273075213748209,0.011118643684312701,0.0058621967253201235,7053.688308519774
1684728704038762569,29,1684728704038762569,camera_2,33,0,0.5583502575306418,-0.16319380593159039,1.418083667369295,-0.9795510539316604,0.029449644100925633,0.19227691784666534,-0.05140075940186887,0.00921225204365328,0.004851747200496762,7057.242019562513
1684728704048733472,30,1684728704048733472,camera_2,34,0,0.5582467181730351,-0.1631167494308178,1.4178509278632592,-0.9794643043720804,0.029591189657201745,0.1926032820564289,-0.051749528468186964,0.013191253878176212,0.006947448771353164,7057.23030455038
1684728704058767557,31,1684728704058767557,camera_2,35,0,0.5583096390172207,-0.16318200252301074,1.418042499590478,-0.9797003423104016,0.02946899842842859,0.191331674501216,-0.05206733852491516,0.01718049484770745,0.009046508674971367,7062.137077023741
1684728704068709373,32,1684728704068709373,camera_2,36,0,0.5582146382081397,-0.16350644487478674,1.41786594896959,-0.9795850287075372,0.02892697171643055,0.192467801410293,-0.05032442011249079,0.014645279909018427,0.007707365933313739,7060.039631983029
1684728704078678369,33,1684728704078678369,camera_2,37,0,0.5585146327333298,-0.1639069424355387,1.418671319415625,-0.979631634312845,0.029545256215240245,0.1917737291853626,-0.05168922211698809,0.014790188986808062,0.00779554339462744,7054.1050424100795
1684728704088719129,34,1684728704088719129,camera_2,38,0,0.5582051121154671,-0.1641986693932173,1.4179070286398363,-0.9794047909223687,0.029727238009951973,0.19285230389587416,-0.05187037420979871,0.012217782554216683,0.006437179103573784,7055.331504687664
1684728704098668336,35,1684728704098668336,camera_2,39,0,0.5579846658268354,-0.16458686290431182,1.4173974672569987,-0.9793009920957941,0.02953977502799326,0.19366798450984415,-0.05088890200607415,0.013613820832688361,0.007167315879073575,7057.2014741315525
1684728704108694076,36,1684728704108694076,camera_2,40,0,0.5585761171661621,-0.1658949752170151,1.4190068185451203,-0.9796898410550737,0.029646198513927368,0.1917298133368194,-0.05068132718255944,0.01291810191469267,0.006810039689356137,7052.614611708794
1684728704118711709,37,1684728704118711709,camera_2,41,0,0.558580223900818,-0.1665600618516149,1.4190772552431454,-0.9796017340979942,0.02960015730756309,0.19193084390666887,-0.051641305142727176,0.014123538101557642,0.007451103570394362,7049.375389478406
1684728704128635644,38,1684728704128635644,camera_2,42,0,0.558743437636693,-0.16731676490873093,1.419520835054357,-0.9795528285020159,0.0297284483181204,0.19220348246748017,-0.051481033999624795,0.009383085940498859,0.0049540410283343975,7043.556735432005
1684728704138530969,39,1684728704138530969,camera_2,43,0,0.5587411027446172,-0.16807954271117698,1.4195796797276599,-0.9795757239769799,0.029980044268292736,0.19180991570897415,-0.05235985271525195,0.007678415277041495,0.004055775386762334,7043.783202081914
1684728704148666143,40,1684728704148666143,camera_2,44,0,0.5589463002555284,-0.16975674625428103,1.420204098343339,-0.9796814112493509,0.02986866908174936,0.19157147261351348,-0.05130853672104721,0.0052466426277533165,0.0027725474734134666,7040.073432741688
1684728704158552169,41,1684728704158552169,camera_2,45,0,0.5584599627187323,-0.1704425719094639,1.4190064214430471,-0.979208706937329,0.029988936877690275,0.19393869801964533,-0.05136879727533754,0.004884847265202552,0.002580558793545753,7038.0475255509355
1684728704168654918,42,1684728704168654918,camera_2,46,0,0.5588921313175881,-0.17143446775653862,1.4201494069911382,-0.9795357586464855,0.029971789944469533,0.19195809816049786,-0.05256879198710371,0.003153702535200864,0.0016682338169549753,7035.81153953518
1684728704178569078,43,1684728704178569078,camera_2,47,0,0.5588939446857665,-0.172292188921217,1.4202312326963413,-0.9795574697961847,0.029801944956766333,0.19197472544202687,-0.05219877618056824,0.0037594487075693905,0.0019887779623026795,7035.082310166443
1684728704188601493,44,1684728704188601493,camera_2,48,0,0.5588137293608553,-0.17395985649410406,1.420101900650005,-0.9795645453039441,0.030013574719240845,0.19168464537444777,-0.053004562480244835,0.003805935673881322,0.002014124414574794,7035.694791360293
1684728704198672294,45,1684728704198672294,camera_2,49,0,0.5586527898135106,-0.17474149357492408,1.419724543563379,0.9794702301400411,-0.029925682612442717,-0.1923346204388338,0.052439637396192965,0.0014157326077111065,0.0007489569347877923,7036.016673666655
1684728704208584308,46,1684728704208584308,camera_2,50,0,0.5584147898212308,-0.17546381470917588,1.4191664840601705,-0.979417514121009,0.029934509195340988,0.19225393307098884,-0.05369993864980733,0.0021469175117090344,0.0011357208062707637,7039.39298195369
1684728704218709945,47,1684728704218709945,camera_2,51,0,0.5584000136478717,-0.17621571874418923,1.4191761660246967,-0.9794979619672239,0.02971786623018381,0.19215866926666836,-0.05268431222330495,0.0025898172170855105,0.0013694389151206337,7040.833167673554
1684728704228578805,48,1684728704228578805,camera_2,52,0,0.5582235155829061,-0.17754823971018988,1.41880846051686,0.9794364477570395,-0.029942774566598145,-0.1922741495603446,0.05327594642211651,0.0014307742239907384,0.0007566499519516947,7041.609568011481
1684728704238570213,49,1684728704238570213,camera_2,53,0,0.5579689104639836,-0.17807018865983157,1.4181808528295095,-0.9794243972537594,0.030001315417889293,0.1923239344966865,-0.0532848511025483,0.005342467513401061,0.0028232981711191376,7046.9240642569475
1684728704248610973,50,1684728704248610973,camera_2,54,0,0.5581009598048403,-0.17866155741476608,1.418526163390108,-0.9796334301033642,0.029954695174177908,0.19126819433407447,-0.053268533836794425,0.009401694405823946,0.004968710412909438,7048.911519917893
1684728704258511543,51,1684728704258511543,camera_2,55,0,0.5577661919876131,-0.17904285932364516,1.417718782425177,-0.9793686970851008,0.03013232317496951,0.19260840534742574,-0.05320714669509109,0.0048584387404844165,0.002566671810012339,7048.921839010434
1684728704268635034,52,1684728704268635034,camera_2,56,0,0.5581144700759404,-0.17988227508649882,1.4186067959701258,-0.9797117333869859,0.02990421988681764,0.19105399139702867,-0.05262156846856981,0.00567171216243878,0.002997201927457045,7048.994767331518
1684728704278622388,53,1684728704278622388,camera_2,57,0,0.5574560729352491,-0.17993157753647307,1.4169595937970205,-0.9793764408731452,0.03017034133208143,0.19242697756776353,-0.05369726129601083,0.006804234930314124,0.0035921191850140986,7055.538448530015
1684728704288588762,54,1684728704288588762,camera_2,58,0,0.5576106468436498,-0.18013551296324273,1.4173367967771875,-0.9793735040926835,0.03035282284591133,0.19256337199783563,-0.053156310926609024,0.0074149848078377545,0.003916044568922325,7051.683203250634
1684728704298647642,55,1684728704298647642,camera_2,59,0,0.5576063626099752,-0.18018981974043055,1.4172997703019092,-0.9793410161381064,0.030139311948564215,0.19282475333352272,-0.05292835238994726,0.006071316602174193,0.0032063158489964026,7050.8200186153435
1684728704308630466,56,1684728704308630466,camera_2,60,0,0.5578169299222551,-0.1801542078129558,1.4178005403312546,-0.9793752875183739,0.030572719210978143,0.19220173820967998,-0.05429407764689423,0.007146528223529458,0.003778269317178932,7047.220315920191
1684728704318681955,57,1684728704318681955,camera_2,61,0,0.557567855757046,-0.17988375587263855,1.4171430450930727,-0.9793315344975602,0.030183902080313265,0.19281378096593882,-0.053118014491123286,0.006762256030924618,0.003570569871441344,7052.422729125482
1684728704328583478,58,1684728704328583478,camera_2,62,0,0.557829384942423,-0.17966803117830288,1.417761717837909,-0.9794148761781253,0.030330135451022634,0.1923765154918852,-0.05308351431198665,0.00776917755138129,0.004104631309890563,7049.124676923966
1684728704338596820,59,1684728704338596820,camera_2,63,0,0.5578326263802679,-0.17932015685205585,1.4177411066821295,-0.9793832385851408,0.030325989452884936,0.19231345412382775,-0.053891944714838255,0.007012648798990995,0.0037059632885244067,7048.740612658208
1684728704348540306,60,1684728704348540306,camera_2,64,0,0.5581340316516984,-0.17847073658226847,1.4184150968033638,-0.9795788801751667,0.02998772703386019,0.1912935767541079,-0.05415460492635443,0.007517966267187148,0.0039743736339593015,7048.367862836457
1684728704358565807,61,1684728704358565807,camera_2,65,0,0.5585679476067362,-0.17803304963673133,1.4194586671889666,-0.9797524726986414,0.030266760805611644,0.19014087733641158,-0.05491322424492597,0.008057618339080364,0.004264623559775088,7043.811144590609
1684728704368614673,62,1684728704368614673,camera_2,66,0,0.5583641814476525,-0.17731711771165407,1.4188984855645572,-0.9795532974158215,0.029964370933825698,0.1915399265741923,-0.05375807403808519,0.006509492872282863,0.0034425104795254226,7044.012879480611
1684728704378504753,63,1684728704378504753,camera_2,67,0,0.5581351049082854,-0.17656809655259656,1.4182610087106702,-0.9793384219821212,0.030036238144148398,0.19246798477963825,-0.054315324380710066,0.007866416475735605,0.004159053830311406,7044.775176542347
1684728704388591766,64,1684728704388591766,camera_2,68,0,0.5584611291221573,-0.17515179787941532,1.4189753350769505,-0.979556582704304,0.030027025760544286,0.1915071399280938,-0.053780055422089405,0.010740835801698267,0.005678597214390037,7045.262012924068
1684728704398576736,65,1684728704398576736,camera_2,69,0,0.5585349647916126,-0.17435318280232007,1.4191111593201469,-0.979386760334572,0.029900407141382295,0.19209342040928554,-0.0548421112794981,0.005685398238711059,0.0030084264835233583,7039.483840493482
1684728704408589601,66,1684728704408589601,camera_2,70,0,0.558908383097274,-0.17363317830875308,1.419978421487726,-0.979656785712164,0.029904901640586342,0.1906788259883616,-0.05495329276465797,0.004254811734426767,0.0022523329773097935,7039.2423925506855
1684728704418536424,67,1684728704418536424,camera_2,71,0,0.5585105917648218,-0.17264441494489,1.4189201304094006,-0.9793954377982413,0.029767970666589982,0.19221195195397076,-0.05434160347679007,0.004831983125768602,0.002554892118558029,7042.609572054589
1684728704428589820,68,1684728704428589820,camera_2,72,0,0.558762512739353,-0.1709872583864345,1.4194235206556292,-0.9795032660800826,0.029625261780259836,0.1917017355651335,-0.05427835834121546,0.0019230114994570613,0.0010169066557038846,7041.4836515935585
1684728704438717842,69,1684728704438717842,camera_2,73,0,0.5590793008720678,-0.17023435963012262,1.4201773713414687,0.9796561643337495,-0.02977060576053254,-0.1908283778151179,0.05451642812939455,0.0014660715823993087,0.0007757427386117589,7038.937949764777
1684728704448577165,70,1684728704448577165,camera_2,74,0,0.5588203152145994,-0.1693050562195784,1.419472193707675,-0.9795373859130626,0.029588529516739917,0.191591943558942,-0.054069914767348265,0.004063499392941594,0.0021480677911914193,7042.6383566192835
1684728704458642959,71,1684728704458642959,camera_2,75,0,0.5589462122751399,-0.1685188822184573,1.4197128550462235,0.979569475605523,-0.029385412504053087,-0.19155032703533487,0.05374581106043296,0.0010729572968557477,0.0005672021302416028,7041.190171920464
1684728704468711853,72,1684728704468711853,camera_2,76,0,0.558716160530119,-0.1669244182889021,1.4190689938975973,0.9794889653177685,-0.029524518437099287,-0.1917819079851273,0.05430809701479994,0.002961396356113255,0.0015643863990572,7045.762983869294
1684728704478634357,73,1684728704478634357,camera_2,77,0,0.5583859001356329,-0.1661378780787049,1.4181894697220836,0.9794240345843944,-0.02911234730496175,-0.19249910629362216,0.05315191237367772,0.0030227958341129124,0.001594317526005072,7052.273423333885
1684728704488628387,74,1684728704488628387,camera_2,78,0,0.5587289957164691,-0.16559679171261163,1.4190407011622306,0.9795382040271525,-0.029252990524408624,-0.1920895053374126,0.05244798695724979,0.0031510882545262575,0.0016629269766431647,7047.259476274718
1684728704498521566,75,1684728704498521566,camera_2,79,0,0.5585928315481182,-0.16498412456606415,1.418667129706079,-0.9795121529666385,0.02906757116488664,0.19205375717245912,-0.0531636422113554,0.0030812507611699402,0.0016256336627097855,7050.121373927455
1684728704508630514,76,1684728704508630514,camera_2,80,0,0.5582430843983845,-0.16396491472024438,1.4177668673334305,-0.9794442063529174,0.029118142722667946,0.19257453728414878,-0.05249979043655548,0.010255773435346782,0.00540312790235061,7057.098115684696
1684728704518579006,77,1684728704518579006,camera_2,81,0,0.5583649357219117,-0.1636602717364243,1.418099740183458,-0.9794760679442488,0.029341313642903037,0.19264999616795694,-0.05149464646609818,0.008304389019031078,0.004374956459385919,7054.826938600976
1684728704528640747,78,1684728704528640747,camera_2,82,0,0.5586331238408143,-0.16347822247771387,1.418811098707535,-0.9797080019154488,0.029217060753868745,0.19130009223248445,-0.05218111780698688,0.011615735827945173,0.006123249789352321,7054.465952453205
1684728704538656234,79,1684728704538656234,camera_2,83,0,0.5582435279235328,-0.16320303584809742,1.4178396581981039,-0.9794818038969805,0.029387884760186292,0.19234290304963175,-0.05249719716784028,0.011371665226761252,0.005990405857895336,7057.754207179416
1684728704548602581,80,1684728704548602581,camera_2,84,0,0.5582916439777117,-0.16314595161905687,1.417992715484252,-0.9795346369475113,0.029606615588422768,0.192118551497536,-0.05220924730347209,0.01542997272918001,0.00812801063981662,7057.952832114417
1684728704558598995,81,1684728704558598995,camera_2,85,0,0.5580960320695593,-0.16319053722711782,1.41752801097894,-0.9793269661625346,0.029818063656537802,0.1931423197887472,-0.05220747775253944,0.011407377722207457,0.006008290646492404,7056.785898388596
1684728704568578958,82,1684728704568578958,camera_2,86,0,0.5586026280890318,-0.16351620379245596,1.4188593028287408,-0.9797088187361567,0.028943660050992866,0.1917852275499117,-0.05051060806489866,0.012133869691751897,0.006392909529840275,7053.78765160474
1684728704578542232,83,1684728704578542232,camera_2,87,0,0.5585636591862905,-0.16376267918973206,1.4187784656270874,-0.9796471127480499,0.02951539289623651,0.19174121464280783,-0.0515333161546089,0.01626242487691343,0.00857189232727216,7053.414929894263
1684728704588624477,84,1684728704588624477,camera_2,88,0,0.5586247642238925,-0.1645487737326018,1.4190308389577109,-0.9796185997183329,0.029647508795137844,0.19189990521867964,-0.05140866352276465,0.010519998671952635,0.00554754024447395,7050.334171389
1684728704598562955,85,1684728704598562955,camera_2,89,0,0.5584851521355059,-0.164995211428255,1.4187144092956059,-0.9795584917450756,0.02950646591974405,0.19250764693195654,-0.05035211606040952,0.010906230483669788,0.005747706239492236,7051.560075766174
1684728704608605623,86,1684728704608605623,camera_2,90,0,0.5584659166952912,-0.1655397499230204,1.4187052440893757,-0.9795558576157011,0.029743309955278845,0.19232583281986468,-0.05095518966521473,0.008970849448814988,0.004729018611023003,7051.837757550882
1684728704618747711,87,1684728704618747711,camera_2,91,0,0.5586692646483712,-0.16621917071699138,1.419283567750941,-0.9795975909122875,0.02954923156331053,0.1921666964517937,-0.05086613379906729,0.015174228290561587,0.00800525605890835,7047.140203214016
1684728704628682851,88,1684728704628682851,camera_2,92,0,0.5589208889995243,-0.1676892163432829,1.4200240775422162,-0.9795889822407686,0.02980630317120861,0.19207182714208496,-0.05123888544906303,0.011890621040947735,0.006281557643250077,7039.655800134175
1684728704638607263,89,1684728704638607263,camera_2,93,0,0.5589347794861196,-0.16845679020498125,1.42010728632846,-0.9795860652725972,0.030038735349143322,0.19212079727615902,-0.05097464424935264,0.011117407935671508,0.005873845213073432,7038.7879630203815
1684728704648610115,90,1684728704648610115,camera_2,94,0,0.559112382064509,-0.16932961787929035,1.420608485645498,-0.9797455511223705,0.030144565261641686,0.19095030180799316,-0.052229708792462796,0.011380074138287455,0.006017769410019952,7038.36466779653
1684728704658723592,91,1684728704658723592,camera_2,95,0,0.5586846939551212,-0.17003001966417036,1.4195772438090897,-0.9795060319831473,0.030046605584555696,0.1921554016793948,-0.052358728087169654,0.006859926099423319,0.0036250833733659183,7041.303449513387
1684728704668635368,92,1684728704668635368,camera_2,96,0,0.5586265481156553,-0.17172031374798563,1.4195047362601054,-0.9794181914575514,0.02958140749028746,0.19304848370448868,-0.050963021028099846,0.007470768876373768,0.003947487338937662,7038.263914357872
1684728704678582668,93,1684728704678582668,camera_2,97,0,0.5585583847076084,-0.17258066490717644,1.4194051920980215,-0.9793417706134385,0.030043583307336773,0.19314790057933706,-0.05177806423172847,0.0037546466337516904,0.0019848671055594366,7037.023008523272
1684728704688612461,94,1684728704688612461,camera_2,98,0,0.5585617481870424,-0.17344077911083125,1.4194333028921118,0.9794475799877475,-0.029998822703250088,-0.19246713631918907,0.05233459782643706,0.001151177624706179,0.0006086258437590582,7039.202706678303
1684728704698501110,95,1684728704698501110,camera_2,99,0,0.5586187639017308,-0.174311719329273,1.4196455866044044,-0.9794853346146424,0.030113981505118112,0.1921284477218696,-0.052804232488848586,0.0046601370559073985,0.0024650993904235937,7037.7513435131405
1684728704708625555,96,1684728704708625555,camera_2,100,0,0.5586104743040965,-0.17592575295002838,1.41969734034198,-0.9794683060125079,0.029920571700399308,0.19211998956929202,-0.0532588632436388,0.0016950257704593241,0.0008971402376171712,7035.284820124507
1684728704718628644,97,1684728704718628644,camera_2,101,0,0.5584531536656665,-0.17662868995278808,1.4193445540119694,0.9795132654567048,-0.029988784366783035,-0.19192402324756638,0.05309995204341635,0.0014855004847049715,0.0007858217190008012,7039.5029782517795
1684728704728606700,98,1684728704728606700,camera_2,102,0,0.5585304743370164,-0.17734447059424086,1.4195858177157903,0.9796458881422017,-0.030165182591049982,-0.1912107350973853,0.053126738925358984,0.0013079618802294135,0.0006919929934868144,7040.475562227191
1684728704738653182,99,1684728704738653182,camera_2,103,0,0.5580134842392175,-0.17782869728759512,1.418285571894751,-0.9793818545350376,0.02976298276281007,0.1925757426918208,-0.05329100478753181,0.0031444933265447617,0.0016620905018709194,7044.700985034931
1684728704748624801,100,1684728704748624801,camera_2,104,0,0.5578255964641414,-0.17885812942476015,1.4178815120049273,-0.9794354240781741,0.030035135613142167,0.19237023268960618,-0.05289455798524194,0.002991683839354664,0.0015803043081892378,7049.41925718775
1684728704758557558,101,1684728704758557558,camera_2,105,0,0.5580413981216247,-0.17936261874342746,1.4184347748922872,-0.9795463412075381,0.029870428740079235,0.19170687106170692,-0.05334040215014599,0.003794958640355617,0.0020061130581281936,7046.4536545928595
1684728704768602371,102,1684728704768602371,camera_2,106,0,0.5578751652443165,-0.17967062621768654,1.418019448912027,-0.9795726713061697,0.030329419834148455,0.1914094452694596,-0.05366499962039207,0.004227856989018619,0.002233917617789129,7051.313601586966
1684728704778536081,103,1684728704778536081,camera_2,107,0,0.557396987526473,-0.17981149601224117,1.4168163410436658,-0.9793997278688819,0.030089562887960507,0.1927085583945363,-0.052289604866278025,0.004934819706249982,0.0026031164126312087,7057.794734099651
1684728704788653373,104,1684728704788653373,camera_2,108,0,0.5576437021844702,-0.18018250661081125,1.4174040803025392,-0.9793017799529945,0.030507438561042228,0.19296906030586436,-0.05291749935524746,0.007377075788099319,0.00389683531966048,7049.02363260952
1684728704798559188,105,1684728704798559188,camera_2,109,0,0.5575793867087488,-0.180182575015593,1.4172432127131085,-0.9793039217240985,0.03032798609887595,0.1929495978083756,-0.053051812981021476,0.007406317279674113,0.003911589990062272,7050.488953617867
1684728704808609962,106,1684728704808609962,camera_2,110,0,0.557585863753058,-0.18013421243215272,1.4172259730222094,-0.9792763877271614,0.03031443569388763,0.19297914295640672,-0.05345878611055498,0.005755856691394001,0.003040486831434134,7049.8363151506055
1684728704818591594,107,1684728704818591594,camera_2,111,0,0.5576441559365612,-0.18001619175721328,1.4173689942497971,-0.979316694202263,0.030255745426629285,0.19266068643613413,-0.05390048448194111,0.004851990670431405,0.0025635989348260107,7049.664700072491
1684728704828673124,108,1684728704828673124,camera_2,112,0,0.5575723048842322,-0.17944349597947973,1.4171179456247194,-0.9793246250106836,0.030211326019557047,0.19264321087619354,-0.053843736229337684,0.004990260931663215,0.0026353287824593136,7052.933574451596
1684728704838803768,109,1684728704838803768,camera_2,113,0,0.558041796386427,-0.17919585473114666,1.418263736680144,-0.9794737896193899,0.03016212421503094,0.1920123425385936,-0.05340975589075297,0.009513533441349864,0.005029053363838771,7046.275999277131
1684728704848874568,110,1684728704848874568,camera_2,114,0,0.558162445831804,-0.17876797685981513,1.418519029624487,-0.9795442329875412,0.030327425320074288,0.19149846178595006,-0.05386726304463426,0.00701175257563591,0.0037074459907077317,7046.369090621598
1684728704858800649,111,1684728704858800649,camera_2,115,0,0.5579964164836766,-0.17818671018403898,1.4180615678901292,-0.9794247736197973,0.03022697573374217,0.19199477278427485,-0.05432724897614145,0.007693172316066921,0.004066673945556872,7047.8838461120595
1684728704868630886,112,1684728704868630886,camera_2,116,0,0.5583345531487631,-0.17700909590337818,1.4188049688193782,-0.9794542175878372,0.030081647874233525,0.19202752536301856,-0.05375834459433632,0.004130119981709868,0.002184332587271517,7042.459899663927
1684728704878758430,113,1684728704878758430,camera_2,117,0,0.558223375306113,-0.17625301399161164,1.4184526956276542,-0.9795067368921703,0.030027371369720206,0.19154572714427276,-0.054544878441971055,0.010551218467298895,0.0055777112853120075,7048.020069953989
1684728704888944149,114,1684728704888944149,camera_2,118,0,0.5584602714628606,-0.17555723776713708,1.4190122371299358,-0.9796329002383408,0.02994870423412559,0.19099692666374918,-0.05424601266744377,0.006998723198194057,0.0037004679684229263,7046.715268200263
1684728704898732900,115,1684728704898732900,camera_2,119,0,0.5584544374343842,-0.17473158149112103,1.4189405068722158,-0.9795689598356558,0.029826842713425474,0.1914778439942273,-0.05377032303755021,0.005435767641756684,0.002873354926173138,7046.112657317657
1684728704908919095,116,1684728704908919095,camera_2,120,0,0.5587172929480193,-0.17310829059790464,1.41948949455031,-0.9797361912019206,0.029701274077381695,0.19050545536652316,-0.05424482872060429,0.00543224933790043,0.0028720919624463373,7046.547009801492
1684728704919085264,117,1684728704919085264,camera_2,121,0,0.5586817646492082,-0.17221791344376974,1.419338139981344,-0.9795433076529723,0.029881246516525923,0.19151518535455164,-0.054073591683047324,0.002607585454825312,0.0013787692243658366,7043.130773717538
1684728704928924560,118,1684728704928924560,camera_2,122,0,0.5589455215310722,-0.1714247383820372,1.4199492330334156,-0.9796096013416797,0.029824368671594752,0.19116334051260228,-0.05414899109493482,0.0039707046234980226,0.0021007332055877894,7039.39634447219
1684728704938703060,119,1684728704938703060,camera_2,123,0,0.5588647171952515,-0.17052659918581928,1.4196647520260413,-0.9795488098403935,0.02964639557893543,0.19146657569626707,-0.05427495518737361,0.002894900506362319,0.0015310659078413334,7040.667872004679
1684728704948719024,120,1684728704948719024,camera_2,124,0,0.5591082777041152,-0.16890589975352988,1.4201699477200205,-0.9797738220029589,0.029464526459654947,0.1905065888600208,-0.0536874193749497,0.005844355677254498,0.0030899838341699277,7042.583958787378
1684728704958805084,121,1684728704958805084,camera_2,125,0,0.5586905159099654,-0.16799974393529446,1.419067127835675,0.9794180312547138,-0.02978488375969156,-0.1921985369123657,0.05397131795044496,0.0028505882946774364,0.0015061659456297898,7043.724269424565
1684728704968669176,122,1684728704968669176,camera_2,126,0,0.5588462273193494,-0.1672798009644442,1.4194118004207805,0.9795398019791198,-0.029312654893208,-0.19161643942258258,0.05408959922970455,0.001463173539377749,0.0007731797954073717,7043.574180468451
1684728704978660345,123,1684728704978660345,camera_2,127,0,0.5585742458714169,-0.16649969519342223,1.4186848501302833,0.9793821739880106,-0.029612023471643583,-0.19259102953818608,0.05331398204837674,0.0014173249364830554,0.0007482147549541003,7046.53919472778
1684728704988555431,124,1684728704988555431,camera_2,128,0,0.558714256522198,-0.16528705599454863,1.4190004822678173,-0.9796619661698435,0.02925456670609918,0.1913548694958142,-0.05281965815219756,0.00590653350809589,0.003116207279144339,7051.2973655725345
1684728704998699665,125,1684728704998699665,camera_2,129,0,0.5582724422112824,-0.16464328465388595,1.4178556474593198,-0.9793712727818302,0.029218302652249707,0.1928383989088851,-0.052835146882329966,0.002868915966246277,0.0015121989680117788,7054.220616817476
1684728705008702516,126,1684728705008702516,camera_2,130,0,0.5583965759922641,-0.16422737512026045,1.418168034483564,-0.979549257676924,0.029634128787844924,0.19165421502032082,-0.053607201573271736,0.00622651819139719,0.0032826532634217796,7056.705806886313
1684728705018630981,127,1684728705018630981,camera_2,131,0,0.5582414752499066,-0.16380689548843425,1.4177899150212783,-0.9794354010005215,0.02947208482526778,0.19243142862878843,-0.05298902489085268,0.009748378419317305,0.0051368364588870764,7056.994147926336
1684728705028612375,128,1684728705028612375,camera_2,132,0,0.5583097393544108,-0.16329528509612107,1.417992594549258,-0.979434140247451,0.029563271286836987,0.19259682657221597,-0.052356855356955494,0.01838985807262361,0.009690493962908886,7054.974900248456
1684728705038646459,129,1684728705038646459,camera_2,133,0,0.5582753089291956,-0.16316397940883276,1.417908453262891,-0.9794914218223696,0.0294132568960562,0.19234075272881584,-0.052311086156492756,0.012008641147986054,0.006325980329751502,7057.330852324607
1684728705048694610,130,1684728705048694610,camera_2,134,0,0.5583414130950182,-0.16314077155020743,1.418094818967667,-0.9796293761710687,0.029585685318778508,0.1917339720762325,-0.051856113610368945,0.01330712251365185,0.007008167147442691,7059.597885114604
1684728705058557271,131,1684728705058557271,camera_2,135,0,0.5581588496949321,-0.16313722032798175,1.4176634713269576,-0.9793583586210662,0.02944421888627799,0.19315047416164763,-0.051799012580923086,0.01564675837289542,0.008240941968743242,7055.95029501454
1684728705068651914,132,1684728705068651914,camera_2,136,0,0.5581795422738683,-0.16350618961806176,1.417789729086965,-0.9795333871045137,0.02942728659665543,0.19279127235651125,-0.049798631048200426,0.013634688686579466,0.007174287506905753,7059.694559636756
1684728705078611373,133,1684728705078611373,camera_2,137,0,0.5583905247164616,-0.1638653804584557,1.4183611979207245,-0.9795811558359184,0.02941601874650519,0.19221043712801247,-0.05109407824131628,0.015175258333329111,0.007994349057716179,7055.566915402183
1684728705088635206,134,1684728705088635206,camera_2,138,0,0.5581594692213204,-0.16418396303938107,1.4178143885147363,-0.9793343283363698,0.029862852922572646,0.19323917385689618,-0.051682734490160975,0.010909598437137902,0.005747788791927774,7054.343555202243
1684728705098544597,135,1684728705098544597,camera_2,139,0,0.5584918329500907,-0.16474075428287482,1.418692090328174,-0.9796880155978096,0.029544152312424254,0.19171301594861773,-0.05083949915224996,0.012238662748131901,0.0064485534621859545,7055.561248846581
1684728705108657360,136,1684728705108657360,camera_2,140,0,0.5587123139245672,-0.1659278376862557,1.4193349695594786,-0.9796363040585669,0.02977657731004627,0.19208694188943393,-0.05028592218241067,0.011499113403260708,0.006064763410898324,7047.864443020659
1684728705118574619,137,1684728705118574619,camera_2,141,0,0.5585317036636345,-0.16655650928860619,1.418938267244129,-0.9794224334092579,0.029908035891775177,0.1928756308234319,-0.051343912572450225,0.007895870716311038,0.004166218193849893,7045.786024006084
1684728705128621339,138,1684728705128621339,camera_2,142,0,0.5589466538145845,-0.16737804768357945,1.420059057787071,-0.9796042974081255,0.02990604920100606,0.19207027595383194,-0.05089261062019181,0.011801939108408988,0.0062337041471204405,7039.861725231169
1684728705138523101,139,1684728705138523101,camera_2,143,0,0.5587256345176694,-0.16807526731333283,1.419545948877685,-0.9795917630851138,0.02984545083556604,0.19207907599281687,-0.05113565611162155,0.0064872559159994125,0.0034247831077260406,7044.408682311878
1684728705148694753,140,1684728705148694753,camera_2,144,0,0.5587667792292681,-0.1696996891724363,1.4197488938852396,-0.9794680994154614,0.02976953541379996,0.19282521928101726,-0.050739055942517125,0.0076797426445409656,0.004057133426671168,7038.312322752085
1684728705158644199,141,1684728705158644199,camera_2,145,0,0.5590418030927371,-0.1706225754214482,1.4205001465665847,-0.9796265494990561,0.029930686577724904,0.1918867285868998,-0.05114157711468098,0.005438190477434546,0.0028755696014547507,7035.299773470031
1684728705168745040,142,1684728705168745040,camera_2,146,0,0.5591253504483407,-0.1715090392423831,1.420749542609316,-0.979640194482689,0.02990297028507769,0.19141458638102624,-0.05264368758578513,0.004710006818640977,0.0024929848117089368,7032.844834731655
1684728705178526401,143,1684728705178526401,camera_2,147,0,0.5589886080906863,-0.17231915256348526,1.4204608507091745,-0.9796982504082264,0.030003524201607467,0.1913438916068055,-0.05175559706260479,0.0041130827739834785,0.002175410377223418,7037.037792819551
1684728705188646793,144,1684728705188646793,camera_2,148,0,0.5586530108172112,-0.1739060619736625,1.4196907072481384,-0.9793894929612451,0.02981468530830412,0.19257745336371843,-0.053115252734285766,0.004853307269513607,0.0025682134021252673,7034.528581217165
1684728705198559045,145,1684728705198559045,camera_2,149,0,0.5584717634359326,-0.17468991516415977,1.4192548373015081,-0.9794124297362626,0.029818842850482336,0.19248965021168657,-0.05300814702054217,0.0023119900142773986,0.0012227378450977826,7038.876194612822
1684728705208655595,146,1684728705208655595,camera_2,150,0,0.5586565474629515,-0.17553305527505575,1.4197911055547117,0.9796139774181969,-0.029973199427319495,-0.19125583866594995,0.053658799270713174,0.0020902809337712824,0.0011061341060047444,7038.942592874173
1684728705218588829,147,1684728705218588829,camera_2,151,0,0.558663714784097,-0.17630065181196752,1.4198612623605145,-0.9797086030000174,0.030005852740395893,0.19085384096681685,-0.053343353824906355,0.004132225236389786,0.0021864392708966698,7040.392904959619
1684728705228768587,148,1684728705228768587,camera_2,152,0,0.5579955594168828,-0.1774727469132126,1.4182255488135025,-0.9793254956954958,0.029890210220276863,0.19287823324354755,-0.05316141415168573,0.003731427015736699,0.0019722245356860804,7044.140392290196
1684728705238641500,149,1684728705238641500,camera_2,153,0,0.5575840085807375,-0.17794697793664618,1.4172078455256627,-0.9792362246205106,0.030127774317506083,0.19326057720889558,-0.053283045169425086,0.0038256077677942804,0.002019911466433012,7051.25946226856
1684728705248644828,150,1684728705248644828,camera_2,154,0,0.5578805301649582,-0.17859587744077499,1.4179872297133822,-0.9793474443622731,0.030006278515231813,0.19266917048220056,-0.053449015112080486,0.004362540377769619,0.002305669507686674,7046.0396523040245
1684728705258749723,151,1684728705258749723,camera_2,155,0,0.5578352695528778,-0.17906237565951455,1.4178804961221056,-0.9793889105098916,0.03017772701309,0.19235868611683454,-0.05371035875858803,0.004375123011413962,0.0023121657664934765,7047.895184208643
1684728705268645286,152,1684728705268645286,camera_2,156,0,0.5576796486336307,-0.17973983877609917,1.4175002511115877,-0.9794372556101044,0.02994320894669323,0.1923505365020472,-0.05298431530459195,0.005546225933358073,0.0029288311902664656,7052.046660825146
1684728705278691768,153,1684728705278691768,camera_2,157,0,0.557533518874375,-0.17995141813859147,1.4171475043516841,-0.9793910273597178,0.030192628464438428,0.1925414810162554,-0.053003762147151065,0.008428825822193176,0.004449683984193241,7054.1555949545045
1684728705288606166,154,1684728705288606166,camera_2,158,0,0.5580065910233704,-0.18026238654047066,1.4183375448542022,-0.9796544564760559,0.03030195431594239,0.1909077258588182,-0.053973861068600096,0.007581206795293838,0.004007669002041296,7049.765950764998
1684728705298562049,155,1684728705298562049,camera_2,159,0,0.5573934863812043,-0.18012730260939214,1.4167635260016458,-0.9792369638381643,0.03012807138441302,0.19339732134460952,-0.05277067428410851,0.0076289165881462395,0.0040267522870853206,7053.137134399733
1684728705308618307,156,1684728705308618307,camera_2,160,0,0.5576905263200553,-0.1801006775366077,1.4174750688235265,-0.979355940954744,0.030530019310604915,0.19245775101868268,-0.05375753817254785,0.006544302741531283,0.0034577819445806867,7049.897690201176
1684728705318551778,157,1684728705318551778,camera_2,161,0,0.5575630328281743,-0.17988255100041675,1.4171380714664712,-0.9793210725684774,0.030064306472128894,0.19295174565572795,-0.05287719875413418,0.006183534394949675,0.003264774608044486,7052.084480306132
1684728705328600168,158,1684728705328600168,camera_2,162,0,0.5580281802965731,-0.1797266042261183,1.4182561023566702,-0.9795588310302173,0.030212570254527615,0.19165810677274153,-0.0530930057316189,0.007469117408618331,0.003947366551645571,7048.2702413646075
1684728705338498115,159,1684728705338498115,camera_2,163,0,0.5576900457998543,-0.17926764818370353,1.4173749998454257,-0.97929980379772,0.029962800356321567,0.19322338726781269,-0.05233399936281955,0.006053144810721278,0.0031961429261328296,7049.729978295742
1684728705348573923,160,1684728705348573923,camera_2,164,0,0.5579383734815851,-0.17839812535714944,1.4179182172052345,-0.9793603014417841,0.030003463792521258,0.192509434690207,-0.05378949410029705,0.009315879608038813,0.00492361797731819,7047.015388024041
1684728705358568906,161,1684728705358568906,camera_2,165,0,0.5581531926898609,-0.17790089591562352,1.4184059880305144,-0.9795584463665673,0.029997315085619262,0.1915101991219569,-0.05375178947569499,0.009411979233846068,0.004974605299393048,7048.457982277498
1684728705368600130,162,1684728705368600130,camera_2,166,0,0.5585312302009231,-0.17736418348017483,1.419323591575612,-0.9796848411650241,0.029856062726155364,0.19068722027276291,-0.05444824638682389,0.009551281575113535,0.0050536904074647,7043.488045878941
1684728705378541707,163,1684728705378541707,camera_2,167,0,0.5582186723226437,-0.17659212298099572,1.4184901957959346,-0.9795064638069922,0.030042154826423206,0.1916620872613176,-0.05413132734694296,0.008310822304338217,0.004393176988262415,7047.404257128947
1684728705388525724,164,1684728705388525724,camera_2,168,0,0.5585311395583742,-0.1751776740948454,1.4191622161359865,-0.9796056644493772,0.029926685619298968,0.19123726945924208,-0.05390215613786791,0.005406976968515664,0.002859088693482654,7044.743676044747
1684728705398582458,165,1684728705398582458,camera_2,169,0,0.5584161937909118,-0.17431359860712178,1.418799395065548,-0.9793789845430096,0.030076218492604556,0.19228247087100997,-0.05421878929326512,0.009271551214624196,0.004902911187454458,7042.509061503223
1684728705408596754,166,1684728705408596754,camera_2,170,0,0.5586300098730775,-0.17355466312480672,1.4192656735904028,-0.9794717568057346,0.029894688304961125,0.19190038527520958,-0.05399654954034649,0.004048179718665778,0.0021411240097335797,7040.937139960939
1684728705418492317,167,1684728705418492317,camera_2,171,0,0.5586231039289762,-0.17268076233057156,1.4192135642391117,-0.9795316575948954,0.029782241766864424,0.19158668369722157,-0.05408597299335159,0.004366680106613785,0.0023087744885823733,7043.66174756922
1684728705428611278,168,1684728705428611278,camera_2,172,0,0.5587126739931464,-0.17097640782103077,1.4193098860909024,0.979502140054936,-0.029540050731505143,-0.19166334012330993,0.05448033666706826,0.0031910741818137467,0.0016873236259087388,7042.529685748737
1684728705438519477,169,1684728705438519477,camera_2,173,0,0.5588321779914508,-0.1701571869029488,1.4195616206825072,0.9796292430470702,-0.029724699285368587,-0.19105072518562766,0.05424581850672685,0.0018340868991799653,0.0009696019379611877,7044.233915945511
1684728705448575496,170,1684728705448575496,camera_2,174,0,0.5587853693533454,-0.16929111463984062,1.4193583476615828,0.9795074758557737,-0.02959087941814127,-0.19159067949680675,0.05461223423248502,0.0024892367073334754,0.0013160170314588753,7042.889717417773
1684728705458557844,171,1684728705458557844,camera_2,175,0,0.5586297349889768,-0.16842556427249264,1.4189161070605898,0.9793991284771072,-0.029571384216582338,-0.19233069570777328,0.053960947567309896,0.0021399572724476457,0.0011305790668751767,7044.34468828561
1684728705468581914,172,1684728705468581914,camera_2,176,0,0.5589985012403853,-0.16700852663413504,1.4197755329551944,-0.9796714400628156,0.029414554881171954,0.19085782817010324,-0.054331785472069495,0.0021643764921464026,0.0011439578899412374,7043.925953867612
1684728705478725194,173,1684728705478725194,camera_2,177,0,0.5581573233879843,-0.16606884271720404,1.4175988902766992,0.9792308855157585,-0.0294041991246604,-0.19342578153844814,0.053185834223986615,0.0018132292898371816,0.0009560470611515743,7052.776992624857
1684728705488609790,174,1684728705488609790,camera_2,178,0,0.5584874720936484,-0.16551921655199686,1.418420540615678,-0.9794339226453669,0.029249112540183465,0.1926000098543797,-0.05252539187111325,0.00322312256321311,0.0016999711929847627,7050.3859359438065
1684728705498594045,175,1684728705498594045,camera_2,179,0,0.5584585186493646,-0.1649448843013424,1.4183338048474594,-0.9795984457154648,0.02923652760721351,0.19173071298014335,-0.05264450878718456,0.0024722476955503225,0.0013031791696348995,7056.04523984506
1684728705508579015,176,1684728705508579015,camera_2,180,0,0.5584258750412958,-0.164025926487846,1.4182433820295175,-0.9796546594401008,0.029080732286450462,0.19174829675203509,-0.051610560350353704,0.007793475757353008,0.004105082233990475,7058.371914275922
1684728705518532276,177,1684728705518532276,camera_2,181,0,0.5583577927266679,-0.16365813430314707,1.4180733815657849,-0.9795220583797917,0.02944498230589412,0.1920753074833812,-0.05269351401819979,0.007564563304185867,0.003986278122814667,7056.610785754162
1684728705528580904,178,1684728705528580904,camera_2,182,0,0.5585234768009051,-0.1634474815839036,1.4185245094085401,-0.9797133620538767,0.029165052159720345,0.1913386698230153,-0.05196769550374037,0.008729283523280174,0.004599361818814809,7057.395485113608
1684728705538682937,179,1684728705538682937,camera_2,183,0,0.5582375800602922,-0.16320841263208744,1.4178269778753967,-0.9794608234117329,0.0296926249126146,0.19221248105080904,-0.053190276890627115,0.010173824965022504,0.005360891721026579,7057.603654226288
1684728705548587560,180,1684728705548587560,camera_2,184,0,0.5583622027518177,-0.1631645356796881,1.4181794844913467,-0.9795708136525262,0.02959223139661616,0.19205382328023812,-0.051774992462968426,0.015551224467344582,0.008191996661192935,7057.101650484373
1684728705558689594,181,1684728705558689594,camera_2,185,0,0.5580909779756045,-0.16318313168022539,1.4175272307946398,-0.9793563896955287,0.029534531381416405,0.19296415382072196,-0.05247483929344265,0.014378638006746769,0.007573436670499173,7057.446113099344
1684728705568670749,182,1684728705568670749,camera_2,186,0,0.558418776793884,-0.1634651992885216,1.41838586087766,-0.9797322582868384,0.029086986318884227,0.1916045425670094,-0.05065914099887435,0.011020916572306305,0.005802599497301983,7059.3023434246425
1684728705578508615,183,1684728705578508615,camera_2,187,0,0.5587389033388922,-0.16381432736659862,1.4192359751195296,-0.979848964975914,0.02934119295703483,0.19070899461986354,-0.0516253775053412,0.015385095786768943,0.008110711045602957,7054.593469763173
1684728705588743448,184,1684728705588743448,camera_2,188,0,0.5584724344443067,-0.16450175068743744,1.4186470035992664,-0.9796764043878031,0.029485037214814908,0.19152563176542453,-0.05179486116480883,0.01413361431332305,0.007449076565075579,7055.7165280901845
1684728705598766803,185,1684728705598766803,camera_2,189,0,0.558486147357259,-0.16500151278872482,1.4187259634971268,-0.9795971662181218,0.029829594444495545,0.1921479967859088,-0.050781242244207686,0.009866650449112058,0.005200181726618752,7052.887814062182
1684728705608911275,186,1684728705608911275,camera_2,190,0,0.5585658274520696,-0.16556182714742407,1.4189635660664173,-0.979579781161787,0.029344551329424207,0.19249206846341327,-0.05009144862126604,0.013220977794844657,0.006969511529979427,7049.562090942403
1684728705618904829,187,1684728705618904829,camera_2,191,0,0.5588917310758312,-0.16627835698845914,1.4198586598497354,-0.9797434355253065,0.02942242175792521,0.1914793739132088,-0.050722490167320236,0.015823839465156198,0.00835114911295108,7045.553289733827
1684728705628644466,188,1684728705628644466,camera_2,192,0,0.5588787163852276,-0.16767965351813754,1.4199105626963515,-0.9795814210634429,0.029730169454886195,0.19219551103210167,-0.05096314423795772,0.009691600105725229,0.00511862587583343,7040.470013625922
1684728705638636112,189,1684728705638636112,camera_2,193,0,0.5585645556891703,-0.16834909498172607,1.419165629686285,-0.9793849799316691,0.029891074757291716,0.19288250764238843,-0.052037707286947656,0.009085945377591997,0.0047984913794866845,7042.22001670441
1684728705648603439,190,1684728705648603439,camera_2,194,0,0.5589743393876797,-0.16928849258541567,1.4202605031786841,-0.979624380038816,0.030015368291347436,0.19174387130523543,-0.05166661897958508,0.013438014779239893,0.007103371898061565,7038.177980527747
1684728705658663749,191,1684728705658663749,camera_2,195,0,0.5584621427372357,-0.16996749366692065,1.4190168872081783,-0.979476785396141,0.02992347941692083,0.19266047504542258,-0.051105318753525864,0.006641799409408122,0.0035057413923494703,7045.865007601211
1684728705668623685,192,1684728705668623685,camera_2,196,0,0.5584801759563028,-0.17169517901974854,1.419166815249683,-0.9793215049078459,0.02980341109743336,0.19337427848240527,-0.051454204234431485,0.004602680797688663,0.0024318692436231634,7039.052099111256
1684728705678590774,193,1684728705678590774,camera_2,197,0,0.5585447298292969,-0.17258618500864098,1.4193798444258812,-0.9794522741826328,0.029955936775035007,0.19253440210198777,-0.05202296086949467,0.005245547625236213,0.0027723830282631,7040.403670697237
1684728705688614845,194,1684728705688614845,camera_2,198,0,0.5586003861860629,-0.1734695617913879,1.4195463287277794,0.9795844706967368,-0.029897400101447417,-0.19176201223077902,0.05241889833038169,0.0011548709589987993,0.000610475751500193,7041.962432228032
1684728705698621511,195,1684728705698621511,camera_2,199,0,0.5587151512932481,-0.17434477360533704,1.4198943967802038,-0.9795135199157091,0.029997509425490513,0.19195967968471092,-0.05296126042636204,0.003919986891560256,0.0020742714923093707,7035.995783718772
1684728705708580493,196,1684728705708580493,camera_2,200,0,0.5585542541098276,-0.17590635549971056,1.4195595572503716,-0.9795162823004335,0.02993767245178949,0.19183181348762202,-0.053405466111221496,0.001890492218080908,0.0010003271425080098,7038.058042247314
1684728705718577384,197,1684728705718577384,camera_2,201,0,0.5582885919673289,-0.17658052824059672,1.4189202563550791,0.9795145646955936,-0.03004707600255694,-0.1918348465856249,0.05336461756977368,0.0016457776655443013,0.0008701687842529695,7043.779349335473
1684728705728631019,198,1684728705728631019,camera_2,202,0,0.5582414307499746,-0.17725419628743982,1.4188443082667184,-0.9794569019678178,0.030003974858283797,0.19232204121641033,-0.052689383585895734,0.0014232621178962288,0.0007524684089475806,7042.218802544756
1684728705738528251,199,1684728705738528251,camera_2,203,0,0.5584289409326878,-0.17796983638357045,1.4193623500886896,-0.9796369680016589,0.02996900382251313,0.19120123512439682,-0.053435544549561946,0.0016565785044804215,0.0008763921548524443,7041.601647071535
1684728705748612880,200,1684728705748612880,camera_2,204,0,0.5578786736934435,-0.17887440454962308,1.418002711962219,-0.9794224291440562,0.029849987156235935,0.19245343974966006,-0.05293729389431099,0.004116977390367538,0.002175221685726881,7047.652917256113
1684728705758677721,201,1684728705758677721,camera_2,205,0,0.5580562379959993,-0.17936625686606678,1.4184666664753294,-0.9795602058652879,0.029948571722749184,0.19182249500530937,-0.05262144569337024,0.0048981153522618115,0.0025886234104107583,7046.644657439087
1684728705768752813,202,1684728705768752813,camera_2,206,0,0.5579647506036033,-0.17969550014046448,1.4182510516708773,-0.9795703889780385,0.030179675309830015,0.1916812233295419,-0.05281428649994208,0.006431142624933273,0.0033982023362536767,7048.878142701462
1684728705778783559,203,1684728705778783559,camera_2,207,0,0.5573976824526897,-0.17981451693137523,1.4168215338684562,-0.9792773221326448,0.03017715455170896,0.19310461802781098,-0.05306479243539667,0.004859672684688121,0.002565050466367994,7054.219295951769
1684728705788977384,204,1684728705788977384,camera_2,208,0,0.5576395588714503,-0.18018017923036875,1.4174111186458875,-0.9793922148895684,0.030246828632040788,0.19259858895628704,-0.05274279385334592,0.007155373750720173,0.0037786091900731482,7051.376346984647
1684728705799171924,205,1684728705799171924,camera_2,209,0,0.5578139338281416,-0.18026671718570875,1.4178456942473272,-0.9794407348314412,0.030115038312539616,0.19227950641572797,-0.05308034318657855,0.00798459310317412,0.0042191161315873775,7048.271333035082
1684728705809219598,206,1684728705809219598,camera_2,210,0,0.557840824306515,-0.18021754045390806,1.4178823093587953,-0.9794863057424298,0.030210301398673825,0.19209935627069516,-0.05283703126438292,0.008472041343338788,0.004475952881340778,7049.359878754471
1684728705819558382,207,1684728705819558382,camera_2,211,0,0.5579836400038289,-0.180129094044739,1.4182376308736364,-0.9795162570231117,0.030292516214563994,0.19179960283129258,-0.053321459494110456,0.005195182340685278,0.0027462539321792723,7046.894189135637
1684728705829293489,208,1684728705829293489,camera_2,212,0,0.557982708020208,-0.1795760751172179,1.418160987854478,-0.9795659220005272,0.030100520598136046,0.19138348827961146,-0.05400855051661953,0.007336674258112907,0.0038779284635094714,7049.452619840621
1684728705839143753,209,1684728705839143753,camera_2,213,0,0.5578640436802849,-0.17913813475792845,1.4178248102549484,-0.9794641235096042,0.030042435432964,0.19203066310924322,-0.05358831268703446,0.00994815758895129,0.0052560295536363206,7050.25287585962
1684728705849023818,210,1684728705849023818,camera_2,214,0,0.5582775111524332,-0.17880761971084827,1.4188236959485476,-0.9795601815227114,0.030192170873451725,0.19143702475894928,-0.053871598682258305,0.004566627147141844,0.0024155135989602887,7043.6993887110175
1684728705858890771,211,1684728705858890771,camera_2,215,0,0.5579957335463772,-0.17819088981388467,1.4180496735703172,-0.9794191409324827,0.030341688598954728,0.19213319841976645,-0.05387357768918459,0.006699328660033643,0.0035407330229293653,7047.948657594858
1684728705869094371,212,1684728705869094371,camera_2,216,0,0.5583131974279485,-0.17700576549699884,1.4187688742195568,-0.9795539160379935,0.029913164713853593,0.1916248801265971,-0.053471800679431,0.007224343076813965,0.003819234775906236,7045.589438505238
1684728705879075527,213,1684728705879075527,camera_2,217,0,0.5584458080383764,-0.1763218958998791,1.4190440157085,-0.9797217677298014,0.029892877329256353,0.19051951579068374,-0.0543506009557827,0.013538261002395302,0.007158134054189615,7048.304221630561
1684728705889204502,214,1684728705889204502,camera_2,218,0,0.5582383629544785,-0.17547794077050663,1.4184562196994068,-0.9794008444014025,0.029845032475547623,0.1923661359059417,-0.05365193173568015,0.007163595408201218,0.0037861884844427596,7045.45666327793
1684728705899131059,215,1684728705899131059,camera_2,219,0,0.5585756932960566,-0.1747812636500026,1.4192541866651678,-0.9795573647391198,0.030395604970812635,0.19131066963422216,-0.054255912746121994,0.003716195991728455,0.0019656307109612216,7043.1639056399
1684728705909249067,216,1684728705909249067,camera_2,220,0,0.5587352194765949,-0.17311879440507386,1.419532279033803,-0.9796043508793878,0.02985990546807657,0.1912911949320581,-0.05377155870045238,0.0046392803196795285,0.002453422529264082,7042.440067693361
1684728705919095039,217,1684728705919095039,camera_2,221,0,0.5587988803971576,-0.1722580438389653,1.419643362924309,-0.9795762130851368,0.029909557692490204,0.19111075605703395,-0.0548866107145587,0.003708693489897996,0.0019622268078670507,7041.099174964704
1684728705929003953,218,1684728705929003953,camera_2,222,0,0.5587943121524137,-0.1713764722857417,1.4195422391290313,-0.9795529441081393,0.029735084648891113,0.19128061007071337,-0.054804950880147536,0.001963897899258882,0.0010388177782466878,7041.687260843581
1684728705938860654,219,1684728705938860654,camera_2,223,0,0.5588962231672486,-0.17053006416291014,1.4197542808835237,-0.9795891527743243,0.02974502981948098,0.1914375839008648,-0.05359082419704785,0.0037854049587622285,0.0020015959405471607,7041.030632893557
1684728705949036121,220,1684728705949036121,camera_2,224,0,0.5588223798079046,-0.16882283247444,1.419442001079163,-0.9794880183927578,0.029395121933060174,0.1918106293468853,-0.054293932452170526,0.004299019812606275,0.0022728057016088853,7041.490147082602
1684728705958912611,221,1684728705958912611,camera_2,225,0,0.5588467605774123,-0.16804938519949258,1.419461346460569,0.979515949149952,-0.029499748069527116,-0.1917186329206132,0.05405771004911618,0.0015441328287124634,0.0008161415489166972,7042.400084362365
1684728705968806743,222,1684728705968806743,camera_2,226,0,0.5588847103229884,-0.1672980238574142,1.4195008976735044,0.9795430162681474,-0.029544269218793526,-0.19149351669121403,0.05434011871406729,0.0016810200759209692,0.0008884801119833278,7042.983603656294
1684728705978767871,223,1684728705978767871,camera_2,227,0,0.5584794136931628,-0.16648411807936983,1.4184505907437035,-0.9793576435091399,0.029481489491183763,0.19252756033993024,-0.054060950668298934,0.0049311439506709576,0.002603216298875232,7048.101944629101
1684728705988783836,224,1684728705988783836,camera_2,228,0,0.5585049721041541,-0.16523782044595428,1.418476312623358,-0.9793968349961883,0.029285523589293747,0.1926845604043467,-0.05288532773211933,0.003354187123477459,0.0017695632987874221,7048.85867597442
1684728705999026536,225,1684728705999026536,camera_2,229,0,0.5583108884006007,-0.16464899711563913,1.41794983223011,-0.9792674543806987,0.029264117163520308,0.19336739875454992,-0.05280069446783074,0.004907113790977746,0.002587558579752455,7050.301818495385
1684728706008985757,226,1684728706008985757,camera_2,230,0,0.5584451921393105,-0.16424376601247626,1.418313237677195,-0.9795149610867009,0.029539329852536354,0.19196155833338946,-0.05318485800863509,0.008991696638986468,0.004741170570829292,7054.1802676718235
1684728706019009590,227,1684728706019009590,camera_2,231,0,0.5585366464317653,-0.16389480657904507,1.4185388798369511,-0.9796176940309719,0.029586364134780115,0.19169176147745268,-0.05223111314529707,0.007601864694152027,0.004006980096053,7054.862355970079
1684728706028838157,228,1684728706028838157,camera_2,232,0,0.5585729518217134,-0.1633876177189319,1.4186740273174208,-0.9795988563399782,0.029620636236051674,0.19171486214607278,-0.052479616983078785,0.013391058892011642,0.0070603979601859875,7053.055716093164
1684728706038965702,229,1684728706038965702,camera_2,233,0,0.5583703072627973,-0.1631990973537528,1.4181837838097422,-0.9795990444044789,0.029295156421562968,0.19193259879740565,-0.051859266587004904,0.019761950068641454,0.010409883697734384,7057.616786318598
1684728706048817396,230,1684728706048817396,camera_2,234,0,0.5582762683648701,-0.1631278468775907,1.417939305105865,-0.9795577165282848,0.029597029655571122,0.19238296303683958,-0.05078869321636115,0.010585460695438087,0.005572452556821659,7058.985980538882
1684728706058838367,231,1684728706058838367,camera_2,235,0,0.5582813325229089,-0.16317792058743702,1.4180039821164403,-0.9796293395834349,0.02928711018091711,0.19205246551473645,-0.05083770937291533,0.01443600736092776,0.007598956439622803,7060.234167144399
1684728706068726301,232,1684728706068726301,camera_2,236,0,0.5581982495082918,-0.16351946230290534,1.4178407723314315,-0.9794635805417127,0.02944475084897207,0.19316344054299608,-0.04971907357787515,0.011881941114552319,0.006253398686400346,7057.171233647265
1684728706078880310,233,1684728706078880310,camera_2,237,0,0.5584369366686152,-0.16389132053490182,1.418509718543755,-0.9796597117808292,0.02941637867610602,0.1916892359030265,-0.05154379320539367,0.017313749762251973,0.009122428289530886,7056.450151585046
1684728706088912010,234,1684728706088912010,camera_2,238,0,0.5585298750015283,-0.16430213390862725,1.4187529275176525,-0.979646514930201,0.029594369017271388,0.19167807125242772,-0.051733897093978715,0.01360778632806614,0.007173269934314512,7053.8278398003895
