%time,field.header.seq,field.header.stamp,field.header.frame_id,field.image_seq,field.transforms0.fiducial_id,field.transforms0.transform.translation.x,field.transforms0.transform.translation.y,field.transforms0.transform.translation.z,field.transforms0.transform.rotation.x,field.transforms0.transform.rotation.y,field.transforms0.transform.rotation.z,field.transforms0.transform.rotation.w,field.transforms0.image_error,field.transforms0.object_error,field.transforms0.fiducial_area
1684375747883550167,3,1684375747883550167,camera_1,5,0,1.2096111352710606,-0.8374600520179357,4.785569144352806,0.9891729681369871,0.03762112923899922,-0.10585307326514591,0.09442783817375862,0.018609955557622015,0.0067588621144336085,9854.35322323814
1684375747890163183,4,1684375747890163183,camera_1,6,0,1.210429943280796,-0.8395338515032624,4.787944959697879,0.9893967748684609,0.03790160780350282,-0.10247952558451615,0.0956840469554371,0.009213199431542307,0.0033475632348087094,9855.049667871084
1684375747896720647,5,1684375747896720647,camera_1,7,0,1.210179285346659,-0.8411647587190794,4.7856458832196624,0.9891588678854007,0.03806410342479888,-0.10266223002147581,0.09785869731994225,0.020472346572205424,0.007440024878987774,9854.536060256887
1684375747903477191,6,1684375747903477191,camera_1,8,0,1.2101671103104001,-0.844451314625438,4.782735115532235,0.989209208794758,0.03822238523773637,-0.1035733949559687,0.09631584687725027,0.024229087750427425,0.00879578484769086,9865.564077228893
1684375747910106658,7,1684375747910106658,camera_1,9,0,1.2108514855067583,-0.8467147230983837,4.784133085452536,0.9890752986148201,0.037520943516386525,-0.10360417323580301,0.09792041541869806,0.048032797989435494,0.017463437484038415,9852.372634507014
1684375747916883945,8,1684375747916883945,camera_1,10,0,1.2105401317321642,-0.8481313796486363,4.78156414703256,0.9890657795420605,0.037889490710629414,-0.10511719709633484,0.09624783170106133,0.035027942969463766,0.01272309426093956,9860.860769178715
1684375747923577547,9,1684375747923577547,camera_1,11,0,1.2115619165839888,-0.8525330762971721,4.78307671476996,0.9893354949970385,0.03832182587033495,-0.10412117615023303,0.09436893915913505,0.012596853077411652,0.004575192942087366,9863.622621766526
1684375747930236816,10,1684375747930236816,camera_1,12,0,1.2118223456130428,-0.8544858290081596,4.782631419423765,0.9892196777728145,0.03845549493134671,-0.10459628800789363,0.0950011607908246,0.007672201259993017,0.0027880651696621643,9859.399831035527
1684375747937370777,11,1684375747937370777,camera_1,13,0,1.2114940940726278,-0.8560585948746586,4.77997801175761,0.9891701051042426,0.03794126786748498,-0.10428842413086654,0.0960566913492752,0.019660890160594136,0.007140933859898504,9866.272767767307
1684375747943584442,12,1684375747943584442,camera_1,14,0,1.2134541124920928,-0.8608770043017067,4.7847595609705085,0.9891418718186807,0.037861305071711183,-0.10477568414793853,0.09584850027327069,0.009744005626998842,0.003548510621240802,9841.801965618733
1684375747950311660,13,1684375747950311660,camera_1,15,0,1.2136138024515717,-0.8626231566043259,4.783952895519474,0.9893385472094498,0.03775639837394507,-0.10418066809877294,0.09449910995250896,0.030361871875356883,0.011046490533661897,9851.167928724324
1684375747956761360,14,1684375747956761360,camera_1,16,0,1.212429096897613,-0.8635578922306688,4.77822202588867,0.9892117711016826,0.03839378107403111,-0.10526389753709585,0.09436896398716804,0.005731104931328446,0.002081499729627008,9868.789730529186
1684375747963728666,15,1684375747963728666,camera_1,17,0,1.2148643847230411,-0.8683972808683521,4.78511690825929,0.9893052042022911,0.03810736866341123,-0.10454087652149298,0.0943093130498369,0.005314454552717507,0.0019361082570189838,9840.691682345703
1684375747970181941,16,1684375747970181941,camera_1,18,0,1.213791522071223,-0.869273138246114,4.779606038888672,0.9892742778885122,0.03849826017923381,-0.10455331173807828,0.09446106116244436,0.012745649262797087,0.0046340444552263145,9861.020485921184
1684375747976801872,17,1684375747976801872,camera_1,19,0,1.2145585722558219,-0.8711725857287314,4.7814161543867915,0.9892578688775474,0.0377575585694444,-0.10249472490252007,0.09714971436852123,0.01694591512205079,0.006169552438699572,9851.375618976312
1684375747983552694,18,1684375747983552694,camera_1,20,0,1.2140527015123779,-0.8736244721557131,4.7771999294026735,0.9890502561308504,0.037615223982605125,-0.10497716939899138,0.09666684890495517,0.01440062397159636,0.005240173943244351,9855.859586613482
1684375747990298986,19,1684375747990298986,camera_1,21,0,1.2144283882549982,-0.8751606917569037,4.77782105081828,0.988853648968392,0.03809474124655421,-0.10936198030790274,0.09357995979048277,0.01904898544307798,0.006937589132536925,9842.535554194472
1684375747996981859,20,1684375747996981859,camera_1,22,0,1.2153113069210106,-0.8770512965463421,4.780306668659169,0.9889337560019823,0.037941952011200444,-0.10554242378735068,0.0971145267119335,0.010114689473994076,0.0036884858232995414,9835.893921619048
1684375748003738403,21,1684375748003738403,camera_1,23,0,1.2152947264148353,-0.8790724196936363,4.77856250715674,0.9891548304925464,0.03869928848002147,-0.10514548048366038,0.09497112360218803,0.007577285228762776,0.002758997370071969,9850.658126729542
1684375748010410785,22,1684375748010410785,camera_1,24,0,1.2144513233692409,-0.8793029833785851,4.774317794992653,0.9888382057697221,0.037882072811482946,-0.10813421744250493,0.09524149509388923,0.010488584404811261,0.003818065697263633,9851.511193297918
1684375748016826629,23,1684375748016826629,camera_1,25,0,1.2162684873911398,-0.8813794075437854,4.780771946466139,0.9892502350695234,0.03816796812395259,-0.10471353388582286,0.09466918424347166,0.0013048675609752536,0.0004755694831087189,9842.484486110974
1684375748023471117,24,1684375748023471117,camera_1,26,0,1.2153359204416332,-0.8820307319307732,4.775875546349721,0.989159935917899,0.0379633079841948,-0.10403605952323061,0.09642565395512825,0.01108347688568756,0.0040342136133885275,9857.275089236791
1684375748030456304,25,1684375748030456304,camera_1,27,0,1.2158735656675221,-0.8829001916112915,4.777450937445734,0.9892512346832537,0.03805039539482203,-0.10452849812573217,0.09491024795845104,0.027379524486605078,0.009967906164963734,9853.455881710628
1684375748037082195,26,1684375748037082195,camera_1,28,0,1.2154804450238799,-0.8830686046092625,4.775781373850657,0.9890067611832906,0.03812964892251284,-0.10421244246801604,0.09773189367670077,0.0005657903966493905,0.00020610277627009562,9850.712103031576
1684375748043435573,27,1684375748043435573,camera_1,29,0,1.216333315979945,-0.8841131590859191,4.778552185007289,0.989176731684029,0.03810178414026201,-0.10402821878169723,0.09620695004696345,0.018206866981927305,0.006635047969192328,9845.224735063966
1684375748050635337,28,1684375748050635337,camera_1,30,0,1.2165857578908952,-0.8843056559446335,4.779570827987747,0.9890731685147387,0.037940515796225725,-0.10554749442983218,0.09567920884349083,0.0006108671659603715,0.00022281054984618138,9836.011708090082
1684375748056714773,29,1684375748056714773,camera_1,31,0,1.2159086392278997,-0.883743131734632,4.776711506865791,0.9889023571973456,0.03773525737701982,-0.10747952567477335,0.09537468134127072,0.014603958872612566,0.005323661909563248,9839.514240021119
1684375748063408851,30,1684375748063408851,camera_1,32,0,1.21567253214059,-0.8830923069917316,4.776094190568355,0.9888701472708964,0.03795013700643033,-0.10291919194757096,0.10051496837032775,0.015374127891846001,0.005605014002096175,9844.086306878366
1684375748070140600,31,1684375748070140600,camera_1,33,0,1.2148835747786393,-0.8821432291435004,4.773318386718573,0.9888778805238737,0.03809787414516164,-0.10683357282290612,0.09620642969221857,0.00343370990594849,0.0012499188141197588,9854.564631159887
1684375748076699495,32,1684375748076699495,camera_1,34,0,1.2158130838715753,-0.8823337482073216,4.777058696011981,0.9890083216112892,0.038372678092260464,-0.10587054986977963,0.09582016504848653,0.005823540617711842,0.002121778266433139,9845.644195057223
1684375748083523273,33,1684375748083523273,camera_1,35,0,1.215487558773183,-0.8807267357650097,4.776813327463839,0.989056250221567,0.03792287871870206,-0.10436306393405673,0.09714906100233617,0.007678420457523316,0.0027966462155933,9850.33143774129
1684375748090262889,34,1684375748090262889,camera_1,36,0,1.2143397090441104,-0.8791680902080091,4.773050821368784,0.9886783918898903,0.03865372003418501,-0.10752468608795804,0.0972592886012729,0.012468821718357503,0.004539637380191195,9851.432088907693
1684375748096711874,35,1684375748096711874,camera_1,37,0,1.2165284932310307,-0.8797767416721267,4.7823487608066735,0.9890508770506236,0.03829275903357956,-0.10366866918069216,0.0977999705587525,0.013606408494524658,0.004965625626525094,9830.477840881445
1684375748103575706,36,1684375748103575706,camera_1,38,0,1.2151603705966791,-0.8766855700314968,4.778334642481966,0.9887966115879906,0.03830390549996278,-0.10732912626668402,0.09640814483428509,0.01021609763847664,0.003724178666767498,9837.367428223137
1684375748110152959,37,1684375748110152959,camera_1,39,0,1.2143021008600061,-0.8748659331774303,4.775938549066017,0.988826286136293,0.038459314992332176,-0.10590890840792438,0.09760512310359871,0.008567253535147756,0.0031191859078940616,9850.906374314796
1684375748116763591,38,1684375748116763591,camera_1,40,0,1.2146052852484521,-0.8738056000147668,4.777826311605186,0.9890676906397786,0.03810620231440263,-0.10584734108299941,0.09533814065382387,0.013079092896077782,0.004759753848272733,9853.274055927996
1684375748123432159,39,1684375748123432159,camera_1,41,0,1.2133445870339468,-0.8702625636744445,4.775321671041733,0.9888408594943907,0.038654188914159095,-0.1063246943837903,0.09692609368986684,0.021053141797892746,0.007656873685996798,9858.564797071745
1684375748130540609,40,1684375748130540609,camera_1,42,0,1.2138089462405328,-0.8690214042006363,4.778246058063037,0.9891093491639011,0.03849266700209767,-0.10557992368732307,0.09504677636726465,0.015874682285357267,0.005772620666558981,9858.77352552442
1684375748137120962,41,1684375748137120962,camera_1,43,0,1.2119748182743832,-0.8661184030612952,4.772145449342839,0.9887262819428522,0.038038901256648265,-0.10728861009597385,0.09727556491907384,0.010935788101051003,0.003972423668690711,9868.943044104493
1684375748143743038,42,1684375748143743038,camera_1,44,0,1.2123837052751043,-0.8631544752325104,4.776368017453118,0.9888102195606302,0.03843446268639905,-0.10856550364560591,0.09481916045105114,0.013433038198854774,0.00488275218624239,9857.988709385048
1684375748150035619,43,1684375748150035619,camera_1,45,0,1.212016771437273,-0.861291076904485,4.776080659697426,0.9886457815853045,0.03818543269561828,-0.1069100226316142,0.09844611899073924,0.012800267082639039,0.004655604557983196,9854.963976889501
1684375748156717777,44,1684375748156717777,camera_1,46,0,1.2143090195850446,-0.8610939729770212,4.786459218931165,0.989256100695784,0.038194446676341795,-0.10170761850876409,0.09782183711491513,0.018008577113505453,0.006560740214465978,9840.659531971909
1684375748163489341,45,1684375748163489341,camera_1,47,0,1.2114603990674198,-0.8556793386182122,4.778019324000782,0.9888952034409039,0.038417735169737816,-0.10589288853402853,0.09693838452295975,0.009005432715639472,0.0032718624489920744,9862.500863630445
1684375748170056104,46,1684375748170056104,camera_1,48,0,1.210495150726962,-0.8531073172558983,4.775556263320035,0.9887055287275845,0.038114449950701984,-0.10714271640846028,0.09761713214943059,0.01728150446433574,0.006275746728450794,9865.649104876207
1684375748176889181,47,1684375748176889181,camera_1,49,0,1.212269124687338,-0.852641258783056,4.78402223826918,0.9893050792019065,0.038463228122484906,-0.10253066709108925,0.09635093488681663,0.0038001511129550636,0.001381212471101367,9858.782293326214
1684375748183799028,48,1684375748183799028,camera_1,50,0,1.210371917719882,-0.8476008478885213,4.779276409510524,0.9887471346716249,0.03853743233496081,-0.10641924657430858,0.0978208257286585,0.01703694259049371,0.006190355782300048,9857.498799569319
1684375748190436601,49,1684375748190436601,camera_1,51,0,1.2106470458445413,-0.8461647533212691,4.781775341387491,0.9888912715847495,0.03801217080026652,-0.10662172673744226,0.09633761073472112,0.009383247583173215,0.003410302041408535,9853.060470886528
1684375748196755170,50,1684375748196755170,camera_1,52,0,1.2112357228282695,-0.8446011856053042,4.785427846427814,0.989143529720718,0.03797110238815089,-0.1065758869812355,0.09378087923042157,0.02167591598117724,0.007878785019030396,9848.807320322034
1684375748203940629,51,1684375748203940629,camera_1,53,0,1.2099249737647684,-0.8403797989290126,4.782945742682398,0.9889412288636305,0.038108001967303476,-0.10656750232669499,0.09584567537245653,0.020005087601020932,0.007267289852129641,9853.957604605703
1684375748210299253,52,1684375748210299253,camera_1,54,0,1.2093687282396453,-0.8383263739951778,4.78226860618696,0.9888093778923304,0.03820646001132449,-0.10378581836265,0.10012384587290228,0.014246001199353486,0.005176610630598827,9855.078828484753
1684375748216762065,53,1684375748216762065,camera_1,55,0,1.2092480726049617,-0.8366539452552915,4.782860629885816,0.9888968489730307,0.03798647345779249,-0.10249040631286542,0.1006765441365335,0.00917578802909702,0.0033335523743382063,9857.436010859446
1684375748223377227,54,1684375748223377227,camera_1,56,0,1.208553301681519,-0.8332025285331368,4.782719687020356,0.9888191384303815,0.037784035888515054,-0.10613786792621557,0.09769253348056303,0.008639555308036506,0.0031378323020844106,9854.17461774219
1684375748230162143,55,1684375748230162143,camera_1,57,0,1.208348651201442,-0.8316349545050874,4.783003605198819,0.9888946841169801,0.03822877784952534,-0.10626351024216123,0.09661226971934751,0.013323088991455734,0.004836402033193005,9857.185524711385
1684375748236789703,56,1684375748236789703,camera_1,58,0,1.2078110177005057,-0.8298638271721561,4.781791279835749,0.9888165966483933,0.03839380651558985,-0.10728721515646525,0.09621386219200834,0.019646366592496634,0.007128701695500915,9859.3895963463
1684375748243618965,57,1684375748243618965,camera_1,59,0,1.2073615466394871,-0.8271563966895474,4.782509524540243,0.988914480933054,0.03871969618426439,-0.10506916804594003,0.09751617534768582,0.010072116565424949,0.003653425296725055,9863.869086575227
1684375748250231266,58,1684375748250231266,camera_1,60,0,1.2061998433423051,-0.8254097157850048,4.778686107276319,0.9888209151303886,0.03803523700159028,-0.10582925706102864,0.0979116279960883,0.011581177182961255,0.004195667856260319,9875.043365194462
1684375748256867170,59,1684375748256867170,camera_1,61,0,1.2062437340964542,-0.8242935281237411,4.779272501611954,0.9888244194395671,0.03808223044288245,-0.10783359851038274,0.0956447922095084,0.011039861477911472,0.003999372799537338,9871.558917060724
1684375748263526201,60,1684375748263526201,camera_1,62,0,1.2057766710818043,-0.8223737624967655,4.779091191258199,0.9887428747233251,0.03852969346154727,-0.10820048114226816,0.09589393247852555,0.008178647956810892,0.0029627516825534183,9870.674401847413
1684375748270171403,61,1684375748270171403,camera_1,63,0,1.205844902512298,-0.8217046450418057,4.780030448038045,0.9887065472771516,0.03826715351004077,-0.10620269848541239,0.09856964628093731,0.01572527462849393,0.005700330925405961,9866.982252933085
1684375748277235984,62,1684375748277235984,camera_1,64,0,1.2061821838538012,-0.8213786283233954,4.781605436383714,0.9886934498245943,0.03829137310049521,-0.10747829120493636,0.09730082188598424,0.04425233748042956,0.016049424439502587,9859.13814119063
1684375748283595800,63,1684375748283595800,camera_1,65,0,1.2072259406328998,-0.821196752591817,4.786645397239363,0.9889111330429883,0.03789848993324054,-0.1057277480178008,0.09716027327821654,0.011603899882175028,0.004213977037771254,9847.725706382429
1684375748290467977,64,1684375748290467977,camera_1,66,0,1.2063186013865772,-0.8203700786396579,4.783456715913474,0.9890265597768684,0.03826141495180165,-0.10560367293114564,0.09597078954176763,0.011760329187382013,0.004262472185185516,9865.970931587268
1684375748297099351,65,1684375748297099351,camera_1,67,0,1.2071586504905047,-0.820798505804594,4.786933700155616,0.9890874231093565,0.03838647442390786,-0.10704820764425499,0.0936655180327746,0.019381343678105623,0.00703163383411646,9852.984659813581
1684375748303745985,66,1684375748303745985,camera_1,68,0,1.2061633830982161,-0.8202127150263177,4.783040227786756,0.9889078220893146,0.03820983564857721,-0.10904203550537674,0.09333360789727178,0.028860532271210104,0.01046035052139247,9860.615715920223
1684375748310615777,67,1684375748310615777,camera_1,69,0,1.206657547199048,-0.8206952029972858,4.785087698270226,0.9890006507500855,0.03809074750932346,-0.10689310800075257,0.09487186744250281,0.025724837847519666,0.009330231548117436,9857.143242013637
1684375748317174434,68,1684375748317174434,camera_1,70,0,1.2057817285263663,-0.8203439056624229,4.781219810935784,0.9888503932785199,0.03860648085077661,-0.10759876477865647,0.09543031576675523,0.010182148078456521,0.0036892128572081446,9867.583364626389
1684375748323734760,69,1684375748323734760,camera_1,71,0,1.2064375159458727,-0.8218523538584784,4.783646955804893,0.988865169602489,0.03825454219761031,-0.10638914880296371,0.09676577579533274,0.0057734225993044674,0.002094385182172406,9858.498249856755
1684375748330559730,70,1684375748330559730,camera_1,72,0,1.2061438644972835,-0.8222005931029075,4.781522587850821,0.9886772310982275,0.03776575935180432,-0.10933181071347599,0.09559097914885346,0.029957657039631158,0.01086569534696532,9856.662838538876
1684375748336885929,71,1684375748336885929,camera_1,73,0,1.2068084403956039,-0.8234628901334143,4.783763734567442,0.9889816086571186,0.037752584261225006,-0.10594986851225485,0.09625354789208068,0.021733121771831065,0.0078822963388259,9861.083003870677
1684375748343387842,72,1684375748343387842,camera_1,74,0,1.2075366146310351,-0.8257300402671682,4.78535211260346,0.989246823728718,0.03830234551968067,-0.10361286993562782,0.09585418746218906,0.008493534405715764,0.0030798090899903986,9866.223444667416
1684375748350779533,73,1684375748350779533,camera_1,75,0,1.2074225777077054,-0.8265767399644928,4.784161183028349,0.9890790902755376,0.03808223078492241,-0.10463944717941688,0.09655507740219971,0.006114916934166104,0.002218064669048122,9863.350572240073
1684375748357897996,74,1684375748357897996,camera_1,76,0,1.2068534059522746,-0.8273119983812014,4.780978545179005,0.9886775747710354,0.03730790286528949,-0.1051161514458821,0.1003761337861974,0.02338656346546486,0.008488633817706997,9859.377810244447
1684375748364202022,75,1684375748364202022,camera_1,77,0,1.2076891663740075,-0.8303853356481306,4.782582988760271,0.9890504291232247,0.03841257002104507,-0.10594596088968587,0.09528471276497903,0.026236350007820874,0.009513728357141909,9866.508634413589
1684375748370481252,76,1684375748370481252,camera_1,78,0,1.209083200510455,-0.8327831928275972,4.786877063463625,0.9892050743254291,0.03807415805000054,-0.10448733861741737,0.0954257590289699,0.03108262812020257,0.011287229270862738,9854.334661599716
1684375748377161502,77,1684375748377161502,camera_1,79,0,1.2083868992237996,-0.8336497629186828,4.783247082204265,0.9891994508409754,0.03772968420181923,-0.10710294540720523,0.09268158647242195,0.02688693517120555,0.009749228502415393,9865.950813501371
1684375748383765220,78,1684375748383765220,camera_1,80,0,1.2086398826018703,-0.8370053557227136,4.782276455084175,0.9891344139857112,0.03816328815218067,-0.10563134876848716,0.09486143928861449,0.010606528609059751,0.003847222119913308,9867.743591009406
1684375748390480995,79,1684375748390480995,camera_1,81,0,1.209353938551262,-0.8389132867581996,4.783436031087434,0.9890644864137063,0.037643687921614155,-0.1048789929491028,0.09661672377406286,0.013384162273723632,0.004860424805636704,9858.86546420096
1684375748396903276,80,1684375748396903276,camera_1,82,0,1.2095192098188772,-0.8408394639731938,4.78301863419301,0.9890670469966855,0.038107735803991044,-0.10631856118077765,0.09481846110119552,0.0159705153782852,0.0057985034916513585,9859.416345429607
1684375748403562545,81,1684375748403562545,camera_1,83,0,1.2101294643307383,-0.8445738956553518,4.782664151594088,0.9890098981487749,0.03833749340864534,-0.10604250446922193,0.09562763831020392,0.014474936353508383,0.005258343776086183,9856.882719527584
1684375748410045623,82,1684375748410045623,camera_1,84,0,1.2108582047595566,-0.8468342653022214,4.784099361178217,0.9891642312271246,0.03813761366858465,-0.10350303507540916,0.09688533333119098,0.021005387709010396,0.007633433119530619,9856.86819763854
1684375748416778326,83,1684375748416778326,camera_1,85,0,1.2102298928354156,-0.8480458447733341,4.780472035216893,0.9888811078720406,0.03807184198068984,-0.10577056967265361,0.09735130165069725,0.008340867585502565,0.003030689533051572,9858.304641276132
1684375748423494338,84,1684375748423494338,camera_1,86,0,1.2108925243241033,-0.8521329415236739,4.780480384133859,0.9889571843344888,0.038530227491817406,-0.10787229597881857,0.09403550862778955,0.00835583609296009,0.0030357075468838445,9857.737472244076
1684375748430114746,85,1684375748430114746,camera_1,87,0,1.2118310920931412,-0.8546373210517043,4.782820514711472,0.9892296298287703,0.03777317127043815,-0.10589292431444204,0.0937262800987226,0.009018260112497956,0.003277407010252679,9857.143442993285
1684375748436862468,86,1684375748436862468,camera_1,88,0,1.213285618382134,-0.8574187510817874,4.78677712028037,0.9892911597964402,0.03806574864590669,-0.10284853107487245,0.09631292532356199,0.006767778017092496,0.002464071118561463,9843.851133073682
1684375748443388462,87,1684375748443388462,camera_1,89,0,1.2130865379532978,-0.8607741415606112,4.783047166769547,0.9892660062017619,0.037924746152922996,-0.10483310826590157,0.09446958248114523,0.019619082391727716,0.007135440768098888,9853.409060376114
1684375748450101852,88,1684375748450101852,camera_1,90,0,1.2131777386388618,-0.8624262629896069,4.782187138978188,0.9893790009634211,0.03775063520396736,-0.1053827424890058,0.09272841840458548,0.011434844753239304,0.004156199141658205,9859.217263015329
1684375748456802368,89,1684375748456802368,camera_1,91,0,1.2130771640768632,-0.8640809668227937,4.7805489391389075,0.9891859484809487,0.0375412232823212,-0.10368964804236581,0.09669680848488914,0.012855125416535884,0.004675366322032527,9857.628810871396
1684375748463540554,90,1684375748463540554,camera_1,92,0,1.2142588950384348,-0.8681527848277851,4.782745424986541,0.9893159883798279,0.03832120226096591,-0.10676004520827428,0.09158413258007936,0.010554517211858183,0.0038401128418663276,9849.756750237779
1684375748470034837,91,1684375748470034837,camera_1,93,0,1.2145474413386737,-0.8699578701879638,4.78248086411269,0.9892259139928097,0.038359534312585424,-0.10495074187080629,0.09458318557322577,0.015259295236319304,0.005555982545670451,9846.689668514417
1684375748476767063,92,1684375748476767063,camera_1,94,0,1.2136974682259365,-0.8706684037327411,4.777825412112863,0.9890831463693244,0.03798311484814789,-0.10559263998648055,0.09550919817104393,0.021609743940643966,0.007860058610641764,9857.710725664043
1684375748483385801,93,1684375748483385801,camera_1,95,0,1.2148624365294542,-0.8742548747943465,4.780161455752922,0.9892334111262833,0.03813135169569787,-0.103799174986224,0.09585921761362409,0.010919336578808725,0.003975108487415902,9852.097129119331
1684375748490044832,94,1684375748490044832,camera_1,96,0,1.2154131942268267,-0.8758993217786939,4.781607164348845,0.989215009048059,0.038459411786543225,-0.1024897281677728,0.09731595521381593,0.004696029587648809,0.0017110924720362072,9845.457978709714
1684375748496730566,95,1684375748496730566,camera_1,97,0,1.2157135250704183,-0.877341681116657,4.781553969457872,0.9892569145170858,0.03814342377223802,-0.10193205350339085,0.09759965559185553,0.00633405486587435,0.002308163082037143,9845.48321270838
1684375748503429651,96,1684375748503429651,camera_1,98,0,1.216112324979228,-0.8796835400717493,4.781466050422579,0.9893384685902213,0.038110690662831154,-0.1041738905931897,0.09436509070326726,0.01320137403672561,0.004809565405665716,9845.27473995171
1684375748510085344,97,1684375748510085344,camera_1,99,0,1.2152664547480443,-0.8800191282192337,4.777549453306967,0.9887670155010778,0.03827772856275422,-0.10680975869507267,0.09729480973139258,0.0077849337831139565,0.0028388302096860585,9836.698411121379
1684375748516752958,98,1684375748516752958,camera_1,100,0,1.2152382968389617,-0.88072230313074,4.776697617333518,0.9891357795200889,0.03858139597515362,-0.1057830888501955,0.09450832593537031,0.013398657029028982,0.004876533632600558,9854.679452173992
1684375748523377656,99,1684375748523377656,camera_1,101,0,1.2153710330562058,-0.8821201199185561,4.776061255198828,0.9890365338760359,0.03845674449887192,-0.10612699177654734,0.09520963752418288,0.003421131754294038,0.001245706644213343,9851.329468768086
1684375748530092477,100,1684375748530092477,camera_1,102,0,1.2158891455028917,-0.8829692669169132,4.777571276849552,0.9890619489997943,0.03785640784228293,-0.10404204795118706,0.09746079049612663,0.008089336683042347,0.0029480828332189442,9845.528271195239
1684375748536724567,101,1684375748536724567,camera_1,103,0,1.2158808802855368,-0.8834184346552227,4.777390182961132,0.9890098447253068,0.037922660696171735,-0.1045722306190979,0.09739634195129444,0.005067089863587171,0.00184699231981371,9843.642886131418
1684375748543649196,102,1684375748543649196,camera_1,104,0,1.2157837560038711,-0.8836234199851608,4.776374486818878,0.9891270999909242,0.03800917972963421,-0.10281361623838428,0.0980420452449412,0.009330567554570735,0.0033983956105023533,9852.806345796562
1684375748550128221,103,1684375748550128221,camera_1,105,0,1.2161373829804643,-0.8839932263419071,4.777569556253755,0.989022238331706,0.037722198458270885,-0.10592489817613543,0.09587472959645126,0.01618617499480024,0.005900179667518196,9841.412288646448
1684375748556946754,104,1684375748556946754,camera_1,106,0,1.2168036143489562,-0.8843443321971772,4.780144907394544,0.9893052904519073,0.03823113282739642,-0.10144935790948777,0.09757792038342526,0.010392105672508478,0.003788167088151613,9845.22271376394
1684375748563401460,105,1684375748563401460,camera_1,107,0,1.215689920437359,-0.8831907970000406,4.776390660202784,0.9889272535126268,0.03790553423944669,-0.10466508898019193,0.09813906909464536,0.002223075251094997,0.0008103166483324385,9844.35431818664
1684375748570249795,106,1684375748570249795,camera_1,108,0,1.215343721818107,-0.8824880683051999,4.775084761631745,0.9890710715472516,0.03825279548077646,-0.10326954249990358,0.09803336502506806,0.004212305473629385,0.0015334652321914986,9857.005546072967
1684375748576741695,107,1684375748576741695,camera_1,109,0,1.215243816490594,-0.881885896523876,4.774965765823292,0.9889061568702466,0.03798444480681351,-0.10511798304346792,0.0978366214549053,0.00940321059897542,0.0034250439880754322,9850.128841196878
1684375748583464145,108,1684375748583464145,camera_1,110,0,1.2157790466655412,-0.8809665872678122,4.778127931158635,0.989027931435167,0.03854153217269161,-0.10546363725825614,0.09599855392200159,0.01080862816888839,0.003938465585729275,9844.28781489527
1684375748590347051,109,1684375748590347051,camera_1,111,0,1.2144411965321849,-0.879140822486141,4.773338807065974,0.9888114415082577,0.03838310597399847,-0.10777194386518552,0.09572814859627003,0.0047007674584165215,0.0017106810680392718,9854.943765857026
1684375748597648859,110,1684375748597648859,camera_1,112,0,1.2159290408905807,-0.8792919394317519,4.779966043115153,0.9890204216075664,0.038776472819555034,-0.10408067870260061,0.0974792445583757,0.002218372013885528,0.0008088184601802892,9839.702559227819
1684375748604212999,111,1684375748604212999,camera_1,113,0,1.2158459206210734,-0.8770932670713462,4.7811155057520685,0.989109111607237,0.037789760503574105,-0.1030645333295722,0.09804489434020827,0.011400569987017661,0.004156498427626792,9839.838932607092
1684375748610924243,112,1684375748610924243,camera_1,114,0,1.214921549634576,-0.8751709805150206,4.778271529821193,0.9887523982199166,0.03772472426061667,-0.10618789196294476,0.09833448934270204,0.022102702292613685,0.00805863767510118,9837.050160991152
1684375748617185354,113,1684375748617185354,camera_1,115,0,1.2147342183031766,-0.8739136697999853,4.77847996988128,0.9889774102893439,0.038349614788951096,-0.1057498482027737,0.09628062415674371,0.007515750825405121,0.00273692769982591,9847.614840731605
1684375748623604536,114,1684375748623604536,camera_1,116,0,1.2143954234404144,-0.8708616465395679,4.779250263306701,0.9889020927233823,0.037830950172435776,-0.10582276875038338,0.09717516056260923,0.009412511542905122,0.003428713842299612,9843.74724997114
1684375748630380392,115,1684375748630380392,camera_1,117,0,1.213579434410761,-0.8687100921611478,4.777197868642119,0.9888261040765212,0.03811629994780772,-0.10611113235064033,0.09752184968714891,0.016976074432022866,0.006178668927061726,9851.143282486013
1684375748636873006,116,1684375748636873006,camera_1,118,0,1.213482093295423,-0.867066262955074,4.778186974256104,0.9888956915639899,0.03831184279493874,-0.10517389468494322,0.09775462027257001,0.0074909760151058435,0.002726133628312521,9852.478038056408
1684375748643396854,117,1684375748643396854,camera_1,119,0,1.2126711192760564,-0.8632717239304359,4.777320704454508,0.9888144767012779,0.03809715776856162,-0.10576917095962908,0.09801744594942371,0.014231711335014552,0.005176650761953875,9855.333896977943
1684375748650034904,118,1684375748650034904,camera_1,120,0,1.2126292656879198,-0.8616219003733726,4.778340385177167,0.9889332312197352,0.03807367260490125,-0.10496878433637839,0.09768835119199977,0.00879361538682133,0.0031977129544478802,9857.734946738929
1684375748656961679,119,1684375748656961679,camera_1,121,0,1.2132200354435239,-0.8602683331089052,4.782125083039404,0.9891109052304002,0.038652502327960185,-0.10618206993335699,0.09429193625518997,0.00648476422065869,0.0023587919189060427,9850.88716918055
1684375748663539886,120,1684375748663539886,camera_1,122,0,1.2114934493550005,-0.855638238107618,4.778047973256065,0.9887486343310804,0.037693878190157716,-0.10618047513080336,0.09839215596990404,0.008412575523834676,0.0030588940817815376,9855.44416173105
1684375748670096874,121,1684375748670096874,camera_1,123,0,1.211249538305276,-0.8534625420861063,4.778532471641887,0.9888022624466754,0.03835395230964184,-0.10649395360260451,0.0972527530132294,0.012885644100606441,0.004683169168934598,9857.952458383053
1684375748676695585,122,1684375748676695585,camera_1,124,0,1.211614130086363,-0.8520398946391436,4.78110013714104,0.9889956618188945,0.038063573588775046,-0.10474173654938687,0.0973032059784141,0.01401434390572831,0.0050940346109035195,9856.776255310047
1684375748683589935,123,1684375748683589935,camera_1,125,0,1.2111194903112354,-0.8480883952448688,4.782417019188963,0.9890541914768928,0.03865453979281703,-0.10295678935379239,0.09837444994181511,0.009594835457392037,0.003486799534800721,9858.854016931615
1684375748690157890,124,1684375748690157890,camera_1,126,0,1.2097793912939558,-0.845476661793564,4.7784143606373695,0.9886232150738836,0.037898266079298144,-0.1078853181245449,0.09771703115796258,0.01040710520464927,0.0037813748041130154,9855.749834924705
1684375748697088956,125,1684375748697088956,camera_1,127,0,1.209926561724605,-0.8436590154557335,4.780468602495338,0.9889097623870122,0.038367543821804184,-0.10816710600126661,0.09426181950321179,0.0071088451077230275,0.002580812703199421,9860.070731795167
1684375748703642368,126,1684375748703642368,camera_1,128,0,1.210072858869192,-0.8404317157946521,4.783597501310151,0.9889661358665407,0.03797121448704315,-0.10403118980128469,0.09839553103729454,0.027202810684684664,0.009885587362645163,9853.772521226434
1684375748710744857,127,1684375748710744857,camera_1,129,0,1.2088599606308768,-0.8378818369349634,4.780132316032805,0.9886926008735604,0.03773762917849894,-0.10766262466460459,0.09732199942556274,0.04247887950623408,0.015426426429744167,9855.92545111524
1684375748717152357,128,1684375748717152357,camera_1,130,0,1.2101466370728702,-0.8372578257492074,4.786337092003801,0.9891124582565016,0.03779311060889643,-0.10023093908593093,0.10090582025947109,0.011831359995994717,0.004300988920837682,9852.461773619521
1684375748723395347,129,1684375748723395347,camera_1,131,0,1.2080694734696324,-0.8328008449806759,4.780703901521854,0.9887454456733107,0.038067276455947506,-0.10805032381691894,0.09622085868756226,0.020757815160322934,0.0075335386537134655,9858.649248741563
1684375748730098485,130,1684375748730098485,camera_1,132,0,1.2087061494236495,-0.8318434281448948,4.784638498341036,0.9888736015271007,0.037982744726180094,-0.10591643313241735,0.09730375377339223,0.02289414219558239,0.008317581864356714,9849.661787728784
1684375748736982822,131,1684375748736982822,camera_1,133,0,1.2082155885297474,-0.8301407079866332,4.784060190861314,0.9890219349515856,0.03861411802151982,-0.10262378162793723,0.09906019139100843,0.002145668549928814,0.0007788201014536857,9861.91717730369
1684375748743780374,132,1684375748743780374,camera_1,134,0,1.2077175641880848,-0.8273282972300312,4.783552409212454,0.9889979482549498,0.038170909978880826,-0.10526607792670961,0.09667002025867096,0.014585502736736089,0.005291439586689886,9861.460166097853
1684375748750397920,133,1684375748750397920,camera_1,135,0,1.207983177992503,-0.8265466920092756,4.785713965421339,0.9890632442792266,0.038382471755183487,-0.10336643937751194,0.09795950126572048,0.006772806693334132,0.002458517292012361,9857.445970401397
1684375748756729841,134,1684375748756729841,camera_1,136,0,1.2072965468424128,-0.8250504052980335,4.783755062861064,0.9890654710913837,0.038195539561081904,-0.1027508770654513,0.0986552173719045,0.007495473430026323,0.002718462466408178,9866.230075406376
1684375748763399600,135,1684375748763399600,camera_1,137,0,1.2069197201590824,-0.8231667190517642,4.783593916356165,0.9891588235040675,0.038560732934069884,-0.10561783219546696,0.09446039001595666,0.02555751276668161,0.009260048633146412,9869.459232892845
1684375748770042181,136,1684375748770042181,camera_1,138,0,1.2070711383186108,-0.8224989820816033,4.784740634941757,0.9888902144281909,0.038650397733586285,-0.10405703966593478,0.09886568190815369,0.015604904503561556,0.00566367181933988,9856.48150121118
1684375748776720046,137,1684375748776720046,camera_1,139,0,1.2068802554878193,-0.8218240730890369,4.784534859026788,0.9887743180483832,0.037982288353057586,-0.10704724694883569,0.09707512894709425,0.01744820363819599,0.006334437304182988,9850.04262890783
1684375748783415555,138,1684375748783415555,camera_1,140,0,1.2071057803174012,-0.8211198075464315,4.786486990829033,0.9889599549135244,0.03808192203434017,-0.10604910406711447,0.09623701116604155,0.011211641947738826,0.004070047633332339,9850.384797394738
1684375748790071249,139,1684375748790071249,camera_1,141,0,1.205167076929539,-0.8195732760574704,4.778814449363949,0.9887886834311972,0.037954981019717865,-0.10844170126270201,0.0953769173408523,0.01199039735365659,0.004341293253360246,9873.598813553108
1684375748796793699,140,1684375748796793699,camera_1,142,0,1.2063061926556884,-0.8202865568603788,4.783724230808229,0.9888650407820042,0.03865904362138789,-0.10799944508570664,0.09480258080170764,0.026614507951308042,0.00965107919314705,9857.80327643943
1684375748803595542,141,1684375748803595542,camera_1,143,0,1.2053923123664498,-0.8197116797333097,4.780319625379407,0.9888086042256099,0.03824201329406126,-0.10732523800040206,0.09631399647390367,0.005687417811714113,0.0020603896856605957,9869.790112449087
1684375748810277700,142,1684375748810277700,camera_1,144,0,1.2057282297382872,-0.8201545085090757,4.7812326377646786,0.9887440249729998,0.03807372421133391,-0.10723236463651542,0.09714352566863493,0.011429128993768245,0.0041434622190627945,9863.242942410056
1684375748816679716,143,1684375748816679716,camera_1,145,0,1.2061741861427424,-0.8207507998039103,4.78275266789496,0.9888446997923699,0.037527905366983354,-0.10634659793371673,0.09730476411373266,0.02885370736476034,0.01046421405203489,9860.417080023792
1684375748823412179,144,1684375748823412179,camera_1,146,0,1.2063775555847505,-0.8218678845210851,4.783083948049106,0.988901823972665,0.038491813864997115,-0.10860765137958626,0.09378667746929158,0.0176640244317241,0.006403586310473747,9860.593358269425
1684375748830038309,145,1684375748830038309,camera_1,147,0,1.2071129201917934,-0.8230312073329443,4.785527404583757,0.9890957869790041,0.038020750570972,-0.10574120427658534,0.09519844759522962,0.015795415150932968,0.005729505532505124,9858.913860119876
1684375748836719274,146,1684375748836719274,camera_1,148,0,1.2072381329855701,-0.8237685327685403,4.785409992456157,0.9893162245028149,0.03829587543543361,-0.10337171162942625,0.0953998065770193,0.008788408536929637,0.00318528464033479,9869.424217761956
1684375748843413829,147,1684375748843413829,camera_1,149,0,1.2080187271828238,-0.826121490620372,4.787310916285614,0.9891865749224187,0.038796990525476714,-0.10482763506697468,0.09495199021445293,0.009286411164794117,0.0033703442912763064,9855.803903097287
1684375748850213289,148,1684375748850213289,camera_1,150,0,1.2067862928359705,-0.8262712261188017,4.781730390765137,0.9886455593027099,0.03806953559621799,-0.10881717267072004,0.09638200798111116,0.021881513530388474,0.007941475797009991,9854.102797107771
1684375748856930255,149,1684375748856930255,camera_1,151,0,1.2075424722106654,-0.8278756051229279,4.78352981427684,0.9890633543029632,0.03813333723667906,-0.10388826197538409,0.09750260914405734,0.016948193369898945,0.006147395805738718,9865.290080883307
1684375748863372087,150,1684375748863372087,camera_1,152,0,1.207828282379712,-0.8305400396749972,4.783042216182327,0.9890696475287757,0.03755446899305402,-0.10381995426344345,0.09773592631519622,0.015578250226099044,0.005651433282814546,9865.59556215582
1684375748870388984,151,1684375748870388984,camera_1,153,0,1.2084403448835759,-0.8324379674441775,4.784405145015691,0.989237363319425,0.03779222962351052,-0.10580588308296573,0.09373527349909264,0.01325108838500455,0.004806223510186044,9864.373588185757
1684375748876843929,152,1684375748876843929,camera_1,154,0,1.2086296327294659,-0.8339457337913976,4.784241076879689,0.9891288866168808,0.037887002455887116,-0.10500202448130971,0.09572458179477199,0.013328933855518699,0.004837557555891655,9861.144261640733
1684375748883373498,153,1684375748883373498,camera_1,155,0,1.2094254401590998,-0.8375701396013071,4.784846181294101,0.9890867892473996,0.0380806348129831,-0.10646756432632272,0.09445552569823924,0.03238919150317088,0.011762745968644262,9854.268184146844
1684375748890104770,154,1684375748890104770,camera_1,156,0,1.210171916910405,-0.8395239219731514,4.786723187092927,0.9889032093237113,0.03774800485050556,-0.10545193766911824,0.09759825593164338,0.016245469450950623,0.005911476449499831,9839.063092662247
1684375748896826982,155,1684375748896826982,camera_1,157,0,1.2095911046067456,-0.8409466716746481,4.783123044282393,0.988972838252704,0.03833899462386957,-0.10670453611836238,0.09527323160986617,0.02252843091264367,0.008182843424128994,9855.352578644175
1684375748903411865,156,1684375748903411865,camera_1,158,0,1.21025897614143,-0.8447628910272481,4.782943003294036,0.9894430505215708,0.03826757974908813,-0.10509996820281998,0.0921522587812247,0.01848830294329673,0.006704496304338917,9872.46249203919
1684375748910075426,157,1684375748910075426,camera_1,159,0,1.2103701646004255,-0.8466419816350568,4.782145758385787,0.9890285800124359,0.03852130562448713,-0.1061535642962851,0.0952365356297901,0.020558541524223983,0.007467556476207992,9858.529710249863
1684375748916815280,158,1684375748916815280,camera_1,160,0,1.210759548098851,-0.8485303795151011,4.7822621094084266,0.989166110523354,0.038356878795873434,-0.10561818671119043,0.09446668342319736,0.02485279558459297,0.00902492405292989,9862.02047636872
1684375748923420429,159,1684375748923420429,camera_1,161,0,1.2113207749985533,-0.8525818694370213,4.782099906885186,0.9890575873613503,0.03862326666798131,-0.10363362428831419,0.09763915235041373,0.006161670084111393,0.002239854373064749,9857.740763938982
1684375748930071353,160,1684375748930071353,camera_1,162,0,1.2116337314173797,-0.8545920136971485,4.781690581246004,0.9890734093679515,0.03817191065664522,-0.10513260500231332,0.09604078031495505,0.017697140923701227,0.0064330103952473594,9856.66373740974
1684375748936842441,161,1684375748936842441,camera_1,163,0,1.212451042747846,-0.8568984329059851,4.783200972477504,0.989355346959692,0.03771452392273763,-0.10459438459811735,0.09388091839181192,0.02052965125767514,0.007460762431840183,9859.101776229796
1684375748943394899,162,1684375748943394899,camera_1,164,0,1.2134600693876028,-0.8610644868776642,4.784561496344984,0.989347040887227,0.03884870087747887,-0.103370003958806,0.09485701560441451,0.004206155543215573,0.0015301513151926075,9852.69777225563
1684375748950048446,163,1684375748950048446,camera_1,165,0,1.2139897088265532,-0.8630918911767463,4.785213744991895,0.9893366414366922,0.037721612176425216,-0.1036458934368584,0.09511897107965926,0.016911434126086533,0.006156693681979974,9846.001846467378
1684375748957118272,164,1684375748957118272,camera_1,166,0,1.2133355583588314,-0.8643363580285499,4.7815067268823785,0.9891096508743091,0.037603535989415245,-0.10556973338281228,0.09541018824987754,0.01233472948661074,0.004488889469837577,9849.622101466637
1684375748963674068,165,1684375748963674068,camera_1,167,0,1.2141494177235281,-0.8681061182485026,4.782124612150057,0.9892981342618912,0.03804667350195027,-0.10396830007994924,0.09503812266592222,0.00966293748933822,0.003516317991676405,9852.710215550846
1684375748970198869,166,1684375748970198869,camera_1,168,0,1.2139121929963768,-0.8695324967268729,4.779938220981599,0.9891419041835382,0.03829097213798342,-0.1034431396537689,0.09711648520958353,0.0010424827923998237,0.0003793840957956803,9854.70190440421
1684375748977038621,167,1684375748977038621,camera_1,169,0,1.2143663844632668,-0.8712831092934862,4.780439920999763,0.9890604333281243,0.03767556013641634,-0.1054029259658148,0.09607410988937262,0.014737993129529059,0.005367497288813267,9845.639301531948
1684375748983792066,168,1684375748983792066,camera_1,170,0,1.2147097791297572,-0.8742717561324602,4.7796515513868885,0.9891241891624584,0.03847185113668131,-0.10540326380226593,0.09509682993484155,0.009249438007827848,0.003367540128570205,9849.55348160048
1684375748990250349,169,1684375748990250349,camera_1,171,0,1.2144207540373286,-0.8752342766824744,4.777426246001035,0.9891764018203448,0.03796687537312304,-0.10512018730296648,0.09507001986718393,0.014942962734494358,0.005435679161469922,9858.655806993138
1684375748997029304,170,1684375748997029304,camera_1,172,0,1.2148446822456784,-0.8767662486801822,4.778118368833698,0.9887345044951321,0.03771747718808429,-0.10594762603814889,0.098775361665816,0.010034083330538124,0.003659273170760922,9836.202642382937
1684375749003599166,171,1684375749003599166,camera_1,173,0,1.2158724252167048,-0.8795316921156072,4.780533544486013,0.9892463257223713,0.038350015868900675,-0.10212253130297888,0.09742675160301359,0.008143155020661652,0.0029671875255193707,9846.938093064584
1684375749010185956,172,1684375749010185956,camera_1,174,0,1.2154257687036194,-0.8801666127284621,4.778064795259181,0.9890775379699571,0.03830358766490977,-0.10362913173355467,0.09756773089210422,0.002867893606889993,0.0010448037701582188,9848.475579264337
1684375749016872882,173,1684375749016872882,camera_1,175,0,1.2154135804380048,-0.8809374791771352,4.777303827702643,0.9893126511155635,0.03852981038076085,-0.10417847307430456,0.09446045629057773,0.00487653084564954,0.0017741688216722394,9859.8708988888
1684375749023376703,174,1684375749023376703,camera_1,176,0,1.215128641722218,-0.8820272595629057,4.775122523928878,0.9890249772097419,0.03882957805261822,-0.10730124578076411,0.09385254912585735,0.002952363167423755,0.0010744634356599783,9854.686962872398
1684375749030048370,175,1684375749030048370,camera_1,177,0,1.2159060661675896,-0.8829387689521173,4.777317002346307,0.9891029575756453,0.037651941666026256,-0.10548335878669333,0.0955559083624195,0.025445986597333103,0.009270138921828316,9846.842296202205
1684375749036836147,176,1684375749036836147,camera_1,178,0,1.215344312712614,-0.8829780784244797,4.7748712985558575,0.9890802146793827,0.03786922506083442,-0.1075751947675374,0.09334788799862898,0.007207782589830458,0.002623079746943146,9854.822293134755
1684375749043401956,177,1684375749043401956,camera_1,179,0,1.2150825370601699,-0.8832118196462375,4.773629712406233,0.9889554292494852,0.038237671932034395,-0.10634245918446748,0.09589744927673759,0.012194967013783753,0.004438699190532263,9855.766078528715
1684375749050079584,178,1684375749050079584,camera_1,180,0,1.2162507321430014,-0.8840395213742601,4.778084459420329,0.9889798577206016,0.03783798282445085,-0.10288996100230746,0.09950268339928824,0.019929162634070963,0.007269057286636755,9839.480487220342
1684375749056878089,179,1684375749056878089,camera_1,181,0,1.2163578737096976,-0.8840794194637706,4.778715838539835,0.9892435734260037,0.03859667080343776,-0.10325443388404407,0.09615597392532359,0.0019814284169115126,0.0007219238833467599,9848.555020102765
1684375749063428640,180,1684375749063428640,camera_1,182,0,1.21515534894936,-0.8827200672678388,4.77410986804968,0.9888808406352746,0.03777916646434932,-0.10493284244413387,0.0983692847505072,0.014666969364043325,0.005342076597966919,9851.395541853268
1684375749070344924,181,1684375749070344924,camera_1,183,0,1.2155299471988728,-0.8825131713579101,4.775782365074073,0.989094809478451,0.03793516982482278,-0.10246237828181223,0.09876154003448528,0.010700973507482558,0.003896792862743096,9855.020720149972
1684375749076765775,182,1684375749076765775,camera_1,184,0,1.215448041152011,-0.8820959820051283,4.776027267756738,0.9890912305940188,0.03825723693790249,-0.10432331089123521,0.09670350659917744,0.0025023333728313446,0.0009110938955092428,9854.097197413446
1684375749083428144,183,1684375749083428144,camera_1,185,0,1.2155472758842996,-0.8805802574024344,4.776959149498586,0.9890651028418184,0.03823631217095322,-0.10278735027506987,0.0986051083641154,0.017605043074581772,0.00641235073933295,9851.446909497483
1684375749090175628,184,1684375749090175628,camera_1,186,0,1.2148796918489626,-0.8794552795656312,4.774987781473891,0.9889620168137333,0.037801755627833666,-0.10444571771134219,0.09806247306145867,0.013467979209963232,0.004903024597906382,9854.860666000284
1684375749096890926,185,1684375749096890926,camera_1,187,0,1.215166043065417,-0.8786997842754206,4.777112437460442,0.9888279589604589,0.038186514587681,-0.10685372236198033,0.09666095229784709,0.008140401972923428,0.0029666989444694643,9841.569612825755
1684375749103624343,186,1684375749103624343,camera_1,188,0,1.2146030769539624,-0.8761785239597121,4.776210441272153,0.9888514021586093,0.03767260569944717,-0.10663089725356974,0.09686862742738231,0.008869025332387537,0.0032299667267018345,9847.800302833082
1684375749110145330,187,1684375749110145330,camera_1,189,0,1.2144480980162287,-0.8747910199865311,4.776561530629287,0.9888630810432718,0.03800198696945149,-0.10621806262061674,0.09707409082295913,0.0033218575990758836,0.0012096234443390301,9849.045012691407
1684375749116779804,188,1684375749116779804,camera_1,190,0,1.2140141409616696,-0.8732834195919842,4.775651407131584,0.9885605556704785,0.03825279602061988,-0.10778201972131579,0.0983249083084933,0.014193242182955146,0.005171551880029016,9841.703676281846
1684375749123482465,189,1684375749123482465,camera_1,191,0,1.213525857097085,-0.8701989241165695,4.775936547114105,0.9889141843422801,0.037693487793448936,-0.10704606055638505,0.09575530222377732,0.018673078448046,0.006791524781167507,9857.020800519967
1684375749130580902,190,1684375749130580902,camera_1,192,0,1.2133586184262453,-0.8684675710617586,4.776269179607526,0.9887599446232344,0.03806749245559741,-0.1041901119107173,0.10024499242771963,0.02722964488202706,0.009910879827351813,9853.41107654187
1684375749137040138,191,1684375749137040138,camera_1,193,0,1.212971321636147,-0.8666668401089315,4.776099402891448,0.9890913479426031,0.038692316337223955,-0.1043744012953783,0.09647380181052186,0.0026107701705768704,0.0009484442740196103,9869.714580963366
1684375749143434286,192,1684375749143434286,camera_1,194,0,1.2125144857159835,-0.8630739498361238,4.7766691127631065,0.988961256406705,0.038053310750894034,-0.10520876796104711,0.09715294134243252,0.027209755207877606,0.009888179666330266,9863.947847527457
1684375749150165081,193,1684375749150165081,camera_1,195,0,1.2137920013851087,-0.8623010224926457,4.783037997104243,0.9893253989673682,0.038119248432846024,-0.10191752542049552,0.09692778687835428,0.010561267903540283,0.0038419809689667762,9855.578898749663
1684375749156881093,194,1684375749156881093,camera_1,196,0,1.2127349674902708,-0.8598071842176868,4.780161077057966,0.9887928511516934,0.03833095192883706,-0.10550704433414189,0.09842611051650911,0.01823719614185393,0.006638488555760856,9846.62478024431
1684375749163486480,195,1684375749163486480,camera_1,197,0,1.2126098082350751,-0.8563411730976374,4.78259644616532,0.9890109919259015,0.037860438914473535,-0.10381379711100923,0.09821680377787731,0.014787303924094886,0.0053811847539014124,9848.630223232554
1684375749170212030,196,1684375749170212030,camera_1,198,0,1.212136375640163,-0.8539941385971017,4.781938384806728,0.9890083472640799,0.03794907831055383,-0.1046629016125113,0.09730382070300486,0.018601141811814156,0.00676497442249359,9852.323928708793
1684375749176813125,197,1684375749176813125,camera_1,199,0,1.2116213619637382,-0.8519602800015171,4.781412936509836,0.9889523775875051,0.03778212024454441,-0.103645373883488,0.09901183124455261,0.010999969323165715,0.0040000794143421675,9854.326979562407
1684375749183481693,198,1684375749183481693,camera_1,200,0,1.210433971467574,-0.8474931511364301,4.779859698244767,0.9887424448679859,0.038186043773278215,-0.10521817055515215,0.09929421112255309,0.0069578447146341205,0.0025291765412606138,9855.435616368315
1684375749190187931,199,1684375749190187931,camera_1,201,0,1.210093407170878,-0.8456489784113662,4.779583295353095,0.9889093935949809,0.038345689710063115,-0.10747865752748839,0.09505870563160299,0.01690423395484686,0.006136560218207293,9862.711132502302
1684375749196975708,200,1684375749196975708,camera_1,202,0,1.2104320827222206,-0.843954774418233,4.782437975832177,0.9889316732260004,0.038503082081658764,-0.1027321036643166,0.0998888043643546,0.015855864039622247,0.005762572173970829,9856.696901946441
1684375749203496694,201,1684375749203496694,camera_1,203,0,1.2108183821994334,-0.8408091150083754,4.786638365683701,0.9891209518429405,0.03851209344868748,-0.10282654092776537,0.09789414571028143,0.009125022334046662,0.0033179567274618355,9848.890263565583
1684375749210109710,202,1684375749210109710,camera_1,204,0,1.2083235085246162,-0.8374560107867122,4.778254499974855,0.9887571649160715,0.03851113509810075,-0.10525794446856755,0.09897942425999799,0.008826581062749028,0.0032022412634399896,9869.20973646152
1684375749216777801,203,1684375749216777801,camera_1,205,0,1.2086696575537428,-0.8362076900827801,4.780610802944203,0.9885772044914057,0.038154341052724305,-0.10734243915484586,0.09867602431734933,0.008036934130359441,0.002920181041906956,9851.571737828199
1684375749223642349,204,1684375749223642349,camera_1,206,0,1.2084509119965212,-0.833010771520263,4.782430671403318,0.9886833577055616,0.03810579558837461,-0.10728970522705585,0.09768359990768766,0.017239413573406637,0.006263233925262497,9849.981653644474
1684375749230189561,205,1684375749230189561,camera_1,207,0,1.207696957398705,-0.831023338875502,4.780292669476147,0.9885314796556901,0.03786327963502054,-0.1083035387428835,0.09819485363694458,0.012532450491562486,0.004551263481826423,9852.674663597481
1684375749236887454,206,1684375749236887454,camera_1,208,0,1.2081625769378472,-0.8300773144995294,4.783535396011023,0.9889425947703624,0.03807002114821819,-0.10676973838338609,0.09562134021326145,0.019125369028188288,0.006941242343764377,9857.06062701996
1684375749243616104,207,1684375749243616104,camera_1,209,0,1.208151691274833,-0.8275940006521282,4.785280686421244,0.9890681833435535,0.038260435125193205,-0.10495660725614223,0.09625164099792577,0.017725462676025927,0.006433132916469122,9857.323581803124
1684375749250299930,208,1684375749250299930,camera_1,210,0,1.2071925931641598,-0.8259144335901514,4.782240038174984,0.9889417363140314,0.037594442727833084,-0.10750996677546656,0.09498687854704266,0.018091637990437448,0.006560056286195681,9862.710582277039
1684375749256835222,209,1684375749256835222,camera_1,211,0,1.2071500842251692,-0.824899315568739,4.78306491285816,0.9889754833430445,0.038249834849834054,-0.10548218780157329,0.09663307682644444,0.011205152899492532,0.004063522051565424,9863.714749946725
1684375749263518095,210,1684375749263518095,camera_1,212,0,1.2062081952861565,-0.8226625641907137,4.7808333317264395,0.9887634891002707,0.03864519934804149,-0.10643448601676034,0.09759616476049168,0.01863402087474242,0.006755226977710952,9865.820388418153
1684375749270340204,211,1684375749270340204,camera_1,213,0,1.2066983590776406,-0.8222029286573533,4.783262749889852,0.9889954982296122,0.037476296415097886,-0.10586579386086191,0.09631129413925593,0.017673034744802862,0.006407919442097909,9863.30433748942
1684375749276746273,212,1684375749276746273,camera_1,214,0,1.206546658185508,-0.8215730171392657,4.783177001079985,0.9886428353599475,0.03776309568728584,-0.10870078241910106,0.09666143283146655,0.029981318512000144,0.010883331851089488,9849.143668146571
1684375749283350944,213,1684375749283350944,camera_1,215,0,1.2057701209054796,-0.8202190161417794,4.7809785059004115,0.9885747720368282,0.03766411112760455,-0.10940870701511161,0.09659746194689642,0.015842086693737656,0.0057465370150104915,9855.464883521197
1684375749290066003,214,1684375749290066003,camera_1,216,0,1.205699402438074,-0.8199755615742675,4.780988523290978,0.9886188807077873,0.038231738415101725,-0.1103198733684239,0.09487132562484936,0.014517380157485604,0.005263734314110422,9857.333704054588
1684375749296825885,215,1684375749296825885,camera_1,217,0,1.2063101270750884,-0.8202500833035917,4.783473816819237,0.9888143918287816,0.0387102070625108,-0.10810563442711668,0.09518818301955903,0.02071226912084967,0.0075117485186498275,9856.799922493521
1684375749303587675,216,1684375749303587675,camera_1,218,0,1.2056831762278415,-0.8199426869444396,4.781189118555859,0.9887966472255688,0.03827428222808704,-0.10961836375906923,0.09380876335493984,0.009811839205212891,0.0035552117890771434,9863.821304235142
1684375749310166597,217,1684375749310166597,camera_1,219,0,1.2053277617877762,-0.8198856460510391,4.7795420652504745,0.9887356975111232,0.03781260484611309,-0.10822614884823423,0.09622384365334873,0.03098643966950476,0.01122536563526776,9868.634346188977
1684375749316834211,218,1684375749316834211,camera_1,220,0,1.2069551771074511,-0.821215974929395,4.78589776267332,0.9888161873817147,0.03769591195903077,-0.10631716342445326,0.09756139889754108,0.005333366454578936,0.001937071459685643,9846.737361293752
1684375749323442935,219,1684375749323442935,camera_1,221,0,1.2060365300319074,-0.8216533543354776,4.7814288733406345,0.9888879264938941,0.03812201383209204,-0.10768458304760993,0.09513890618382578,0.0169169565779157,0.0061300675579719,9866.855782491155
1684375749330152034,220,1684375749330152034,camera_1,222,0,1.2070691972921619,-0.8229792562681155,4.785151841383018,0.9890672058740879,0.03808773175059783,-0.10678779413812606,0.09429609736162019,0.02255458786385134,0.008180132745416258,9858.567413130313
1684375749336869001,221,1684375749336869001,camera_1,223,0,1.206791408717349,-0.8235250039346658,4.783330152687268,0.9890915605785725,0.038283740194967025,-0.10639295786671822,0.09440751318247396,0.03406448767054826,0.01234477092832206,9867.12771509774
1684375749343438625,222,1684375749343438625,camera_1,224,0,1.206049673445854,-0.8247561527645293,4.778964681827011,0.9888262512851791,0.03816538401291622,-0.1085767543799307,0.09474775269507466,0.027571720362175256,0.00998589974389357,9872.644060215913
1684375749350255250,223,1684375749350255250,camera_1,225,0,1.206959313620721,-0.8264115693015505,4.782113271757634,0.9888649203148394,0.03800172083312655,-0.10782721163273595,0.09526453178364262,0.017339780752081424,0.0062886802717935005,9861.200778208204
1684375749356762647,224,1684375749356762647,camera_1,226,0,1.2070098641342573,-0.8275906915887691,4.781460170645064,0.9889568407732615,0.037874755757870485,-0.10449044818724498,0.09803885047102659,0.009984924283344299,0.0036203852082093606,9869.0664167474
1684375749363488197,225,1684375749363488197,camera_1,227,0,1.206864695152899,-0.8299868362705248,4.779071894045075,0.9887605960486276,0.03802296714133542,-0.1094322327068039,0.09450568298327672,0.025170897191856056,0.009123850323136942,9866.851612671746
1684375749370098352,226,1684375749370098352,camera_1,228,0,1.2077585560184076,-0.8319820480883182,4.781462755602814,0.9889240324976917,0.038342638047613974,-0.10677642051065347,0.0956968969140918,0.020138125051744282,0.007304281972541872,9864.762986572929
1684375749376789093,227,1684375749376789093,camera_1,229,0,1.2081869892601873,-0.8337304863938508,4.782362009093916,0.989070842162681,0.03854648608743637,-0.10622585888368241,0.0947053562283571,0.011711153259966522,0.004247241190058363,9866.661893156124
1684375749383349657,228,1684375749383349657,camera_1,230,0,1.2099578250991312,-0.838067988082735,4.7869522045784985,0.9891135066005309,0.03842661826864258,-0.10603671924287539,0.0945202636530664,0.02020950900623575,0.007344924555406565,9847.47713685874
1684375749390131235,229,1684375749390131235,camera_1,231,0,1.2103555456949628,-0.8397982669179296,4.787462371787267,0.9892551595573712,0.03797719188070133,-0.10358139802128818,0.09593151812585837,0.01409463450545445,0.005122803604433346,9850.902531768665
1684375749396859407,230,1684375749396859407,camera_1,232,0,1.2109596179916091,-0.8418877719963431,4.788330710692838,0.9893704238637409,0.037986270562041735,-0.10155087296931628,0.09690525182692053,0.015976134105585515,0.0058080784034333375,9851.828867531844
1684375749403570652,231,1684375749403570652,camera_1,233,0,1.2097708303809005,-0.8444961346147349,4.781143653770953,0.9891029618165835,0.03819790710927175,-0.10564682507647963,0.09515775937564579,0.003331147658172995,0.0012089766427796859,9866.64889103151
1684375749410389423,232,1684375749410389423,camera_1,234,0,1.2110888382547822,-0.8472331603890436,4.784872569453418,0.9892317227893648,0.037813553577976215,-0.10320260073548797,0.0966434529309785,0.017141456017270684,0.00623013351292525,9855.831622031865
1684375749416854619,233,1684375749416854619,camera_1,235,0,1.2100295358840039,-0.8481076349951147,4.779508098640433,0.9886934029021907,0.03729394646387453,-0.10411412117618933,0.10126582042597669,0.028408408747054636,0.010329342665974064,9854.806414216993
1684375749423516750,234,1684375749423516750,camera_1,236,0,1.2120313129713514,-0.8531417704547662,4.78461314947098,0.9891802612061106,0.03774516497996583,-0.10269782835632527,0.097728549624667,0.019620794744696468,0.007137547732091261,9851.096215710513
1684375749430291175,235,1684375749430291175,camera_1,237,0,1.2122018110613961,-0.8550115674598859,4.78386793367124,0.9892184335307139,0.038197640939019964,-0.10419095712683744,0.09556189325629698,0.004990747838746756,0.0018148185695432179,9853.868160422307
