%time,field.header.seq,field.header.stamp,field.header.frame_id,field.image_seq,field.transforms0.fiducial_id,field.transforms0.transform.translation.x,field.transforms0.transform.translation.y,field.transforms0.transform.translation.z,field.transforms0.transform.rotation.x,field.transforms0.transform.rotation.y,field.transforms0.transform.rotation.z,field.transforms0.transform.rotation.w,field.transforms0.image_error,field.transforms0.object_error,field.transforms0.fiducial_area
1682303432637647867,29,1682303432637647867,camera_1,30,0,0.6614758759222773,0.49029108702063523,1.81258389898218,-0.980047509900954,-0.044528164841553176,0.1562079193087856,0.11455656601872798,0.2093821790185757,0.01967125562969366,20535.496101418506
1682303432647393226,30,1682303432647393226,camera_1,31,0,0.6614830654333105,0.49023394440974205,1.812630875099686,-0.9800518436506644,-0.04444514768362344,0.1566925653348488,0.11388789476102787,0.22004857001593336,0.020676253566983785,20534.552075697342
1682303432657366037,31,1682303432657366037,camera_1,32,0,0.661588288758654,0.49002852932153207,1.8129497127001921,-0.9800952676165767,-0.04440109677343774,0.15621093873852956,0.11419260755116303,0.2368089656229131,0.02225644950972719,20533.93144875892
1682303432667504787,32,1682303432667504787,camera_1,33,0,0.6615522721886413,0.4894301989761464,1.8128073142100543,-0.9800285101461104,-0.04454328025873782,0.15657149573157772,0.1142163832773718,0.20107441389700398,0.018893032683903525,20535.22355257837
1682303432677460908,33,1682303432677460908,camera_1,34,0,0.6617740583578456,0.48888343919851074,1.8133808969790157,-0.9801791203043526,-0.04451340175022918,0.1556305624718632,0.11422161445496944,0.20148160902317613,0.018939541235365207,20541.913485318306
1682303432687561750,34,1682303432687561750,camera_1,35,0,0.6618693653975113,0.4880999737604238,1.8135219009059953,-0.9801997310984093,-0.04451701737669209,0.15582004612517908,0.11378416209664857,0.21075434278463945,0.019812877766251562,20545.712529005723
1682303432697549819,35,1682303432697549819,camera_1,36,0,0.6615373310570372,0.4869656600355443,1.8125599927021343,-0.9800231420666566,-0.04455913898723562,0.15676619051461735,0.11398897165098337,0.20559361210325733,0.019305251661423786,20556.53776412527
1682303432707113027,36,1682303432707113027,camera_1,37,0,0.6615290112415274,0.4861488625356963,1.8124960782147252,-0.9801027072349517,-0.04464241629978706,0.1563951986234041,0.11378171990781713,0.20968347566667944,0.019685051105547764,20571.47372669808
1682303432717761516,37,1682303432717761516,camera_1,38,0,0.6614045509101021,0.48539272408201845,1.8120976419328143,-0.9800055347839808,-0.04454431735059914,0.15714433774788297,0.11362487711021979,0.2149511551251635,0.020170203571223108,20574.681011010773
1682303432727445602,38,1682303432727445602,camera_1,39,0,0.6617782353032781,0.48524354780160583,1.8131059885158751,-0.9801841442002058,-0.04443810759111919,0.1561414920982482,0.11350829263786417,0.22794553509447724,0.021410511160744435,20571.76991883502
1682303432737414836,39,1682303432737414836,camera_1,40,0,0.6614443726428832,0.4847867838609124,1.812159635797318,-0.9800056306811071,-0.04473397558229707,0.15698882029752742,0.11376443013314314,0.22755877615418285,0.02135197618761081,20578.416650112835
1682303432747269630,40,1682303432747269630,camera_1,41,0,0.6614951317848865,0.48488110657791006,1.8123642978783308,-0.9800853864941698,-0.044616616182008184,0.1566001241401124,0.11365911252663782,0.22106371994595975,0.020746697325117604,20581.076234610402
1682303432757107734,41,1682303432757107734,camera_1,42,0,0.6617609308513186,0.4853546828803344,1.813026976464988,-0.9800972690336813,-0.044568500299783875,0.15645468951291103,0.1137757537578481,0.2104266801616177,0.019763580521342906,20564.740397732465
1682303432767650604,42,1682303432767650604,camera_1,43,0,0.6614896256791984,0.48571113746948497,1.8123088735311925,-0.9800390255247794,-0.04458911134428952,0.15710417472128038,0.11337370895896769,0.22183545783627778,0.0208224950026081,20571.230729816016
1682303432777128219,43,1682303432777128219,camera_1,44,0,0.6617337501598102,0.48661253733631304,1.813051522492776,-0.9801691813499193,-0.04436964726223055,0.15614463937309458,0.1136598518769967,0.22047723724972457,0.020712344174050133,20561.88742493211
1682303432787164926,44,1682303432787164926,camera_1,45,0,0.6619184291955902,0.48758311407593324,1.8136500808482707,-0.9801082287398121,-0.044578651106100674,0.15626295607728935,0.11394074065081418,0.1857076962478459,0.017458945321094033,20538.249832457517
1682303432796972751,45,1682303432796972751,camera_1,46,0,0.6615413241708834,0.4881749286255375,1.8126617099981102,-0.9799546773123359,-0.04464391357510776,0.1569689708570798,0.1142650146914763,0.21095652197254822,0.01981492166551865,20539.975025843938
1682303432806967973,46,1682303432806967973,camera_1,47,0,0.6615390955911848,0.4889847201403193,1.8127155819477734,-0.9800498615502963,-0.0444698192863856,0.15676691604687096,0.11379296147405113,0.2203033819096163,0.020697780786201568,20541.408975753813
1682303432817722082,47,1682303432817722082,camera_1,48,0,0.661379494391054,0.4895789173001131,1.812356663479994,-0.9800488196304709,-0.0446274210129039,0.1564192722225617,0.11421784322960246,0.2096025031642057,0.019685341240482424,20545.865938306903
1682303432827496767,48,1682303432827496767,camera_1,49,0,0.6615458918446696,0.4901693045450633,1.8127735866921848,-0.9801131578109359,-0.044409558164865186,0.1563236089744113,0.11388115869928757,0.21089312608819455,0.019818142362774554,20537.859360665898
1682303432837366342,49,1682303432837366342,camera_1,50,0,0.6614022214104378,0.49031031696941657,1.8124312739207507,-0.9800231248867931,-0.044468269450777975,0.15685608104124174,0.11390091105676736,0.21579668775666505,0.020272793629832246,20535.556220545077
1682303432847462177,50,1682303432847462177,camera_1,51,0,0.6613272561154503,0.4902919348131005,1.8122521822440862,-0.9800596866455387,-0.044638999370428395,0.15612795914700286,0.11451825496420917,0.20998733123997226,0.019720822383408807,20544.376695195097
1682303432857673406,51,1682303432857673406,camera_1,52,0,0.661601534106822,0.49022442785502646,1.8129619881558179,-0.980092598410258,-0.044343742656362185,0.15654007296389844,0.11378636379246984,0.19903751800302416,0.018708164560920067,20531.39910923888
1682303432867338418,52,1682303432867338418,camera_1,53,0,0.6614097342719528,0.4896285426602351,1.812435044711897,-0.9800480660392918,-0.04453123402023254,0.15658738738158942,0.11403134464824703,0.2109909743303433,0.019818244587524646,20543.20430719584
1682303432877463340,53,1682303432877463340,camera_1,54,0,0.661617481967288,0.4890907591765276,1.8129428880898169,-0.9800835357470631,-0.044687097559317455,0.15638969424884883,0.11393677984747085,0.2037083961768076,0.019142370295632424,20540.46437118179
1682303432887224674,54,1682303432887224674,camera_1,55,0,0.6616401195011721,0.4883189583566552,1.8129523984845193,-0.9800878537096852,-0.044547248510927936,0.15645568997403206,0.11386377270931186,0.21544264542171732,0.020243013241833765,20545.346481920686
1682303432897647142,55,1682303432897647142,camera_1,56,0,0.6617962835167209,0.4875393540778779,1.8132752776672325,-0.9800756962144815,-0.04445887636374558,0.15674826970790376,0.11360025504263074,0.20609235955635086,0.019369391857202396,20542.045891648857
1682303432907239675,56,1682303432907239675,camera_1,57,0,0.6616442571377618,0.4865591054219976,1.8127999805343036,-0.9801458300806566,-0.044410587707879645,0.1562889987432405,0.11364682286265965,0.20575291133718565,0.019323802515868134,20565.366609102348
1682303432917242288,57,1682303432917242288,camera_1,58,0,0.6614422436981527,0.4856842964979026,1.8122599849161793,-0.980061778836991,-0.04454269143997361,0.15665300647379837,0.11381868855718033,0.2192373248981312,0.02057559387378652,20575.273064948848
1682303432927598953,58,1682303432927598953,camera_1,59,0,0.6617994556805635,0.4853532116304754,1.8131773359529688,-0.980114342517585,-0.044422868517570484,0.1563723614102725,0.11379880900505046,0.21347743074875325,0.020053092663872025,20562.91830959567
1682303432937598705,59,1682303432937598705,camera_1,60,0,0.6615334176924824,0.48481470478535366,1.8124352695028012,-0.9800291559167855,-0.04477403981305294,0.15680811322475588,0.1137952307381299,0.21569986047688872,0.020244674157930707,20575.142230529917
1682303432947489976,60,1682303432947489976,camera_1,61,0,0.661371852343382,0.48459900049978444,1.8119656809923417,-0.9800131726624594,-0.0447009443466831,0.15677063339722197,0.11401304963384284,0.21894393174443394,0.020537886051207068,20584.605492837014
1682303432957564115,61,1682303432957564115,camera_1,62,0,0.6614448260565529,0.484824329447771,1.812212392962495,-0.9800331077575287,-0.0447057065245693,0.15689648465176084,0.11366618057794949,0.2084623322589323,0.01956099452531444,20579.843097968605
1682303432967463970,62,1682303432967463970,camera_1,63,0,0.6616073999114362,0.4853024629870971,1.8126025190023534,-0.9800728131695834,-0.0445839472451921,0.1564081655201229,0.11404401910019991,0.1967926030047238,0.018473903481590774,20571.84546156368
1682303432977491617,63,1682303432977491617,camera_1,64,0,0.66151408528097,0.4858825661393362,1.812421584974222,-0.9800048535581488,-0.04450670820874591,0.157043155833918,0.11378526764312129,0.21019069239264354,0.019731306712548226,20564.57620338595
1682303432987380027,64,1682303432987380027,camera_1,65,0,0.6618022264985602,0.48684820383850025,1.8132554531183525,-0.9801480792481154,-0.04457446564062977,0.15637265658723118,0.1134480146628142,0.20518935524160042,0.019281489449772954,20554.685615835944
1682303432997417211,65,1682303432997417211,camera_1,66,0,0.6617648206787138,0.4877273738234861,1.8132614888543561,-0.9801170719242761,-0.044451181604233954,0.1563558641936783,0.11378691273085373,0.20784934010589495,0.019533792120071038,20545.50708321319
1682303433006994724,66,1682303433006994724,camera_1,67,0,0.661583554623385,0.48848498396307716,1.8128230743265534,-0.9800945787490393,-0.04462481055346303,0.1564375486777768,0.11380042334499003,0.20534801797475666,0.01929228033380444,20547.923155915218
1682303433017388582,67,1682303433017388582,camera_1,68,0,0.6615322039058162,0.4892501781718587,1.812725764894946,-0.9799817632810047,-0.04443434003711733,0.15701640324331614,0.11404903408030698,0.22631480830023065,0.02126366046861092,20532.825066215704
1682303433027226209,68,1682303433027226209,camera_1,69,0,0.6617654952384691,0.490073701900409,1.8133912211674073,-0.980242236656425,-0.044461603091336704,0.15552067889230842,0.11384920624331744,0.21728103450732306,0.020430088584202543,20538.820864747748
1682303433037315845,69,1682303433037315845,camera_1,70,0,0.6614412670159857,0.49023686226291974,1.8124858466593736,-0.9800612837653601,-0.04456180922411048,0.15626132962151207,0.11435262169178984,0.20667278597829863,0.019414885676632156,20539.23857984087
1682303433047345638,70,1682303433047345638,camera_1,71,0,0.661290608799729,0.49039839436017457,1.8121175734195323,-0.9799849345657737,-0.04457180523417966,0.15661020616357854,0.11452565445210888,0.20699948008405045,0.019438626282577826,20538.59045298014
1682303433057375431,71,1682303433057375431,camera_1,72,0,0.66151933636874,0.49051836274564153,1.8127723350863572,-0.9800270400307083,-0.04458839427100389,0.15642345549473216,0.1144140659013121,0.2080497847055085,0.01955103857499415,20528.42555803503
1682303433067641973,72,1682303433067641973,camera_1,73,0,0.6615665996673857,0.4902692267145269,1.8128955229411527,-0.9800475904110856,-0.04456501246326748,0.1565439505972722,0.11408186413699924,0.20837606611894444,0.01958414143558547,20529.30564859056
1682303433077499866,73,1682303433077499866,camera_1,74,0,0.6615359213929877,0.48976463220686517,1.8128264884111915,-0.9800537331386866,-0.0446327443462353,0.1568607778438007,0.1135662567283333,0.20511855458607897,0.01927596254770095,20535.000917477533
1682303433087512016,74,1682303433087512016,camera_1,75,0,0.661592415802174,0.48910043457577707,1.8128578055792666,-0.9801094320581611,-0.044501168273630265,0.15628735091068263,0.11392721868909123,0.2158112252363935,0.020278065339223137,20543.794624206483
1682303433097607135,75,1682303433097607135,camera_1,76,0,0.6617068930313811,0.48833586757374564,1.8131207102351872,-0.9800437589318574,-0.04455799273046131,0.15688844415323408,0.11364344219410676,0.21573185804300007,0.020274950094059798,20537.209897861117
1682303433107488393,76,1682303433107488393,camera_1,77,0,0.6618056068703084,0.48750062238867325,1.8132713480293323,-0.9801529419055697,-0.04458675086797001,0.15628427231973926,0.11352294193855324,0.20810868171975017,0.019558110462185446,20550.364879373697
1682303433117511749,77,1682303433117511749,camera_1,78,0,0.6617225644088056,0.486565764947163,1.813000483083722,-0.980139002668803,-0.04446902628623916,0.15611449770174277,0.11392236284369527,0.19311648706207052,0.01814004734692122,20560.944017699687
1682303433127709865,78,1682303433127709865,camera_1,79,0,0.6614780891234444,0.4856537212088967,1.8123296028329767,-0.9799978935089743,-0.0445318782035671,0.15696813084696531,0.11393878373954147,0.20707995299017057,0.019436149327258727,20567.708957453957
1682303433137469768,79,1682303433137469768,camera_1,80,0,0.661641384548766,0.485194127966769,1.8127769705893073,-0.9801327452609312,-0.04461376722620901,0.15611412575750477,0.11392011753911768,0.2159124050522223,0.02027186087538877,20575.245651799483
1682303433147482872,80,1682303433147482872,camera_1,81,0,0.6614217507432772,0.4846309141392363,1.812132072005948,-0.9799790582761426,-0.044689206684723135,0.15682064715755467,0.11424186960646532,0.21696548914769664,0.02035553421363986,20577.86438887648
1682303433157418012,81,1682303433157418012,camera_1,82,0,0.6614168409738183,0.4844827695064651,1.8120388045760636,-0.9799737291804297,-0.044631933113272355,0.15700427316392654,0.11405761206969718,0.21734312892658636,0.020389353864563687,20579.53328309371
1682303433167490720,82,1682303433167490720,camera_1,83,0,0.6614382405076576,0.484648285651276,1.8121505536315872,-0.9799664116729316,-0.0446241763107034,0.1571806522761582,0.11388045236787184,0.21338640194153413,0.020021467449982105,20575.405941672274
1682303433177595138,83,1682303433177595138,camera_1,84,0,0.6616548788454576,0.4851596538096273,1.8127271208877598,-0.9801392008529589,-0.04465807891957603,0.15604633644840635,0.11394008872897642,0.20569292560685426,0.019311174864472383,20577.00276264735
1682303433187227964,84,1682303433187227964,camera_1,85,0,0.6613641204461156,0.4855348166828775,1.8120239308619475,-0.9799686607676588,-0.04462059976719789,0.15732386279069877,0.1136645423439982,0.1946936504682526,0.018268040713910815,20572.228368956603
1682303433197100400,85,1682303433197100400,camera_1,86,0,0.6617114311171507,0.48655431161730833,1.8129633359670818,-0.9801840869215465,-0.044678546002758966,0.15597424938796323,0.11364425546729214,0.2067435413482599,0.019419653847882013,20566.810570803937
1682303433207034826,86,1682303433207034826,camera_1,87,0,0.661703590678915,0.4874523854084791,1.8130795588221342,-0.9801053647868261,-0.044543209343709374,0.1564636248327858,0.11370360821728728,0.20002044283319265,0.018793615792333396,20550.404176469892
1682303433217406272,87,1682303433217406272,camera_1,88,0,0.6614290348160987,0.4881199279103664,1.812409429263969,-0.9799975791964722,-0.04456736628502152,0.15707071408841983,0.11378613890639175,0.19588380510685965,0.018394671069118688,20549.39331877744
1682303433227632522,88,1682303433227632522,camera_1,89,0,0.6616789870764229,0.4891508957457649,1.81313163559989,-0.9801321998086042,-0.044401782239814835,0.15649468783180984,0.11348464791635443,0.22828174277674407,0.021457549422159602,20539.330681783147
1682303433237555265,89,1682303433237555265,camera_1,90,0,0.6615313474967855,0.4897729224428619,1.8127650895312817,-0.980068170138677,-0.0444412229010092,0.15671234022965855,0.11372159868658258,0.2104355930350721,0.019774212185898764,20536.69461395743
1682303433247508525,90,1682303433247508525,camera_1,91,0,0.6614336966809489,0.490218050510079,1.8124601348107425,-0.9800595495700692,-0.04456434801983137,0.1562057356512798,0.114442414915636,0.23017792275641114,0.021622419725134488,20539.735368758913
1682303433257426977,91,1682303433257426977,camera_1,92,0,0.6615138208394185,0.4906344443606616,1.8127572426404024,-0.9800521541181229,-0.04453923080880247,0.1563298232883301,0.11434604705903405,0.20406041224487126,0.019176175191815265,20530.12198246037
1682303433267489194,92,1682303433267489194,camera_1,93,0,0.6614719695412935,0.4906835809584726,1.8126721552323373,-0.9800536129616484,-0.0445817847836081,0.1563180138782932,0.11433310423264628,0.21846147387987003,0.020527936241082692,20531.924967002826
1682303433277495861,93,1682303433277495861,camera_1,94,0,0.6613691467158476,0.49042066968306963,1.8123928264555818,-0.9800305362259435,-0.044709164762361066,0.15612913996173683,0.11473853017077691,0.20617695763939992,0.01936580096448704,20538.25489534904
1682303433287598609,94,1682303433287598609,camera_1,95,0,0.6616950586336456,0.490255318882141,1.8132694233597846,-0.9801247111573913,-0.044398244505333445,0.15603475439508044,0.11418188071822889,0.20724151621107012,0.01948418206082654,20528.780880725826
1682303433297427654,95,1682303433297427654,camera_1,96,0,0.6614052278473274,0.4894118230876983,1.812421216867837,-0.9799541448242192,-0.04450961257742628,0.15700612683760432,0.11427092616013412,0.22968864109134304,0.021573867952681503,20535.87286454486
1682303433307454824,96,1682303433307454824,camera_1,97,0,0.6616988286160178,0.4888266838914337,1.8131188682489676,-0.9800928988526931,-0.04458460346991323,0.1564281450477283,0.11384356893949772,0.21119008102687076,0.01984863787020817,20538.927748724236
1682303433317225933,97,1682303433317225933,camera_1,98,0,0.6617299265064864,0.4879672159676642,1.813127195018419,-0.9801403071426626,-0.044419277658230547,0.15663591042778927,0.11321262143005899,0.2191529301344417,0.02059594169588589,20547.991968015325
1682303433327654838,98,1682303433327654838,camera_1,99,0,0.6615257048474796,0.4869245392312757,1.8125171111941452,-0.980064959366657,-0.04452195319693712,0.15651670464750506,0.113986807444759,0.23064109322149307,0.021656222295931532,20561.4813910292
1682303433337470293,99,1682303433337470293,camera_1,100,0,0.6614297704290469,0.48603226717940434,1.8122632753681625,-0.980033452815072,-0.04459868161678245,0.15681191636674258,0.11382184257339477,0.21679590409621596,0.020347869106599935,20570.35985930823
1682303433347526073,100,1682303433347526073,camera_1,101,0,0.661618506251269,0.4853953765165116,1.812734277648745,-0.9800758233271021,-0.04467973198577361,0.15673104156741613,0.11353626155803832,0.2052007996244356,0.019267354504097802,20569.143811929047
1682303433357670068,101,1682303433357670068,camera_1,102,0,0.6614353749399013,0.4847411729974765,1.8121718620689486,-0.9799908417312885,-0.04459791713927376,0.15703968768344198,0.11387498584819232,0.20316492189886048,0.019062701115483686,20576.785165280333
1682303433367159128,102,1682303433367159128,camera_1,103,0,0.6615167998797424,0.4845099884845502,1.812390934765164,-0.9799885004241646,-0.04467961407775919,0.15713676808985286,0.11372909582220077,0.2137432392919436,0.020059623886315468,20573.793421230745
1682303433377298116,103,1682303433377298116,camera_1,104,0,0.6615451611380068,0.48447188148236564,1.8124361635102453,-0.9800033790070052,-0.04453234029865463,0.1566893091494082,0.11427470499046681,0.22499507264001295,0.021114999906204218,20574.29690956243
1682303433388089179,104,1682303433388089179,camera_1,105,0,0.6613206395652699,0.4844869419730471,1.811770056625715,-0.9799221073707289,-0.044736693969412544,0.15717439356732718,0.1142256613267776,0.2218742200639099,0.020808483322755054,20580.591128205764
1682303433398096799,105,1682303433398096799,camera_1,106,0,0.6617668429410498,0.48525908932655104,1.8130646548742546,-0.9801797079439456,-0.0444765706487033,0.15608869280963014,0.11360411425310904,0.23303490813123062,0.02188752563612227,20572.23664628307
1682303433408110618,106,1682303433408110618,camera_1,107,0,0.6614961466327128,0.48570883633615974,1.8123666468669466,-0.9800253362496681,-0.04453414099580207,0.15671052061036983,0.11405640413636522,0.19825740897795185,0.01860832958096718,20569.337358080422
1682303433417722702,107,1682303433417722702,camera_1,108,0,0.6617206806471807,0.4866692551098546,1.8130492038392223,-0.9801477363069011,-0.04441769632112037,0.15629825092021385,0.11361487589776273,0.22491340682609007,0.021129533319117415,20559.720544518088
1682303433427802324,108,1682303433427802324,camera_1,109,0,0.6616625265635099,0.4874937891465629,1.8129875860526703,-0.9801242083103711,-0.04444061871867237,0.15647826993920105,0.11356107928645515,0.2137297528097406,0.0200804755409001,20553.314582345072
1682303433438039541,109,1682303433438039541,camera_1,110,0,0.6615902811780094,0.48834393643894264,1.812808165974528,-0.980088725035928,-0.04444590213620966,0.15673789917669645,0.11350719713931531,0.21075487055350095,0.01980070748672812,20547.478986447444
1682303433447492122,110,1682303433447492122,camera_1,111,0,0.6616434371461624,0.48925463412386144,1.812993896312125,-0.9800791666500289,-0.044472447250096095,0.15645868532611468,0.11396362718076301,0.2196411422919482,0.020641730354362505,20536.785459006336
1682303433457631587,111,1682303433457631587,camera_1,112,0,0.661706450857825,0.4900422052736276,1.8132365335142266,-0.9801195907016984,-0.04431752027409113,0.15626998264676517,0.11393523530089533,0.2202849768800661,0.020710224008016684,20529.621635614316
1682303433467608690,112,1682303433467608690,camera_1,113,0,0.6613507774945628,0.4902860490345052,1.8122921891970436,-0.980034958336033,-0.04450112065325655,0.1568307418279975,0.11382112772932029,0.19633216556394473,0.018441238332691585,20539.91782955989
1682303433477425336,113,1682303433477425336,camera_1,114,0,0.6613912511677901,0.49067360826252815,1.8125025662891285,-0.9799787295775014,-0.044467249499304674,0.15672987496651816,0.11445566648537958,0.1916884271777235,0.018008793009677407,20528.100120170493
1682303433487576007,114,1682303433487576007,camera_1,115,0,0.6615114912081579,0.4908402771288189,1.8128101432736057,-0.980069111137169,-0.044408115149896316,0.1564224625923507,0.11412479967201553,0.21264206466730684,0.019985046875058008,20528.688744271647
1682303433497511386,115,1682303433497511386,camera_1,116,0,0.6614382026994473,0.4906188908730719,1.8126288975314528,-0.9800070530043162,-0.04457513515792887,0.15652638889216322,0.11444965254568007,0.21715831680921838,0.02040425372514629,20529.00751866831
1682303433507844209,116,1682303433507844209,camera_1,117,0,0.6616233055442629,0.49029120727805375,1.813015841106122,-0.9801075611769181,-0.044489727406394244,0.1563321677346066,0.11388628543655843,0.19927241664845496,0.018731020501238777,20531.942688030656
1682303433517500400,117,1682303433517500400,camera_1,118,0,0.6614242777937116,0.4895812854472843,1.8124351256864761,-0.9800171465411166,-0.04456559221584065,0.15656489535697443,0.11431418992285583,0.23325771820964294,0.02190942461081928,20540.643174498102
1682303433527338504,118,1682303433527338504,camera_1,119,0,0.6616377921668534,0.4889669646637277,1.8129939332975684,-0.9800256950341734,-0.04455383131671703,0.15670845287180268,0.11404847209109342,0.21092716051498428,0.01982179532878533,20534.10933801032
1682303433537481784,119,1682303433537481784,camera_1,120,0,0.6617139225989662,0.48814143168969804,1.8130955229512942,-0.9800952181416426,-0.044488136774385664,0.15635833698630822,0.11395718282366335,0.21552330104168504,0.020252883469299775,20543.950009343564
1682303433547358989,120,1682303433547358989,camera_1,121,0,0.661758368293762,0.4872405966305633,1.8131567592623379,-0.9801368778675456,-0.04457997471493233,0.15635173398959054,0.11357139506462227,0.20593890588497743,0.019350944005958506,20553.075263796603
1682303433557510852,121,1682303433557510852,camera_1,122,0,0.6615087118235287,0.4861681077513014,1.8124384864486418,-0.9800295017933233,-0.044568239037401945,0.15695399288146597,0.11367186020471601,0.21883609087672085,0.02054441788663633,20564.866377705937
1682303433567463397,122,1682303433567463397,camera_1,123,0,0.6615304786608227,0.48540443309991554,1.8124777936101226,-0.9800509084463651,-0.044690074309015886,0.1564407768174862,0.11414594806847393,0.2201302209869027,0.020662280162262008,20572.415647905906
1682303433577441930,123,1682303433577441930,camera_1,124,0,0.6615543471972273,0.48485676129601685,1.8124578920267047,-0.9800904945815677,-0.044576125082713844,0.15630333601036717,0.11403884713332905,0.22822179563809186,0.021419610036885785,20579.654463944615
1682303433587457895,124,1682303433587457895,camera_1,125,0,0.6614285172878478,0.4843716181829294,1.8120962871733404,-0.9799908692309935,-0.044698362036171606,0.1565129930710035,0.11455843772992574,0.2127783134346828,0.0199600323563902,20581.731357239416
1682303433597467660,125,1682303433597467660,camera_1,126,0,0.6614633395981563,0.4842278979373417,1.8121931482937863,-0.9800458279512674,-0.04463151790700239,0.1567494094884329,0.11378851150120331,0.2026305971085094,0.01901107403985448,20585.213962750397
1682303433607460260,126,1682303433607460260,camera_1,127,0,0.6614934381595666,0.48437998144816197,1.8123153343770302,-0.9800436733970743,-0.044680165414603054,0.1566132706529626,0.11397528025091372,0.2300579248694703,0.021587363060785677,20581.878345124765
1682303433617258787,127,1682303433617258787,camera_1,128,0,0.6613972229938748,0.48462847941382436,1.8119794195594656,-0.9799484249244571,-0.04465510670052246,0.1572962298680255,0.11386352358392028,0.22969866951461881,0.021548743833978246,20577.09477639116
1682303433627004861,128,1682303433627004861,camera_1,129,0,0.6615171983308683,0.4852701043526133,1.812391893835259,-0.9800292521090411,-0.044434941158895465,0.1566823174292786,0.11410018588849788,0.21954054868547246,0.020605360990595022,20571.64655541582
1682303433637432575,129,1682303433637432575,camera_1,130,0,0.6616356081052468,0.48612999210722746,1.8127830346641065,-0.98011535036249,-0.04449606393976285,0.15658159660981902,0.11347336198774638,0.21601793373702094,0.020286882016883005,20565.939910259684
1682303433647259712,130,1682303433647259712,camera_1,131,0,0.6615330083001754,0.486924389152818,1.8125435468203885,-0.9800182803903928,-0.04462530903218103,0.15698350688228593,0.11370545484443145,0.1983045641100034,0.01862104166823207,20556.717453379882
1682303433657647848,131,1682303433657647848,camera_1,132,0,0.6617776776954202,0.4880131891786827,1.813268706953146,-0.9801298272417016,-0.04451863580194389,0.1563258643855772,0.11369185081433127,0.19943368714302778,0.018744056844906865,20544.653076704584
1682303433667242050,132,1682303433667242050,camera_1,133,0,0.6616078258697248,0.48881886339991826,1.8128994760788193,-0.9800878757920526,-0.04444345218181576,0.15616731794690297,0.11429918673750823,0.21004750585416332,0.019735414414358783,20542.9683491278
1682303433677365303,133,1682303433677365303,camera_1,134,0,0.6614488949912588,0.48950497865602244,1.8125045819869274,-0.9799940097300124,-0.044569880899566885,0.1564500478784273,0.1146675591818747,0.23529416148085147,0.022101152138583897,20537.80894384102
1682303433687439441,134,1682303433687439441,camera_1,135,0,0.661719741802642,0.4903452631814177,1.813292636249176,-0.9801656023527618,-0.04433344841025027,0.15602695387042076,0.11386626797441404,0.2015269051771611,0.0189482989657279,20530.932478981795
1682303433697946310,135,1682303433697946310,camera_1,136,0,0.661505680979811,0.49069772533382916,1.812807063168611,-0.980059167051321,-0.044548362328695114,0.1562662152232302,0.114369324874764,0.1865849390742369,0.017534511104970566,20529.778775638908
1682303433707521200,136,1682303433707521200,camera_1,137,0,0.6613373789519572,0.4908409381722814,1.8123693752609877,-0.9799704384442999,-0.04439345117237822,0.15716967317894115,0.11395110838038056,0.2178880202700384,0.020470063565022165,20528.005073450393
1682303433717506885,137,1682303433717506885,camera_1,138,0,0.6613706840991245,0.4908725737302399,1.8124603766234055,-0.9800519084464927,-0.04452428930697139,0.15690688940056735,0.11356087561627354,0.2106034425087273,0.019787810850342667,20534.18246640358
1682303433727317094,138,1682303433727317094,camera_1,139,0,0.661567492905464,0.49076479390723626,1.8129699231000052,-0.9800421580154935,-0.04455335205309509,0.15656825974109834,0.11409972556851919,0.197184341493994,0.018534950676134584,20524.043019992074
1682303433737322807,139,1682303433737322807,camera_1,140,0,0.6613928685297653,0.4901416555800018,1.8123768517011847,-0.9800569481797281,-0.04447217020731773,0.15653048624644555,0.11405617597105631,0.22206155763706192,0.02085894866495456,20541.172233081543
1682303433747567415,140,1682303433747567415,camera_1,141,0,0.6613481219872468,0.48945119222125744,1.8122371578131062,-0.9799775708180636,-0.044669310596504544,0.15692057946776009,0.11412512923919291,0.20799942931625992,0.019532823918157784,20542.208950395347
1682303433757461786,141,1682303433757461786,camera_1,142,0,0.6618024555790054,0.4889757585411748,1.8134527556071147,-0.9801706340994535,-0.04458961372652842,0.15582949998762013,0.11399325124937258,0.1995060425833799,0.018756189452214064,20539.02734716794
1682303433767462491,142,1682303433767462491,camera_1,143,0,0.6616557071218759,0.4879617254821271,1.8129676961296717,-0.9801132381617235,-0.04449416821288902,0.1563621248484504,0.11379453101121059,0.2146607775357552,0.020168624644871402,20549.704401987256
1682303433777510404,143,1682303433777510404,camera_1,144,0,0.661646827472052,0.48702346572609373,1.8128323194330196,-0.9801251197668369,-0.044679058576126925,0.15612925806851327,0.11393939661842305,0.2097740723984316,0.019702881166266624,20560.835097160885
1682303433787585258,144,1682303433787585258,camera_1,145,0,0.6616127053479384,0.4861357494617018,1.812725133105034,-0.9800799615707307,-0.04461552439782198,0.1563615411652808,0.11403417187247265,0.19665293500293046,0.018465527656495936,20564.730467051617
1682303433797470092,145,1682303433797470092,camera_1,146,0,0.66172289066603,0.48539674236745517,1.8129576307515496,-0.9801209325452308,-0.04440947053789192,0.15625975875918163,0.11390190650614056,0.22062591987196356,0.02071975610000727,20567.76375937812
1682303433807579994,146,1682303433807579994,camera_1,147,0,0.6614432824212687,0.4846086223414184,1.812165565758949,-0.9800062966301707,-0.04469326492673898,0.15679496954116254,0.1140416948400546,0.20734429766889662,0.01945362256794299,20579.82694840129
1682303433817471265,147,1682303433817471265,camera_1,148,0,0.6615928356460488,0.48433968262421206,1.8125529806600469,-0.980079781729554,-0.04460672895531156,0.1567315159002037,0.11353014181476823,0.22330945316934958,0.020960372665177272,20579.8937314899
1682303433827068328,148,1682303433827068328,camera_1,149,0,0.6615321797542414,0.48411888929050967,1.812324773898348,-0.9801307732885076,-0.04460440108351091,0.15624220942650224,0.11376505021481137,0.2475716036860831,0.02323053055424877,20590.994955540395
1682303433837531328,149,1682303433837531328,camera_1,150,0,0.6615808759871952,0.48422789845213415,1.8124791497020436,-0.9801001551953401,-0.044641778032176206,0.1565736601113498,0.11355829515949793,0.2218602555221878,0.020822095919152996,20584.208040036727
1682303433847515821,150,1682303433847515821,camera_1,151,0,0.6613465970511674,0.4844487270406065,1.8119212882335658,-0.9799431033619337,-0.044634005043609724,0.1571218171214043,0.11415802359719392,0.2282208806136623,0.021406910694712407,20579.6388655185
1682303433857516288,151,1682303433857516288,camera_1,152,0,0.6614822534052974,0.48507289844039236,1.8123209104467155,-0.9800710622251156,-0.04470682615057526,0.15635325810983491,0.11408624528362295,0.21370729902992025,0.020054790461358298,20579.962893938646
1682303433867362737,152,1682303433867362737,camera_1,153,0,0.6616377085863572,0.4859258208691972,1.812771689674818,-0.9800472670540229,-0.044634532165070726,0.15647283751400717,0.11415499988463619,0.20457859069574624,0.019210041827246154,20562.13280434115
1682303433877170324,153,1682303433877170324,camera_1,154,0,0.6616209215291128,0.48674337365538495,1.8127714384152205,-0.9800598595051148,-0.044567702518245975,0.15673471397022984,0.11371288896044328,0.19983244268223643,0.018768099010421185,20557.090585351798
1682303433887365102,154,1682303433887365102,camera_1,155,0,0.661704523982981,0.4877291470116552,1.8130681915638276,-0.980163264293644,-0.04451853829904831,0.1561497797571455,0.113645595421642,0.21408866584533826,0.02011619502939959,20554.027891822618
1682303433897588253,155,1682303433897588253,camera_1,156,0,0.661762876635049,0.48872333246008953,1.8133082785380128,-0.9801268243712677,-0.04448784162561748,0.1564276685017419,0.11358972058464262,0.1971373183769174,0.018531471588821003,20538.579281470513
1682303433907549381,156,1682303433907549381,camera_1,157,0,0.6615923120851018,0.48946538139945667,1.8129072674038205,-0.9800919407099935,-0.0445577160670842,0.15625740700555293,0.11409654004440488,0.2029408068046905,0.019070328134634305,20539.051021457184
1682303433917466163,157,1682303433917466163,camera_1,158,0,0.6616555641646621,0.49022870283825426,1.8131512169504949,-0.9800664593439435,-0.04436959749310056,0.1563460521339334,0.11426716969217306,0.2111814453965053,0.019852408399972623,20525.603427303027
1682303433927502393,158,1682303433927502393,camera_1,159,0,0.6616362727460018,0.4907788114342659,1.8131201836921766,-0.9800543400842034,-0.044556084153287795,0.15646123425157563,0.11414082540228708,0.1973633753368631,0.01855472613300197,20521.86700966291
1682303433937581062,159,1682303433937581062,camera_1,160,0,0.661414010499366,0.49094653260382076,1.8125359922805209,-0.9800579976633493,-0.04452345481660847,0.15651342558531584,0.11405056246616915,0.20721570152090862,0.019469949883586517,20532.89522991492
1682303433947504758,160,1682303433947504758,camera_1,161,0,0.6616222750695894,0.49121166559558554,1.8130786942415387,-0.9801926941005771,-0.04442274615033283,0.1558386574194754,0.11385611494342812,0.21075298509094864,0.01981419239215862,20532.229060978985
1682303433957406044,161,1682303433957406044,camera_1,162,0,0.6614104500306933,0.49091387466043857,1.8124839672063455,-0.9800380858257313,-0.044486349452090346,0.15692994099643037,0.11366313677846536,0.2074651949806139,0.019493707584395115,20531.53839932056
1682303433967516422,162,1682303433967516422,camera_1,163,0,0.6613387537249725,0.4905122290681495,1.8123281223905816,-0.9799639863124409,-0.04448591564060957,0.15686179299420733,0.11439391040999264,0.19232882495271042,0.018065521714111174,20531.28123301781
1682303433977469682,163,1682303433977469682,camera_1,164,0,0.661712588785503,0.4902182490328765,1.8132950556242184,-0.9801901033109667,-0.04441797468442737,0.1557597293289456,0.11398820823025459,0.24081926746293902,0.022642081708075763,20534.643502642633
1682303433987486600,164,1682303433987486600,camera_1,165,0,0.6614258208186479,0.48925840082339495,1.8124694229460117,-0.9800092591943554,-0.04443240677972688,0.15690015400419283,0.11397348285698783,0.21196587750455365,0.019909836050130993,20540.87008927647
1682303433997520685,165,1682303433997520685,camera_1,166,0,0.6614975794612882,0.4884240914517586,1.8125722587633444,-0.9799975948907949,-0.0445329344797338,0.15655196832311163,0.11451206473136623,0.20736677350942045,0.019475557910723303,20544.192795451265
1682303434007470846,166,1682303434007470846,camera_1,167,0,0.6617916044446005,0.4876896432154898,1.8133116045213749,-0.9801153656303992,-0.04451188650957356,0.15625662648690905,0.1139141285946502,0.2082829931168817,0.019575098290809393,20544.846557763878
1682303434017545938,167,1682303434017545938,camera_1,168,0,0.6617315463875763,0.486713459112502,1.8130768000600017,-0.9801624558627936,-0.04449554283541461,0.1561411685770422,0.11367340172702961,0.20417552383150905,0.01918138574128557,20560.702269615012
1682303434027487277,168,1682303434027487277,camera_1,169,0,0.6613939134358389,0.48562755494512794,1.8121001898740812,-0.9799375971891437,-0.04461126214915136,0.15721925539512535,0.1140800010415046,0.21229172206949443,0.019920575061942003,20567.16927801992
1682303434037075996,169,1682303434037075996,camera_1,170,0,0.6616637991176653,0.48510013741479263,1.8128077535079354,-0.9801397513108521,-0.04452870386124717,0.15617426391656716,0.11381063976121504,0.19867532746866345,0.018653930574373815,20575.416797208123
1682303434047787666,170,1682303434047787666,camera_1,171,0,0.6614618250719971,0.48435671091519444,1.8122036282229261,-0.9800221708858173,-0.044602790658179195,0.1568637649647231,0.1138459260529096,0.22167566773714498,0.02079907414237275,20581.626737108927
1682303434057431697,171,1682303434057431697,camera_1,172,0,0.6615126326107869,0.4840306952424301,1.8122687163828577,-0.9800339861382049,-0.04465963499996729,0.15650517398750466,0.11421485687453989,0.22790738416370007,0.021383004584381853,20583.95642687602
1682303434067422866,172,1682303434067422866,camera_1,173,0,0.6616385212393369,0.4840232113203398,1.8126261642872725,-0.9800680998064292,-0.04457351646827439,0.15658523596287094,0.11384544457254195,0.2087098698830232,0.01958968788900817,20579.35772353131
1682303434077301263,173,1682303434077301263,camera_1,174,0,0.6614585845667461,0.48402850956318255,1.8121584254620398,-0.9800118880103962,-0.04450896842585928,0.15692027194978136,0.113893280482965,0.2123208895791322,0.019919297720828105,20583.352609835205
1682303434087483406,174,1682303434087483406,camera_1,175,0,0.6615440768155405,0.4844634936348567,1.8124552232476419,-0.9800577769351315,-0.04455675518366058,0.15679438226688713,0.113652853576215,0.21552122884895653,0.020227419426629967,20578.954609257526
1682303434097594738,175,1682303434097594738,camera_1,176,0,0.6617116529400768,0.48517314127216704,1.8129180406865506,-0.980116839508158,-0.04446838880805307,0.15669175247811962,0.11331918643676987,0.21702361392090097,0.02038146006742261,20569.481291810753
1682303434107483386,176,1682303434107483386,camera_1,177,0,0.6615999132478078,0.4858581246341172,1.8126871475440614,-0.980099332118283,-0.0445116465793625,0.15631966595809238,0.11396567261609963,0.21148248115787283,0.019856544016939863,20568.850408655228
1682303434117459535,177,1682303434117459535,camera_1,178,0,0.6615923888760192,0.48668882468924424,1.8126862776934476,-0.9800843111880531,-0.044625540542989305,0.15674606396743188,0.11346354271308254,0.20655646355589852,0.019398277275851656,20561.591180888237
1682303434127379894,178,1682303434127379894,camera_1,179,0,0.6617601174320552,0.4877555857802611,1.8132348103954992,-0.9801260225490526,-0.04461657801572835,0.15619107587219405,0.11387136912423283,0.2304588545812294,0.021658046666218764,20547.36381150037
1682303434137238979,179,1682303434137238979,camera_1,180,0,0.6617281962497028,0.4886856147078296,1.8132210189666806,-0.9801070891131416,-0.044527596141803544,0.15632121944321814,0.11389057644854703,0.2072716651018709,0.019481633038667654,20539.137824951205
1682303434147632598,180,1682303434147632598,camera_1,181,0,0.6615892261917254,0.48945954316979157,1.8128865255037803,-0.9800157933596931,-0.044459914360331525,0.15659062672622528,0.11433169465258251,0.20139302866300568,0.018924595987885068,20531.762984758367
1682303434157585382,181,1682303434157585382,camera_1,182,0,0.6618119887272073,0.49035706321415057,1.8135233510454294,-0.980218422063243,-0.04447240328150326,0.1558812512829493,0.11355653170414905,0.20963919133646414,0.01971630573082579,20531.487644771347
1682303434167584657,182,1682303434167584657,camera_1,183,0,0.6615421196933247,0.4907774721300788,1.8128627514977518,-0.9800508591363026,-0.044614742762026885,0.1563921604172497,0.11424241941808823,0.19695571286138147,0.018511095413508726,20527.170934843012
1682303434177264213,183,1682303434177264213,camera_1,184,0,0.6615111243899461,0.4911338184521974,1.8127952004034709,-0.9801111143966491,-0.04446065465354892,0.1565408420133495,0.11358000882940657,0.21460631786612794,0.020171675870963666,20530.660564820624
1682303434187512159,184,1682303434187512159,camera_1,185,0,0.6615173825176116,0.4913316404600395,1.8128730816285759,-0.9800874599795695,-0.044412772947957174,0.15662905085354356,0.11368120697189746,0.19951807177858427,0.018755247736942718,20525.51875434722
1682303434197589874,185,1682303434197589874,camera_1,186,0,0.6617601489348065,0.4914268139296302,1.813530073804661,-0.9801846185645385,-0.04449410347683807,0.15600012950675404,0.11367650539648982,0.20873716671485454,0.019635013608218236,20521.076644305365
1682303434207418918,186,1682303434207418918,camera_1,187,0,0.661393561157505,0.49083432571821617,1.812507980739694,-0.9800376111528933,-0.04450007125569194,0.15618562881212855,0.11468249097629692,0.20770317176356912,0.019513180579601736,20532.81511193863
1682303434217862129,187,1682303434217862129,camera_1,188,0,0.6614651221164918,0.49033779396536764,1.8126028453723988,-0.9800830271600498,-0.04456121158637957,0.15643361306822212,0.11393016719538611,0.22461891011334956,0.02110488023049515,20538.079563984764
1682303434227305650,188,1682303434227305650,camera_1,189,0,0.6615014385030734,0.48970155837898366,1.8126819891119104,-0.980029773350371,-0.044536509116390066,0.15665217313813767,0.11409749933125227,0.21196465601678938,0.019915109496186006,20535.858802842566
1682303434237405538,189,1682303434237405538,camera_1,190,0,0.6615756059815798,0.48890476775385405,1.8128110929829004,-0.9800589706312628,-0.044505737645725976,0.15692223566779825,0.11348596985891887,0.208065913640894,0.01955027094611073,20540.87358716561
1682303434247563123,190,1682303434247563123,camera_1,191,0,0.6617636551206774,0.48809885534009,1.8132967747440238,-0.980071032915564,-0.04452495419628006,0.15682435911430298,0.11350955590621906,0.1964831204386428,0.018468282680169455,20537.911431431436
1682303434257518053,191,1682303434257518053,camera_1,192,0,0.6615825108262388,0.48699095577230606,1.8126852959505315,-0.9800828768127042,-0.04461027125204763,0.15689816970930343,0.11327154373108425,0.20013968349667266,0.018797030265654435,20559.241008547713
1682303434267447471,192,1682303434267447471,camera_1,193,0,0.6616669687350613,0.48619017058645875,1.8129492240162786,-0.9801179697200677,-0.04472623572456773,0.15622398952848124,0.11385251145902844,0.2059770313790068,0.019345706243552047,20564.10834532057
1682303434277393341,193,1682303434277393341,camera_1,194,0,0.6614767554531003,0.48520594346110246,1.812313797567508,-0.9800559148150354,-0.04457552044445779,0.15686408545426578,0.11356533585459429,0.20968231541337445,0.019679104649980222,20576.687079744413
1682303434287472963,194,1682303434287472963,camera_1,195,0,0.6614545724898975,0.4845369822166817,1.8122309215476133,-0.9800070594780427,-0.04479859213814243,0.15683081587118117,0.11394448081772124,0.20076817506924272,0.01883770527292315,20579.567882143063
1682303434297448396,195,1682303434297448396,camera_1,196,0,0.6615688194063211,0.4840929204925477,1.81243918588643,-0.9800507902520746,-0.04471256700157166,0.15678939953086274,0.11365878352844344,0.21827573858899996,0.02048450205544681,20581.44841280044
1682303434307513952,196,1682303434307513952,camera_1,197,0,0.6617480813485253,0.4839790288169642,1.8129445465245624,-0.9801180004839866,-0.04454203239832736,0.15602998924558353,0.11418999489062803,0.20310191379394382,0.019068004071881937,20578.28352057981
1682303434317527770,197,1682303434317527770,camera_1,198,0,0.6617786043117162,0.4839846447186716,1.8130271686140689,-0.9801269570979136,-0.04451212109212324,0.15605784176401144,0.1140866734979312,0.21166169905336576,0.01987378489574431,20577.13463528909
1682303434327375411,198,1682303434327375411,camera_1,199,0,0.6616186848840387,0.48404569201334524,1.8125823978562154,-0.9800974397649026,-0.04465176260004392,0.1563040999217995,0.11394848402075636,0.21702814876334742,0.020368993150044694,20583.45478349015
1682303434337562322,199,1682303434337562322,camera_1,200,0,0.6616205452329467,0.4844996501230222,1.8126601967055573,-0.9800604912174029,-0.0446356777380993,0.15670100662345177,0.11372723662676673,0.2201563860871829,0.020666808517524473,20575.069634506486
1682303434347489356,200,1682303434347489356,camera_1,201,0,0.6617221287410914,0.4852052084388184,1.812977922059003,-0.9801441447342956,-0.04454819726985411,0.15632201516610642,0.11356205896993066,0.21777629683492702,0.02045235394044807,20571.412828949626
1682303434357437133,201,1682303434357437133,camera_1,202,0,0.6616188846265606,0.4859123915544107,1.8127295046315208,-0.9800661604660565,-0.04460409288056407,0.15658547030777406,0.11384984188007181,0.21739269921090454,0.020413249086309284,20564.56393735996
1682303434367471694,202,1682303434367471694,camera_1,203,0,0.6615299782502899,0.4867005258064675,1.81249702573634,-0.9800271576542656,-0.0444422748947446,0.15703865510874992,0.11362444835472778,0.20972738839918748,0.019692558816140297,20559.06330561497
1682303434377206325,203,1682303434377206325,camera_1,204,0,0.6618233785773848,0.48786867314522747,1.8134056078446998,-0.9801782081583884,-0.0447001992986199,0.15605181450173958,0.113579943761165,0.19658971525495872,0.01847852477187821,20548.392706587332
1682303434387799501,204,1682303434387799501,camera_1,205,0,0.6616501166324613,0.4887099399519474,1.81302909517258,-0.980104593729387,-0.04441310429419167,0.15649387401413675,0.11371951861292005,0.19605057878652588,0.018423666183784784,20542.194178663198
1682303434398297071,205,1682303434398297071,camera_1,206,0,0.6613773520653013,0.4894014039690916,1.8123214593623016,-0.9799839170418903,-0.04456755504787855,0.15685980679949912,0.11419394198954595,0.2112128944718279,0.01983604708794616,20541.087658696342
1682303434408218383,206,1682303434408218383,camera_1,207,0,0.6613733896045264,0.4901565273211817,1.8123497036674967,-0.9799972786012199,-0.044484876962394435,0.15670098896005633,0.11432947876546937,0.22539652622072026,0.02117132386884046,20536.193774352665
1682303434417854070,207,1682303434417854070,camera_1,208,0,0.6614699151814423,0.49085797807777176,1.8127318165626798,-0.9800265695772671,-0.04451576652950737,0.15639232513761503,0.11448890815688204,0.18272783752763644,0.017171064286926486,20527.0312559316
1682303434427719116,208,1682303434427719116,camera_1,209,0,0.6616669706255847,0.49143055209984826,1.8132476411320195,-0.9801941342527268,-0.044383285975910944,0.15588313094128411,0.11379820996162587,0.21162295213434845,0.019900316815146556,20527.33084229391
1682303434437681198,209,1682303434437681198,camera_1,210,0,0.661723435862185,0.4916201403275434,1.813370824512848,-0.9801348909639952,-0.04429689532939195,0.15631255814997527,0.11375308674398649,0.2030628322972916,0.019099239065571295,20517.035337134846
1682303434447346925,210,1682303434447346925,camera_1,211,0,0.6617507535951268,0.49160220006644634,1.8134739689188801,-0.9801716686157922,-0.04432394998283562,0.15613472954566157,0.11366984530013298,0.1938806966645643,0.018237179673968026,20518.875056697994
1682303434457659244,211,1682303434457659244,camera_1,212,0,0.6617015342365181,0.49130019097449285,1.8133129123914045,-0.9801732223657311,-0.04441121955485346,0.15590679509815664,0.11393493308485662,0.21249527571490034,0.019983187776898458,20524.92863211596
1682303434467579126,212,1682303434467579126,camera_1,213,0,0.661603289497025,0.4907488134552089,1.813055036470917,-0.9801271243223253,-0.044414954371834216,0.15616147980605413,0.11398124503873557,0.19402878370601684,0.018239684525542164,20529.97370948596
1682303434477529764,213,1682303434477529764,camera_1,214,0,0.661612341156487,0.4900813694893131,1.8129989652848555,-0.9800862300463595,-0.04441160318289248,0.15671395199671775,0.11357521043700619,0.19799545675050467,0.01861092090664749,20531.252236573615
1682303434487448930,214,1682303434487448930,camera_1,215,0,0.6615404743032168,0.48922175813994484,1.812720087306017,-0.9800625134308254,-0.04440534387684108,0.15656446206956287,0.11398773802344286,0.21629223722266033,0.02032110814964925,20540.820769679034
1682303434497593402,215,1682303434497593402,camera_1,216,0,0.6615229916135036,0.48826152206787415,1.812597866765398,-0.9800187260242587,-0.04454433030158422,0.156571609670328,0.11429973895427294,0.23143583408091217,0.02173715684033956,20546.412873771285
1682303434507440567,216,1682303434507440567,camera_1,217,0,0.6618321977140843,0.4875341885342256,1.8133639463838715,-0.9801296818657169,-0.04452633199330533,0.15609188336374502,0.11401112416334537,0.21019310149131343,0.019754940027153375,20546.15038457769
1682303434517476797,217,1682303434517476797,camera_1,218,0,0.6617761633553618,0.48655920507498174,1.8131744655734356,-0.9801470356546913,-0.04450251192566634,0.15634691130488204,0.11352073931687777,0.22240814339602366,0.02089677751521238,20558.00340357947
1682303434527466535,218,1682303434527466535,camera_1,219,0,0.6613894997303584,0.485377401289117,1.8120437228917856,-0.9800283210185439,-0.044627512113962646,0.15690409250147772,0.11372766119278004,0.2253242797451094,0.021141837500675484,20578.528142365743
1682303434538020372,219,1682303434538020372,camera_1,220,0,0.6613968947343617,0.48466556074603717,1.8120933014043084,-0.979978762584535,-0.044633939221410276,0.15715241389948403,0.11380929293527935,0.2057568650925532,0.019304266619981154,20577.971661370833
1682303434547445297,220,1682303434547445297,camera_1,221,0,0.6615367750458452,0.48412494780949833,1.8123769340165186,-0.9800659154621001,-0.04457009838199339,0.1568907460264303,0.11344426601166363,0.20874193345662206,0.019589017754196438,20583.34767455794
1682303434557457923,221,1682303434557457923,camera_1,222,0,0.6618390370813115,0.48398806056194277,1.8132004991983781,-0.9801211189563511,-0.044701621535914574,0.1562054869153529,0.11386045435245631,0.20344411273254082,0.019105986013384844,20573.647422904032
1682303434567551374,222,1682303434567551374,camera_1,223,0,0.6614839784434905,0.4835652262288689,1.812240553115196,-0.980103724275387,-0.04452737933721103,0.15635490403790603,0.11387337763574755,0.21292144228937104,0.019974794872744304,20594.098613104776
1682303434577706336,223,1682303434577706336,camera_1,224,0,0.6616964372613034,0.48377865452965885,1.812825273631941,-0.9801231068056568,-0.04465070548646797,0.15652530000732898,0.11342328007425766,0.20116000267444178,0.018884487222422374,20582.554562365174
1682303434587419033,224,1682303434587419033,camera_1,225,0,0.6615701843597112,0.4839366717397602,1.8124400868729096,-0.9800341594238078,-0.04458016265325022,0.15667626149718394,0.11400966864063095,0.21621425269404426,0.0202897351442573,20580.636210920984
1682303434597439765,225,1682303434597439765,camera_1,226,0,0.6615676905878208,0.484454318597583,1.8124960651592976,-0.9800667183894182,-0.04459936693609593,0.15651154663483666,0.11394849601582267,0.22343048977199942,0.020969704304824748,20579.392407649662
1682303434607488393,226,1682303434607488393,camera_1,227,0,0.6616025006426639,0.48513959476791063,1.8126587433924044,-0.9800948640925372,-0.04454379290273493,0.1565571142811944,0.11366520074857664,0.19126122241141275,0.017955742420775984,20573.841378459696
1682303434617462635,227,1682303434617462635,camera_1,228,0,0.6616620536628,0.4860024193840767,1.8128770046348848,-0.980080394561479,-0.044666410560083705,0.15649523273941965,0.11382694801200921,0.2020146083086729,0.018972043865895436,20562.711016702237
1682303434627455949,228,1682303434627455949,camera_1,229,0,0.6615980342998778,0.4868373700590287,1.8127195532205571,-0.9800844419590742,-0.04459536564850337,0.1568246508880294,0.11336564235381863,0.20200850762194023,0.018972496147159092,20559.756149937515
1682303434637577056,229,1682303434637577056,camera_1,230,0,0.661736865235436,0.48792572525052436,1.8131446225157462,-0.9801373039393185,-0.044410320976298434,0.1564507336270691,0.11349782713734212,0.20849277661181986,0.019593353550983773,20547.883361566688
1682303434647613525,230,1682303434647613525,camera_1,231,0,0.6617712475316325,0.4889526307576712,1.813374271754221,-0.9800938281637761,-0.044454608750683744,0.1564360791936056,0.11387549728818075,0.20461151184281334,0.01923572109210425,20532.595005442035
1682303434657537937,231,1682303434657537937,camera_1,232,0,0.6614310913310186,0.489568106964372,1.8124743151380933,-0.9800320188947229,-0.044512961889112634,0.15667185579662887,0.11406036895535736,0.22674705612007526,0.021299260616234005,20541.052790744456
1682303434667485475,232,1682303434667485475,camera_1,233,0,0.6614222532945399,0.49029803124721416,1.8125017428244115,-0.9800473034637762,-0.04446397019899195,0.1565832262472965,0.11406985397339724,0.20401022612350062,0.019166045719465664,20536.769827028387
1682303434677543878,233,1682303434677543878,camera_1,234,0,0.6615744517587467,0.49106632799943317,1.812985344658011,-0.9801063179487336,-0.04452106724729383,0.15644840121707676,0.11372500975932488,0.21026898914715275,0.019767105431552252,20527.267257341184
1682303434687450170,234,1682303434687450170,camera_1,235,0,0.6616386231405011,0.49153381907168237,1.8131859251301452,-0.9801786025983075,-0.04449386273743834,0.15588776812399527,0.11388242593328772,0.1961265589343384,0.01844179365402443,20526.98556585913
1682303434697487354,235,1682303434697487354,camera_1,236,0,0.6615459253474256,0.49166834606685744,1.8129405417184703,-0.9800983984423638,-0.04452279497096918,0.1562427560708574,0.11407476177520161,0.20388766372343525,0.019167425997161657,20523.41394212853
1682303434707545995,236,1682303434707545995,camera_1,237,0,0.6613711002537134,0.4915145032396215,1.8124149483115595,-0.9800413395827148,-0.044387661093301244,0.15676051988266052,0.11390718878851387,0.2002055876655504,0.018811520303544643,20528.83293906715
1682303434717559576,237,1682303434717559576,camera_1,238,0,0.6617547169624355,0.4915839409277284,1.8134817859483445,-0.9801777629074232,-0.04434236053504808,0.1560564861114311,0.11371755056512531,0.19095893774647266,0.017962232459314,20519.542275168806
1682303434727566957,238,1682303434727566957,camera_1,239,0,0.6614790014261768,0.49097495669046726,1.8127579399684264,-0.9800245302727679,-0.0445033944086624,0.15684993937463998,0.11388355661779945,0.21164431131910533,0.019891546840010963,20524.79296067707
1682303434737467050,239,1682303434737467050,camera_1,240,0,0.6614817691946798,0.49029630466834984,1.8126478054823174,-0.9800664989306644,-0.0446548242168918,0.15634246498826065,0.11416057983972823,0.20746976480586454,0.019493521093279096,20536.468666824167
1682303434747689247,240,1682303434747689247,camera_1,241,0,0.6613544194855284,0.48942894954250055,1.8122582450207376,-0.9799599670225085,-0.04458696219082436,0.15725880625986083,0.11384258293609592,0.21332655154401436,0.020034573896089827,20539.628569523466
1682303434757586956,241,1682303434757586956,camera_1,242,0,0.6618188875220848,0.4888890274439139,1.813497412055453,-0.9801516533740894,-0.04447538832456567,0.15605111129038127,0.1138978792008672,0.20911365194479004,0.019660686399153242,20536.29475628607
1682303434767449855,242,1682303434767449855,camera_1,243,0,0.6618277098801458,0.4879055483010643,1.8133964002763465,-0.9802064153015203,-0.044595630197082306,0.15573999527517274,0.1138053910882869,0.1974895959137939,0.01856241573439254,20550.70787286317
1682303434777559757,243,1682303434777559757,camera_1,244,0,0.6616743558902025,0.48681389301687744,1.8128612896487515,-0.9800784068958519,-0.04462838917074176,0.15638422726194076,0.11401138837940424,0.20909780834335834,0.019639666555722236,20556.75134135968
1682303434787524700,244,1682303434787524700,camera_1,245,0,0.6615821267874692,0.4858677298336558,1.8126298347016416,-0.9800085421157471,-0.04451544917304468,0.15699878281113458,0.1138113103382629,0.2227743012481369,0.020917132826528427,20560.833186269047
1682303434797566175,245,1682303434797566175,camera_1,246,0,0.6617017024137942,0.4850713794496059,1.8128928342580193,-0.9801776495494365,-0.044489194146733115,0.156244681563375,0.11340232101273832,0.21818868146510795,0.02048907401428022,20576.8830558887
1682303434807523012,246,1682303434807523012,camera_1,247,0,0.6614311697107802,0.484170052479127,1.8120706888133018,-0.9800037633322848,-0.0445588936933787,0.1570678472986201,0.11374014327562108,0.21447065146639943,0.020120108208942087,20583.43388427909
1682303434816937446,247,1682303434816937446,camera_1,248,0,0.6619238906469103,0.4840719460449975,1.813434367478696,-0.9801655185664138,-0.04451065743962686,0.1559861283532722,0.11385378934880491,0.22419787279795855,0.02106069008455627,20571.653531474865
1682303434827421903,248,1682303434827421903,camera_1,249,0,0.6614520152833713,0.48339024692399335,1.8121187563508718,-0.9800013193741649,-0.04454351283937793,0.15710303981102897,0.11371861928003989,0.2005726631032303,0.018814609819462782,20587.580358676852
1682303434837315559,249,1682303434837315559,camera_1,250,0,0.6613894498929567,0.4832580770740118,1.8119610573987734,-0.980009156711284,-0.04453117101803782,0.15743109721657078,0.11320104769385758,0.21322063024854288,0.019998875873486078,20592.05968010112
1682303434847307682,250,1682303434847307682,camera_1,251,0,0.6614170901686703,0.4833860249009798,1.8120122050113219,-0.979980122251922,-0.04462690538781856,0.15702814867176448,0.11397175014596048,0.214499841327779,0.020118350715135336,20588.248304602916
1682303434857337951,251,1682303434857337951,camera_1,252,0,0.6616965448975013,0.4839562919089304,1.8128324788485228,-0.9800899393432023,-0.04449559614320776,0.15625963304326262,0.11413491929853789,0.22638722695410252,0.021252268057092093,20577.83735706122
1682303434867289543,252,1682303434867289543,camera_1,253,0,0.6616129908912525,0.4843930326819114,1.8125908867929912,-0.9800974985314264,-0.044599489063955,0.1565513977212701,0.1136285123513971,0.21614238515030593,0.02028817694272551,20580.45528835489
1682303434877448797,253,1682303434877448797,camera_1,254,0,0.6618146853377014,0.4852571530489963,1.8132256273087386,-0.9801524140498102,-0.0446438503396838,0.15595379165497342,0.11395870623877008,0.21004488662583753,0.019730173690662843,20567.494333471514
1682303434887333154,254,1682303434887333154,camera_1,255,0,0.6617874021288437,0.486074354687097,1.8131828636834635,-0.9801055860821154,-0.044567832109817934,0.15632553492699308,0.11388184930643591,0.20251716702478006,0.01902543339155467,20557.798891915943
1682303434897754192,255,1682303434897754192,camera_1,256,0,0.6615559637378425,0.486845121590718,1.8125846776858465,-0.980037759408418,-0.044579811299001536,0.1568169430462187,0.1137852228187483,0.2182064246153459,0.020490455186923908,20558.04499278637
1682303434907456874,256,1682303434907456874,camera_1,257,0,0.6617699241117869,0.487984752726869,1.8132129468336564,-0.9801430611403157,-0.04453653413328844,0.15600715042580313,0.1140080955103937,0.22056614252505827,0.020728265895148038,20547.41542620423
1682303434917449474,257,1682303434917449474,camera_1,258,0,0.6616492964298669,0.48886191787898914,1.8130261611927814,-0.980135816835656,-0.0445035673520749,0.15593933679025174,0.11417590065446054,0.2010941028711386,0.018896561461347338,20544.97998797217
1682303434927517175,258,1682303434927517175,camera_1,259,0,0.661709385340601,0.4898091013661952,1.8132645388145492,-0.9800764523162458,-0.044614994297250986,0.15638433319039166,0.11403328563035618,0.21075668203411624,0.01981373635537641,20528.006152455804
1682303434937585830,259,1682303434937585830,camera_1,260,0,0.6613920794194359,0.49034795191433717,1.8124410744763224,-0.9800067232447767,-0.04467989556443092,0.15669085324157364,0.11418627692422145,0.18185635161353275,0.01708327609359644,20534.91783651756
1682303434947406530,260,1682303434947406530,camera_1,261,0,0.6616255185998173,0.4912016788965527,1.8130737157578953,-0.9801419671375735,-0.04455736936404391,0.15595228801303904,0.11408439400085495,0.22880710510071367,0.021511429791167568,20528.050898093727
1682303434957493066,261,1682303434957493066,camera_1,262,0,0.6613837689516856,0.49148303526157966,1.812485055094124,-0.9800312235520324,-0.04457667753330719,0.15679124749210857,0.11387811639233493,0.189247798291035,0.017782835512698242,20527.638887997018
