%time,field.header.seq,field.header.stamp,field.header.frame_id,field.image_seq,field.transforms0.fiducial_id,field.transforms0.transform.translation.x,field.transforms0.transform.translation.y,field.transforms0.transform.translation.z,field.transforms0.transform.rotation.x,field.transforms0.transform.rotation.y,field.transforms0.transform.rotation.z,field.transforms0.transform.rotation.w,field.transforms0.image_error,field.transforms0.object_error,field.transforms0.fiducial_area
1684734979141627788,0,1684734979141627788,camera_1,1,0,-0.9287486243072467,-0.06798582373525952,1.8914020234057713,0.9743071636311177,-0.053296492231850276,0.2183146339781507,0.014958455931435636,0.0007076349866110831,0.0008562303714542024,2368.193976402399
1684734979151540040,1,1684734979151540040,camera_1,2,0,-0.9306562736712084,-0.06801333970695557,1.8952726509882971,0.974989463699684,-0.05333882645536708,0.21530711131538052,0.013905505528140922,0.0008794019959168509,0.0010674971287148592,2365.95981069177
1684734979161656856,2,1684734979161656856,camera_1,3,0,-0.9287669721362148,-0.06799759932921455,1.8913897669478474,0.9743542728031711,-0.05366203859185553,0.2180634767682148,0.014228730938774529,0.0003120037290500477,0.0003776050226539564,2368.9880282299137
1684734979171508073,3,1684734979171508073,camera_1,4,0,-0.9302971098567127,-0.06841631373440736,1.8945213651051465,0.9746187974382915,-0.05348446540170212,0.21685682568012685,0.015189759595579846,0.0008132090006256476,0.0009865294516453627,2363.5402404414485
1684734979181653976,4,1684734979181653976,camera_1,5,0,-0.9310690162243656,-0.06938593774544438,1.896139710272771,0.9750704428978435,-0.05367874643287086,0.21479023392245825,0.014878809762024159,4.965695552527904e-06,6.0298443444869315e-06,2363.903018341865
1684734979191658020,5,1684734979191658020,camera_1,6,0,-0.9302685548907902,-0.06972293052137847,1.8945352205690236,0.9746462134063314,-0.05347069195077521,0.21667986060290476,0.015983798175367183,0.0017069517343770713,0.002069951134360288,2362.9527825319674
1684734979201728582,6,1684734979201728582,camera_1,7,0,-0.9289113816379265,-0.06979527771858088,1.891818865303636,0.9741919055932738,-0.05319916122326526,0.21875596263518196,0.016303653984362156,0.001110959579818882,0.0013443445462296946,2364.670209285103
1684734979211758613,7,1684734979211758613,camera_1,8,0,-0.9297406482929209,-0.06981119198885713,1.8934757926155252,0.9746433706695717,-0.05333627707055571,0.2168057317351481,0.014859887109115575,0.0030900288256816566,0.003744901014386407,2365.569619535585
1684734979221696853,8,1684734979221696853,camera_1,9,0,-0.9290752073304104,-0.06901879659074037,1.8921133006343693,0.9745912146932957,-0.05331842329269037,0.2170333496900981,0.015021155166079889,0.0013255885569378734,0.0016042215333660161,2368.83821859362
1684734979231500387,9,1684734979231500387,camera_1,10,0,-0.9304471291818208,-0.06864009281422462,1.8949201111025018,-0.9748373726136026,0.053640649889046745,-0.2158865710320596,-0.014414093218390022,0.00012683621025644243,0.0001539168146132382,2364.9970939289774
1684734979241666078,10,1684734979241666078,camera_1,11,0,-0.9297926576671492,-0.06819212410525269,1.8935581656897178,0.9745164661518217,-0.05300186263649126,0.21743166544010084,0.015229268530433316,8.515614899806678e-05,0.00010321705766366303,2364.7699247878063
1684734979251609563,11,1684734979251609563,camera_1,12,0,-0.9294589849987743,-0.06795788524610867,1.892858912634755,0.9747387537875666,-0.053486757449651964,0.21633438655349324,0.014931906666851118,0.00020541835692711174,0.000248729141102873,2369.280616266303
1684734979261578798,12,1684734979261578798,camera_1,13,0,-0.928850083694681,-0.0681448699109907,1.891583263849851,0.9741435007148443,-0.05302430115179071,0.21907552616689444,0.015452421722525441,1.3167387805879116e-05,1.5937011974381315e-05,2365.6892309377454
1684734979271508455,13,1684734979271508455,camera_1,14,0,-0.9311297569166134,-0.06872392019517919,1.8962362348194866,0.9749359865735744,-0.053592422436865524,0.21539698890314343,0.015225357553065116,0.0002957032556878403,0.00035914963117750757,2362.539281000616
1684734979281749010,14,1684734979281749010,camera_1,15,0,-0.9284386644639121,-0.06900793078462068,1.8907646264312161,0.9740845698120054,-0.052939248577736055,0.21946125100557223,0.013908490976884527,0.00018911286315415055,0.00022887813920291218,2366.742860443308
1684734979291583299,15,1684734979291583299,camera_1,16,0,-0.9309209848356323,-0.06961622993257155,1.8958205537369333,0.9747987809187509,-0.05374829042158355,0.21603326178481586,0.014425248652531631,0.0009542718180455267,0.0011592317723683584,2361.7823672840595
1684734979301560401,16,1684734979301560401,camera_1,17,0,-0.9288720087516404,-0.06977929345386528,1.8916864661692094,0.9741982970578273,-0.0534161057564639,0.21869061039922214,0.016087715147241104,0.00028973074222449213,0.00035058022598496004,2365.175902917748
1684734979311473608,17,1684734979311473608,camera_1,18,0,-0.9295944758934774,-0.06966790103677063,1.8931636968566896,0.9742827947100549,-0.053277089347399754,0.21839625908817564,0.015416280320649288,0.002189744816860184,0.002654120460879348,2362.513599690398
1684734979321600914,18,1684734979321600914,camera_1,19,0,-0.9307626963003482,-0.06934065382383743,1.8955495640811355,0.9748640162493797,-0.053238108564863974,0.2158973413917002,0.013935264567309761,0.0007035220187390223,0.0008544514118373314,2363.1214258549744
1684734979331611394,19,1684734979331611394,camera_1,20,0,-0.9298296740166292,-0.06881335112960776,1.8936625258985254,0.9746602239960624,-0.05362857913769452,0.2166152245151896,0.015468282640659645,0.0011412597523303702,0.0013829474803195322,2365.9891885108073
1684734979341470956,20,1684734979341470956,camera_1,21,0,-0.9291447412438325,-0.06803150050451555,1.8922408363873735,0.9745151574896034,-0.05355926928741191,0.21733752458642136,0.014697377421117234,0.00044324054033495486,0.0005366298510258139,2368.5030855844952
1684734979351458787,21,1684734979351458787,camera_1,22,0,-0.929657977792469,-0.06795378723944062,1.893257969652316,0.9748332041081383,-0.053339557003484396,0.2158639837061969,0.016057906632667457,0.0007822432089596987,0.0009469338433942334,2369.062674221816
1684734979361604928,22,1684734979361604928,camera_1,23,0,-0.9289992269457419,-0.06802117688037433,1.8918988956953045,0.9742744221944918,-0.05347164509974102,0.2184188320354622,0.014944806461821808,7.211895717773587e-05,8.731474143381206e-05,2366.691218411317
1684734979371679306,23,1684734979371679306,camera_1,24,0,-0.9306520529908692,-0.06845080100822148,1.8952313700457384,0.9747373526203013,-0.053571130148270266,0.21636383802482295,0.014279951560553759,0.0012602661299752071,0.0015302757986737656,2363.1730251073614
1684734979381493568,24,1684734979381493568,camera_1,25,0,-0.9307896465007712,-0.06937990716001058,1.8955368498121297,0.9745664395465626,-0.053613943291296776,0.21711265882222847,0.014418508016999091,0.0005354255699785426,0.0006505330524509695,2360.077653016663
1684734979391463994,25,1684734979391463994,camera_1,26,0,-0.9297111873238619,-0.06968236929043435,1.893387634295151,0.9745144610744769,-0.05337914038646355,0.21730062894648955,0.015895571326134186,0.0029221544973552227,0.0035403703529371393,2364.3752330134157
1684734979401641130,26,1684734979401641130,camera_1,27,0,-0.9289091170612683,-0.06978989539818259,1.891763138718692,0.9741014555381483,-0.05316843922174141,0.21925100398471892,0.01511517915466736,0.0007858643657527864,0.0009515803474746131,2363.956222424167
1684734979411603689,27,1684734979411603689,camera_1,28,0,-0.9298241840546353,-0.06982337190819682,1.8936396040252899,0.9745513756738025,-0.053163967782167185,0.21721463251380135,0.01552456517426985,0.0025188558065565303,0.0030528662558324884,2363.989535608213
1684734979421502113,28,1684734979421502113,camera_1,29,0,-0.9294377226933097,-0.0690503042894866,1.8928571826913456,0.9743878365797582,-0.0535456475650282,0.21796319595227676,0.013901538135380104,0.00023331388365477324,0.0002828279257339781,2365.1227282603504
1684734979431468248,29,1684734979431468248,camera_1,30,0,-0.9311097270749885,-0.0687140518386894,1.8962669346326102,0.9749995985704114,-0.0537787054085258,0.21511484772657155,0.014464989446716875,1.3955883332528174e-05,1.6953988145001206e-05,2363.4015126089807
1684734979441622972,30,1684734979441622972,camera_1,31,0,-0.9294549775436578,-0.06817284946180739,1.8928674093146043,-0.9746795432622003,0.053428593558672965,-0.21664311900390798,-0.01452350938269986,0.0004493267770158127,0.0005442205032783156,2368.5468557245326
1684734979451555490,31,1684734979451555490,camera_1,32,0,-0.9294368036624961,-0.06795503059328527,1.8928051438473454,0.9745379010997145,-0.053531800988793475,0.2172512622028611,0.014564157178601028,0.0007392303668893874,0.0008955400037639424,2367.3665038920003
1684734979461509466,32,1684734979461509466,camera_1,33,0,-0.928998617887482,-0.06814684942474906,1.8918655445484667,-0.9742296920340415,0.05302280438808564,-0.21871028396732922,-0.01519542895115315,0.000162891301442869,0.00019720199224952913,2365.9172509526848
1684734979471482992,33,1684734979471482992,camera_1,34,0,-0.9301272211056204,-0.06865856836815012,1.8941735614615174,0.9746220927313669,-0.05341997307273357,0.21687794700705862,0.01490097107045595,8.324047666974366e-05,0.00010095721994212784,2364.296773959649
1684734979481556177,34,1684734979481556177,camera_1,35,0,-0.929221644681452,-0.0690708673288382,1.8923664717770567,0.9743556187173894,-0.053620723603177156,0.21801410158720633,0.015026569244124927,9.048430365510285e-05,0.00010958344763899277,2365.831029580906
1684734979491599321,35,1684734979491599321,camera_1,36,0,-0.9307267008701545,-0.0696218546872874,1.89543334502173,0.97465597905829,-0.0541967822377784,0.21657779046628403,0.014229966891718125,0.0022181651002028957,0.002694493440274692,2361.5095693203607
1684734979501537084,36,1684734979501537084,camera_1,37,0,-0.9284832354511542,-0.0697693502557068,1.8909505645956994,0.9742015246679729,-0.05289849784304974,0.21885964723005644,0.015283751989646651,0.0009450982033740728,0.0011430794781365212,2366.9224271578714
1684734979511485338,37,1684734979511485338,camera_1,38,0,-0.9298046924573142,-0.06968054038442996,1.8935927680548892,0.9745594640878784,-0.05303998917392148,0.21715204244300423,0.016297268728505898,0.0010863777279155329,0.0013161291753092713,2364.1165182249388
1684734979521554231,38,1684734979521554231,camera_1,39,0,-0.9304239750040195,-0.06931731378110015,1.8948616531237332,0.9747466924623829,-0.053259715160011656,0.21636060975792115,0.014845026773298936,0.0001190731709357351,0.00014448830742204465,2363.4938958198773
1684734979531776189,39,1684734979531776189,camera_1,40,0,-0.9291538393418082,-0.06876812982622382,1.8922686691253843,0.9743509524982324,-0.05321863738157063,0.21808494743295037,0.015714760710986136,0.000877650934853591,0.0010624684559129769,2365.9323326611193
1684734979541508197,40,1684734979541508197,camera_1,41,0,-0.9284800424912087,-0.06797204514836733,1.8908592620319447,-0.9744784890724272,0.053205337673706034,-0.21756844864338537,-0.014994550111859207,0.00012994371354579926,0.00015708367482773755,2371.3186249266146
1684734979551478385,41,1684734979551478385,camera_1,42,0,-0.9300322268730542,-0.06798084820175174,1.8939933815027565,0.9746234003940729,-0.05358980473831306,0.21674786957746425,0.016053699450119696,0.0005092057690490037,0.0006171494534748846,2365.115809132929
1684734979561581373,42,1684734979561581373,camera_1,43,0,-0.9292843542002812,-0.06805419427852967,1.89246139542779,0.9743896292914324,-0.05345240951945967,0.21792907474876466,0.014649526443416553,0.00018969026859849691,0.00022977609493389644,2366.5053636751836
1684734979571560621,43,1684734979571560621,camera_1,44,0,-0.9308615044284919,-0.0684665064689764,1.8956601044754513,-0.9747335976657879,0.053609421867892006,-0.21631725921477926,-0.015076035099001914,0.00120583176612854,0.0014643308342151184,2361.983367510605
1684734979581516265,44,1684734979581516265,camera_1,45,0,-0.9301218878600671,-0.06933472207325211,1.8941953860433007,0.9745293669563219,-0.05334173120372089,0.21727669752141146,0.015427552174272672,0.0009602149511920288,0.0011645502481597552,2362.7534739112007
1684734979591542482,45,1684734979591542482,camera_1,46,0,-0.9299998683694479,-0.0697207643492266,1.8939684435091872,0.974548104639939,-0.053426569659439684,0.2171582432088289,0.015617003668527857,0.0035996533842990175,0.004364167648014405,2363.3246031934386
1684734979601586580,46,1684734979601586580,camera_1,47,0,-0.9294477223359525,-0.06984112791506185,1.8928457187260732,0.9743479399449019,-0.05328582605259646,0.21817528065915448,0.014361740017057053,0.0018059042777167633,0.002188923694408787,2364.002792974352
1684734979611589670,47,1684734979611589670,camera_1,48,0,-0.9291701960776513,-0.06975684621888588,1.8923058736118226,0.9742723949534648,-0.05311948526395778,0.21848707052737432,0.015330385817008216,0.0013576318742707372,0.0016441548847357117,2364.394154918845
1684734979621518850,48,1684734979621518850,camera_1,49,0,-0.9296931597537034,-0.06906176614163842,1.893367891223788,-0.9747139848495899,0.053751882607599395,-0.2164510952177683,-0.013867452318324786,0.00011996366083621979,0.00014540974501857072,2367.402464493992
1684734979631458759,49,1684734979631458759,camera_1,50,0,-0.9318382772410514,-0.06874872003319903,1.8977793269256846,0.9752620624433125,-0.053789153589122965,0.21390884147665476,0.014616567760513847,0.0003351991472300142,0.0004076187451554225,2362.4252373265344
1684734979641505718,50,1684734979641505718,camera_1,51,0,-0.9289360847455915,-0.06814950475837246,1.8918234201562782,0.9741861546768039,-0.05322371999646103,0.2188580270864901,0.015157032874862402,0.0003123883798252791,0.0003782067482164279,2365.7382925932766
1684734979651435852,51,1684734979651435852,camera_1,52,0,-0.9301227444597064,-0.06800782075173704,1.894191290066497,0.9748411786486804,-0.053388547276689825,0.2158831132276592,0.015126825630983314,0.0006717681244481355,0.0008143248363167812,2366.929544521029
1684734979661514997,52,1684734979661514997,camera_1,53,0,-0.9298692360512887,-0.06821741407996618,1.8936625794343975,0.97459441251185,-0.05315349554474451,0.21705363666417454,0.015104827801508465,3.537735028658062e-05,4.288171206905286e-05,2365.3800509069133
1684734979671489715,53,1684734979671489715,camera_1,54,0,-0.9312964584986391,-0.06874709131381065,1.8965659954807057,0.9749287971440684,-0.0538026276719095,0.2153394792708234,0.0157488546310067,0.000947936627198942,0.0011514790092017235,2361.6781861176714
1684734979681628227,54,1684734979681628227,camera_1,55,0,-0.9288877409050218,-0.06903890336076571,1.8916651714806783,0.9741935070168398,-0.05329333649267057,0.21881059075278203,0.015124699869024077,2.110861532855779e-05,2.555232458096498e-05,2365.659861654859
1684734979691513299,55,1684734979691513299,camera_1,56,0,-0.931581453829885,-0.06969088126276334,1.8971447773958914,0.9751183089935147,-0.053438290388773915,0.21465277406566727,0.014588323134176668,0.0021540943562285975,0.0026186431549401084,2361.6204236266203
1684734979701656341,56,1684734979701656341,camera_1,57,0,-0.9299241305546541,-0.06986975828264917,1.8938448722897838,0.97462002816962,-0.05307003930338297,0.21688683558187852,0.016108139876030565,0.0005942185671301559,0.0007200633424047456,2364.053366790642
1684734979711503028,57,1684734979711503028,camera_1,58,0,-0.9301182423432767,-0.06971906329126419,1.8942410890237904,0.97450835027867,-0.05318311258095074,0.21738195938109417,0.015815040593796743,0.0022141072258818895,0.002685055733214097,2362.100101189454
1684734979721662998,58,1684734979721662998,camera_1,59,0,-0.9310974370707699,-0.0693750227362976,1.896213472457503,0.9749023774411408,-0.053486734222059,0.2156913112919531,0.013482653857009383,0.0018529341323301196,0.0022523279899516555,2362.0438323500557
1684734979731579303,59,1684734979731579303,camera_1,60,0,-0.9301690877089129,-0.06884229706001478,1.8943212913828404,0.9746154435870823,-0.05292481127050178,0.2169733907250178,0.01569232904400568,0.0005254334100754932,0.0006371438295127498,2363.426320755272
1684734979741648197,60,1684734979741648197,camera_1,61,0,-0.9282248877904572,-0.0679633222800426,1.8903391391972437,0.974231739885402,-0.05310985793770628,0.2187210132010403,0.014593778606289059,0.0001747586065903306,0.00021128263467430682,2370.003838282545
1684734979751621723,61,1684734979751621723,camera_1,62,0,-0.92983392568501,-0.0679665508551438,1.8935693108902303,0.9747438228917964,-0.05337650639791635,0.21640111715352453,0.013999456908971945,0.00020499437232501805,0.00024850458634465125,2367.59202421154
1684734979761607646,62,1684734979761607646,camera_1,63,0,-0.928410632590026,-0.06798057057822628,1.8906658554120654,0.9741040417837943,-0.05331039697934855,0.2191156587668896,0.01635987278472228,0.0001538199867354706,0.0001859350635971751,2367.6610827210825
1684734979771500110,63,1684734979771500110,camera_1,64,0,-0.930859845690704,-0.06846395365317184,1.8956643914003768,-0.9747121833099912,0.053707574253563234,-0.21638564340014316,-0.015129755621764282,0.001908041042042896,0.0023171326939774094,2361.7971659390014
1684734979781592130,64,1684734979781592130,camera_1,65,0,-0.9314930290379044,-0.06942475931892278,1.896965587043392,0.9748949503077514,-0.05396273614322838,0.21552265964074108,0.01475947674426513,5.0432863645255566e-05,6.131874771056955e-05,2360.1329222390195
1684734979791567087,65,1684734979791567087,camera_1,66,0,-0.929720913907863,-0.06969765158678673,1.8933911122890466,0.9744065860069663,-0.05307469006716704,0.21781276944044428,0.01650696486961432,0.005020562748541124,0.0060824139488384055,2362.9570617873696
1684734979801612377,66,1684734979801612377,camera_1,67,0,-0.9290950693628637,-0.06982113163025395,1.892148963195271,0.9741453600144723,-0.05328846108100697,0.21897110035591233,0.015900147383385563,0.0012637664913199842,0.001530221458875716,2363.408801945625
1684734979811605930,67,1684734979811605930,camera_1,68,0,-0.9286830165154935,-0.0697282595476325,1.8913194137099982,0.9740590200413389,-0.05301944636820075,0.21937888381811171,0.01645810188434189,0.0005338522314559668,0.0006457828447279641,2364.397677590139
1684734979821560144,68,1684734979821560144,camera_1,69,0,-0.9301846796680571,-0.06911049306795114,1.894370098550597,-0.9747050523451707,0.05347693119838122,-0.21651267206493022,-0.014578806456827603,0.00010791150270961225,0.0001309010014602607,2364.550065879477
1684734979831778049,69,1684734979831778049,camera_1,70,0,-0.9305733410760044,-0.06866015526388322,1.8951326855792534,-0.9749005152595934,0.053893940907297544,-0.2155942493571744,-0.013547993363473518,0.0002677414158824831,0.00032506560825291454,2365.3448396655726
1684734979841904878,70,1684734979841904878,camera_1,71,0,-0.9290352529597472,-0.06815822990164666,1.8919877253689132,0.9743968814440582,-0.05314628131271485,0.21791825266667528,0.015421587772561795,0.00019987343694083393,0.0002419011599248583,2367.445822148001
1684734979851743698,71,1684734979851743698,camera_1,72,0,-0.9300569637233557,-0.0680067066666388,1.8940420529672861,0.9749104718265031,-0.05321638058772333,0.21567291639584457,0.014240150753374418,8.813933527562767e-05,0.00010685356719729833,2368.0519658941785
1684734979861688137,72,1684734979861688137,camera_1,73,0,-0.9297719199555586,-0.0682144779941702,1.8934423790878574,-0.9746054383410343,0.0525333155191118,-0.21715254263033365,-0.015141451245875752,0.00028738485707435757,0.00034825321462405076,2365.6781517291674
1684734979871583461,73,1684734979871583461,camera_1,74,0,-0.9302664410941083,-0.06866797540197075,1.8944500486579952,0.9746681844282927,-0.053623114711807744,0.21657582002189038,0.015537246014193914,0.0008823156822472811,0.001070029120327356,2364.117481488036
1684734979881519556,74,1684734979881519556,camera_1,75,0,-0.9294530508105193,-0.06908739361343047,1.8927989033904042,0.9744260398139902,-0.0531777413522805,0.21774423922862227,0.015920648223061478,0.00016304415476042777,0.00019744687875662041,2365.089135143673
1684734979891558647,75,1684734979891558647,camera_1,76,0,-0.9310461434473913,-0.06964861622389289,1.896070447887644,0.9747994241377839,-0.05336106358560747,0.2160813559885876,0.015084004368570693,0.0011041006073355675,0.0013412069101433062,2360.846358620911
1684734979901570558,76,1684734979901570558,camera_1,77,0,-0.9290082949395764,-0.06980366858233109,1.891966976970543,0.9741569403380536,-0.053266496690659866,0.21893787578391902,0.01572076552624811,0.0010149815352633595,0.0012288136968181102,2364.0032333477875
1684734979911610603,77,1684734979911610603,camera_1,78,0,-0.9293987131419937,-0.06968017515934032,1.8927843900806187,0.9744284104500238,-0.05339058224622763,0.217722301347898,0.015353114701067054,0.002386070802458562,0.0028901871367632555,2365.065853986541
1684734979921669006,78,1684734979921669006,camera_1,79,0,-0.9306327121320159,-0.06934040742319422,1.895282690863076,0.9748160166090427,-0.053269295114654704,0.21601773672774785,0.015246421858517892,0.00012732262257486582,0.00015451949442527228,2363.116164679639
1684734979931630611,79,1684734979931630611,camera_1,80,0,-0.9305441446917915,-0.0688843563000949,1.895072002131792,0.9748513609247211,-0.05351840544414492,0.21577402110540916,0.015562011371851724,0.0020971570193069056,0.0025440722786745085,2364.3509729086654
1684734979941519260,80,1684734979941519260,camera_1,81,0,-0.9300434328862016,-0.06808169408710446,1.8940464931393701,0.9747534502592847,-0.053035236180919085,0.2163578633732377,0.0152397469605537,0.0003028697828995064,0.00036712838294288155,2366.1251594051723
1684734979951487302,81,1684734979951487302,camera_1,82,0,-0.9293850095992229,-0.06793132283649642,1.8926722545259151,0.9746456509312412,-0.0532571171562757,0.21676958892747544,0.015507414653428685,5.621877789963037e-05,6.80542221646386e-05,2368.545337351039
1684734979961750745,82,1684734979961750745,camera_1,83,0,-0.92844178221669,-0.06798262916628507,1.890715211100572,-0.9742053883964475,0.053200539415940974,-0.21871531102379455,-0.016036725006832973,0.00011418468784540892,0.000138023741732012,2368.5827681164965
1684734979971520185,83,1684734979971520185,camera_1,84,0,-0.930818661598509,-0.06846543245773737,1.8955780597452663,-0.9746314493507915,0.05349515670029066,-0.21686534234288377,-0.014185536172121514,0.0025100042403209955,0.0030496248664836517,2361.166154289501
1684734979981444120,84,1684734979981444120,camera_1,85,0,-0.9308385795414912,-0.06937927519052722,1.895653696050534,0.9747189529772183,-0.05356531706949838,0.2164232364070721,0.014652721840254757,4.561079549603164e-05,5.5400439550726266e-05,2361.3572330127936
1684734979991713285,85,1684734979991713285,camera_1,86,0,-0.9297226603168484,-0.0696953284276753,1.8933826694391058,0.9743181158276393,-0.053505409655698125,0.21814722881263712,0.015911218338698494,0.003961160749895498,0.0048010479907863585,2362.3427031720057
1684734980001627922,86,1684734980001627922,camera_1,87,0,-0.9295679538249638,-0.06985145563129101,1.893107878080226,0.974344761953455,-0.053580741385135765,0.21800368040784693,0.015993259052417795,0.00030270370189100504,0.0003667384273359347,2363.271062823477
1684734980011650323,87,1684734980011650323,camera_1,88,0,-0.9300257064737957,-0.06983725291642481,1.8940667367741533,0.9747948501184166,-0.053029963190591264,0.2161508145108292,0.015545049788396052,0.0004912818258162588,0.0005954060674410994,2365.4419322262984
1684734980021460533,88,1684734980021460533,camera_1,89,0,-0.9298807936993981,-0.069092574031006,1.8937830119206644,0.9745611960385044,-0.053821378944834,0.2170734956654949,0.014588756768095868,0.00017310721159446985,0.00020991291463669543,2364.7068150308924
1684734980031505584,89,1684734980031505584,camera_1,90,0,-0.9300558713880394,-0.06863566044565642,1.894100078588039,0.9746798048906118,-0.05334941510494643,0.2166546164530504,0.014625150116871995,0.000296866477583535,0.0003600198741409819,2365.1625827519447
1684734980041600704,90,1684734980041600704,camera_1,91,0,-0.9290932708497631,-0.06816988591097989,1.892116502906553,0.9744488387933761,-0.053056474918589544,0.2176731746194499,0.01590157522211798,0.00031833400134928524,0.00038520151658787794,2367.5626892255386
1684734980051574707,91,1684734980051574707,camera_1,92,0,-0.9297509070886475,-0.06800029572394496,1.89343104784819,0.9747694855700728,-0.05344217414397025,0.21621417447647193,0.014826151883713458,0.00010044162627309561,0.00012169140119932236,2368.135677708313
1684734980061476945,92,1684734980061476945,camera_1,93,0,-0.9293045140049363,-0.06818580203155714,1.8924786197163521,0.9743015686759755,-0.05305521851826901,0.21838892888431657,0.015095456411555174,0.00038307375507429237,0.00046402549868060805,2365.1497363555245
1684734980071438312,93,1684734980071438312,camera_1,94,0,-0.9302850413240809,-0.06867356303991723,1.8944940310539724,0.9746396039631862,-0.053494802732397144,0.21676713581290255,0.01509825481889757,0.00020383496303111315,0.0002472732695269136,2363.6921766302567
1684734980081630229,94,1684734980081630229,camera_1,95,0,-0.9297966949454951,-0.06911243411580081,1.8934949405358312,0.9744544989042546,-0.05370159586349813,0.21758115454325225,0.014594839999021201,0.00028329390625003725,0.0003435042892482819,2364.1163293924174
1684734980091547250,95,1684734980091547250,camera_1,96,0,-0.9313166665171035,-0.0696721196309568,1.89663454048933,0.9749973195811116,-0.053551720276204015,0.2151792840502393,0.014502268123760315,0.001347156081465073,0.0016372245796880292,2361.7168789359275
1684734980101482391,96,1684734980101482391,camera_1,97,0,-0.9284929143906601,-0.06977087981101977,1.8908961008683178,0.9740595940374495,-0.05331540412883507,0.21942207072117664,0.014809788202708521,0.0010237580863758922,0.0012387664583937104,2365.790815575747
1684734980111464738,97,1684734980111464738,camera_1,98,0,-0.929939433204298,-0.06969893054752323,1.8938489494858626,0.9746296888191514,-0.053328027939353935,0.21681719576674172,0.01560111304460074,0.0003876229311572388,0.0004698118425998745,2364.4434686793247
1684734980121661424,98,1684734980121661424,camera_1,99,0,-0.9308312231296784,-0.06935551125851963,1.8956725871975855,0.9747826565696053,-0.05324236053531752,0.21621398382499368,0.01468116801401127,0.00015909837384242564,0.00019322244921075166,2361.841558030341
1684734980131722688,99,1684734980131722688,camera_1,100,0,-0.9295519956357279,-0.06881313211400034,1.8930647318779628,0.9745381896568444,-0.053245908411749615,0.21720413045795897,0.016203575215675815,0.00021275319159030914,0.00025762447096311814,2365.8414903096855
1684734980141461610,100,1684734980141461610,camera_1,101,0,-0.9289559324373616,-0.06801729729760389,1.891817325606979,0.9744237483939431,-0.053366145381682696,0.21776645095274738,0.015105824454273671,0.0006334135105134919,0.0007665356080583158,2368.39045995241
1684734980151512145,101,1684734980151512145,camera_1,102,0,-0.9306571493826422,-0.06802732920968783,1.895247971613673,-0.975078713367792,0.053583777270416556,-0.21485719900159797,-0.013662561532648889,0.0014132221840554848,0.0017153178118666278,2367.1069247080013
1684734980161704778,102,1684734980161704778,camera_1,103,0,-0.9289328446517299,-0.06803140077541978,1.891739991539632,0.9743680046627866,-0.05314943407935255,0.2180052617971868,0.015994842145030306,0.0003564408398233354,0.0004311987714633845,2367.7265561737586
1684734980171662092,103,1684734980171662092,camera_1,104,0,-0.9309062829838878,-0.06847607382668978,1.8957334078814159,0.974933231292331,-0.05347004302730825,0.21547934089417148,0.01465614780102795,0.0010854898719117045,0.001318044397129139,2363.86219370307
1684734980181528329,104,1684734980181528329,camera_1,105,0,-0.9317434854069423,-0.06945242860196915,1.8974819241306802,0.975121528357821,-0.053599957125189876,0.21466633264624815,0.013543085228103184,0.0008751152927288786,0.0010646847460821249,2361.1926707427488
1684734980191481351,105,1684734980191481351,camera_1,106,0,-0.9292308013244812,-0.069676948789492,1.8923729178621693,0.9742493503207434,-0.0529996751137623,0.21855179489138227,0.016258867955680417,0.0013450346450554207,0.0016284383002731669,2363.7941088988437
1684734980201629638,106,1684734980201629638,camera_1,107,0,-0.9293605316833814,-0.06984382567221771,1.8926584964451711,0.9743012075909827,-0.05309691279945047,0.21832185408564417,0.015919885882985714,0.0006091050599934533,0.0007377014656958069,2363.6443513161494
1684734980211639404,107,1684734980211639404,camera_1,108,0,-0.9296989553349472,-0.06980532475377405,1.8933865386166502,0.9745006396580431,-0.053187430272996675,0.21737488265760044,0.01636340296559461,0.0007106190460035577,0.00086079806851561,2363.999304573401
1684734980221462488,108,1684734980221462488,camera_1,109,0,-0.9291643735445921,-0.06905376260219277,1.8922859345541996,0.9744077467493718,-0.05315197529884429,0.21797635846004956,0.013810059708020335,0.0005202014144742861,0.0006302252051441467,2366.5240889126426
1684734980231435298,109,1684734980231435298,camera_1,110,0,-0.9298065825842927,-0.0686243020044538,1.8935874071968122,-0.9746211740049722,0.05353027492587684,-0.21684250455704515,-0.015079955734604326,0.0001273882808163762,0.00015439049780429102,2365.849117627019
1684734980241597890,110,1684734980241597890,camera_1,111,0,-0.9289716695034319,-0.06814774539757523,1.8918803238778974,0.9744337049582845,-0.05291910291916808,0.2177295853601776,0.016503055668164315,1.71054998645559e-05,2.068842687587144e-05,2367.860814630055
1684734980251601457,111,1684734980251601457,camera_1,112,0,-0.9289513764038414,-0.06794064538013764,1.8917951523452046,0.9744293916229609,-0.05327781814257401,0.21779958606560768,0.014566233038196964,0.0005703726928913966,0.0006903907129630362,2368.571507461021
1684734980261492967,112,1684734980261492967,camera_1,113,0,-0.9291675492409279,-0.06818451411166188,1.8922075245156664,0.9742706331095489,-0.05282423910223339,0.2185550606005198,0.01549253721932407,0.00047420960618183017,0.0005741883786907455,2365.3217035458665
1684734980271439075,113,1684734980271439075,camera_1,114,0,-0.929860801846596,-0.06864787455221667,1.8936154953738142,0.9745920980220059,-0.053307101451482965,0.2170510161852185,0.014746246331539002,0.00010502387885935605,0.00012731831088860372,2365.316504216752
1684734980282136678,114,1684734980282136678,camera_1,115,0,-0.9299743525038278,-0.06912185596506629,1.8938733126098206,0.9745535906308361,-0.05333767053999366,0.21722110859987032,0.014675894131359415,0.0003723655390786007,0.0004515842788086627,2364.023830028368
1684734980291634798,115,1684734980291634798,camera_1,116,0,-0.9305937568882345,-0.06961066713682741,1.8951515322502956,0.9748430346461088,-0.05390078644397595,0.21576923492992414,0.014812166635626746,0.000833035635878332,0.0010109859970905946,2363.932279835921
1684734980301657438,116,1684734980301657438,camera_1,117,0,-0.9302013649593404,-0.06989542190658626,1.8943895567555993,0.974662346128814,-0.053370920662634956,0.2167208821182112,0.014728038572848977,0.0010164367995457724,0.0012330650466430798,2363.4708088005427
1684734980311638832,117,1684734980311638832,camera_1,118,0,-0.9294879847741364,-0.06968378046701612,1.89293718865864,0.974588287513437,-0.05296318244918976,0.21715502276529,0.014706027141509558,0.0020813520823139697,0.002521450146538833,2366.2040077437414
1684734980321695089,118,1684734980321695089,camera_1,119,0,-0.9314063777837442,-0.06939816159145296,1.896834685150505,0.9749604463817325,-0.05359399657352754,0.21528693083785372,0.015210158869217684,9.715661872178316e-05,0.00011807209548674989,2360.9329165667305
1684734980331710100,119,1684734980331710100,camera_1,120,0,-0.9300130422923384,-0.068847946219465,1.8940141353573168,0.9746153490795613,-0.05292153493423068,0.2170460374816037,0.014671403895480443,0.0019523472437867895,0.002367744461857199,2364.3231141010765
1684734980341796159,120,1684734980341796159,camera_1,121,0,-0.9294916786748253,-0.06805680299033301,1.8929381166213564,0.9746920488166472,-0.053430465648149864,0.21659541240080618,0.014388281382900327,1.818851160351187e-05,2.2032379387281707e-05,2368.5882277841447
1684734980351482868,121,1684734980351482868,camera_1,122,0,-0.9298755686270903,-0.06797551857901628,1.8936542552987716,0.9747236497448044,-0.053673207552742734,0.21642963313495828,0.013827773509694868,0.0002959809062303975,0.0003588770770813658,2367.347664037603
1684734980361761569,122,1684734980361761569,camera_1,123,0,-0.9296215020021427,-0.06807434582629318,1.89312897821576,0.9745599825930851,-0.05288549054454973,0.21722663556526753,0.01576559605668855,4.289085336495191e-05,5.1948452793550414e-05,2366.1656191049833
1684734980371528863,123,1684734980371528863,camera_1,124,0,-0.9310388395327931,-0.068489829673328,1.8960164794418919,0.9747052110626673,-0.05371503540947039,0.21652894655545718,0.013403798037296038,0.0016037535388022661,0.0019498586234466342,2361.064606322906
1684734980381862401,124,1684734980381862401,camera_1,125,0,-0.9302586089855586,-0.06935246003102372,1.8944597846709206,-0.9746004459060769,0.053585571101494735,-0.2169117631722648,-0.015226437761411676,0.0001607743470231071,0.0001950319573862512,2363.0010975940386
1684734980391550540,125,1684734980391550540,camera_1,126,0,-0.9289316942319961,-0.06964651731763166,1.891780000596887,0.974229755183021,-0.05331889780376412,0.21849366306944706,0.01714638304476707,0.0027465981838759035,0.003322019996612619,2365.1502212507175
1684734980401674747,126,1684734980401674747,camera_1,127,0,-0.9287499937168983,-0.06980374191313854,1.8914367416674625,0.9742086121344539,-0.05291534201274202,0.21879410123224738,0.015706300923794724,0.0007830186659703031,0.0009473626583013352,2365.6662661001324
1684734980411552667,127,1684734980411552667,camera_1,128,0,-0.9296850209280125,-0.06980860258435621,1.8933552844290553,0.9745900202799069,-0.05310571393393177,0.21708655751430536,0.015083171581806469,0.0011104606819571927,0.0013456184880527332,2365.15180176613
1684734980421675443,128,1684734980421675443,camera_1,129,0,-0.9293691842578577,-0.0690683202893894,1.8926921942081962,0.9743743013315296,-0.05340651461591493,0.21800007019342135,0.014779529658861645,0.0007160862587625161,0.0008675993916633935,2365.1486669479646
1684734980431631565,129,1684734980431631565,camera_1,130,0,-0.9302865992734186,-0.06865432758694237,1.8945746668081167,0.9748348520788447,-0.05363593799205306,0.21589135470139706,0.01452997912336204,0.0002556900290073827,0.0003101574101136919,2365.788092073052
1684734980441591978,130,1684734980441591978,camera_1,131,0,-0.9294821384269442,-0.06820225886899203,1.8929321258983987,-0.974526415379996,0.05337979523285082,-0.2173028705150852,-0.015110448485029931,6.371592462528498e-05,7.71808678102039e-05,2366.6515773246074
1684734980451627254,131,1684734980451627254,camera_1,132,0,-0.9292226455412784,-0.06795508138279763,1.892336122967768,0.974681883268321,-0.05344356452192908,0.2166234669136297,0.014604294643331336,0.0002302169450558722,0.0002786752440439218,2369.9724096716395
1684734980461656570,132,1684734980461656570,camera_1,133,0,-0.9296653351596189,-0.068217299267361,1.8932181796364722,0.9743762999147898,-0.053134234526284366,0.2180444240140629,0.014973591487850569,0.0004116419004276395,0.0004989707977735889,2364.1642383756116
1684734980471619367,133,1684734980471619367,camera_1,134,0,-0.9307050204018947,-0.06870757954625015,1.8953525016962964,0.9749531514243218,-0.05368950005381638,0.21531548002783987,0.014934328646974871,0.0005193431570660323,0.0006302459519404353,2364.995161721483
1684734980481684207,134,1684734980481684207,camera_1,135,0,-0.9294854602458108,-0.06909936201351632,1.8928661901703638,0.9743468627831228,-0.05328359209941747,0.2180854150367946,0.01574171356297036,0.0013584629778051749,0.0016456223060989142,2364.1585504196128
1684734980491574048,135,1684734980491574048,camera_1,136,0,-0.9303614167982582,-0.06960823141182368,1.8946655857172323,0.9746574589323462,-0.05369172088212193,0.2166449998273359,0.014999363522218492,0.0012593789142556489,0.0015280681566231624,2363.02135845681
1684734980501541614,136,1684734980501541614,camera_1,137,0,-0.9291683726649699,-0.06982563805581148,1.8922815112282811,0.9743224773961976,-0.05350102231777948,0.21818865978384447,0.015068490077589505,0.0005325543461367488,0.0006449434710225267,2365.170953468536
1684734980511501312,137,1684734980511501312,camera_1,138,0,-0.9295776404172665,-0.06968163363678657,1.8931199590221266,0.9744925244699627,-0.05307612356959299,0.2175103822751837,0.015377856205858543,0.0010542873060330746,0.0012773118648593685,2364.7123030649955
1684734980521536588,138,1684734980521536588,camera_1,139,0,-0.9314851086659206,-0.06941651677509669,1.8969998334556115,0.9751217395366136,-0.05360239797832952,0.21464383007443055,0.013870912913020292,0.0002165204641642049,0.0002632487666579518,2362.403111877968
1684734980531573057,139,1684734980531573057,camera_1,140,0,-0.9301123919896546,-0.06885316408441257,1.8942241337025205,0.9745236790569901,-0.05315338365848106,0.2173421848557393,0.01551423362646634,0.00038681163277942687,0.00046912056970254334,2362.854144231999
1684734980541530132,140,1684734980541530132,camera_1,141,0,-0.9295166295113821,-0.06806587990614024,1.8929651106454657,0.9747746445795863,-0.05306851624508574,0.2162623693611203,0.01512324259545213,7.694613304920495e-05,9.316566476764934e-05,2369.0731954367375
1684734980551529407,141,1684734980551529407,camera_1,142,0,-0.9294905202555513,-0.06795688640595673,1.892870605874461,0.9745214832811416,-0.05334388427984642,0.21736027912539374,0.014724730625483375,0.0004888257972197608,0.0005922088120600069,2366.8709805286485
1684734980561511278,142,1684734980561511278,camera_1,143,0,-0.9294368969550548,-0.06806107854810647,1.8927543043802368,0.9744665499718614,-0.05326936203807681,0.2175894311888259,0.015236715161644147,1.3566197594627738e-05,1.643139779665559e-05,2366.395361468778
1684734980571653127,143,1684734980571653127,camera_1,144,0,-0.9311154682016569,-0.06850896315269657,1.896158618121385,0.9748689661728244,-0.053542056582254645,0.2158281717344443,0.013488782592906012,0.0012138610472902656,0.0014755188622747313,2362.311001110006
1684734980581465244,144,1684734980581465244,camera_1,145,0,-0.9311017894155577,-0.0694201688073482,1.8961508786527688,0.9747892051299949,-0.053325696443474735,0.21614006848688896,0.015028188691061853,0.000559554755454883,0.0006798191217289552,2360.6258373074234
1684734980591480016,145,1684734980591480016,camera_1,146,0,-0.9299810131709996,-0.06973012502460156,1.89392172734453,0.9745891689587323,-0.05326720506651033,0.21698868324145806,0.015952051838819023,0.0015139745810301974,0.0018349860206482457,2363.7330112970667
1684734980601661682,146,1684734980601661682,camera_1,147,0,-0.9297478442436722,-0.06988065198532088,1.89347496539254,0.9745235120199317,-0.05348143321160091,0.21730216151258555,0.014947622684877544,0.0016376979765482247,0.001985158450920768,2364.319108561148
1684734980611593723,147,1684734980611593723,camera_1,148,0,-0.9297431476932009,-0.06980922697221872,1.893443236656235,0.974634757989263,-0.053265451993659826,0.2167775565277204,0.01604279056127519,0.0003092890983680263,0.0003746330580831057,2365.331445354037
1684734980621451854,148,1684734980621451854,camera_1,149,0,-0.9292640800346605,-0.06906948421865405,1.892492923178505,0.9745103594277168,-0.05319615332533874,0.2174468989784868,0.014716479337428362,0.0004219779511913657,0.0005110314332649777,2366.9878090452403
1684734980631459474,149,1684734980631459474,camera_1,150,0,-0.9301842671670429,-0.0686607993980869,1.894355658213173,0.9747296019386754,-0.05355780256628103,0.21640594384611372,0.014220842338462443,8.647036156617105e-05,0.00010490194802267954,2365.2003087312914
1684734980641654253,150,1684734980641654253,camera_1,151,0,-0.9296294083640666,-0.06820282829427138,1.893216890354837,0.9746410160321971,-0.052901819488603306,0.21694446248839258,0.014539173227671152,6.200438656378537e-05,7.513299284872612e-05,2366.9564496290404
1684734980651703596,151,1684734980651703596,camera_1,152,0,-0.9297838123194437,-0.06799575937076209,1.893494917314542,0.9747022471232858,-0.05335868181850267,0.2165091704504958,0.015236785692763469,0.00037278143281582743,0.00045165885997563066,2367.162958824658
1684734980661442041,152,1684734980661442041,camera_1,153,0,-0.928985567308575,-0.06816973844034978,1.8918198204478742,0.9742022275099875,-0.0529354061029847,0.2187866597508665,0.01613258225918471,0.00017160794232040644,0.00020767227237346916,2365.5308390900027
1684734980671470403,153,1684734980671470403,camera_1,154,0,-0.9309950403974503,-0.0687314742188176,1.8959217545816307,0.9749955957873859,-0.05294084440580956,0.21522768245114623,0.016059261985182607,3.824727900791913e-05,4.641633244864455e-05,2363.434284270974
1684734980681596755,154,1684734980681596755,camera_1,155,0,-0.9297725011686865,-0.06912124675596354,1.8934374519575041,0.9744926026862138,-0.052895446882459875,0.21759337527650527,0.01481087589346398,0.0014923888666089624,0.0018091805022617173,2364.17185823433
1684734980691575050,155,1684734980691575050,camera_1,156,0,-0.9316832762521885,-0.06970395934569698,1.89735155488869,0.9751899399307746,-0.053377423241379694,0.21436460500068197,0.014256502685600438,0.0016746941400924698,0.002036299723745745,2361.870186944724
1684734980701577663,156,1684734980701577663,camera_1,157,0,-0.9295459527606865,-0.06986477081158715,1.8930222106793433,0.9745702325414721,-0.05348419131524854,0.21708250915239843,0.015082683564728699,0.0010489517298992723,0.0012707142757855418,2365.88654920517
1684734980711490869,157,1684734980711490869,camera_1,158,0,-0.9301382766714461,-0.06972548449554186,1.8942568860717357,0.9745385204927897,-0.05298604750592019,0.21731214998406778,0.015574990039387926,0.004467142862267792,0.00541774279243483,2362.2797374328356
1684734980721649646,158,1684734980721649646,camera_1,159,0,-0.9308817583159512,-0.06937227492782494,1.8957876654664174,0.9748502081060725,-0.05307959882583279,0.21593651590845891,0.014867718094979276,5.955244705546647e-05,7.23186740473358e-05,2362.1559929850046
1684734980731686592,159,1684734980731686592,camera_1,160,0,-0.9295162164587424,-0.06881644079809367,1.892953944964423,0.9745451217354781,-0.05317095697996224,0.21718845718591379,0.01624281689300038,0.00014888381701894104,0.00018025977758670775,2366.106553615072
1684734980741539478,160,1684734980741539478,camera_1,161,0,-0.9286383413839371,-0.06800429274272218,1.8911669291186706,0.9744119270246363,-0.05312645545182831,0.2178369314352809,0.01568590150805305,0.0019943142688134685,0.0024112349999598306,2369.669394895551
1684734980751612901,161,1684734980751612901,camera_1,162,0,-0.9295328552496406,-0.06796292344453729,1.8929578965092608,0.9745835963238217,-0.05373231972829398,0.21704420820053316,0.013837025682789102,0.0006326374277705327,0.0007667159886374171,2367.639641527203
1684734980761553525,162,1684734980761553525,camera_1,163,0,-0.9294025844046497,-0.06807174671653173,1.892660136281291,0.974669997240685,-0.05314951610573197,0.2167114390595439,0.015155117858707675,5.428923759609461e-05,6.572552466545866e-05,2368.69599080598
1684734980771541357,163,1684734980771541357,camera_1,164,0,-0.930295209653877,-0.06843256741684763,1.8944682946741218,-0.974678684396454,0.05362973012285312,-0.21662423464894126,-0.014115778154538825,0.0009004010498756543,0.0010926370603639216,2364.4812474023765
1684734980781672000,164,1684734980781672000,camera_1,165,0,-0.9302861369160912,-0.06936243948178497,1.8944814586213763,0.9746792437627436,-0.05366498893566904,0.2165485429983446,0.01507213541323094,0.0016967034025583416,0.002058158420613375,2363.791955612134
1684734980791646718,165,1684734980791646718,camera_1,166,0,-0.9291998694556375,-0.06967381810620935,1.8923195473653398,0.9741783489803308,-0.05282570925136139,0.21897062634722383,0.015422503595462206,0.0019079680350841954,0.0023110204413061613,2363.2093627895238
1684734980801691293,166,1684734980801691293,camera_1,167,0,-0.9295648857741389,-0.06986961317840215,1.8931050776962801,0.9745198992889519,-0.05337350864402355,0.2173117371610284,0.01542217095397947,0.0007843030034564435,0.0009501358243990174,2365.080798091715
1684734980811634540,167,1684734980811634540,camera_1,168,0,-0.9298359482582974,-0.06983286293301214,1.8936490848466443,0.9746992705145164,-0.05324537094804931,0.21659992476535164,0.014516718731114686,0.0007032031571725383,0.0008524200104530056,2365.6995169911534
1684734980821545362,168,1684734980821545362,camera_1,169,0,-0.9294837023173715,-0.06908540962650637,1.8929314972169666,0.9744580509662627,-0.05297571307588498,0.21773254594572727,0.014751920794458681,0.001257145791896619,0.0015232994644601519,2365.20242852904
1684734980831810474,169,1684734980831810474,camera_1,170,0,-0.9302139418739074,-0.06865979992395502,1.894414036671898,0.9748070952841331,-0.05344823506341761,0.21609731278073754,0.014013013996314277,0.0006699000514345244,0.0008127017254993725,2365.8424095331
1684734980841610431,170,1684734980841610431,camera_1,171,0,-0.9298967368293521,-0.06822766804913898,1.893756318726164,-0.9747146473894246,0.053039023445781985,-0.21658813671610724,-0.01441517222486084,0.0001620855473447591,0.00019649807056608087,2366.4746377373804
1684734980851627826,171,1684734980851627826,camera_1,172,0,-0.9302517970880402,-0.06803753883037025,1.8944230933479094,-0.9749530420089018,0.05350044837383206,-0.2154581638050572,-0.01349249981067137,0.0007265248132171109,0.0008813493068341428,2367.791321538157
1684734980861639976,172,1684734980861639976,camera_1,173,0,-0.9291307984819054,-0.06817872472744621,1.8921305182161705,0.9743741245382761,-0.052914795105213464,0.2179825846966107,0.016693791008230284,0.0006799552938900888,0.0008226425488228152,2366.4936447847867
1684734980871549129,173,1684734980871549129,camera_1,174,0,-0.9306798019686853,-0.06870735812916141,1.895271777484698,-0.9748906210202076,0.05329146916536647,-0.21567956649839723,-0.015186209405057603,0.00013130677689332515,0.00015933509890051636,2364.2559611508614
1684734980881485223,174,1684734980881485223,camera_1,175,0,-0.929835369428666,-0.06913142692182164,1.893578422021967,0.9746973973054448,-0.05306396192383066,0.2165772915985057,0.015603730156409493,7.994502084329724e-06,9.685575450571217e-06,2365.984091115417
1684734980891482830,175,1684734980891482830,camera_1,176,0,-0.930831635692425,-0.06964051510731344,1.895602270585418,0.9749063937825838,-0.05373010884051092,0.21551177240610517,0.015009154546600666,0.0011038391385227442,0.001340010334783894,2363.318776770028
1684734980901409626,176,1684734980901409626,camera_1,177,0,-0.929024887395831,-0.06982516210674367,1.891991290726486,0.9742857683456903,-0.05296385343512103,0.21849095489423231,0.014959092811989419,0.0019661602709675208,0.002380674868975939,2365.2142231360767
1684734980911682128,177,1684734980911682128,camera_1,178,0,-0.9295054752914713,-0.06968927934565335,1.8929618613364658,0.9743701217916397,-0.05350965590975144,0.21795502925274518,0.01533583084153639,0.0016665698494762182,0.002019310574757922,2364.0401053866362
1684734980921700716,178,1684734980921700716,camera_1,179,0,-0.9306801002280077,-0.06935549509074745,1.8953588883042707,0.9748133264704008,-0.053256727771648645,0.21613010062157983,0.013801416161909977,0.00018367580196354538,0.00022307010322582,2363.063678974402
1684734980931564092,179,1684734980931564092,camera_1,180,0,-0.929295535983473,-0.06879117521634315,1.892507607584492,0.9743695539044394,-0.05288767013275931,0.21808092615306643,0.015734561328907812,0.000632174575002864,0.0007654662299222861,2365.298008214915
1684734980941593647,180,1684734980941593647,camera_1,181,0,-0.9294986864727656,-0.06806665040986482,1.8929203732044053,0.9746564519593368,-0.05328852809129159,0.2166914819970377,0.01580933451566514,5.6532357120886445e-05,6.844089286190004e-05,2367.9513502293285
1684734980951565504,181,1684734980951565504,camera_1,182,0,-0.9298116901906416,-0.06797526169045308,1.8935236976583456,0.9747116598044333,-0.05331549343724795,0.21645452409436577,0.01555883671458675,0.00022065210214350373,0.0002673058708092622,2367.1201943708584
1684734980961639881,182,1684734980961639881,camera_1,183,0,-0.9292960915446064,-0.0680643092489005,1.8924423341362646,0.9745260758376997,-0.0530706146181938,0.21734972515692283,0.015541375442075513,0.00019351168884895742,0.00023424808838949586,2367.625203264877
1684734980971568584,183,1684734980971568584,camera_1,184,0,-0.9312641722298117,-0.06851999317294694,1.8964575443554612,0.9748474896532876,-0.05404961359077196,0.21572501135799427,0.014619530155414994,0.001963354996405542,0.0023862317868773805,2361.462008872303
1684734980981701135,184,1684734980981701135,camera_1,185,0,-0.931358723032998,-0.06945336344916261,1.8966925322360493,0.9749347857098861,-0.053670892240680036,0.21539668408137264,0.015028886374487068,0.0008655266428831965,0.0010518525602447074,2361.0037257904196
1684734980991713762,185,1684734980991713762,camera_1,186,0,-0.9293015979613661,-0.06968380269623398,1.8924967342052552,0.9743129711496383,-0.05306201026972734,0.21825810372858323,0.016188189290423663,0.0032448852143716067,0.003928752010165767,2364.1926250696424
1684734981001629114,186,1684734981001629114,camera_1,187,0,-0.9297370407350919,-0.06986741281202526,1.8934401663876521,0.9743965590014945,-0.053494665870060965,0.21781659957597166,0.015671486166233938,0.0005615736736217514,0.0006806379551854725,2362.9766764054075
1684734981011633396,187,1684734981011633396,camera_1,188,0,-0.9288526466165427,-0.06975421834304937,1.891635518500372,0.9742076693977971,-0.05297749456181764,0.2187746265059098,0.015826078278105404,0.0007504653331125155,0.0009081183254532289,2365.209604867036
1684734981021695852,188,1684734981021695852,camera_1,189,0,-0.9301154685901514,-0.06913566997390466,1.8942129154242213,0.9747536953581251,-0.053313400863566826,0.21630701851042683,0.014972922799840695,0.00024604723148513585,0.00029834021616252865,2365.2778772899187
1684734981031630992,189,1684734981031630992,camera_1,190,0,-0.9311296922830753,-0.06873389646404594,1.8962631894501072,0.9752005661661342,-0.053477809311856875,0.21430988921446534,0.013973226017629561,0.00033369302400387824,0.00040531194176870203,2365.3820374227366
1684734981041510343,190,1684734981041510343,camera_1,191,0,-0.929711453832917,-0.06821248181122674,1.8933663945718215,-0.9746423817774642,0.05297231668437493,-0.21689903130893398,-0.014865111014987926,0.0002731850981945172,0.000331030548024812,2366.57711542421
1684734981051505804,191,1684734981051505804,camera_1,192,0,-0.9298849416822826,-0.06802392745974233,1.8936979673379508,0.9747677762429469,-0.05386928619675831,0.2161463540803597,0.014374839853009405,0.00048315957246813923,0.0005856652880064944,2367.730359935782
1684734981061777353,192,1684734981061777353,camera_1,193,0,-0.9293786696300328,-0.06820046164250912,1.8926241568324804,0.9743489423794993,-0.05295453204257091,0.2181428600318516,0.01592635040514497,0.00030299826175905764,0.00036691422312998793,2365.1110416618176
1684734981071710824,193,1684734981071710824,camera_1,194,0,-0.9300435389937219,-0.06867860578698615,1.8939700522942593,0.9747951574648313,-0.05350459099647511,0.21606443583243015,0.015093683905153542,9.043875616043806e-05,0.00010961873322800886,2366.6086474538315
1684734981081781148,194,1684734981081781148,camera_1,195,0,-0.9298142882338042,-0.0691208081350933,1.8935095641273618,0.9744461366369354,-0.052980303840216444,0.217795613263255,0.01459058057899623,0.00030374075868166983,0.00036831043000179947,2363.575218893705
1684734981091653347,195,1684734981091653347,camera_1,196,0,-0.9308437449859928,-0.06965374641988169,1.8956532735938483,0.974996243058731,-0.05359064098877613,0.21517506309674977,0.014493496509875218,0.003275112947449088,0.003976243257982904,2364.1514698872343
1684734981101602554,196,1684734981101602554,camera_1,197,0,-0.9296437616286469,-0.06987407672762216,1.8932271215846388,0.9742996745241735,-0.05353319781191772,0.21830014549290816,0.01481173291329593,0.0013246390299173072,0.0016060677553209484,2362.5896471366304
1684734981111538171,197,1684734981111538171,camera_1,198,0,-0.9297518879989941,-0.06970297027205984,1.893456512206761,0.9744126351089849,-0.05336117694799024,0.21771011354308584,0.01658034365585567,0.0027565300406422466,0.003339613667766022,2363.000579337124
1684734981121596097,198,1684734981121596097,camera_1,199,0,-0.9299080927617761,-0.06930018723491572,1.893757413416337,0.9744776305298762,-0.05317448183193908,0.21762648163620163,0.014301628209079252,0.0008087184396572411,0.0009809544960184373,2363.373028289876
1684734981131587505,199,1684734981131587505,camera_1,200,0,-0.9292253438030665,-0.06879361852252153,1.892370258894578,0.974412276583653,-0.052944606667673345,0.21792652354264178,0.015020459529798615,0.00045455232611857355,0.0005504428745017175,2366.2165481104757
1684734981141464233,200,1684734981141464233,camera_1,201,0,-0.9289627339221154,-0.06802692200671749,1.8918229577165118,-0.974683678586566,0.053585027000474794,-0.21657171691954438,-0.014733058366772167,2.828464494086802e-05,3.4217431923231916e-05,2371.294120415929
1684734981151537179,201,1684734981151537179,camera_1,202,0,-0.9304029712293798,-0.06803140476109043,1.8947039443911056,0.9751221144054962,-0.05346509976498609,0.214668796193479,0.013987603272798837,0.0007473949517589062,0.0009064521047760108,2368.7732839921946
1684734981161664485,202,1684734981161664485,camera_1,203,0,-0.9291378061154749,-0.06805764586303366,1.892129482641349,-0.9745991612538332,0.05345495540410292,-0.2169002276556154,-0.015916465342927708,0.00023926324502099305,0.0002894430661312235,2369.350967482198
1684734981171534299,203,1684734981171534299,camera_1,204,0,-0.9306119324607041,-0.06847977298042211,1.895124067646826,0.9746994404302322,-0.05349476591594712,0.21651689179495573,0.014823846061060233,0.002969652268802747,0.003604932462851504,2362.8778294215435
1684734981181433677,204,1684734981181433677,camera_1,205,0,-0.9317998606052784,-0.06947822543354379,1.8975737120803742,0.9751170539301464,-0.0537851599584381,0.21449346554793078,0.01569843750428199,0.0008664446213515475,0.0010532631806804682,2360.691427640617
1684734981191487789,205,1684734981191487789,camera_1,206,0,-0.9304512643809109,-0.06976298850939894,1.8948365669876968,0.9747288201044944,-0.05321566630406866,0.21634727083535257,0.016299647836958586,0.0021372783958213404,0.0025919079057741845,2362.810532676055
1684734981201581239,206,1684734981201581239,camera_1,207,0,-0.9288759143972983,-0.06981871155936777,1.891642663226203,0.9741302612826497,-0.053224524397642255,0.2190830614348745,0.0154918123008499,0.001656053471378982,0.002004601379507279,2364.475231182993
1684734981211544752,207,1684734981211544752,camera_1,208,0,-0.9303150613117008,-0.06986721179531545,1.8945770250340122,0.974883635914448,-0.05303655526571935,0.21566095012372652,0.016714509370717882,0.0003611423453548923,0.0004376322388743081,2364.8684155151714
1684734981221659421,208,1684734981221659421,camera_1,209,0,-0.9291906032099887,-0.06906131906529878,1.8923085882611868,0.9744134532708211,-0.053400393084858055,0.2178288265320526,0.0147452512655797,8.891068864613771e-05,0.00010767256119682298,2366.5111819717567
1684734981231463193,209,1684734981231463193,camera_1,210,0,-0.9309551593691843,-0.0687190578101143,1.8959343099116466,0.974984121499829,-0.053338739116547816,0.2152685712807976,0.014845334330617075,4.380781319923699e-05,5.319338278820298e-05,2363.748176205321
1684734981241590499,210,1684734981241590499,camera_1,211,0,-0.9293359864735277,-0.06819491503220744,1.8926164620720058,0.9745401908500019,-0.05319858919388644,0.2173009425647892,0.014887138283645799,1.8355509382672608e-05,2.22288296516012e-05,2367.4990292263683
1684734981251571893,211,1684734981251571893,camera_1,212,0,-0.9292980265561532,-0.06797197737905089,1.8924739600217948,0.9745884356285038,-0.053548017232511104,0.21708477092809883,0.01357178030868722,1.9898900063708425e-05,2.4106369926544623e-05,2368.8121408818984
1684734981261632680,212,1684734981261632680,camera_1,213,0,-0.9291029369311582,-0.06817504848415193,1.892066585029503,-0.9741697879468505,0.05304000005565792,-0.21898087200379884,-0.015078472805296412,0.0001701342553133145,0.0002060500625266581,2364.7818708661944
1684734981271601676,213,1684734981271601676,camera_1,214,0,-0.9305581886156798,-0.06871160577582049,1.89501032168106,0.974853378930603,-0.052882995712607773,0.21588900314211543,0.016006769641322024,0.0006552673439728096,0.0007947051027549149,2364.160154304699
1684734981281774044,214,1684734981281774044,camera_1,215,0,-0.9296968271619066,-0.06910946398849296,1.8932872384834225,0.9743903833868686,-0.05353963200744624,0.2178594964907355,0.015301253429115558,0.00013926817337051034,0.000168799142447116,2363.7672944776705
1684734981291681528,215,1684734981291681528,camera_1,216,0,-0.9308411114867865,-0.06965569044886703,1.8956168015133859,0.974771911949925,-0.05329083220247042,0.2162757493742857,0.014304094142837639,0.003549445667886175,0.004311432552999168,2361.7106419265046
1684734981301709413,216,1684734981301709413,camera_1,217,0,-0.9289300727152582,-0.06982183875551903,1.8917918385046075,0.9742509331556288,-0.05304809967085991,0.2185691982642643,0.0157646419817795,0.0003216868208255619,0.0003893077853272143,2365.2795334941475
1684734981311698198,217,1684734981311698198,camera_1,218,0,-0.9296567875937082,-0.06970234180514182,1.893256590504641,0.9745539033353846,-0.052997578190476784,0.21720295555306254,0.01608795508213351,0.0018034167878795415,0.002184303568750547,2364.849837674061
1684734981321704864,218,1684734981321704864,camera_1,219,0,-0.9308406231221644,-0.06937635402657438,1.8956882788778702,0.9750630518211618,-0.05322642410733989,0.21501668090416887,0.013668199695016446,0.0011321536148898304,0.001374876630722629,2364.866653238423
1684734981331780433,219,1684734981331780433,camera_1,220,0,-0.9301701233397701,-0.06886524608943194,1.894296007438528,0.9748050749447664,-0.053661739736967265,0.2159744424807027,0.015183008446285933,4.253466613590717e-05,5.156908125196389e-05,2365.924288003472
1684734981341760396,220,1684734981341760396,camera_1,221,0,-0.9293153597984609,-0.0680497404177815,1.8925478500715487,0.9745912736053234,-0.05347439025474883,0.21698733118473915,0.015127362776141648,0.0003571246197680011,0.00043236728483206046,2368.39770110487
1684734981351636886,221,1684734981351636886,camera_1,222,0,-0.929427845588565,-0.06795396729065661,1.8927160175345203,0.9747284520131615,-0.05355826208030298,0.21640488095324822,0.01431380098276492,0.0011516746744746342,0.0013947249844537678,2369.5930133539946
1684734981361663341,222,1684734981361663341,camera_1,223,0,-0.9294193457316755,-0.06807016987333478,1.8926762256224647,0.9743818789075631,-0.05312099266206706,0.21800886500738517,0.015173957076369196,5.568058986682445e-05,6.744833587517557e-05,2365.583294599316
1684734981371596336,223,1684734981371596336,camera_1,224,0,-0.9317357070296275,-0.06855661350982847,1.8974129569191656,0.9751396858101447,-0.053575675127931495,0.21453979564370276,0.014314897059953402,0.0014146922185318545,0.001720375155825144,2361.93723133707
1684734981381669044,224,1684734981381669044,camera_1,225,0,-0.9314715944802869,-0.06946148361300818,1.8968988096372905,0.9748119696361404,-0.053813728330925216,0.21595196453481152,0.01450708484808245,0.0008408266876358539,0.0010225358588476095,2359.328169443761
1684734981391631364,225,1684734981391631364,camera_1,226,0,-0.9294332739678001,-0.06969589161786728,1.8927588115313947,0.974268919138278,-0.05305653860278589,0.2184453732273475,0.01633082447972667,0.0024867595930118114,0.0030117813274999497,2363.0333008070006
1684734981401604652,226,1684734981401604652,camera_1,227,0,-0.9288258022614106,-0.069818469580938,1.8915416641872385,0.9741872990797408,-0.053239678337950985,0.21890235375506387,0.014366714401147255,0.0017898784717544913,0.0021672047764662817,2365.487961027072
1684734981411612272,227,1684734981411612272,camera_1,228,0,-0.9296473551723173,-0.06981841366743456,1.893222367294549,0.974444151738998,-0.05308172093415193,0.21773830616091855,0.015197239042261316,0.0012769811000907794,0.0015475810733697462,2363.8498777169734
