%time,field.header.seq,field.header.stamp,field.header.frame_id,field.image_seq,field.transforms0.fiducial_id,field.transforms0.transform.translation.x,field.transforms0.transform.translation.y,field.transforms0.transform.translation.z,field.transforms0.transform.rotation.x,field.transforms0.transform.rotation.y,field.transforms0.transform.rotation.z,field.transforms0.transform.rotation.w,field.transforms0.image_error,field.transforms0.object_error,field.transforms0.fiducial_area
1684337386196262598,15,1684337386196262598,camera_1,18,0,1.0207717057250234,0.9864871735969154,8.215898196419717,0.9958161146444814,0.012855184645600199,-0.05410211684541102,-0.07251186795926719,0.06560715856903698,0.06422895969726845,3602.216985787265
1684337386203052282,16,1684337386203052282,camera_1,19,0,1.0212697917604345,0.9854754925149436,8.218652228336836,0.9958520768982986,0.012762267073377982,-0.0503755234629942,-0.07468649216774406,0.07676152109706891,0.0751970593627587,3601.31397979916
1684337386209547758,17,1684337386209547758,camera_1,20,0,1.0215819510025663,0.9828098850272996,8.219677073469613,0.9960062753735005,0.01280011741172311,-0.0463086692362158,-0.07525399367756916,0.06731893803589628,0.06596911391894406,3603.243658475084
1684337386216112613,18,1684337386216112613,camera_1,21,0,1.0211472774903996,0.981040722540009,8.215414159828995,0.9955669881031717,0.013691822989558438,-0.050318669740923645,-0.07827475747586767,0.09996367348139756,0.09786037900726165,3600.361099676811
1684337386222895622,19,1684337386222895622,camera_1,22,0,1.021193365649723,0.9779968324236997,8.214313979216703,0.9956239218320653,0.013051725905621299,-0.04866062013248338,-0.07870706940894559,0.08455362763561425,0.08275863880408436,3602.1011240060034
1684337386229690074,20,1684337386229690074,camera_1,23,0,1.021634436030314,0.9769257680254939,8.216339418720978,0.9958145816470035,0.012600503197184976,-0.04538500057535773,-0.07832463227590629,0.07442601979710162,0.07289086944936962,3603.4078475352144
1684337386236370325,21,1684337386236370325,camera_1,24,0,1.0220666913940424,0.975730154774153,8.219227989415597,0.9953640554210608,0.012999611820341175,-0.04733469699050786,-0.0827093327809916,0.0744266433212033,0.07294257939754789,3594.7389940551375
1684337386242866516,22,1684337386242866516,camera_1,25,0,1.0213270101835343,0.9735940453663511,8.211743555745207,0.9949800334686258,0.012226958937102909,-0.04666942822670824,-0.08767667274089998,0.0763180155918235,0.07467630874973982,3596.580213863809
1684337386249605178,23,1684337386249605178,camera_1,26,0,1.0214280763638144,0.9705089457949774,8.210478892507796,0.9949321246228007,0.012537163952849725,-0.04914132610971021,-0.08682175408132749,0.07037024626333732,0.06883246355293472,3595.9601347321877
1684337386256608247,24,1684337386256608247,camera_1,27,0,1.0212918413033616,0.9688357720245332,8.208882060394762,0.9954558132413078,0.012388509804173624,-0.054888166922251326,-0.07682146731762984,0.05988787956084707,0.0585498265061691,3601.42498231455
1684337386262928485,25,1684337386262928485,camera_1,28,0,1.0226541852940914,0.9686541759803047,8.219061764925103,0.9956914828409797,0.012528481179415803,-0.050109966080426435,-0.07700973611619918,0.07776507047310588,0.07622196456977774,3596.7805556749245
1684337386269561767,26,1684337386269561767,camera_1,29,0,1.0214524221740375,0.9644617668471825,8.20771008541108,0.9951403250130704,0.012191986046735074,-0.04730593049576111,-0.08549408136852088,0.06710174763065879,0.06559607780391602,3600.739949641428
1684337386276130676,27,1684337386276130676,camera_1,30,0,1.0230796879331603,0.9645838120463046,8.21994272272345,0.9955545567744207,0.011535974860678493,-0.045143038970152746,-0.08185445499323746,0.0664710746241326,0.0651728639993891,3595.4134787148796
1684337386283024549,28,1684337386283024549,camera_1,31,0,1.0219046143991029,0.9602621653203263,8.20853879527008,0.9950173247241048,0.012527012742769125,-0.04637855569362236,-0.08736490727060554,0.07697697520052316,0.07527618662674271,3598.318463577015
1684337386290095806,29,1684337386290095806,camera_1,32,0,1.040481600139047,0.9762725957550362,8.35703059395975,0.9996393166180813,0.010725274557909463,0.008930080654927943,-0.02294469037685631,0.3679449042138003,0.3661226730149712,3597.4545868735313
1684337386296267747,30,1684337386296267747,camera_1,33,0,1.0220893131863498,0.9575963172305122,8.20839038586119,0.995571872172002,0.012449778765698716,-0.051279061127487875,-0.07779529702047158,0.06088256997827557,0.05952819221967031,3602.974241218937
1684337386303034782,31,1684337386303034782,camera_1,34,0,1.0232304491995023,0.955812345043233,8.215985851184655,0.9955163900015269,0.012328372932254908,-0.0487484844019253,-0.08011687542388506,0.07291394782805583,0.07142676042926997,3596.18549698213
1684337386309698104,32,1684337386309698104,camera_1,35,0,1.0231028069824402,0.9541388794746549,8.213747601666531,0.9953661674052935,0.01302116660941905,-0.04503854240312931,-0.08395339006394366,0.08346024060301716,0.08172742736023529,3597.516466968285
1684337386316409826,33,1684337386316409826,camera_1,36,0,1.0230632512729871,0.9528358366402419,8.212506609455625,0.9954654428031858,0.01277344703645748,-0.049755169481238745,-0.08006131616053568,0.07925037409586366,0.07757630392858916,3597.9635998181757
1684337386322948455,34,1684337386322948455,camera_1,37,0,1.037411289238547,0.9645632605716797,8.327122340616562,0.9990023905622434,0.011958232308392209,-0.019232508286369916,-0.0384881144770224,0.2532159104339371,0.2513682385418182,3596.931608978018
1684337386329528808,35,1684337386329528808,camera_1,38,0,1.0237511656949516,0.9493396944513104,8.215525386264053,0.9955197368381977,0.013204102708622007,-0.048262890076252264,-0.080229662087991,0.09212255614693277,0.09025014841217548,3596.0042411756576
1684337386336215972,36,1684337386336215972,camera_1,39,0,1.0234243054565397,0.9477873995839268,8.212940870154906,0.9951462660503031,0.013145521215351263,-0.05016798745606213,-0.0836317970195822,0.07128292553534266,0.06979045799473609,3593.113750586199
1684337386342973232,37,1684337386342973232,camera_1,40,0,1.0249939284879954,0.9480074010750118,8.22427699585557,0.9953353106601486,0.013063033586278451,-0.04878159793784199,-0.08220299391883475,0.06936777341252309,0.06810457217427178,3585.7262030504944
1684337386349712848,38,1684337386349712848,camera_1,41,0,1.0239848603662138,0.9444455261429442,8.214205137088738,0.9955014338655632,0.013524733828177506,-0.05289882467218593,-0.0774318480651592,0.07104186367359944,0.06958207614131434,3594.67836369635
1684337386356373548,39,1684337386356373548,camera_1,42,0,1.0251061414556166,0.9443333785237685,8.222608682407087,0.9957880090800656,0.012633123768741325,-0.049606488750973246,-0.0760647186940335,0.08797393506392837,0.08634633855322822,3591.5490990254325
1684337386362859725,40,1684337386362859725,camera_1,43,0,1.02386906365657,0.9419268900164988,8.21167737177964,0.9949701755811254,0.012662988330098606,-0.05284799616472525,-0.08414919923558067,0.06661341523067676,0.06520457339637627,3590.3614054939826
1684337386369492292,41,1684337386369492292,camera_1,44,0,1.02424385042226,0.9400807837288596,8.213155978796983,0.9953565412306534,0.012500656321696996,-0.04817219295508344,-0.0823925314987702,0.06626855261129094,0.06489740044647208,3594.9265637509525
1684337386376190662,42,1684337386376190662,camera_1,45,0,1.0238902405648465,0.9387250630268589,8.210418148331968,0.9950002408897181,0.013706418739802965,-0.04801205984561872,-0.08649564627258961,0.08333782920817612,0.08156277531508427,3593.270727391122
1684337386382774114,43,1684337386382774114,camera_1,46,0,1.0247162361845388,0.9384516371805,8.21625501023653,0.9957096431309287,0.013240097623732808,-0.05061520873376464,-0.07632238882418564,0.05665881364257075,0.05552726202814307,3595.235926444787
1684337386389436006,44,1684337386389436006,camera_1,47,0,1.0248968886493064,0.9365990086965545,8.216797461117782,0.9955199541652893,0.013342034556706376,-0.051215624055163084,-0.07835158470170406,0.08131631165451836,0.07970105078665536,3592.1532117251472
1684337386396331310,45,1684337386396331310,camera_1,48,0,1.0251051815473124,0.9358831659799796,8.217665992120855,0.9952131504672735,0.013552808147605892,-0.04587036293811992,-0.08522333208836208,0.09354361706209603,0.09172416830300656,3589.6575283651464
1684337386402996540,46,1684337386402996540,camera_1,49,0,1.0254687134321292,0.935361577683124,8.220693595402034,0.995511011575454,0.013072707344937285,-0.05076607603804852,-0.07880187610957716,0.0701017903520551,0.06877714580878974,3588.5745401369063
1684337386409624814,47,1684337386409624814,camera_1,50,0,1.040020405224077,0.9468909821240816,8.336894154893697,0.9994518001560729,0.012549952135295805,-0.008788879885695301,-0.029348823767608424,0.23081239734892736,0.2297173241160183,3590.1990560253894
1684337386416127204,48,1684337386416127204,camera_1,51,0,1.0405255705106975,0.9466309656571985,8.33989699298256,0.9993494115473991,0.011953439284372307,-0.009224159602229904,-0.03275337858564166,0.2680902198408148,0.26682422303801817,3589.0820599131703
1684337386422830104,49,1684337386422830104,camera_1,52,0,1.025618937097766,0.9322655066765806,8.21943187842507,0.9952362564614072,0.01276034289893356,-0.04788432785746261,-0.0839586720918376,0.09116382927459199,0.08942692991683865,3587.115889263659
1684337386429766654,50,1684337386429766654,camera_1,53,0,1.04153171043781,0.9454466016310228,8.346832364073363,0.9995283799917573,0.01116866710168016,0.0016961189661016493,-0.02855523851551418,0.28250909874623176,0.2813708660034064,3588.534499517904
1684337386436335802,51,1684337386436335802,camera_1,54,0,1.0248852951341283,0.9297410289065078,8.212543566080265,0.9953126465626967,0.013199646772720867,-0.04911374257688265,-0.08225779724456253,0.08469058594346279,0.08293473945156571,3593.421785278741
1684337386442857265,52,1684337386442857265,camera_1,55,0,1.0249394031706511,0.9292567950322932,8.212720785383452,0.9951358899163332,0.01374404700654384,-0.04495686658903593,-0.08657102239667394,0.08172888320859784,0.08005060345653675,3592.685669302635
1684337386449557065,53,1684337386449557065,camera_1,56,0,1.0254349146559762,0.9288135832711999,8.216913956834137,0.9955618110970166,0.013384919460982648,-0.05015671319108552,-0.0784973142095879,0.07104576571600772,0.06964687292661459,3591.933945476092
1684337386456427812,54,1684337386456427812,camera_1,57,0,1.025808142336394,0.9286580954482883,8.219124034721396,0.9957234066637121,0.012627507499343613,-0.04355683290699406,-0.08048755048750172,0.07356227438594942,0.07214586080727368,3594.6075416541553
1684337386462817907,55,1684337386462817907,camera_1,58,0,1.0395251664280083,0.9406381405138371,8.328995176904401,0.9989195670110276,0.012138079915906754,-0.018564491003541465,-0.04083779294031078,0.24839011360108998,0.2468748155247386,3590.34474362577
1684337386469662666,56,1684337386469662666,camera_1,59,0,1.025660723087537,0.9276184805157877,8.217259764879405,0.995081357817616,0.013359929343537283,-0.0467526180184986,-0.08630640949663979,0.08817026998167421,0.08645219914773995,3587.1652288452906
1684337386476360559,57,1684337386476360559,camera_1,60,0,1.0250094847817972,0.9267440129201311,8.211629592637106,0.99528264164851,0.013380709225912417,-0.052030787197494016,-0.08078500502806453,0.07940333564511093,0.07774286977088561,3592.4671249664098
1684337386482914209,58,1684337386482914209,camera_1,61,0,1.0250726711627745,0.9268264295577715,8.212796840783806,0.9948418787426385,0.013199128572559915,-0.04164034889151211,-0.09155053603849247,0.0835881875391351,0.08189666780999888,3589.9434183405115
1684337386489769458,59,1684337386489769458,camera_1,62,0,1.0256434023570948,0.9270527976195766,8.216532288754046,0.9954632563573574,0.013038052914290653,-0.04830946019238549,-0.08092657458789818,0.08224438491834007,0.08062045957974222,3591.5266235199806
1684337386496465444,60,1684337386496465444,camera_1,63,0,1.0396849795256151,0.9396982186092406,8.32983174243033,0.9987444686632346,0.01220777474884939,-0.004156916326008346,-0.0484063693839275,0.25088790353402146,0.24921530134254183,3593.484361751892
1684337386502859115,61,1684337386502859115,camera_1,64,0,1.0251492215902054,0.9265520591563197,8.213066645493363,0.9955566411240996,0.013552141872948242,-0.048651199293067014,-0.07947562249962284,0.07147144980717712,0.06999890622923027,3595.570463820389
1684337386509442329,62,1684337386509442329,camera_1,65,0,1.042059857131859,0.9420281431435036,8.348648835977151,0.9992661176348944,0.012456632735281211,-0.004208983632549034,-0.03597697742396812,0.3203899002564867,0.31897462203575594,3588.331385547558
1684337386516104698,63,1684337386516104698,camera_1,66,0,1.0409289081590396,0.9411515691117857,8.339187661943232,0.9989152457782633,0.012008932343580492,-0.0023038903621861416,-0.04493116273721507,0.287322614562072,0.2859539313735564,3587.398585957649
1684337386522878885,64,1684337386522878885,camera_1,67,0,1.040182810342811,0.9407764113596999,8.333601968473625,0.9991292224829667,0.01177965141212471,-0.004050397545307896,-0.03981998082516679,0.2795422003882777,0.27796851760560326,3591.3650736645664
1684337386529575586,65,1684337386529575586,camera_1,68,0,1.0399411779114667,0.9409783125946953,8.332426005146782,0.9991838764305606,0.01185867537053862,-0.015744710609482054,-0.035257013309100464,0.29752365972035477,0.2957129677864007,3591.740218516264
1684337386536327600,66,1684337386536327600,camera_1,69,0,1.024830552744495,0.9278152305227422,8.211108933008768,0.9953142684503332,0.012890839611240752,-0.044134126776915535,-0.08506181356481048,0.09582858715475595,0.09382445985049823,3596.180565097281
1684337386543164968,67,1684337386543164968,camera_1,70,0,1.0251940016780305,0.9284598102882018,8.215496241252858,0.9960571433731196,0.009195739214253432,0.07407407058470411,0.047944108946738076,0.09178675478051446,0.08995416658257101,3593.255681212875
1684337386549525022,68,1684337386549525022,camera_1,71,0,1.0251677519140245,0.9295261036728859,8.21515732033454,0.9951866494146777,0.013342058461835667,-0.04558622687068686,-0.08571708244266492,0.0889873408486892,0.08720624357240758,3590.8995104041533
1684337386556282997,69,1684337386556282997,camera_1,72,0,1.0247128186153978,0.9295794148075964,8.211325234975671,0.9949571643364047,0.013505353204634366,-0.04779149751069787,-0.08714252312254693,0.07461292129301,0.07304998665569679,3590.8899524695603
1684337386562972307,70,1684337386562972307,camera_1,73,0,1.0256756042568986,0.9311211425971457,8.219691948587798,0.9955875488847635,0.013275227836185193,-0.05035857472918335,-0.07805904677083371,0.07936986419736058,0.07785570748871373,3589.950900473546
1684337386569561958,71,1684337386569561958,camera_1,74,0,1.0255849341043544,0.9322923110486554,8.219453495301625,0.9956091651378107,0.012677315847243978,-0.047697353583241286,-0.0795401685795041,0.08735432419416611,0.08568497368535434,3591.4405768276483
1684337386576233386,72,1684337386576233386,camera_1,75,0,1.0266544551634478,0.934020559232257,8.228547709528588,0.9958419281827012,0.013515859859003642,-0.0449943566733766,-0.07804923749262783,0.07424981602525804,0.07299088551519352,3587.2988120599766
1684337386582858562,73,1684337386582858562,camera_1,76,0,1.0411637841577932,0.9478414743183474,8.345094973291305,0.9990769813402416,0.011645698106688947,0.0008935315113460417,-0.04133720688576773,0.2736760575098743,0.2724844738289428,3588.2295765113968
1684337386589576959,74,1684337386589576959,camera_1,77,0,1.0252552937861381,0.9350504263444629,8.218320943429285,0.9952586961357982,0.013033730047334371,-0.04827410898939571,-0.08342577568356262,0.07396022187094786,0.07252594974893264,3588.6112027334166
1684337386596187829,75,1684337386596187829,camera_1,78,0,1.0256518536163328,0.9365407372097494,8.222508480770072,0.9953090795036847,0.012785851691657316,-0.04623815532964501,-0.0840142323999842,0.07875463204982225,0.07731054761360695,3586.352866827656
1684337386602787733,76,1684337386602787733,camera_1,79,0,1.0245342463602283,0.9363250607565854,8.213547942422798,0.9953502473868722,0.012231653570349598,-0.048444868160529606,-0.08234905237303222,0.07557319004263263,0.07402146776755605,3593.908143407258
1684337386609507322,77,1684337386609507322,camera_1,80,0,1.0245277132110944,0.9383036056971014,8.214767438288115,0.9954458563788884,0.012836865415496638,-0.051975580904126226,-0.07887522357549642,0.07383475407914375,0.0723348241443389,3592.9807666761913
1684337386616167068,78,1684337386616167068,camera_1,81,0,1.0246188546668815,0.939355607474593,8.21633336235503,0.9952693003298821,0.013024777410808172,-0.05302240383987203,-0.08036168045348015,0.0706005193242163,0.06918830901887982,3589.3562345198875
1684337386622945785,79,1684337386622945785,camera_1,82,0,1.024338940776932,0.9403201023927441,8.214391213806518,0.995224128981163,0.01291612515181024,-0.04894115657966497,-0.08346777819849348,0.09110083283303538,0.08924277120017583,3592.1113256600806
1684337386629437923,80,1684337386629437923,camera_1,83,0,1.0395862785552306,0.956394353338624,8.3383925702724,0.9990221003326749,0.011687758091169394,-0.001081800585135667,-0.04262709308863667,0.2882476655722712,0.2864102309497296,3595.8543832451114
1684337386636146783,81,1684337386636146783,camera_1,84,0,1.0241048531824384,0.9434901458442814,8.214857556047868,0.9954779590286669,0.013638841289476062,-0.050350147028584494,-0.07938814641116493,0.07486552680347813,0.07334022540509956,3594.657445201593
1684337386642959117,82,1684337386642959117,camera_1,85,0,1.0396691362481905,0.9588915379408782,8.340890123224442,0.9994469987778064,0.01183344276387651,-0.010232486709979565,-0.02934216219230738,0.285842678611516,0.284351379708742,3592.129626206851
1684337386649699926,83,1684337386649699926,camera_1,86,0,1.023850120550542,0.9469159700880083,8.214453726050404,0.9951738607607701,0.012947752592033613,-0.05513289558849839,-0.08013555007202994,0.06986662866620465,0.06842979160514501,3590.112666298053
1684337386656365156,84,1684337386656365156,camera_1,87,0,1.0242801668332535,0.9486112623671538,8.219457604285198,0.9954720649259321,0.013403512412216516,-0.046833134815832615,-0.08162335015446619,0.06506901947795996,0.06380827262657264,3592.401931823696
1684337386662947177,85,1684337386662947177,camera_1,88,0,1.0238916726689546,0.9497728181656738,8.217197973722191,0.9952578148561848,0.012541120243795577,-0.039782032152564796,-0.08787486664874761,0.08235516707645729,0.08074533657866222,3594.2336491857413
1684337386669520139,86,1684337386669520139,camera_1,89,0,1.023787022408947,0.9523500274594582,8.21839380035649,0.9953798283828025,0.01291420512826692,-0.04471431543151085,-0.08398125118155379,0.0890189284873486,0.0872755532402698,3593.419929725467
1684337386676221132,87,1684337386676221132,camera_1,90,0,1.0230569158411724,0.9530340736968363,8.213352329756608,0.995476464234753,0.012977367481696546,-0.04907359911035176,-0.08031176102088851,0.0868589044403052,0.08503802247935151,3597.6646472995058
1684337386682927131,88,1684337386682927131,camera_1,91,0,1.0238681042320419,0.9551576379167313,8.220478009931956,0.9957365124712318,0.012185205546030798,-0.04714337228073183,-0.07834424642199164,0.06867907013293006,0.06735311202128799,3595.199128156324
1684337386689506530,89,1684337386689506530,camera_1,92,0,1.0382808467743831,0.9714208102088837,8.337456734291766,0.9991825018698806,0.011638386734114617,-0.019921581150472843,-0.033196483484527375,0.29820309360002284,0.29606804032891426,3597.5826218072616
1684337386696168899,90,1684337386696168899,camera_1,93,0,1.0227578932163273,0.9587221986535331,8.214202969595842,0.9952385858453037,0.012306501656040952,-0.04915521122561257,-0.08326147050704473,0.05902872591468622,0.05780138607930262,3594.757518923783
1684337386702810525,91,1684337386702810525,camera_1,94,0,1.0402742441063493,0.9763735647295833,8.35592751776846,0.9996657249081435,0.0114949669743226,0.010429409886167366,-0.0206768369815473,0.3524927722464781,0.3509821992169362,3594.015225244453
1684337386709719181,92,1684337386709719181,camera_1,95,0,1.0389886300776674,0.9782711190705939,8.346927411600126,0.9991355921716962,0.011289444963416346,-0.0028390744602179285,-0.039906848338867075,0.3150016032450367,0.31321971131457343,3595.2457730327733
1684337386716453790,93,1684337386716453790,camera_1,96,0,1.0223545440705635,0.964185038393438,8.214257217474294,0.9955793269924678,0.011887887488114686,-0.04409715029350074,-0.08207266982550912,0.09017355366086122,0.08829535237877842,3601.0914096954207
1684337386722942352,94,1684337386722942352,camera_1,97,0,1.021201952989093,0.9647493004202293,8.206051354891903,0.9950438846786658,0.012707230463300476,-0.046038221909200296,-0.08721625984288676,0.07101588293517125,0.06940087919448804,3601.575111681333
1684337386729939222,95,1684337386729939222,camera_1,98,0,1.0213132617223326,0.9678509640814603,8.2083667102353,0.9953785386989088,0.012982790747110663,-0.0514012282235888,-0.08006825575187938,0.06589238120432128,0.06441763058967996,3602.13448585503
1684337386736281871,96,1684337386736281871,camera_1,99,0,1.0200302675227295,0.968243008970514,8.199091933389894,0.9950875726135149,0.012880021648569913,-0.05963847360054737,-0.07796204422071118,0.06118894782048301,0.05968119502895633,3604.076956136618
1684337386743173122,97,1684337386743173122,camera_1,100,0,1.0220082950427762,0.971661780999619,8.215787201481287,0.9957022898605405,0.01245610930363527,-0.0515403684107009,-0.07593013717609975,0.046728197812626604,0.04575944863034743,3599.7415375502023
1684337386749534606,98,1684337386749534606,camera_1,101,0,1.0211955116836227,0.9740327877514194,8.21137609509766,0.9954673612038291,0.013439393829690383,-0.051954975424522695,-0.07851621488592649,0.08754349055379862,0.08563258319101276,3601.2166398958652
1684337386756196260,99,1684337386756196260,camera_1,102,0,1.0218435186164505,0.9763188252706777,8.218203370540706,0.9955441419367654,0.01282435583079178,-0.04667995818849566,-0.08092205420301021,0.053168951028055744,0.05209412666442165,3598.094059524331
1684337386762878894,100,1684337386762878894,camera_1,103,0,1.0211654156510852,0.9771986166590276,8.21293826949832,0.9952665939268783,0.013007285546386124,-0.04648949366414779,-0.08434420261497654,0.08710640816570958,0.08524450185262208,3599.613492531177
1684337386769491910,101,1684337386769491910,camera_1,104,0,1.0207456546133413,0.9799133412443335,8.211823995808105,0.99566635876495,0.012865448730794536,-0.04926436546462179,-0.07782033505498041,0.07198921037343098,0.07041303228490166,3604.8586619712296
1684337386776244163,102,1684337386776244163,camera_1,105,0,1.021480834574181,0.9820792491709505,8.218922262017461,0.9960376613719895,0.01251568841942728,-0.05035234297359778,-0.07222863856584172,0.07716041157254949,0.07559554179739139,3602.794401261722
1684337386783141613,103,1684337386783141613,camera_1,106,0,1.0207058557320141,0.9827688905564915,8.213092080756201,0.9957968952964419,0.013079162890482865,-0.047509575786093904,-0.07720310242909241,0.08440443891231553,0.0825806730529183,3606.2701597485
1684337386789601564,104,1684337386789601564,camera_1,107,0,1.0207462440967856,0.9858401085639295,8.215202443842372,0.9956290877375831,0.012529865518045455,-0.04342796989988519,-0.08172963692139239,0.08826280997891445,0.08640621189873511,3604.032224100665
1684337386796216249,105,1684337386796216249,camera_1,108,0,1.0205091041270884,0.9871149237963447,8.214134349864052,0.9952101669059576,0.01283759573435428,-0.042965780529180646,-0.08686691848048654,0.0710552699456457,0.06955135410958026,3600.2464371735114
1684337386802832841,106,1684337386802832841,camera_1,109,0,1.0208694444467863,0.9890139165969929,8.217991859787627,0.9955616927351166,0.012294708506472669,-0.04873069288488187,-0.07956805685757089,0.06902848833124153,0.06760730957152761,3599.4288223476033
1684337386809476137,107,1684337386809476137,camera_1,110,0,1.020850258323507,0.9919282709979693,8.219332162321338,0.9960451953284518,0.01208469036006738,-0.04973581025189781,-0.07262422667812027,0.07001666539872531,0.06859363574515676,3604.0160650457274
1684337386816138744,108,1684337386816138744,camera_1,111,0,1.0199932263676401,0.9924219474187556,8.213674166175235,0.9956819168922002,0.012622943185422963,-0.047897543614650276,-0.07851119025268902,0.06097402084560599,0.05965100390766355,3605.5104896863922
1684337386822952985,109,1684337386822952985,camera_1,112,0,1.0200830611923275,0.9939435867695817,8.214919846724232,0.9956828499020427,0.012176411960086187,-0.049628859523010944,-0.07748789392653366,0.05971577258605976,0.05843430493598689,3603.9726786833485
1684337386829624414,110,1684337386829624414,camera_1,113,0,1.0202494794489616,0.996680364886104,8.21775349413857,0.9958651579452675,0.012162047183911848,-0.04969908368866899,-0.07506445816396919,0.061003556082141586,0.05973170921411056,3603.9687041515726
1684337386836282014,111,1684337386836282014,camera_1,114,0,1.0197281910209541,0.9976241211062465,8.213960152766987,0.9959120470491687,0.012308650006080725,-0.055933094779763735,-0.06985113159942544,0.05126211764581967,0.050151776845922424,3605.884945194937
1684337386842796802,112,1684337386842796802,camera_1,115,0,1.019224919080861,0.9983727613529005,8.211254144656499,0.9954241436720199,0.011720575606270177,-0.04801071167319708,-0.08178247897268064,0.05916732450714335,0.057842760290947,3605.1673509796383
1684337386849475622,113,1684337386849475622,camera_1,116,0,1.0189294075253612,1.0006218626665,8.209917836522202,0.9953729175462348,0.012587525654214032,-0.054140362340522614,-0.07837812436539979,0.04739994638657663,0.04631779708288233,3604.1107109786817
1684337386856203079,114,1684337386856203079,camera_1,117,0,1.0196371673577507,1.0024538647043304,8.215962603836694,0.9957044520874299,0.01192750812106839,-0.04496411414185483,-0.08005377619282632,0.054651700280373916,0.05348964066491304,3605.8469736199477
1684337386862873554,115,1684337386862873554,camera_1,118,0,1.01768451502238,1.0016786719307549,8.201215268560869,0.9949822519676691,0.011596781906835937,-0.050945018511699074,-0.0853254827562889,0.08446899559930898,0.08236886604967117,3608.139312845422
1684337386869548082,116,1684337386869548082,camera_1,119,0,1.0182373458822724,1.004415914977508,8.207209238448012,0.9954740436296211,0.01226851225325166,-0.050596371835760316,-0.07950420884356137,0.07516160765953828,0.07339050488398763,3609.387531106536
1684337386876231908,117,1684337386876231908,camera_1,120,0,1.0187989996611966,1.0061999860609836,8.212656324607472,0.9957767569407259,0.011604910628138211,-0.046350272581467,-0.07839405983585312,0.05990080606716219,0.05856968138825184,3609.727310185496
1684337386882873535,118,1684337386882873535,camera_1,121,0,1.0183004341166726,1.0066183495380927,8.208907145420344,0.9954730190512581,0.011936920691345334,-0.04545744698881816,-0.08261112987147107,0.08726265585573856,0.08525177073828076,3609.6993479334046
1684337386889865875,119,1684337386889865875,camera_1,122,0,1.0175245017389591,1.007702703493972,8.203764722505742,0.9956333730551623,0.011840885832610016,-0.05210977665175568,-0.07654117231139908,0.0597671744908439,0.05830325765514662,3614.297630479444
1684337386896250963,120,1684337386896250963,camera_1,123,0,1.0180579763618096,1.0092949676453764,8.209495488430848,0.9955884639048178,0.012191963419125354,-0.05392603381018915,-0.07580863700881732,0.053428605213412084,0.052190925701146085,3608.3050155981905
1684337386902830839,121,1684337386902830839,camera_1,124,0,1.0185461649933492,1.0106120544547303,8.213191077267258,0.9953678795377701,0.012061263297228128,-0.045481706061486785,-0.0838374899784973,0.06915998226031661,0.06763140036164299,3605.0799983443
1684337386909767627,122,1684337386909767627,camera_1,125,0,1.017529989419594,1.0112612766108457,8.206201517270836,0.995463285119918,0.01239273555180032,-0.05064909460745316,-0.07958603708722482,0.03789891756605357,0.03699034219850638,3611.044754654053
1684337386916194200,123,1684337386916194200,camera_1,126,0,1.0182448897689453,1.0126492577263577,8.212293337872785,0.99558560127901,0.011569017907132434,-0.04832423381790314,-0.07962560377472384,0.05554793433111627,0.0542993144181853,3607.89359498024
1684337386922890186,124,1684337386922890186,camera_1,127,0,1.0177087867377033,1.0128247582128702,8.208686770601187,0.9955866561402553,0.012159150638417129,-0.049207315860981926,-0.07898104352928537,0.039879621428553946,0.03894588280929468,3610.975092935143
1684337386929655075,125,1684337386929655075,camera_1,128,0,1.0181735118105866,1.0144370509086378,8.21231608385327,0.9954558067702557,0.012168308764381377,-0.04931107754788247,-0.08054866020152547,0.07606952547212131,0.07436117431374711,3606.2145479938463
1684337386936312437,126,1684337386936312437,camera_1,129,0,1.0187171622099136,1.0157042312878188,8.217716548915863,0.9956524941820547,0.01152484873778338,-0.04346730207478059,-0.08157133283797964,0.07523956531076692,0.07365328115837658,3605.724069783696
1684337386942883253,127,1684337386942883253,camera_1,130,0,1.0173871930375114,1.01478823792024,8.207195160821325,0.9952524931896723,0.012110403779634503,-0.048934098143424615,-0.0832542308770266,0.0572145893384004,0.05585605240122305,3608.4652429251587
1684337386949589014,128,1684337386949589014,camera_1,131,0,1.017322549522637,1.0155279274731583,8.206945621017423,0.9955336451216652,0.012570367547606922,-0.05130914712596853,-0.07824396917139606,0.07034306897548959,0.06866128515244178,3611.559709842958
1684337386956303596,129,1684337386956303596,camera_1,132,0,1.0175233122723795,1.016170122355203,8.208828950277432,0.9955962513128859,0.012248784758918866,-0.05223774937983049,-0.07687190113031325,0.058841451435000636,0.05746242095150214,3610.381741916351
1684337386962996482,130,1684337386962996482,camera_1,133,0,1.0182636952366404,1.0173144012030408,8.215463403404353,0.9958122156983565,0.012292821837695757,-0.048024943003873305,-0.07681485824156314,0.057301532782730646,0.056048036164673354,3608.6220968505945
1684337386969594478,131,1684337386969594478,camera_1,134,0,1.0190072611939116,1.0184886533309494,8.221173483552695,0.9959405563088575,0.01175934090134518,-0.04673315151383933,-0.07602722374488001,0.07438794305198826,0.07286416983373549,3605.5420330832717
1684337386976211547,132,1684337386976211547,camera_1,135,0,1.0178201245479348,1.0175723882060923,8.212018542038685,0.9959992642969775,0.011487699878634723,-0.04886839168169889,-0.07392819871890646,0.050685080714174546,0.04953376199888487,3613.646332257661
1684337386982754468,133,1684337386982754468,camera_1,136,0,1.017812335087052,1.0176826407842785,8.21208483466615,0.9958797602874628,0.011547385354405918,-0.04572188405607417,-0.07745753842993734,0.06536924693500623,0.06388875544597292,3613.1278772137593
1684337386989493131,134,1684337386989493131,camera_1,137,0,1.0188639748032329,1.018847414906416,8.220577161737397,0.9961026777569403,0.011493840952101621,-0.048140917355562876,-0.07300547282078199,0.061889046177384444,0.06060772566580315,3607.643930813182
1684337386996163129,135,1684337386996163129,camera_1,138,0,1.0179368739369934,1.0179061709142005,8.213042764694096,0.9958732683979077,0.012313879188037842,-0.049104295952857695,-0.07532310262320245,0.048813329194672406,0.047716192314740453,3611.25516367337
1684337387003184318,136,1684337387003184318,camera_1,139,0,1.0171468967288395,1.016964467260437,8.205912313632743,0.9955390537271701,0.011784396128412694,-0.050930995490748615,-0.07854396355048963,0.05937800552055705,0.05794570206361675,3612.716014111531
1684337387009667158,137,1684337387009667158,camera_1,140,0,1.0180423675024393,1.0176575505891226,8.213544124508774,0.9958444127906659,0.011996012016080053,-0.045870525359534585,-0.07775536066769946,0.05622495980060194,0.05497210868880768,3611.3829903613077
1684337387016177654,138,1684337387016177654,camera_1,141,0,1.0182510316848805,1.0176952573774771,8.215198210507298,0.9959306737978626,0.011633129118890242,-0.04650700682015377,-0.07631422942065731,0.05589713231893256,0.05467125733415876,3610.733658323996
1684337387022819519,139,1684337387022819519,camera_1,142,0,1.0190484981731922,1.0182263969126155,8.221473768979465,0.9961095896512591,0.01189119422322038,-0.04645241965628811,-0.07393549629793571,0.06804205245862249,0.06665133146565244,3607.4211571502974
1684337387029563426,140,1684337387029563426,camera_1,143,0,1.0173727200031775,1.0159185694175812,8.20790105293859,0.9953373300174865,0.011704572794902363,-0.05004252115130751,-0.08162321070731633,0.0556635819375515,0.05434789215419308,3608.635679641041
1684337387036205530,141,1684337387036205530,camera_1,144,0,1.018148965799575,1.0162806591260092,8.213799947327171,0.9955767720744716,0.012149604505430176,-0.04722926465229234,-0.08030363987106238,0.06528418757079636,0.06383610065259665,3607.2944749773596
1684337387043001651,142,1684337387043001651,camera_1,145,0,1.0185790512723767,1.016329984971638,8.21658430683115,0.9956407298721381,0.011967938121500118,-0.04885372830631834,-0.07854692041938127,0.04957572040439118,0.04850726768772475,3605.05846103537
1684337387049606323,143,1684337387049606323,camera_1,146,0,1.017800600365543,1.014508324129342,8.210230330115417,0.9956902058596311,0.011832566088316381,-0.053247721298824505,-0.07500456327086832,0.06737354816868901,0.06581996900804161,3609.700875768147
1684337387056319952,144,1684337387056319952,camera_1,147,0,1.018343805867082,1.0144822855512456,8.21423363990358,0.9957363140553444,0.012101084265859749,-0.0481197279008687,-0.07776405607871563,0.06806620171118993,0.06656055248158364,3608.37669216271
1684337387063140630,145,1684337387063140630,camera_1,148,0,1.0170467832905916,1.0125311013379794,8.203053512778595,0.9954032043767449,0.01187545772658396,-0.05180359597292938,-0.07967321798801578,0.05864277412183583,0.057191470209808234,3612.817630706239
1684337387069614648,146,1684337387069614648,camera_1,149,0,1.0186350484967535,1.0128167860640236,8.215188890092607,0.9957337077220276,0.012095622681115973,-0.04678907220029098,-0.07860573732709157,0.06382899511663709,0.06243610798156474,3607.6903211103636
1684337387076176643,147,1684337387076176643,camera_1,150,0,1.018540233001229,1.0120101090753972,8.213949276135706,0.9956279179445289,0.012075711076535201,-0.048608962930596404,-0.07884411794325903,0.06678853266930673,0.06531234819130263,3606.8179313531145
1684337387082984447,148,1684337387082984447,camera_1,151,0,1.0182371592016775,1.0110418046178253,8.21162316613098,0.995898170318942,0.011997858316192867,-0.04939733130568794,-0.0748517829519419,0.05367690997081809,0.05246057930714589,3611.845519430761
1684337387089460134,149,1684337387089460134,camera_1,152,0,1.0182475038358392,1.0093724607643744,8.21046825413461,0.9958298261157384,0.011882966287236174,-0.04702759842044277,-0.0772667944030292,0.045425923497532494,0.04438611390498384,3612.572517576161
1684337387096256732,150,1684337387096256732,camera_1,153,0,1.0183320801132998,1.0084906619860519,8.210580331978585,0.9956628383554913,0.012332121504922293,-0.054193723158168824,-0.07460878947771821,0.06759928895917255,0.06605545963824044,3608.025919349864
1684337387103209972,151,1684337387103209972,camera_1,154,0,1.0185039468935493,1.0077355280427174,8.211359657128066,0.9958845132737679,0.011957371024005996,-0.048891597388787775,-0.07537021430536975,0.0562723130278755,0.05499628256809277,3611.6366468401393
1684337387109742641,152,1684337387109742641,camera_1,155,0,1.0192904837057548,1.0065076218594935,8.216616671860919,0.9958610617353141,0.011660957726277453,-0.048455415228235564,-0.07600552953159591,0.05922300188103691,0.05795729940584757,3606.5993032635906
1684337387116285085,153,1684337387116285085,camera_1,156,0,1.0200851300554383,1.0063085228065372,8.222490473348477,0.9958053677020166,0.011891080610223217,-0.047171024962815035,-0.0774930078247714,0.07585553034732584,0.07434266986017318,3601.0932587881107
1684337387123056173,154,1684337387123056173,camera_1,157,0,1.0198999633399917,1.0049530106387419,8.220014773755318,0.9957772079799722,0.012122625714347137,-0.046910347613418314,-0.07797572250508135,0.08053008402930573,0.07887989485951967,3602.8792023924752
1684337387129563093,155,1684337387129563093,camera_1,158,0,1.0192915438977617,1.0022798760933112,8.213894546151584,0.9953872152721215,0.011739756594401166,-0.043781763662303484,-0.08455546675723505,0.06250553781865165,0.06115301994612611,3604.1479746581176
1684337387136445522,156,1684337387136445522,camera_1,159,0,1.019755044900691,1.0012791733195092,8.216130530997752,0.9953580380544396,0.0114943824445825,-0.04908838380512916,-0.08197917923494476,0.06365953327622265,0.06230279711263157,3599.9700829497892
1684337387142804384,157,1684337387142804384,camera_1,160,0,1.020368389937282,1.0009276348132343,8.220974934998523,0.9958947330146363,0.011535386538886689,-0.04467735402912362,-0.07787521844631429,0.06438612545025535,0.0630938218208323,3603.5489030482727
1684337387149776458,158,1684337387149776458,camera_1,161,0,1.019382541519117,0.9973249841750392,8.211346925462944,0.9954238896689499,0.012266467761712002,-0.05560385360034868,-0.07673998377495296,0.05110346963920165,0.04995848400276097,3602.4766012222967
1684337387156404972,159,1684337387156404972,camera_1,162,0,1.0189568267965092,0.9956827723042958,8.207767253399334,0.9956115931582151,0.011780441580179052,-0.05313218261071332,-0.07612980977356155,0.046984239073935896,0.045891505585878886,3608.5420272682095
1684337387162812232,160,1684337387162812232,camera_1,163,0,1.0205880154955507,0.9959386140346408,8.219920496907028,0.9956251590265105,0.012869331096480969,-0.05202470349612676,-0.0765398801717435,0.0625058423174778,0.061237263170615674,3598.3686072133705
1684337387169503450,161,1684337387169503450,camera_1,164,0,1.020304421007044,0.9930627460612255,8.215749465360618,0.9958402274974496,0.012265254155488703,-0.04845781653254869,-0.0761816569472417,0.06587357675016392,0.06447516307176979,3605.3818484060457
1684337387176226377,162,1684337387176226377,camera_1,165,0,1.020217745283362,0.9914332751250208,8.213899048545239,0.9953883125683103,0.011716984397814649,-0.047966836824240446,-0.08224355320698314,0.08520299298106694,0.08336759694645761,3601.4410606771717
1684337387182904720,163,1684337387182904720,camera_1,166,0,1.0204509953253758,0.9904513779026454,8.215351913692691,0.995677246849909,0.012378454609297599,-0.04755553279406765,-0.07881665602868211,0.0551060690486338,0.053937468749791294,3603.744303582469
1684337387189463376,164,1684337387189463376,camera_1,167,0,1.0214527123162649,0.9883847948635929,8.221555123144467,0.995751980586046,0.012833338545282789,-0.051932243408581505,-0.07494224893410045,0.06751970457844438,0.06618796698030541,3597.4065385125596
1684337387196152925,165,1684337387196152925,camera_1,168,0,1.0215740329742105,0.9871276949043941,8.221873059793039,0.9955619653064747,0.012569341673129966,-0.04732305163554182,-0.08036736694028081,0.068043263949221,0.06671019315303212,3596.204954861953
1684337387202816963,166,1684337387202816963,camera_1,169,0,1.0213512774772073,0.9854061378742457,8.21956840089487,0.9956931046276624,0.012878146566545935,-0.04436591500683811,-0.08038072109370317,0.07735132695597713,0.07579952149324211,3600.609611553898
1684337387209575414,167,1684337387209575414,camera_1,170,0,1.0212592118681894,0.9822497241370414,8.216649857740487,0.9959074256330683,0.012693321400113162,-0.04801903980663374,-0.07550795306983664,0.08656823558703763,0.08476889692384658,3604.098925086234
1684337387216301918,168,1684337387216301918,camera_1,171,0,1.0212246856146079,0.9808939863972563,8.215620529214416,0.995550052592187,0.012958226403204261,-0.04976631281502552,-0.07896512686606626,0.06868429304813617,0.06724239881272491,3600.0424365682984
1684337387222886562,169,1684337387222886562,camera_1,172,0,1.0214517650913006,0.9795940338864879,8.216103727257776,0.9959592200126276,0.01249028892573158,-0.04833063055234223,-0.07465503937982584,0.07913733621535357,0.07749109802530896,3604.6739266735094
1684337387229516029,170,1684337387229516029,camera_1,173,0,1.0208375373969263,0.9760402499859557,8.210107115131594,0.9956110291950199,0.012502744099845644,-0.04469917175408376,-0.0812671149955876,0.07238251717717503,0.07078297001398089,3606.6622691584066
1684337387236285924,171,1684337387236285924,camera_1,174,0,1.0193823422344561,0.9728810463282437,8.1967935872619,0.9950438686525062,0.012352982356452763,-0.05096972470855339,-0.08448189419685995,0.0566686913225567,0.05523567114141764,3609.237380293663
1684337387242898702,172,1684337387242898702,camera_1,175,0,1.021858676912733,0.9738495508359766,8.215863950473729,0.9955930755744059,0.012478778376763719,-0.0482648880572318,-0.07943052649543292,0.08149376270375797,0.07980687401516129,3599.797473318584
1684337387249572277,173,1684337387249572277,camera_1,176,0,1.0215481844775942,0.9703583986813138,8.211470319386306,0.9955789654926867,0.012635368581563432,-0.05259834383912081,-0.07678727208790262,0.06099426923901774,0.05966731856606886,3601.608208081918
1684337387256268978,174,1684337387256268978,camera_1,177,0,1.021023990675412,0.9684179348601999,8.206344973470298,0.9953616717134964,0.012441311143781518,-0.053167511402944005,-0.07920588356905929,0.08306599608476972,0.0811609135855176,3603.12451190001
1684337387263093709,175,1684337387263093709,camera_1,178,0,1.021689231106575,0.9675259524924466,8.210938211921235,0.9954540455333161,0.012198100667137642,-0.04927169307357635,-0.0805900107527748,0.06464706473343539,0.06323763584884727,3601.3277885059933
1684337387269684314,176,1684337387269684314,camera_1,179,0,1.020877160693052,0.9637425382792024,8.202681112937668,0.995153115069475,0.012766079651150083,-0.056083964292881885,-0.07976148022106568,0.06623857500744634,0.06466732915460892,3602.3067321968265
1684337387276221275,177,1684337387276221275,camera_1,180,0,1.0218121074905162,0.9631103275941895,8.209319802327737,0.9953477459466167,0.01187204589801765,-0.04823378138443896,-0.08255556612696126,0.06530602093334893,0.06386551134164617,3601.233514814725
1684337387283013582,178,1684337387283013582,camera_1,181,0,1.022423460357665,0.9623053788979707,8.213620321403972,0.994889487123763,0.012698255656253035,-0.05145004259057273,-0.08594507450303668,0.07209782594145508,0.07058218319576548,3590.8565631378733
1684337387289692640,179,1684337387289692640,camera_1,182,0,1.037762450362401,0.973587998965272,8.335166428583017,0.999391024199937,0.011425293799884889,-0.009071687045182004,-0.03169775866432137,0.25158176612239913,0.2500278860029258,3597.4530092543
1684337387296271085,180,1684337387296271085,camera_1,183,0,1.0228799927800356,0.9582207968792906,8.214653800299953,0.9954711863202933,0.012113626451249767,-0.05070210159070924,-0.07949637824802497,0.07086671634169761,0.06939695080781376,3596.454803495725
1684337387302882909,181,1684337387302882909,camera_1,184,0,1.023552080777668,0.957289267267476,8.218608412785706,0.9954252387901252,0.011956111167885261,-0.04411117667591869,-0.08390381086475855,0.06259458571003051,0.06136712082946643,3594.4633525196405
1684337387309775829,182,1684337387309775829,camera_1,185,0,1.0391448612796899,0.9689195031704055,8.342390079971251,0.9993040147041847,0.01131626219573635,-0.006658983855261247,-0.03491541693910125,0.29537377149245003,0.2937320637988871,3594.993951767945
1684337387316301822,183,1684337387316301822,camera_1,186,0,1.0234438194458453,0.9530285237097853,8.215677920767293,0.9955387542968144,0.012243822011738334,-0.04251509951565653,-0.08333752953421328,0.06614159605669556,0.06480196380296738,3598.4232492233277
1684337387322842597,184,1684337387322842597,camera_1,187,0,1.0230375738346373,0.9512174153105172,8.211727516070951,0.9952398970400248,0.012998060982207257,-0.04993700197082117,-0.08267341522297357,0.08679450321142212,0.0849454683852954,3595.7876548513022
1684337387329570293,185,1684337387329570293,camera_1,188,0,1.0238779225968486,0.9493592153347166,8.216336875576522,0.9952086131748447,0.012651236564955098,-0.04674743940412922,-0.08493785601919375,0.08709715120858164,0.08535188015686973,3592.093695632241
1684337387336218118,186,1684337387336218118,camera_1,189,0,1.0276023098462084,0.9515097924835836,8.246496834801798,0.9960112213996642,0.012842320885133962,-0.046575697632064636,-0.07501617179194629,0.07663158401919645,0.07542018213320072,3588.3831005260886
1684337387343094110,187,1684337387343094110,camera_1,190,0,1.0234758376726611,0.9464469824406765,8.211651833185917,0.995421837125293,0.012222870217483108,-0.04579959299840713,-0.08299617400177851,0.08579627097788034,0.08398573022598613,3598.6543759997003
1684337387349537611,188,1684337387349537611,camera_1,191,0,1.0230538657964925,0.9433870132750015,8.206833464665445,0.9948892237232646,0.013376932070931392,-0.050402088855673086,-0.08646455717040695,0.07328401299673715,0.0716504868012826,3594.8783883233555
1684337387356107473,189,1684337387356107473,camera_1,192,0,1.0235364522689931,0.9426822947468205,8.209897184766062,0.9955366976318287,0.012652084792360062,-0.05419475105703065,-0.07622032128367259,0.06004109147033887,0.058745549022863726,3598.101292097359
1684337387362864971,190,1684337387362864971,camera_1,193,0,1.0242755286669856,0.9422150710579915,8.215394462310249,0.9953410782731151,0.013332150349768737,-0.0509078240316406,-0.08078852097623293,0.07151761352724861,0.07006923398668803,3592.19701229813
1684337387369465827,191,1684337387369465827,camera_1,194,0,1.0240043837588488,0.9397543130246753,8.211529441945604,0.9953745370835846,0.01343474309688534,-0.054241276974615955,-0.07814680080287084,0.06801358778466238,0.06657721881148138,3594.464895171287
1684337387376161098,192,1684337387376161098,camera_1,195,0,1.0245285107687834,0.9391953545809951,8.215413886286058,0.9952862624538417,0.013189082226685604,-0.04987277985120159,-0.0821219197936452,0.07231922215578379,0.07085770048535442,3591.5033239795894
1684337387382906198,193,1684337387382906198,camera_1,196,0,1.0244785846582076,0.9381569275978261,8.214152846877507,0.9954860129448084,0.013161238816001371,-0.04894819432053725,-0.08023997817071052,0.087176397388248,0.0853949915636811,3595.0962773654314
1684337387389549016,194,1684337387389549016,camera_1,197,0,1.0248021862059784,0.9364123106593851,8.215920823224463,0.9954084503918881,0.013253206041734834,-0.05069342900504559,-0.08010334371139585,0.07845296789673739,0.07687879411544334,3591.8131214517357
1684337387396267175,195,1684337387396267175,camera_1,198,0,1.0259685580035407,0.9366968787689127,8.225133006394536,0.9956114323111266,0.013639920628627396,-0.0443273463232899,-0.08128293046247204,0.07704635261325166,0.07567956194010553,3588.298419574886
1684337387402773857,196,1684337387402773857,camera_1,199,0,1.025771292398341,0.9355154088750881,8.222941400901297,0.9956632703544258,0.012457463104688338,-0.05175939775744369,-0.07629173234310473,0.07859906066732947,0.07715859122817215,3587.872433780226
1684337387409509897,197,1684337387409509897,camera_1,200,0,1.0245510561716231,0.9326697266167208,8.211745984167163,0.9950169562675965,0.013612790368836286,-0.050586504748528466,-0.08483486438764112,0.08142985949962167,0.07972235834975187,3590.6127465341133
1684337387416167974,198,1684337387416167974,camera_1,201,0,1.0418114832913405,0.94769855937079,8.350065702987909,0.9996809063324964,0.01127550444925656,0.017345200620083972,-0.014494568951936236,0.2817113068631443,0.28081131121712144,3587.6728571894055
1684337387422885179,199,1684337387422885179,camera_1,202,0,1.0405910836260428,0.9458041424288508,8.340107969990862,0.9997166595739827,0.011840248473212123,0.016682602777243326,-0.01216962821564842,0.26210847923448455,0.26093157362752334,3591.1273263812627
1684337387429550886,200,1684337387429550886,camera_1,203,0,1.0400448419337236,0.9439996927239822,8.334628919993344,0.9989859999292803,0.012405978567479907,-0.005018740309163636,-0.0429869269288754,0.2401188208932581,0.23889383575984416,3588.622343823692
1684337387436190366,201,1684337387436190366,camera_1,204,0,1.0394212361641693,0.9428258286117059,8.329047631008276,0.9987316175403893,0.012263325280197508,-0.006888945157356004,-0.04834572796895802,0.2576915479339732,0.2558302370338621,3594.1171456978186
1684337387442970037,202,1684337387442970037,camera_1,205,0,1.0251290909501491,0.9293631069512371,8.21407418461631,0.9951810540802803,0.013544752767152755,-0.04870815978327725,-0.08401621535552369,0.09151871752419538,0.08966018326382086,3590.6818992441113
1684337387449625253,203,1684337387449625253,camera_1,206,0,1.0248673735683338,0.9282241344365012,8.211653074353885,0.9954942029611638,0.012442577607453965,-0.04513536885290356,-0.08245770195507726,0.08202001020254102,0.08031075247095536,3597.423681221785
1684337387456191062,204,1684337387456191062,camera_1,207,0,1.0244601740129133,0.9274518174912605,8.20828068991916,0.9951206247823475,0.013540933722790712,-0.04568989680736635,-0.08639455177519993,0.09750074222756666,0.09539758796371213,3595.9634563294976
1684337387462917804,205,1684337387462917804,camera_1,208,0,1.0391536441857185,0.9402590632524239,8.325407187893916,0.9990314211542964,0.011851732427957461,-0.018004916484137323,-0.03836116483218873,0.23265305926906876,0.2311348608285788,3592.5690154087793
1684337387469574928,206,1684337387469574928,camera_1,209,0,1.0395524122660214,0.9400754080778476,8.328874239144824,0.9991845989217238,0.010559272593016603,0.03385423956154621,0.01930102338348344,0.25651281217233196,0.2547356610491839,3592.137167288921
1684337387476784706,207,1684337387476784706,camera_1,210,0,1.0248890597644287,0.9266904525634585,8.210702003178026,0.9945346735001657,0.012581359289652911,-0.043268455758475606,-0.09418244709403471,0.08065864049785887,0.07899004451663127,3587.5326579404355
1684337387483368396,208,1684337387483368396,camera_1,211,0,1.0246314457531722,0.9263275920338405,8.208732358822191,0.9948149636566674,0.013362608227188192,-0.04601954458552549,-0.0897041264507445,0.09502883867116907,0.09299631050650703,3591.723821001344
1684337387489786863,209,1684337387489786863,camera_1,212,0,1.0249287413498507,0.9264250866602184,8.210950239611206,0.9949987379979935,0.012943671802433837,-0.0415848586776386,-0.08989255959995783,0.06608060606686195,0.06471146383393304,3593.343883908122
1684337387496303081,210,1684337387496303081,camera_1,213,0,1.025663449515178,0.9271124516071994,8.216914457624322,0.9953897677342807,0.013235478840766056,-0.053888253036907315,-0.07823099497245935,0.09251053087427863,0.09069383828991871,3588.3160364439395
1684337387503405570,211,1684337387503405570,camera_1,214,0,1.0260833737910777,0.9274389678950077,8.220217604401965,0.9957387308643229,0.013046135396030927,-0.0489809050801779,-0.0770392701514162,0.07946870102387038,0.0779706679247082,3591.173523157821
1684337387509564399,212,1684337387509564399,camera_1,215,0,1.0248348298813463,0.9265482942211942,8.210430484157335,0.994866609793929,0.012959515159143049,-0.04565781384484563,-0.08937473758777362,0.07874808207998285,0.07709281159278251,3590.9263301275364
1684337387516278743,213,1684337387516278743,camera_1,216,0,1.0390884519319636,0.9395622292889465,8.324883844802029,0.998953543350427,0.012354557786927229,-0.01807846821043762,-0.040154104605635045,0.2411885875490043,0.23966717424565126,3591.152321829608
1684337387522908926,214,1684337387522908926,camera_1,217,0,1.0394085625448621,0.9400211082821999,8.327413318306906,0.9990579450469268,0.011968858526767491,-0.016189473464886854,-0.03844307236821449,0.24704073438624619,0.24544303657533123,3592.8548111537684
1684337387529630661,215,1684337387529630661,camera_1,218,0,1.0252343697741746,0.9278047093001894,8.21417437525462,0.9954486822666483,0.01322311291102706,-0.04813585982684189,-0.0811788719881382,0.08620925789819012,0.08445632302509144,3593.6463060413525
1684337387536399364,216,1684337387536399364,camera_1,219,0,1.040159098983659,0.9416956563680516,8.334009180023742,0.999065296110107,0.011485980060556141,-0.0007184931307299203,-0.04166641498970207,0.2669977389350606,0.26550820439245404,3591.4431080633067
1684337387542875289,217,1684337387542875289,camera_1,220,0,1.0262016127215485,0.9295448660370995,8.222399323295901,0.9954609655731218,0.012684824555738201,-0.04379924579310672,-0.08353554521383906,0.09139136248722934,0.08972357814569992,3588.1443834599054
1684337387549601316,218,1684337387549601316,camera_1,221,0,1.0252904219759365,0.9296828390477903,8.216215549552027,0.9954364859961425,0.013502917617986223,-0.04879940988563366,-0.08088566719924768,0.07538745329839001,0.07388792161131437,3591.750201039847
1684337387556327104,219,1684337387556327104,camera_1,222,0,1.0243374135247898,0.9291750335987292,8.208297011946371,0.9955175190088297,0.013913302677161949,-0.04625332191181381,-0.08131371081951842,0.07006873233058286,0.0685455144806849,3600.601505590193
1684337387562882661,220,1684337387562882661,camera_1,223,0,1.0408504529509401,0.9449023089296871,8.3412307768145,0.9992122486433936,0.012237175234788983,-0.0009854762975025002,-0.037738078114192976,0.2690317890010192,0.2677515968648058,3589.3169827173406
1684337387569458484,221,1684337387569458484,camera_1,224,0,1.0409380391917202,0.9463010288311418,8.34295334463465,0.9993803452843929,0.011802439179562278,-0.010383114655555685,-0.031493155108849286,0.271144086644199,0.27019590382422387,3584.859835579701
1684337387576318025,222,1684337387576318025,camera_1,225,0,1.0419319154443831,0.9479482152892025,8.351387581176114,0.9991835553271813,0.011330783203338855,0.0004382428865102044,-0.03877684952268707,0.2986504127329681,0.29765678374060556,3584.791621559882
1684337387582807302,223,1684337387582807302,camera_1,226,0,1.023825959727076,0.9321357764055074,8.206236774803427,0.994703123775626,0.013836431316108922,-0.04959020233874019,-0.08896662605409571,0.07639179213583702,0.07469663198289186,3592.1694073638355
1684337387589439153,224,1684337387589439153,camera_1,227,0,1.0252304031889636,0.9351881765075885,8.218720753061028,0.9955262461192763,0.013251158160238218,-0.05422863276590326,-0.07623093521278149,0.08523622840584721,0.08358989807223474,3589.1885481704658
1684337387596261739,225,1684337387596261739,camera_1,228,0,1.024822281703801,0.9357293835774958,8.21574136708508,0.9952301109924212,0.013464930739024154,-0.04454226664924909,-0.08574210340290027,0.09030528510993463,0.0885068710739788,3591.999887490035
1684337387602804422,226,1684337387602804422,camera_1,229,0,1.024551979582347,0.9364492624142396,8.214094534169837,0.9954793631015382,0.012868989099079818,-0.05264474590586429,-0.0779984454141929,0.07902966047186055,0.07741278437207703,3593.4816590964915
1684337387609498739,227,1684337387609498739,camera_1,230,0,1.0253717374339413,0.9392470453100559,8.222304066328201,0.9956486231096597,0.013275520586044016,-0.048152025898658427,-0.07866995776573858,0.06213503158141975,0.06098198964543453,3590.196562680881
1684337387616338491,228,1684337387616338491,camera_1,231,0,1.0243376277261715,0.9393333967436794,8.214411449571765,0.9956373386771595,0.01306090122653111,-0.052348833576500976,-0.07612688299276238,0.058785097618965665,0.057583323617158746,3595.530584688909
1684337387622781753,229,1684337387622781753,camera_1,232,0,1.025183272600203,0.9410806215488066,8.221104174553625,0.9955592614401925,0.012613833054313512,-0.05034621950667017,-0.0785360194924757,0.06888927903855802,0.06759043687208924,3589.575146535907
1684337387629543781,230,1684337387629543781,camera_1,233,0,1.0244954314853802,0.9427032150474095,8.217183953475779,0.9952860267910794,0.013269720439116423,-0.05125759186930032,-0.08125453014850881,0.09308946787496096,0.09124332237855452,3589.8889414239097
1684337387636156320,231,1684337387636156320,camera_1,234,0,1.0238371146441647,0.9433528395324584,8.212372243756452,0.9952887785469746,0.012464461601025675,-0.04848382708210296,-0.08303133749940754,0.07424940031341976,0.07269355024334415,3595.1625448311675
1684337387642749071,232,1684337387642749071,camera_1,235,0,1.0241183064563528,0.9447871992152711,8.21559009088158,0.9952479599869889,0.013260580853557245,-0.05238503686379471,-0.08100285828254701,0.09670424513024045,0.09474220243950465,3590.7351936360355
1684337387649517536,233,1684337387649517536,camera_1,236,0,1.0237797743149046,0.947039217746832,8.214101941588016,0.9952398787066289,0.012530524829047719,-0.046940941612615625,-0.08448146412109758,0.0830703560677648,0.081363164398441,3594.064459865447
1684337387656140565,234,1684337387656140565,camera_1,237,0,1.0241454402336534,0.9485632795606416,8.218130972922834,0.9957541617517596,0.013136986371826705,-0.048748088312307265,-0.0769720262758657,0.07626429614174413,0.07475942997885847,3596.114945379552
1684337387662875413,235,1684337387662875413,camera_1,238,0,1.0363254341785966,0.9612747197539913,8.316676704982724,0.9979473930150808,0.011234056844882032,0.0009074425109800502,-0.06303945819325628,0.23535592747793999,0.23357178999400793,3594.6931396436985
1684337387669501543,236,1684337387669501543,camera_1,239,0,1.0233710324653738,0.9521180657877231,8.214632816400012,0.9950966295004942,0.01290404968760446,-0.04019935054791034,-0.08944381294389413,0.08144099879427813,0.07979876223912857,3594.80811223021
1684337387676340579,237,1684337387676340579,camera_1,240,0,1.0226930133572953,0.9528919365167241,8.210522600459718,0.9951139674283068,0.01271854443604994,-0.045594329020161056,-0.08664633643567639,0.07424070072374889,0.07264393105645625,3597.0529676677843
1684337387682864189,238,1684337387682864189,camera_1,241,0,1.0233867180089493,0.9547304243449422,8.216083661286726,0.9955438631231581,0.012651521692794595,-0.04893763316426955,-0.0796081883788012,0.0868511200606008,0.08508497986698882,3596.2197732559
1684337387689537048,239,1684337387689537048,camera_1,242,0,1.0361800740644367,0.9697041107145906,8.320868892722558,0.9987580594955106,0.012156694768658636,-0.0342786314855891,-0.03405185440676094,0.25290236690852913,0.25076707653026115,3597.252861343092
1684337387696241855,240,1684337387696241855,camera_1,243,0,1.0232483173883895,0.9591796612681613,8.218146929134317,0.9955302851653391,0.012506809782365222,-0.04588011087413923,-0.08159685321054291,0.06204513969714753,0.06081129064309259,3595.87891037375
1684337387702860832,241,1684337387702860832,camera_1,244,0,1.022019132185056,0.9595839868875355,8.20937491463306,0.9952125720789652,0.012961433075489978,-0.052881927184856466,-0.08116304211779873,0.06161648918714491,0.060256930769214255,3597.6681076706154
1684337387709476947,242,1684337387709476947,camera_1,245,0,1.022433396149068,0.9630559641613812,8.214671230740164,0.9954043806876325,0.012738286523004927,-0.05118419618806863,-0.07992517140995183,0.048094708887219895,0.04709212506734912,3596.2519738613623
1684337387716507434,243,1684337387716507434,camera_1,246,0,1.0220479573674206,0.9640875291024709,8.211617670969536,0.9953658064952984,0.012219829769631062,-0.05037981402141205,-0.08099050166243824,0.04972725853440352,0.04865278403507764,3598.8449740407814
1684337387723067760,244,1684337387723067760,camera_1,247,0,1.0372184484492342,0.9798935860215687,8.334921763286838,0.999024529966276,0.01147332575653038,-0.019680036262700287,-0.03782918839262713,0.24683397170520038,0.2452585022102324,3595.902315578278
1684337387730597972,245,1684337387730597972,camera_1,248,0,1.0208112189246483,0.967552019840237,8.204413678199144,0.9952113861080631,0.012648921818547368,-0.054561003220543705,-0.08010866785350948,0.075191623007413,0.07343460030920969,3602.4937910797903
1684337387736408233,246,1684337387736408233,camera_1,249,0,1.0218122032781771,0.9701415328339478,8.21341089024531,0.9956512193728244,0.011718168475079956,-0.0535984381840068,-0.07528971585304842,0.06515788066099049,0.06377326757352621,3600.225752760774
1684337387743056535,247,1684337387743056535,camera_1,250,0,1.021161916091879,0.9709732477113218,8.209218034554947,0.9953323128594445,0.012637957579375197,-0.049211983956152484,-0.08204906849678668,0.0727055443021527,0.07108937007352073,3601.957089394913
1684337387749483823,248,1684337387749483823,camera_1,251,0,1.0211231102384595,0.9741534212567664,8.210482343742468,0.9949571244098923,0.012820005523918994,-0.04868070794886099,-0.08675342481978832,0.07213359975503408,0.07055385171540916,3596.921839859249
