%time,field.header.seq,field.header.stamp,field.header.frame_id,field.image_seq,field.transforms0.fiducial_id,field.transforms0.transform.translation.x,field.transforms0.transform.translation.y,field.transforms0.transform.translation.z,field.transforms0.transform.rotation.x,field.transforms0.transform.rotation.y,field.transforms0.transform.rotation.z,field.transforms0.transform.rotation.w,field.transforms0.image_error,field.transforms0.object_error,field.transforms0.fiducial_area
1684964234013422250,0,1684964234013422250,camera_1,1,0,0.24765505991268139,-0.05944618619668889,0.5190047249834582,0.9741492118238925,0.034144990994052896,-0.211103467810355,0.0728200423739754,0.5320848267292604,0.04989345139530737,31762.807098422672
1684964234033590555,1,1684964234033590555,camera_1,3,0,0.24766163605472039,-0.06002809000258198,0.5190719761310472,0.9741487777242056,0.034214455165964004,-0.2111718184322527,0.0725947175498891,0.5348805547691882,0.05018494105118496,31749.216283039314
1684964234043550968,2,1684964234043550968,camera_1,4,0,0.2475199573425678,-0.060398731614364605,0.5187964063351831,0.9739377891082103,0.03405331314874329,-0.2123278943267073,0.07212780394128054,0.49597368901595473,0.046516108830416826,31746.677723575165
1684964234053375482,3,1684964234053375482,camera_1,5,0,0.24755087999423123,-0.06085984696893468,0.5188997897257334,0.9740434947833655,0.03411497841307552,-0.21199880258638445,0.07163760339390567,0.5610646465211175,0.05263563102946314,31743.91563084176
1684964234063435792,4,1684964234063435792,camera_1,6,0,0.24764897178789821,-0.06198498931688462,0.5191644613121424,0.9742408065006157,0.03394254543420283,-0.21116188960242335,0.07150811798677871,0.5286390395485796,0.04966324974452152,31724.571252710426
1684964234073384284,5,1684964234073384284,camera_1,7,0,0.24748372054200754,-0.06258375266109986,0.5188559201831044,0.9738991122183477,0.03423166233782622,-0.21313862641850473,0.07014726254342854,0.5332457505865023,0.050073964729381894,31704.860246180204
1684964234083516120,6,1684964234083516120,camera_1,8,0,0.24768687195854294,-0.06402009064421861,0.5193472713074836,0.974360168032437,0.0342013076211687,-0.21140738513508825,0.06898877458795698,0.5379694378934801,0.05059130376277497,31687.762012233143
1684964234093226194,7,1684964234093226194,camera_1,9,0,0.2477106239906873,-0.06477157740346931,0.5194225743047977,-0.9744899968701496,-0.03437220569744143,0.21104335136149638,-0.06817991875630881,0.5317286992794834,0.05001838317308561,31684.43972711487
1684964234103538274,8,1684964234103538274,camera_1,10,0,0.2477073819321876,-0.06555659061278998,0.5194513904949255,0.974490731901153,0.03421069166483755,-0.21104737742260904,0.06823816012765493,0.5896671257796697,0.05551665340287697,31667.1482499442
1684964234113653659,9,1684964234113653659,camera_1,11,0,0.24771835370488832,-0.06634778058128465,0.5194852248136713,0.9745957363250757,0.03459849821646426,-0.21091527474331373,0.06693908826762951,0.4539084378629923,0.042733343299481134,31663.009495242728
1684964234124685049,10,1684964234124685049,camera_1,12,0,0.2474948891821483,-0.06791187055808243,0.5190873168021048,-0.9744525097427413,-0.03457477700362572,0.21197597595024703,-0.06567401823523875,0.5626929228310473,0.05296628940579658,31659.008789576823
1684964234134347677,11,1684964234134347677,camera_1,13,0,0.24735784424571228,-0.06868136174160587,0.5188289300815248,-0.9744253451994367,-0.034632763099444124,0.21249960474577365,-0.06434078283597765,0.6089487728313543,0.05727691929454864,31669.085264614314
1684964234143590688,12,1684964234143590688,camera_1,14,0,0.2473596937341755,-0.06945963796447212,0.5188422641549504,-0.974646190641366,-0.0346864526059658,0.2114743655930259,-0.06434474159490551,0.48942206386709586,0.04604873769887987,31680.88955715277
1684964234153499841,13,1684964234153499841,camera_1,15,0,0.2470687602370005,-0.07014992372148834,0.5182644401930978,-0.974326635792949,-0.035045516472420345,0.2131149877070101,-0.0635721682359246,0.49517597269732505,0.04653937106987871,31690.39575661556
1684964234163405656,14,1684964234163405656,camera_1,16,0,0.24721745360399694,-0.07092144317113264,0.518591277408416,0.974497196181057,0.03490316243659344,-0.21251874165386164,0.06302990030963529,0.5304852668195963,0.04992674916047551,31655.98903900663
1684964234173425197,15,1684964234173425197,camera_1,17,0,0.24699230303752692,-0.0721898964069015,0.5181661062571038,0.9745154512731589,0.03506463797261552,-0.21273013602722765,0.06193541490583719,0.4941486869356595,0.04646947031935557,31677.643426342398
1684964234184343814,16,1684964234184343814,camera_1,18,0,0.2467559638754553,-0.07323447407810836,0.5176727507271649,0.9743745335418411,0.035128527787270165,-0.21368854001104842,0.060806765976864144,0.505696905660443,0.047515239587331316,31687.446002281977
1684964234193233251,17,1684964234193233251,camera_1,19,0,0.24672771204030447,-0.07367721096304387,0.5176148321541492,-0.97438299431703,-0.03545923641972369,0.21381562043972854,-0.060027521973532456,0.5365712299826555,0.0504092803125259,31684.585303384803
1684964234203262567,18,1684964234203262567,camera_1,20,0,0.24675393339774002,-0.07408318614966238,0.5176745898540236,-0.9746368181010556,-0.035255751884228366,0.21259997413232404,-0.06034364722042134,0.5161098063690588,0.0484990924929581,31700.59915048164
1684964234213320732,19,1684964234213320732,camera_1,21,0,0.24663898229193998,-0.07436509325813215,0.517416997226713,-0.9745310966264261,-0.03537836616092335,0.21321164446176913,-0.05981895670928313,0.47805328195681795,0.04489534361440094,31707.721805773443
1684964234223378419,20,1684964234223378419,camera_1,22,0,0.24663206485429692,-0.07461069831738988,0.5174024436132311,-0.9744890033642447,-0.03568049362056067,0.21348823125835698,-0.059336833512857914,0.5450595853617415,0.05119040339486267,31697.906216362244
1684964234233276128,21,1684964234233276128,camera_1,23,0,0.24660966131748463,-0.07476457645502525,0.5173362644533259,-0.9743439513813247,-0.035577069256917206,0.21412371523727977,-0.05949093311337197,0.5520906096207909,0.05187156858975012,31679.515619173297
1684964234243327140,22,1684964234243327140,camera_1,24,0,0.24649712561981754,-0.07481886718517013,0.5170813501483963,0.9742657181220087,0.03579217978382548,-0.21450247195224012,0.059278325591293375,0.5583389733801596,0.05241561139503758,31697.346571657705
1684964234253359079,23,1684964234253359079,camera_1,25,0,0.2465733294613606,-0.0747720149096881,0.5171958186256301,-0.9743502646159381,-0.03564037268753126,0.21400345818871241,-0.05978164903059646,0.5487972928094678,0.0515441807330799,31694.74191022686
1684964234263471126,24,1684964234263471126,camera_1,26,0,0.2467605159181226,-0.07468161005809877,0.5175698344941141,-0.9745150863507054,-0.03562801806974414,0.21324884337372207,-0.05979901005091361,0.562396110210102,0.05286926520888432,31675.871435492525
1684964234274406671,25,1684964234274406671,camera_1,27,0,0.2466331891410344,-0.0744106198224371,0.5172688337888839,-0.9742710209184795,-0.035564452238468526,0.21422012091455012,-0.06033976575026563,0.5308020232478157,0.04987303877539648,31683.527627218522
1684964234283888816,26,1684964234283888816,camera_1,28,0,0.2467795354181459,-0.07377052880416375,0.5175273172621481,-0.974284775071342,-0.03541997398348164,0.21386036301877523,-0.06146826528113327,0.49577480333391577,0.046618229351527415,31671.320570961558
1684964234293698310,27,1684964234293698310,camera_1,29,0,0.24684677042549696,-0.07334958059124137,0.5176378567260685,-0.974170206370487,-0.035447026052514166,0.214481285335803,-0.06110397372362162,0.5392279105144553,0.050707425333949646,31653.310301262427
1684964234303523302,28,1684964234303523302,camera_1,30,0,0.24699078367463365,-0.0728753206504035,0.5179125762682992,0.9745178951410672,0.03564757605631491,-0.21237819900566576,0.06276641584671618,0.4861375257605687,0.0457308784635908,31683.44172099316
1684964234313539981,29,1684964234313539981,camera_1,31,0,0.24724207155038683,-0.07174509679500932,0.5183850921619629,0.9744254341726397,0.03525724822749617,-0.2124890552089982,0.06403437437247719,0.498710026324261,0.0469808538858887,31641.92959864157
1684964234323570966,30,1684964234323570966,camera_1,32,0,0.247129048240878,-0.07103287995592805,0.5181205390103653,0.9742603249571822,0.035152327305230914,-0.21300153052153029,0.06489592510194622,0.5556300858734176,0.0522950385403072,31667.634719396832
1684964234333804368,31,1684964234333804368,camera_1,33,0,0.24721971315910285,-0.07031799889666228,0.5182826119538678,-0.9743182539598123,-0.035075313268834354,0.21268590545068802,-0.06510274973007778,0.5395730975433253,0.05077593427471895,31673.394286018207
1684964234343422412,32,1684964234343422412,camera_1,34,0,0.24736772952447392,-0.06960588790820336,0.5185665330867125,0.9743313769311237,0.03510389361201581,-0.2123671143702063,0.06592642349504955,0.5256876230123453,0.04949997829283611,31658.685648136787
1684964234353294849,33,1684964234353294849,camera_1,35,0,0.24746396920996355,-0.06884616706253018,0.5187386955180053,0.974339646534471,0.03470207314380022,-0.21201153988542462,0.06715002804180788,0.5186036528320983,0.04885631499554585,31655.118388970848
1684964234363488197,34,1684964234363488197,camera_1,36,0,0.24738648019028212,-0.06800282721634064,0.5185389796290459,-0.9741645332098754,-0.03487148786084662,0.2129242338680987,-0.06671365828703628,0.634780554973986,0.059720191310500166,31672.756780708194
1684964234373449802,35,1684964234373449802,camera_1,37,0,0.2475712405769835,-0.06723774071951216,0.5189029660130973,0.9743665505860982,0.03481724985865697,-0.21160128572995812,0.0679888232627769,0.5028795527177863,0.04734219938534562,31674.267112460104
1684964234383505821,36,1684964234383505821,camera_1,38,0,0.247718250139188,-0.06564012757779022,0.5191733932794217,-0.9744058756800148,-0.03489174583059756,0.2109690101293988,-0.06933853386233625,0.5533108513918705,0.052088077475962447,31680.723432174666
1684964234393405437,37,1684964234393405437,camera_1,39,0,0.24767770199937908,-0.06483872278661222,0.5190406426213171,0.9742845766094772,0.0348346578529335,-0.21144832027190805,0.06961119340558308,0.4612797473091632,0.043389599295993744,31692.723584433075
1684964234403492212,38,1684964234403492212,camera_1,40,0,0.24763322052077208,-0.06332875800016353,0.518901561395444,0.9740632308566394,0.03448360082591668,-0.2118959507385844,0.07149692040777403,0.4804320492548868,0.045170725866926616,31703.95311974268
1684964234413354158,39,1684964234413354158,camera_1,41,0,0.247849796994156,-0.06270923864103777,0.5193532498263417,0.9743433449586604,0.034554977966196186,-0.21066328842489845,0.07128799718418688,0.5294297345099039,0.04979273068725185,31699.612425538246
1684964234423560142,40,1684964234423560142,camera_1,42,0,0.24769418524212491,-0.0620173908272257,0.5190147124920248,0.9741818241432931,0.034313404788154464,-0.21112135671756382,0.0722505120980155,0.5130816851160489,0.048207817767436004,31728.03052564826
1684964234433367967,41,1684964234433367967,camera_1,43,0,0.24772571111571193,-0.061442431109675746,0.5190724470044215,0.9741758657510067,0.034314440071403135,-0.2110703031384203,0.0724791619979031,0.558934397471603,0.05250589165406952,31729.051761970277
1684964234443462848,42,1684964234443462848,camera_1,44,0,0.24777192177736598,-0.060453551283416014,0.5191372147445111,0.9741821453229295,0.03424160478758778,-0.21070903063233395,0.07347356426339888,0.5110019185813144,0.04799502415259444,31736.15430512722
1684964234453217744,43,1684964234453217744,camera_1,45,0,0.24760267386308787,-0.06000401137776637,0.5187822915078636,0.9739263578019296,0.034153615139118736,-0.21208097263541903,0.07295643355874437,0.5020987511379644,0.04709848719342055,31747.226259209558
1684964234463441371,44,1684964234463441371,camera_1,46,0,0.2476597923626446,-0.05969600277808764,0.5189061185947836,0.9740454605434279,0.03423876732792357,-0.2114514139485609,0.07315358600752489,0.5613447161740623,0.05265477423862575,31754.205742020866
1684964234473388433,45,1684964234473388433,camera_1,47,0,0.2475776344679401,-0.05941700152055989,0.5187427463433109,0.9740133345669826,0.03425084562688156,-0.21152034765059446,0.07337606005587027,0.5299187109339982,0.04967283882375314,31773.595116458026
1684964234483352899,46,1684964234483352899,camera_1,48,0,0.2476113766509036,-0.059247209739131085,0.51882220679839,0.9741435492689489,0.034226988139413966,-0.2108432055902414,0.07360707409638442,0.5422398262890056,0.050823605517925634,31785.175033814965
1684964234493238687,47,1684964234493238687,camera_1,49,0,0.24745685280381222,-0.059077224852261655,0.5185330406042123,0.9739271164745622,0.034142227641358575,-0.2119147062684521,0.07343321696879303,0.5822245156741701,0.054528767060736436,31792.08567684622
1684964234504178285,48,1684964234504178285,camera_1,50,0,0.24748496871039571,-0.05928379240160868,0.518629602708405,0.9739496414987224,0.03412224871128002,-0.21189761270344004,0.07319268882872608,0.5274088945589028,0.04941219769633846,31781.77279004221
1684964234513420104,49,1684964234513420104,camera_1,51,0,0.24757573629248036,-0.05953302580637412,0.5188553980851438,0.9740703539336245,0.03408867985711995,-0.2114549847843003,0.07288138927801598,0.545647892751731,0.05115072307826709,31769.067720265255
1684964234523225545,50,1684964234523225545,camera_1,52,0,0.24759439867391916,-0.05982978913750696,0.5189189383844389,0.9740832461785994,0.03427165342090926,-0.21150512463458554,0.07247665513299825,0.5125338501529768,0.048057311013588594,31760.520091889648
1684964234533414125,51,1684964234533414125,camera_1,53,0,0.24751742871873764,-0.06017301893564649,0.5187834346070377,0.9739851250573903,0.03416701534579479,-0.21214682522944528,0.07196746330368582,0.5041994632338174,0.0472671160472191,31757.97407900251
1684964234543409824,52,1684964234543409824,camera_1,54,0,0.24765359765221226,-0.06065017458754826,0.5190945477186653,0.9741487208819951,0.034254013560766856,-0.2113685447357148,0.07200187813701861,0.5470911131706089,0.05134617618257046,31738.815173206734
1684964234553430080,53,1684964234553430080,camera_1,55,0,0.24768924476527934,-0.06115621670285572,0.5192089349011475,0.9742013417353361,0.03416036694925022,-0.21137074118043828,0.07132478435856358,0.567284015880432,0.053265418727179575,31725.274853928015
1684964234563392400,54,1684964234563392400,camera_1,56,0,0.24776361654432438,-0.06174126734640149,0.5193926933007388,0.974409968807608,0.034252632277199935,-0.2104884164978935,0.07103940026948859,0.5642212795210071,0.05300433130928369,31725.185867154978
1684964234573336124,55,1684964234573336124,camera_1,57,0,0.2476319923114528,-0.06300630581747882,0.5191960618512782,0.9742710708605654,0.03401625079339228,-0.21147208764316525,0.0701308157232579,0.5241033717757091,0.049251624717365515,31709.655315782984
1684964234583361864,56,1684964234583361864,camera_1,58,0,0.24775945455165513,-0.06374751622954636,0.5194926546862548,0.9745299055926608,0.03411389089273009,-0.2104582244456502,0.06953446136199544,0.5127443333622068,0.048225562586075486,31698.97069686908
1684964234593317270,57,1684964234593317270,camera_1,59,0,0.24772296825290835,-0.06449341034398129,0.5194559192039673,0.9744066436125728,0.03441908014483679,-0.211407959523807,0.06821799216954716,0.5021046294714325,0.047233166510781424,31674.198526665677
1684964234603590726,58,1684964234603590726,camera_1,60,0,0.24779767343590595,-0.06607954576911622,0.5196513980881233,0.9746742746922945,0.03449287493794087,-0.2104033595870984,0.06745906985741482,0.4648018614971079,0.04377596224429213,31659.606176934314
1684964234613260746,59,1684964234613260746,camera_1,61,0,0.24762645451332288,-0.06680521944124375,0.5193061010666509,0.9743585150580233,0.03424283256341603,-0.21214689955755042,0.06668287306405135,0.39662863552803174,0.03735257312663957,31639.935469885822
1684964234623480081,60,1684964234623480081,camera_1,62,0,0.2476381306967669,-0.06762877025027283,0.5193712618677211,0.9746234023636113,0.03407456048421893,-0.210909049829093,0.06682455082658302,0.49831843085121363,0.046950379167513295,31653.14196015394
1684964234633332014,61,1684964234633332014,camera_1,63,0,0.24748939689105665,-0.06915292391144914,0.5191400537513694,-0.9746160116891284,-0.03473784876055408,0.21144414528592098,-0.06487129601736118,0.5423737351084128,0.05108431621040234,31650.226816679955
1684964234643434762,62,1684964234643434762,camera_1,64,0,0.24732223249617963,-0.06985494489657643,0.5187935596504324,0.9745503725128898,0.03466706272907401,-0.2120314184078816,0.06397221119101726,0.5503289027838036,0.0517929744428364,31664.6278363506
1684964234653540611,63,1684964234653540611,camera_1,65,0,0.2472702143849267,-0.0705620167552743,0.5187022995850044,-0.9745966296045149,-0.03481969245702553,0.2118440615433844,-0.06380511084169596,0.5115349976113066,0.04815107264943806,31665.842976032065
1684964234663336277,64,1684964234663336277,camera_1,66,0,0.2471704763360447,-0.0712256118667398,0.5185144309392298,-0.9745134431511607,-0.03485282763546185,0.2124671418161059,-0.06298049834652629,0.547299002064392,0.05150877406623516,31660.15527632448
1684964234673357248,65,1684964234673357248,camera_1,67,0,0.24704894326146323,-0.07185259161321615,0.5182741727465855,-0.9746012646306164,-0.03501898697768106,0.21215615380087527,-0.06257644873176936,0.45802532247034833,0.043078961531901,31685.499172519674
1684964234683410882,66,1684964234683410882,camera_1,68,0,0.24695600561042752,-0.07242299933402666,0.5180980325442235,-0.974456760210936,-0.0351173579890684,0.21307721622378592,-0.06163516507154094,0.48257619043579325,0.04538188785801728,31671.582935045466
1684964234693415164,67,1684964234693415164,camera_1,69,0,0.24692658741758913,-0.0729911285524759,0.5180616746617462,-0.9746419688487431,-0.03526424251174828,0.21240357531449364,-0.06094412976110484,0.5657041141530499,0.053181631703026436,31687.939518510597
1684964234703561544,68,1684964234703561544,camera_1,70,0,0.2467118994398888,-0.07385071293633579,0.5175862209332462,-0.974507381501487,-0.03540701442798534,0.21326411222937694,-0.060001043019497644,0.5337846256443299,0.05013696069805808,31700.351255187168
1684964234713421344,69,1684964234713421344,camera_1,71,0,0.24662234628671126,-0.07418926589510359,0.5173933294582119,-0.9744577583623288,-0.03548587996933787,0.2135611747787812,-0.05970304948136148,0.5516500569647178,0.05179651148426668,31706.504602297784
1684964234723514080,70,1684964234723514080,camera_1,72,0,0.24650822621295582,-0.07465554634029262,0.5171380582336959,-0.9742867450643926,-0.03565223076423636,0.21442783829362913,-0.059287089640883035,0.5521138075273484,0.05182995809235291,31699.00275873684
1684964234733413457,71,1684964234733413457,camera_1,73,0,0.24653221792076535,-0.07479518083973698,0.5171858514256347,-0.9743204434488119,-0.03545888112558582,0.21425742718903687,-0.05946508321163702,0.5320083669503219,0.04996169864058566,31692.791520407536
1684964234743644714,72,1684964234743644714,camera_1,74,0,0.2464946669033721,-0.07483621837561522,0.5170742186828078,0.9742959502843315,0.0357707165026444,-0.21440956152745252,0.05913033930263512,0.5338707437622361,0.050111208470780925,31701.660573945832
1684964234753196954,73,1684964234753196954,camera_1,75,0,0.24652195747389544,-0.07480531399080691,0.5171124085352065,-0.9742753696850321,-0.03573049158846539,0.21429188555222659,-0.05991513817402153,0.53127438260708,0.04989536679113375,31694.343998858945
1684964234763602495,74,1684964234763602495,camera_1,76,0,0.24666829005382943,-0.07454081341973796,0.5173789506728106,-0.9745003047551088,-0.03562730279440304,0.2131863671236164,-0.060261299358964286,0.5680385475279763,0.053367308719681796,31700.647490737134
1684964234773338317,75,1684964234773338317,camera_1,77,0,0.2467387274747787,-0.07428529534680306,0.5175094445463021,-0.9744253422827787,-0.03550219435645616,0.213489365954791,-0.06047426838902292,0.5948809656547382,0.055917302173140344,31681.116431080023
1684964234783589363,76,1684964234783589363,camera_1,78,0,0.24673708740094916,-0.0739347543510586,0.5174589528172379,0.9742940565002249,0.0356581485937964,-0.21390159344602133,0.061038481537896504,0.5353786838822998,0.050323678313421695,31677.90042199474
1684964234793418169,77,1684964234793418169,camera_1,79,0,0.2468294815679211,-0.07353418316309245,0.5176244146986448,-0.9742412151307207,-0.035494816406937996,0.2140855970767999,-0.06133131233818944,0.5147253620671108,0.048406518540886574,31660.685573779367
1684964234803373098,78,1684964234803373098,camera_1,80,0,0.24692953985009886,-0.07307177349618951,0.5177959718343316,-0.9743955400904211,-0.03541256326397239,0.21328680790610793,-0.06170915157571707,0.49378573667490855,0.0464348971527538,31673.465895748588
1684964234813399553,79,1684964234813399553,camera_1,81,0,0.24696526239227778,-0.07193066111885187,0.5178214145938246,-0.9741409334529606,-0.035178032866990186,0.21400281643754346,-0.06336199437993521,0.4982600527582691,0.046869109849485786,31663.499382778544
1684964234824269294,80,1684964234824269294,camera_1,82,0,0.24741397413102315,-0.07071285165676278,0.518712690519181,-0.974568667068682,-0.035124580715670595,0.2114487764230295,-0.06535741692206455,0.5781901871669106,0.054490453936375534,31649.106444767553
1684964234833889961,81,1684964234833889961,camera_1,83,0,0.2473215728294086,-0.06992777588414224,0.5184845811833496,-0.9742106078582315,-0.035173316073063315,0.21309389508275853,-0.065326267698207,0.5163441043696366,0.04862354537500013,31644.10326624127
1684964234843519210,82,1684964234843519210,camera_1,84,0,0.24761307976007427,-0.069266860326203,0.5190657791933302,-0.9744734393514307,-0.034993620960525586,0.21147623318327546,-0.0667440281169593,0.4570623789913953,0.043106048050686116,31626.904008057194
1684964234853670120,83,1684964234853670120,camera_1,85,0,0.24777945124659131,-0.06853685978458424,0.5194050236760894,0.9746420704136701,0.03475067788111496,-0.21060170876815787,0.06717250353001158,0.5417345424066298,0.051107018106682715,31626.23222300248
1684964234863484859,84,1684964234863484859,camera_1,86,0,0.2476826908371237,-0.06772974975486683,0.5191796343032237,0.9744199151970285,0.03489697769735505,-0.21125540945636528,0.06825819943735266,0.5691171559737995,0.053655686464670525,31640.680604342822
1684964234873461246,85,1684964234873461246,camera_1,87,0,0.2476547762480235,-0.06690590121338023,0.5190734381440497,0.9742890304409056,0.034770446882287954,-0.21188047429277615,0.068253687076921,0.5186693298164755,0.048859356197530436,31649.958326939843
1684964234883891820,86,1684964234883891820,camera_1,88,0,0.24769723175731345,-0.06611862585821512,0.5191418517276423,0.9742614473770298,0.03483107443358812,-0.21189198496013517,0.06857999065522558,0.501899189199321,0.047265276978357945,31653.852848495826
1684964234893398046,87,1684964234893398046,camera_1,89,0,0.24766333838847754,-0.06454873190228778,0.5190240255883146,0.9742814466104021,0.034524281055577706,-0.21125191687203174,0.0704014518758654,0.5110435384558514,0.04807311992417128,31699.59448886245
1684964234903561353,88,1684964234903561353,camera_1,90,0,0.24776050494899998,-0.0638096008024056,0.5192115496517504,0.9742365495399138,0.03450329985659308,-0.21122027140761507,0.07112429111114382,0.4849186377832666,0.04563537051685429,31684.195725881014
1684964234913444519,89,1684964234913444519,camera_1,91,0,0.24781820276079095,-0.06310570803020295,0.5192894603663418,0.9743617438327774,0.03446748040985059,-0.21037088346713195,0.07193939351012255,0.4148499250295572,0.039030359411737894,31703.71571431239
1684964234923415899,90,1684964234923415899,camera_1,92,0,0.24767817798062522,-0.061765082443553755,0.5189829027933027,0.9741235107020086,0.03437897037096011,-0.21133458054622814,0.07238209280738019,0.46249430015450343,0.04344679905375868,31727.939914209303
1684964234933352708,91,1684964234933352708,camera_1,93,0,0.24756488974427118,-0.06115142721145185,0.5187332898654504,0.9740105705897532,0.03453766187360641,-0.21198210271025755,0.07193153982965853,0.4587175977649167,0.04303185522070239,31750.61245180166
1684964234943427324,92,1684964234943427324,camera_1,94,0,0.2477128944029008,-0.06067253066747891,0.5190408460199729,0.974143432726351,0.03431386214531816,-0.2111885684813233,0.07257079222113481,0.5081639982527122,0.04770433652496678,31739.024419754292
1684964234953372240,93,1684964234953372240,camera_1,95,0,0.2475385063905332,-0.059813509384470005,0.5186614218095366,0.9739627608735414,0.03415994950697458,-0.21195978683436967,0.07281955126474167,0.5176543478155509,0.04851913480886261,31769.707981904045
1684964234963836908,94,1684964234963836908,camera_1,96,0,0.24766048019020248,-0.0595449429843338,0.5189286199599779,0.9741394194139179,0.0341291512787042,-0.21096208642321387,0.07336614116112998,0.5399373782565817,0.050637335548227407,31767.209501794197
1684964234974491119,95,1684964234974491119,camera_1,97,0,0.24749307570971887,-0.05928407063139309,0.5185903576670259,0.9738856202182186,0.03424571790496883,-0.21219706772851593,0.07311931334995293,0.5371262315893546,0.05032301511952618,31775.93776683241
1684964234983624458,96,1684964234983624458,camera_1,98,0,0.2474954132983259,-0.059153192381423796,0.5186083112098997,0.9738947196837904,0.03419770254227074,-0.21203427566378147,0.07349189109417043,0.5203311037039384,0.04875398690336114,31777.55508624832
1684964234993570089,97,1684964234993570089,camera_1,99,0,0.24749999377892515,-0.05908700915847159,0.5186326317110659,0.9739995587129167,0.034170926809946316,-0.21144441281325174,0.07381373637780546,0.5313171308953316,0.04977859000440742,31791.319567466282
1684964235004029512,98,1684964235004029512,camera_1,100,0,0.2474725960243831,-0.059111360417715135,0.5185996833072507,0.9739394676741769,0.033991397315487504,-0.2119547607638445,0.07322347714103093,0.5726014295360075,0.05363622478367889,31785.344642265933
1684964235013937950,99,1684964235013937950,camera_1,101,0,0.24755423511729757,-0.059230544055703216,0.5187792245994688,0.9741085958264649,0.0341793141021461,-0.21135942912376907,0.0726044746897475,0.563521291303914,0.05278813563307621,31786.223755121027
1684964235024811744,100,1684964235024811744,camera_1,102,0,0.24753982515074294,-0.05968096718545064,0.5188116575379552,0.9740037612805583,0.034151443410422914,-0.2118482994280795,0.07259924210169565,0.5526428818120621,0.05180472268763781,31764.045494204285
1684964235033656597,101,1684964235033656597,camera_1,103,0,0.24755828499623186,-0.06000282024426646,0.5188742963999763,0.9739789418069292,0.03390943927734403,-0.21204794361464357,0.07246268317797426,0.5361664217780344,0.05028841651826802,31748.176692816658
1684964235043313741,102,1684964235043313741,camera_1,104,0,0.24770938198831427,-0.06090700565132027,0.5192406076946491,0.9743145813848211,0.03413798921370371,-0.21054873872370186,0.07221442248764658,0.4786884828354232,0.04494748572782892,31741.79743749113
1684964235053178787,103,1684964235053178787,camera_1,105,0,0.24772099168684564,-0.06144235401018538,0.519309916941751,0.9743582976924104,0.033920672001835066,-0.21060253160980927,0.07156723697636634,0.5669493408640847,0.053252910683251775,31731.598993884734
1684964235063238620,104,1684964235063238620,camera_1,106,0,0.24757818868108974,-0.061969145992844345,0.5190399761665418,0.9740914051052286,0.034105495570988,-0.2118859522660185,0.07132385929197461,0.5468362742685713,0.05136147389937066,31720.15682043507
1684964235073215961,105,1684964235073215961,camera_1,107,0,0.24762172832852203,-0.0626151705245468,0.5191615193252465,0.9741833792636155,0.034182856465914555,-0.21174512341413362,0.0704434425669761,0.5095685338019393,0.04787940460998622,31708.557295175153
1684964235083534479,106,1684964235083534479,camera_1,108,0,0.24764269832196523,-0.06401388426694309,0.5192684320171533,0.9742686281581702,0.03406614631377196,-0.21169253194824492,0.069472367020761,0.4611350080813281,0.043372154591774965,31684.6721437038
1684964235093341588,107,1684964235093341588,camera_1,109,0,0.24764445182689765,-0.06475483424790414,0.5193070852778118,0.9743994522960757,0.034319236339439875,-0.211428381531174,0.06830766329844659,0.4698939546360634,0.044193660150409216,31686.359032621505
1684964235103555679,108,1684964235103555679,camera_1,110,0,0.24761041843483625,-0.0655224752624645,0.5192586458330776,-0.9743450138766726,-0.034329096763318294,0.21180900358071955,-0.06789884425543789,0.4965570142958313,0.04672397468212919,31670.633388606617
1684964235113236665,109,1684964235113236665,camera_1,111,0,0.24752230356310098,-0.06630022694486169,0.5191028127724878,0.9743092343885251,0.034137147812890095,-0.21221920001255404,0.06722486199672394,0.49767392926150933,0.04682721065237649,31668.266278911855
1684964235124042987,110,1684964235124042987,camera_1,112,0,0.24767450141962935,-0.06714358235823081,0.5194566483555633,-0.9746853426043928,-0.034573348732133274,0.21066815235638311,-0.06642361065428314,0.6073187762522139,0.05718837156444911,31664.773747890722
1684964235134380340,111,1684964235134380340,camera_1,113,0,0.24749022792374314,-0.06871636097140231,0.5191348649943617,-0.974503864627027,-0.03440840375746924,0.21198589448500713,-0.06496352913168667,0.5071083154762164,0.04775898813272015,31643.1439281645
1684964235144366741,112,1684964235144366741,camera_1,114,0,0.2471810643711477,-0.07017636250996268,0.5185268617943982,-0.9744214385291364,-0.03484963993484774,0.2128263754007317,-0.06319253646599961,0.5825177357182838,0.054782071115493575,31671.8983137364
1684964235153549194,113,1684964235153549194,camera_1,115,0,0.2471507632758764,-0.0708952363586272,0.5184811410964224,0.974506573299249,0.03505333601522046,-0.21261634637163376,0.062469924654483595,0.5458255171542987,0.051330996029651674,31672.5871276937
1684964235163414955,114,1684964235163414955,camera_1,116,0,0.24700177539202503,-0.07154369029540329,0.5181843254231199,-0.9746118859423362,-0.034876373289676216,0.2121140057514078,-0.0626335288018618,0.5257829161710106,0.04941960032735959,31705.5660630743
1684964235173462867,115,1684964235173462867,camera_1,117,0,0.24699759796629894,-0.07218863742779502,0.5182125789207501,-0.9745439211724889,-0.035100696786730765,0.21262576774073214,-0.06182531587869117,0.5910280634416267,0.05558068691771101,31677.842923894066
1684964235183307170,116,1684964235183307170,camera_1,118,0,0.24684871548172307,-0.07273061728176834,0.5178992757075017,-0.9744908729586554,-0.03512239210925174,0.2131958722162476,-0.06067516924372991,0.48543187777977437,0.045607279809439356,31692.12411115203
1684964235193529605,117,1684964235193529605,camera_1,119,0,0.2468626225550612,-0.07326137750056361,0.5179340707807986,-0.9746401282378379,-0.03534243119370258,0.21250118493187461,-0.0605869572465793,0.5554927987395786,0.05220355070304038,31695.710452527965
1684964235203398942,118,1684964235203398942,camera_1,120,0,0.2468483658106854,-0.07372334048524143,0.5179037999481668,-0.9746039141777691,-0.035367699490712175,0.2129087247276353,-0.059717763161041104,0.5094852860784158,0.047884391469303754,31680.895558083903
1684964235213351011,119,1684964235213351011,camera_1,121,0,0.24666471313133567,-0.07437803836035005,0.517505563592341,-0.9745581373562587,-0.03564361014052979,0.21316531709634629,-0.059384489187527284,0.5338166721048765,0.05013087956654688,31703.378065218472
1684964235223582506,120,1684964235223582506,camera_1,122,0,0.24664445471515933,-0.0746223418278281,0.5174515364707437,0.9743848271576534,0.03571910750049974,-0.21409273913940727,0.058844311637604355,0.5477534052333795,0.051452096697875024,31678.091260720757
1684964235233166933,121,1684964235233166933,camera_1,123,0,0.24656469955327645,-0.07475708162173235,0.5172718429898059,-0.974283316832343,-0.03566502872623405,0.21460643513867467,-0.05868647429514628,0.5696239025564864,0.053491238874639524,31680.345038731233
1684964235243359327,122,1684964235243359327,camera_1,124,0,0.24657837583886127,-0.07485162618969422,0.5172853075697207,0.9743016191521247,0.03564162650728317,-0.21439213926060322,0.059178036472375205,0.5390192567138001,0.05063496539912728,31677.74234417209
1684964235253275394,123,1684964235253275394,camera_1,125,0,0.24656143540475545,-0.07477243896517975,0.5171983872210127,-0.9742326178508192,-0.0355935126864934,0.21450901131467406,-0.05991487490579835,0.5567790357163176,0.05231224358509252,31678.66762607391
1684964235263774156,124,1684964235263774156,camera_1,126,0,0.24661998843238142,-0.07463920413177084,0.5172832139130997,-0.9744013899803114,-0.035449987607379024,0.21383333461537854,-0.059670215269774576,0.5493530551320873,0.05159860636689987,31694.263809636104
1684964235274335145,125,1684964235274335145,camera_1,127,0,0.24671517743670962,-0.07413563608403716,0.5174496588727634,-0.9743669322386755,-0.03545772084991752,0.21358119304546402,-0.06111387215025667,0.535205730702728,0.05031128573104797,31683.688597551303
1684964235284210920,126,1684964235284210920,camera_1,128,0,0.24672239449897737,-0.07376193962646259,0.5174416818551613,-0.9742768211898556,-0.03565775340387917,0.21404355267512967,-0.060815769933361144,0.5666089169098996,0.053241653489427755,31683.066286215097
1684964235293514013,127,1684964235293514013,camera_1,129,0,0.24675950176103242,-0.07333589124601202,0.5174859809081317,-0.9741715054261558,-0.03520058288642804,0.21433679028339,-0.061729549740842195,0.5391422858228907,0.050685431183183756,31671.794636215087
1684964235303460121,128,1684964235303460121,camera_1,130,0,0.24681597962081334,-0.07283227760435637,0.5175685334712824,0.974168487410937,0.035409497934844714,-0.21407586569407785,0.06255756803793376,0.5087413702276535,0.04783181455253121,31675.69302224252
1684964235313354730,129,1684964235313354730,camera_1,131,0,0.2470418138369607,-0.07232038397042816,0.5180034226872176,0.97433044153853,0.035287747459241944,-0.2131165999530733,0.0633741303295555,0.48061757220420986,0.04523674015933112,31659.4158736749
1684964235323438405,130,1684964235323438405,camera_1,132,0,0.24713948211467754,-0.07171680744176133,0.5181791355607313,0.9743641729570646,0.035353709909718194,-0.2128883727067973,0.06358548906446271,0.5288995106820948,0.04978126281549903,31659.107049395087
1684964235333509206,131,1684964235333509206,camera_1,133,0,0.24720468387537428,-0.07105870375820869,0.5182941605467304,0.9743736511041756,0.0350843867993351,-0.21271089231931467,0.06418060552498496,0.5420782085275277,0.05102315967392955,31662.148846572487
1684964235343390226,132,1684964235343390226,camera_1,134,0,0.24731143273689418,-0.06960666333694307,0.518452969191562,0.9743542889358334,0.035114403142449076,-0.21237604304886185,0.06555238106433788,0.4917078851722181,0.04626987716262625,31675.214638503257
1684964235353294610,133,1684964235353294610,camera_1,135,0,0.24743687977874326,-0.06884323326271383,0.5186764307943637,0.974362716287478,0.03474579296709176,-0.21204588638073704,0.06668259929684416,0.478052414371632,0.04501390560236117,31665.38051863853
1684964235364001035,134,1684964235364001035,camera_1,136,0,0.24763975735603852,-0.06726350408925709,0.5190643311730153,0.9744446439919096,0.03474970971221058,-0.21124522978899712,0.0680113693568334,0.5111310165957548,0.048140035389642996,31665.842935551067
1684964235373909473,135,1684964235373909473,camera_1,137,0,0.24766879291599553,-0.06644917700718588,0.519093210228724,0.9744252754225089,0.0347419569197699,-0.2111057484386308,0.06872220909806546,0.47920858627185225,0.045119890457558674,31676.0954860118
1684964235383717298,136,1684964235383717298,camera_1,138,0,0.24777475529952114,-0.06566632359224032,0.5193001389797097,0.9744290297384505,0.034703482645998915,-0.21095001597036364,0.06916520120208075,0.5139392204000615,0.04840035352215343,31667.359555502884
1684964235393288850,137,1684964235393288850,camera_1,139,0,0.24788332961361184,-0.06414158548381595,0.5194756498405709,0.9744930623897988,0.03459044124079822,-0.2100156717217187,0.0711350150080389,0.5402053328580223,0.050871612564471626,31683.83369487978
1684964235403646707,138,1684964235403646707,camera_1,140,0,0.24757858011598172,-0.06332312358300579,0.5188170416304522,0.9740532447898219,0.03466534614264722,-0.21209510296826833,0.07095250092920784,0.5904968591057695,0.05548664403932653,31714.28950070101
1684964235413291931,139,1684964235413291931,camera_1,141,0,0.24767381441261024,-0.06266136622483778,0.5189886690148382,0.9740846090201157,0.03445630837680917,-0.2117878655237772,0.07153906135848566,0.5117796348640695,0.048102898664209325,31707.564186982687
1684964235423586606,140,1684964235423586606,camera_1,142,0,0.24783005878063505,-0.06204975954575773,0.519306889107443,0.9742653257589107,0.034556586431856544,-0.21078920607592408,0.07197796857332876,0.5340360891423188,0.050214236798039456,31705.419076323873
1684964235433471202,141,1684964235433471202,camera_1,143,0,0.2477052141168172,-0.06143085325692616,0.5190396685958393,0.9740950539425041,0.03418681279545369,-0.2113170355712009,0.07290540578748983,0.5309484210447408,0.04989064767397238,31722.10527209634
1684964235443491935,142,1684964235443491935,camera_1,144,0,0.2475877620006086,-0.06087217522361771,0.5187841892965542,0.9739102084444934,0.03431078949569305,-0.21196723678155555,0.07342728473107012,0.5541120282723568,0.05202589855475778,31736.028784211485
1684964235453441619,143,1684964235453441619,camera_1,145,0,0.2477070877805754,-0.0604388370509536,0.5190318864806917,0.9741706614774455,0.034095642961197874,-0.21077120072551203,0.07351537521080147,0.5433032857836224,0.05101069068689597,31747.899329184092
1684964235463424205,144,1684964235463424205,camera_1,146,0,0.24765038349923474,-0.05969580482187002,0.5189166148559586,0.9741069376193028,0.03423050629206551,-0.21133197448730642,0.07268248124705878,0.5699851322569884,0.053446787651366505,31761.802183527972
1684964235473430871,145,1684964235473430871,camera_1,147,0,0.24765706337205595,-0.05943822843950643,0.5189294906627103,0.9741171982864977,0.034158404867087884,-0.2111315424481276,0.07315981931958791,0.5152410751907155,0.04831514784826301,31765.262860290255
1684964235483385801,146,1684964235483385801,camera_1,148,0,0.24751602248460466,-0.05912142912809916,0.5186608380454764,0.9739992341589551,0.034131131912932676,-0.21149374031595397,0.07369501678728928,0.564460503810551,0.05288894010935493,31786.880712093887
1684964235493524074,147,1684964235493524074,camera_1,149,0,0.24749298090258193,-0.05908679956919683,0.5186288114521932,0.9739922184614301,0.03420904650319049,-0.21171910618662257,0.0731021175443106,0.5777382407104596,0.05411114376637349,31790.03176137246
1684964235503285169,148,1684964235503285169,camera_1,150,0,0.24754066175241873,-0.05916522376680333,0.5187406027573042,0.9740045009165818,0.03411636944511333,-0.21173010972031162,0.0729497509793551,0.5127974305069075,0.048047532109844936,31776.79320800851
1684964235513321161,149,1684964235513321161,camera_1,151,0,0.24748473525375858,-0.05928976132295563,0.518644731191791,0.9740345292261542,0.03403408952693995,-0.21170519310533525,0.07265898318507533,0.5567396393744275,0.05214056754267596,31790.999100451718
1684964235523273944,150,1684964235523273944,camera_1,152,0,0.24761258484375923,-0.059832896847187504,0.5189844976285087,0.9741819841131313,0.034190549672641,-0.2110168296161584,0.07261105811948153,0.5206587257562205,0.048822139192539235,31767.379535622313
1684964235533451318,151,1684964235533451318,camera_1,153,0,0.24754624897874422,-0.06018078546933846,0.5188775575038078,0.9741119236598877,0.034178929934579654,-0.21171762858972426,0.07150808818940647,0.5840943246730603,0.05474662753842961,31765.075327376613
1684964235543311119,152,1684964235543311119,camera_1,154,0,0.2476270948480876,-0.06064065071677714,0.519055360983976,0.9742000276548545,0.03405279529828188,-0.211305768663473,0.07158620942048156,0.4672147409291938,0.04383075507968154,31749.483901733984
1684964235553367614,153,1684964235553367614,camera_1,155,0,0.2476700101657108,-0.06114654604021426,0.5191875231834161,0.9742407211785931,0.03401771908496991,-0.21108198529314492,0.07170918679204043,0.49548982677515596,0.04652394772229227,31733.972289826736
1684964235563440322,154,1684964235563440322,camera_1,156,0,0.24772933323109783,-0.061726952827960424,0.5193304856621366,0.9743366142689951,0.03384879403170892,-0.21079260650296544,0.07133651436057328,0.4769548788899556,0.044812812399820844,31721.024489370408
1684964235573357582,155,1684964235573357582,camera_1,157,0,0.24764674953666319,-0.06300170126911742,0.5192291082642582,0.9743339374276626,0.03423995724025644,-0.21140748559390657,0.06933886889584562,0.5481580936466344,0.05149034206830863,31714.74510175826
1684964235584330081,156,1684964235584330081,camera_1,158,0,0.2476222013043777,-0.06446128432886646,0.51926183152202,0.9743366349239189,0.0343088706720112,-0.2115782829252749,0.06874338828380272,0.5306914356187917,0.04990558228741121,31688.92602308919
1684964235593230247,157,1684964235593230247,camera_1,159,0,0.24745031172876822,-0.06519077608044425,0.5189097093538656,0.9741705755347972,0.03412748177410886,-0.21254164344146564,0.06821330187845143,0.4809688258683309,0.045209855106575214,31692.770153638558
1684964235603617191,158,1684964235603617191,camera_1,160,0,0.24768573110613526,-0.06604487267227876,0.5194326987162574,0.9746346036985231,0.034596279117659605,-0.2108708433882224,0.06651296229589908,0.4835785431205295,0.045490189373008874,31680.847941947744
1684964235614323616,159,1684964235614323616,camera_1,161,0,0.24765752010978767,-0.06683008283555393,0.5193995357725528,0.9744775850788672,0.034406735673796686,-0.21155865527390808,0.06672741638808084,0.4791544707259163,0.04512593974787904,31647.189016649507
1684964235623660802,160,1684964235623660802,camera_1,162,0,0.24757873898338278,-0.06762620288837327,0.5192799662488726,0.9745985340630396,0.03429120004697138,-0.21122808613131555,0.06606441274100906,0.6220223273267038,0.058565159440218575,31662.42639086397
1684964235633535385,161,1684964235633535385,camera_1,163,0,0.24758815894042016,-0.06839374887957457,0.5193242032930054,0.9746398812587395,0.03473599772854664,-0.2111664885581339,0.06541579650038896,0.4717371248989366,0.04443594410557275,31648.44915131607
1684964235643361806,162,1684964235643361806,camera_1,164,0,0.24750120732763925,-0.069170143886907,0.5191788344629121,-0.9747702217216739,-0.034825215324848384,0.21082826463687884,-0.06451094521442703,0.5155528573086485,0.04853827059178518,31667.503513557735
1684964235653464317,163,1684964235653464317,camera_1,165,0,0.24728701383058552,-0.07058439977472858,0.5187699648307177,0.9746872954490675,0.035071764122132455,-0.21162543589668908,0.06300255814711198,0.5240473489975557,0.04930867774622149,31672.02176567656
1684964235663360595,164,1684964235663360595,camera_1,166,0,0.24719718430370724,-0.07123750313625747,0.5185856933365784,-0.9745813631697926,-0.034569691743874864,0.21210482406042083,-0.06330597590386093,0.5284414829802699,0.0497495860740909,31660.18406584882
1684964235673444747,165,1684964235673444747,camera_1,167,0,0.2471693263498995,-0.07189137612094672,0.5185401237045455,-0.9747585273385808,-0.035172687897745365,0.2115172953302983,-0.06220232457814282,0.5057390322908759,0.047586437455088164,31676.35861851448
1684964235683397531,166,1684964235683397531,camera_1,168,0,0.24694581374031072,-0.07299509672930761,0.5181005101129025,-0.9747004890176098,-0.03524259130424847,0.21219538875356828,-0.06074564559469612,0.5273142327787355,0.04956866117722685,31691.15197663731
1684964235693493366,167,1684964235693493366,camera_1,169,0,0.24680623008816535,-0.07344738429184475,0.5178080780215762,-0.9745231086055487,-0.03525624435199667,0.2132777412086879,-0.05978555956826308,0.5979752640123479,0.056179263181516066,31688.112074139408
1684964235703513145,168,1684964235703513145,camera_1,170,0,0.24675958999799402,-0.07387167439876915,0.5177154454110708,-0.974567730934574,-0.03549579643592378,0.21296926058257515,-0.060015667148891755,0.584019587142393,0.05487306562490248,31694.61583455815
1684964235713858127,169,1684964235713858127,camera_1,171,0,0.24667325217473143,-0.0745040649867372,0.5175104300679607,-0.9744741478113089,-0.03563005645124415,0.21358281363771284,-0.05927070139033467,0.555893961689435,0.052221774096664945,31686.786239770587
1684964235724189519,170,1684964235724189519,camera_1,172,0,0.24661991942552225,-0.07469441695059593,0.5173885518771795,-0.9744672658128228,-0.03553616831757945,0.21359388810631658,-0.05940016468169337,0.50879761565011,0.04779168460188036,31693.56769668578
1684964235733577966,171,1684964235733577966,camera_1,173,0,0.2465834044956332,-0.07481670859338027,0.5172993044948194,-0.9742876653419916,-0.03547363239281432,0.21446034860646887,-0.05926150051173811,0.54982276778901,0.05165661307709479,31674.502636682584
1684964235743286371,172,1684964235743286371,camera_1,174,0,0.2464955680250508,-0.07484051377038493,0.5170917782197378,-0.9742337043077243,-0.03563932409349429,0.21477665516359667,-0.05890260067048026,0.5375227659242228,0.050460844754348776,31690.60829727864
1684964235753373861,173,1684964235753373861,camera_1,175,0,0.24653876071937275,-0.07481659570400889,0.5171541479899936,-0.9743454829524887,-0.035687226536986694,0.2141108980160247,-0.05944598441401229,0.5387266297475435,0.05058392808351612,31698.951141216552
1684964235763425350,174,1684964235763425350,camera_1,176,0,0.2465871117212361,-0.07471964352425696,0.5172225452732504,-0.9743546394085782,-0.0357704336341828,0.2140690586127144,-0.059396556173469874,0.5426223512040451,0.05095550380220935,31694.348976542467
1684964235773387670,175,1684964235773387670,camera_1,177,0,0.24669029789813846,-0.07455454826077335,0.5174313275491601,-0.9744697191966334,-0.03566406873053812,0.21348910831914977,-0.059659376459300265,0.577397229266353,0.054246128278571344,31690.150651690325
1684964235783347129,176,1684964235783347129,camera_1,178,0,0.24676584060338017,-0.0739543487950156,0.5175420305257777,-0.9743057753327994,-0.03557414162561726,0.21403508954876427,-0.06042943854286455,0.5585817536339164,0.05250583594593331,31669.54369037668
1684964235793506145,177,1684964235793506145,camera_1,179,0,0.24670402129964927,-0.07350552756360858,0.5173665183124048,-0.9740735707544289,-0.03548417855767622,0.21479951722805116,-0.06150381474672647,0.5195908055757172,0.04884012282278898,31668.540189681116
1684964235803791046,178,1684964235803791046,camera_1,180,0,0.24709725964754983,-0.07257335017433586,0.5181287798295399,-0.9745083756590649,-0.03536455863781396,0.2125090047714204,-0.06263143502861748,0.5386682387907058,0.05069888264166864,31663.34322442369
1684964235813676595,179,1684964235813676595,camera_1,181,0,0.24712362647858505,-0.07198128319237072,0.5181638462860146,-0.974381643479091,-0.035283596927805735,0.2128864771104107,-0.0633626743622805,0.5209170150919817,0.049034509321078563,31656.50178813003
1684964235823452472,180,1684964235823452472,camera_1,182,0,0.24713959480417633,-0.0713202546657029,0.5181618536319551,-0.9742563859652431,-0.03511937100741102,0.2130952605782618,-0.06466478257188985,0.5404141502804123,0.050883102259152914,31655.129825479577
1684964235833484649,181,1684964235833484649,camera_1,183,0,0.24732281791037689,-0.07067792287872703,0.5185253488089657,-0.9745163174504636,-0.03520326503082852,0.21181500760325975,-0.06490824067857365,0.439351943670772,0.04137181926521609,31664.718475641566
1684964235843430757,182,1684964235843430757,camera_1,184,0,0.2474516303453407,-0.06921271880122926,0.5187312938559137,-0.9743350494613807,-0.034926263837718574,0.2122438381774367,-0.0663620421712375,0.5175453150295652,0.048756121867844365,31648.01551045209
1684964235853541612,183,1684964235853541612,camera_1,185,0,0.24758893844037924,-0.06846930982684107,0.518993742784296,0.9743685837107452,0.03480965198287166,-0.21188781454916628,0.06706493310163007,0.46945871849311516,0.04424630892840003,31637.690248873103
1684964235863315105,184,1684964235863315105,camera_1,186,0,0.24758133083445272,-0.0676987676502581,0.5189527002867768,0.9742360682396267,0.034502699225678286,-0.21215609508862449,0.06828937255446295,0.549688437837176,0.05180818640873624,31639.855770926588
1684964235873507499,185,1684964235873507499,camera_1,187,0,0.2479473259465507,-0.06697808644467611,0.5196957235803092,0.974696768684843,0.03461610870310161,-0.2098381960105144,0.06881762585728843,0.43227883864892647,0.04078756470276112,31631.71791404741
1684964235884452581,186,1684964235884452581,camera_1,188,0,0.24780526877777592,-0.06615906587872833,0.5193800162008554,0.974451793946382,0.03438781281890546,-0.21081488630366232,0.06941371130391974,0.5349827195750549,0.050424576535266025,31650.58479537617
1684964235893798351,187,1684964235893798351,camera_1,189,0,0.24769087281598098,-0.06455997489284035,0.5190673682883375,0.9743249540679665,0.03453858225063605,-0.21108346808933806,0.07029750860413582,0.4860041796346195,0.04571857386493195,31699.68594229652
1684964235904696941,188,1684964235904696941,camera_1,190,0,0.24766260999136158,-0.06308120987404627,0.5189710747717919,0.9741592418214776,0.03446372480197871,-0.21136080878412447,0.07178183444784755,0.5562250535003841,0.05229125453550734,31714.09531951022
1684964235913410663,189,1684964235913410663,camera_1,191,0,0.24766961748678448,-0.06239832372308372,0.518979095365555,0.9741610531999371,0.03442771310898445,-0.21140756727498136,0.07163669099943865,0.5558775583631359,0.05222443816330211,31723.738305588013
1684964235923736810,190,1684964235923736810,camera_1,192,0,0.24770105456748137,-0.0617735400654026,0.5190274232862478,0.9740955727943108,0.03427898024094622,-0.21155253296225118,0.07216849986954099,0.5307117894408293,0.04986411149152651,31717.67525015679
1684964235933323860,191,1684964235933323860,camera_1,193,0,0.24763077561295715,-0.06117458025040499,0.5188554077912096,0.9739814055135614,0.03446596990799803,-0.21201865719243818,0.07225238843418359,0.5197916697361507,0.04879536622993892,31731.20892704162
1684964235943460702,192,1684964235943460702,camera_1,194,0,0.24768384699956794,-0.0606775228268953,0.5189625563425977,0.9741505105530691,0.03436462738673195,-0.2110093331673539,0.07297202539353341,0.5042671615374275,0.04733237983679688,31749.740746609637
1684964235953323125,193,1684964235953323125,camera_1,195,0,0.24763034230867378,-0.06021765078339575,0.5188466725730092,0.9740587110278677,0.03420241092337057,-0.21160286978458637,0.07255375976946607,0.5965903682517819,0.05595631782080309,31755.354224646464
1684964235963362216,194,1684964235963362216,camera_1,196,0,0.2476160285669991,-0.059836222052082125,0.5188100022022548,0.9739859160401255,0.03410529003556171,-0.21177100498888568,0.07308423901953943,0.5615592413232662,0.052669917472100786,31754.587736615198
1684964235973292350,195,1684964235973292350,camera_1,197,0,0.24756817057803074,-0.05930611370178091,0.5187375897411978,0.9739385431165984,0.034182008729795245,-0.2119655421288427,0.07311575385058842,0.5634965185890906,0.052818079889642475,31764.718152612542
1684964235983330249,196,1684964235983330249,camera_1,198,0,0.2474704713070388,-0.05914978876650528,0.5185447654681368,0.97394759121012,0.03404212095623802,-0.21171971040047052,0.07376982990861995,0.5587330929702148,0.05234092303358532,31792.16228228899
1684964235993411064,197,1684964235993411064,camera_1,199,0,0.24748621388386086,-0.059093408660360856,0.5185793913392932,0.9739878095342056,0.03418285282753247,-0.21160710599330396,0.07349634102776857,0.5263989554368891,0.04930385180814029,31794.54085482517
1684964236003284454,198,1684964236003284454,camera_1,200,0,0.24751691313089183,-0.059127946002762735,0.5186523020276952,0.9740285013500131,0.034185986965624006,-0.21138397994294572,0.07359762140527394,0.47500688588479534,0.04450048188670393,31791.473742457354
1684964236013578176,199,1684964236013578176,camera_1,201,0,0.2475073178161106,-0.05941221519431936,0.518692690921635,0.973935071484482,0.034192700253534686,-0.21210008962181184,0.07276597944306418,0.527362632623408,0.04941577306362398,31770.650980661863
1684964236023345708,200,1684964236023345708,camera_1,202,0,0.24760545092404387,-0.059700432114263347,0.5189280047786196,0.974088424289732,0.034053481915553525,-0.21140206807771683,0.07280980460513946,0.5257424201699905,0.04930121965560262,31760.774927460123
1684964236033357143,201,1684964236033357143,camera_1,203,0,0.2476218844938591,-0.060431878376329975,0.5190134815585927,0.9740559404531499,0.03421621090558687,-0.2119186728283457,0.07165718307236722,0.5092701721587218,0.04777886132931291,31736.958723820044
1684964236043289661,202,1684964236043289661,camera_1,204,0,0.24760219023233554,-0.060878393026089425,0.5189969399263394,0.9741002867896016,0.03408339149055238,-0.21167208996773837,0.07184622488069653,0.5557344219414517,0.052153998064559594,31739.803093957496
1684964236053172111,203,1684964236053172111,camera_1,205,0,0.24770900577852653,-0.06144534682031457,0.5192531795760368,0.9743293834960551,0.03404341426201399,-0.21078020830821745,0.07137928401943007,0.5075124318245798,0.04766028181094007,31733.33279818051
1684964236063281297,204,1684964236063281297,camera_1,206,0,0.24765639975602396,-0.062012716058374794,0.5191769581788538,0.9742238366043852,0.034112764268018,-0.2113849354506569,0.07099749693016272,0.5535297966562213,0.05199420708557402,31720.257312889447
1684964236073400259,205,1684964236073400259,camera_1,207,0,0.2476876708815647,-0.06264131497823268,0.5192699780716468,0.9741802774135561,0.0340694682021754,-0.21162590627851874,0.07089805516841591,0.49110341124469414,0.046176070727905576,31693.693342121194
1684964236083719968,206,1684964236083719968,camera_1,208,0,0.2477508943081839,-0.06332753165256,0.5194444474378301,0.9743893321619195,0.034304374721875676,-0.2108212150741853,0.07030685968405795,0.4982768685440533,0.0468703806515002,31693.000769649167
1684964236093306064,207,1684964236093306064,camera_1,209,0,0.2477061561231714,-0.0640395305767645,0.5193801465257838,0.9743442856066923,0.03441570864784895,-0.21133865760008674,0.06931626005234284,0.4995807349914685,0.04699441517855964,31682.472253187552
1684964236103521823,208,1684964236103521823,camera_1,210,0,0.24774367238636827,-0.06557912106162576,0.5195187499286431,0.9745374028422371,0.03410657719746241,-0.21102169301765608,0.06770108514154956,0.5166231921757571,0.04863654958361567,31663.56709802163
1684964236113357543,209,1684964236113357543,camera_1,211,0,0.2477589169215828,-0.0663560708442611,0.5195700437572891,-0.9746399089293692,-0.034385913620696366,0.2105385050856644,-0.06758842166313944,0.5595969444257207,0.0527133656948331,31658.843604300295
1684964236123399257,210,1684964236123399257,camera_1,212,0,0.247528802641527,-0.06791152831829433,0.5191464742803573,-0.9744711376592684,-0.03431071755791683,0.21176537914174676,-0.06621329720429547,0.487791626364924,0.045937943456589435,31653.117969688727
1684964236133412122,211,1684964236133412122,camera_1,213,0,0.2472596571183719,-0.06864832512912537,0.5186186904675658,-0.9742658021889026,-0.03464635830309488,0.21302723712425933,-0.06500132909989327,0.48076382343424484,0.04521519672742738,31672.510519601296
1684964236143321275,212,1684964236143321275,camera_1,214,0,0.24729126767248136,-0.06944004758596124,0.5187068242951324,-0.9745496550992274,-0.034758407394790435,0.2118034257610174,-0.06468486451444216,0.5506355782854371,0.05180036909654149,31684.915282283666
1684964236153349161,213,1684964236153349161,camera_1,215,0,0.24703099027248118,-0.07012782253248412,0.5181747887900333,-0.9742685876919626,-0.034774720261051745,0.21360434144924348,-0.06296525376355949,0.5000957720330916,0.04698178836661403,31691.260537380233
1684964236163336277,214,1684964236163336277,camera_1,216,0,0.2471702490240791,-0.07158812963742772,0.5185228044302379,-0.9747992316852636,-0.03527051801892927,0.21116681013774893,-0.06269790076823958,0.5050574497436173,0.047509578260362485,31692.14342986793
1684964236173498868,215,1684964236173498868,camera_1,217,0,0.2470064697863649,-0.07219090978457672,0.5181906702860558,0.9745557701534118,0.03518677577378922,-0.21255682112611562,0.061826688930395966,0.5266227872343734,0.04951940244058274,31680.86031142075
1684964236183339357,216,1684964236183339357,camera_1,218,0,0.2468735858142547,-0.0727346982020767,0.5179240042590966,-0.9743903093318853,-0.03545721192122485,0.2136685944290986,-0.06043213514000344,0.47452919610077515,0.044591219087885915,31675.585723531414
1684964236193523645,217,1684964236193523645,camera_1,219,0,0.2467587458916499,-0.07324092977269724,0.5176996107132955,0.9744353238099989,0.03531324214680525,-0.21335866912459744,0.060883930143875664,0.5248200517380609,0.04930898261872232,31694.414056458638
1684964236203582525,218,1684964236203582525,camera_1,220,0,0.2467161089255837,-0.0736819297841182,0.5175957448305113,-0.9744901157402271,-0.03543891967699216,0.21338500914628641,-0.05983255943352048,0.5431946731987409,0.051010413023534706,31701.836690220272
1684964236213342189,219,1684964236213342189,camera_1,221,0,0.24663055042133408,-0.07436611935765926,0.5173935785544312,-0.9744477651768081,-0.03554449270658024,0.2137673449751047,-0.05909030548618629,0.5283330935053527,0.049604883553882435,31699.44162631535
1684964236224123716,220,1684964236224123716,camera_1,222,0,0.24662423945098907,-0.07477964243194993,0.5173759525541118,-0.9743862958686482,-0.03570473457566824,0.2139666961219945,-0.059285506684975973,0.582838618545793,0.054756797630889344,31681.393896946334
1684964236233246803,221,1684964236233246803,camera_1,223,0,0.24649394121617987,-0.07482852133027051,0.5170826832012032,-0.9742326249739387,-0.03577896470639277,0.21482877510560727,-0.05864516610558698,0.5677595487213694,0.0532896085773836,31692.48190597642
1684964236243302583,222,1684964236243302583,camera_1,224,0,0.24645391209319711,-0.07482152444790377,0.5169869481664636,0.9742544518460564,0.03567671102044271,-0.21458827577552222,0.059222523152874476,0.5735195527668111,0.05382360604463839,31706.117672989727
1684964236253189325,223,1684964236253189325,camera_1,225,0,0.2465880933666365,-0.07478487656472242,0.5172375435504821,-0.9743344721515556,-0.03558934788849103,0.21408268175663228,-0.05978578481470428,0.5768069702317007,0.05418668959197093,31687.422317979155
1684964236263474941,224,1684964236263474941,camera_1,226,0,0.24666831451759963,-0.0746590955538192,0.5173738538732338,-0.9744647152226512,-0.03546602573089071,0.21345092948630656,-0.05999483733059619,0.5589629926835187,0.05252012491643476,31691.629737568313
1684964236273371458,225,1684964236273371458,camera_1,227,0,0.24672642271339215,-0.0744487974639757,0.5174844415565836,-0.9744919577909862,-0.035526658587591714,0.21323918030710395,-0.06026883699098503,0.4996180577436462,0.04695461949658324,31688.47522351239
1684964236283488273,226,1684964236283488273,camera_1,228,0,0.24669516245164766,-0.0741305184458403,0.5173999317165837,-0.9743159008230423,-0.03550420670934596,0.21391327412115665,-0.0607378618663065,0.6192883672774769,0.05820197834313601,31682.655875343808
1684964236293334960,227,1684964236293334960,camera_1,229,0,0.2469103415320728,-0.07337366923862068,0.517795991165169,-0.9742911079926756,-0.03532203885128071,0.21368280410295018,-0.06203909806318425,0.5473954625194892,0.05151366983792525,31651.45011778582
1684964236303389072,228,1684964236303389072,camera_1,230,0,0.24702693759819724,-0.07289914449541246,0.5180057203590693,0.9745163088416589,0.0352525870364094,-0.21246415902428017,0.06272320175959227,0.5235108255292289,0.04926705840528872,31670.21337991939
1684964236313320875,229,1684964236313320875,camera_1,231,0,0.24700107258375706,-0.07231880280033644,0.5179131765102911,-0.9743101792398638,-0.03524310921314362,0.2133206607554633,-0.06302296071613528,0.5375756282592192,0.05057581096575208,31666.88413128166
1684964236323353290,230,1684964236323353290,camera_1,232,0,0.24715563077184768,-0.07173033525554255,0.5182177843569611,0.9744227501950138,0.03520279624471837,-0.21251404727515905,0.0640222363688609,0.4589295652695,0.04320587793264013,31661.820284891655
1684964236333446025,231,1684964236333446025,camera_1,233,0,0.24745769429487996,-0.0704181431965613,0.5188011176970563,0.9746791205288492,0.03513385958139621,-0.2110619536844018,0.06495441188208366,0.5818010741495527,0.05480528355944734,31661.241701942286
