%time,field.header.seq,field.header.stamp,field.header.frame_id,field.image_seq,field.transforms0.fiducial_id,field.transforms0.transform.translation.x,field.transforms0.transform.translation.y,field.transforms0.transform.translation.z,field.transforms0.transform.rotation.x,field.transforms0.transform.rotation.y,field.transforms0.transform.rotation.z,field.transforms0.transform.rotation.w,field.transforms0.image_error,field.transforms0.object_error,field.transforms0.fiducial_area
1683662036853086471,9,1683662036853086471,camera_1,11,0,-0.07245501512082493,-0.23018227805156727,1.6723785920220582,0.07764980839057029,0.9942762577333404,0.07183129549194762,-0.015016509336080886,0.01064471324934857,0.0007213707873104685,30889.06682993776
1683662036872339010,10,1683662036872339010,camera_1,12,0,-0.07258192080661797,-0.23021360242756245,1.6729978033571762,-0.07808930348620481,-0.9947755356282515,-0.06128923697480897,0.023818560569659673,0.0034052402079396416,0.00023084647985986706,30905.16193980105
1683662036890381336,11,1683662036890381336,camera_1,13,0,-0.072531291847498,-0.23009111364795343,1.672212169366689,-0.07826687273649281,-0.9942273733224861,-0.0710940689231904,0.01821702863433557,0.0002566722141637001,1.7392297809030283e-05,30892.68984208753
1683662036910532951,12,1683662036910532951,camera_1,14,0,-0.07256623996208891,-0.23011299134353036,1.6719989478873427,-0.07786561250213737,-0.9938946621707216,-0.07557131136182196,0.019983087781137852,0.007572908046313387,0.0005131772829113673,30865.82883112132
1683662036929782629,13,1683662036929782629,camera_1,15,0,-0.07243977092093133,-0.23002257163064244,1.6712251341989868,-0.07810798220728797,-0.9939599879605114,-0.07567262750788786,0.014708463383329668,0.0008069520054050372,5.46429874785251e-05,30906.14053796477
1683662036948920488,14,1683662036948920488,camera_1,16,0,-0.07247471594746473,-0.2300746741641091,1.6714131036437705,-0.07778383851406569,-0.993781750041855,-0.07778407809188584,0.01723789271231403,0.00501768527465174,0.0003397878428793013,30878.57963925509
1683662036967998504,15,1683662036967998504,camera_1,17,0,-0.07250891753877539,-0.23027087783608172,1.6723940677077709,-0.0774190425080682,-0.9937855129718343,-0.07912550784439287,0.01165332882952425,0.004188638227788033,0.0002841873431358785,30843.781524864226
1683662036987372398,16,1683662036987372398,camera_1,18,0,-0.07259613997961811,-0.23014048449628005,1.6720189076339005,-0.07763275857439822,-0.9940318369876766,-0.07408429453364224,0.019631076243723712,0.021301952831890958,0.001443718919669268,30876.23597395515
1683662037006269454,17,1683662037006269454,camera_1,19,0,-0.07237186310836664,-0.2299983858019818,1.6709130896696176,0.07794968498206181,0.993599754148971,0.08017268708584747,-0.01599110414376252,0.014011084412231867,0.0009482606152553973,30882.08815606106
1683662037025842428,18,1683662037025842428,camera_1,20,0,-0.07254751630830884,-0.2299920898642031,1.670694341272665,-0.07764136946883268,-0.9937938588597263,-0.07728926260814882,0.019286101866042345,0.01775033350713784,0.0012012908894294442,30903.38036960921
1683662037044923305,19,1683662037044923305,camera_1,21,0,-0.07244506997557643,-0.22995975252881318,1.670886537533223,-0.07757354111525808,-0.9937885062894182,-0.07716834223756913,0.02029279286327551,0.0009036956944328267,6.114467933325994e-05,30894.63543043255
1683662037064030647,20,1683662037064030647,camera_1,22,0,-0.07250422432993674,-0.22994754838977588,1.6708440856515283,-0.07708600252642582,-0.9941323738945427,-0.07343984077092584,0.019109190899623468,0.02414689479792287,0.0016342224181929653,30925.37666845544
1683662037083091974,21,1683662037083091974,camera_1,23,0,-0.07241556341400114,-0.22983068359368164,1.6694532807572724,-0.0774957565979012,-0.9930979711904897,-0.08668278572236748,0.015392270334890743,0.002228980651125312,0.00015073320411763074,30884.953249594888
1683662037102349519,22,1683662037102349519,camera_1,24,0,-0.07246177955863815,-0.23003681059602316,1.6710409304395248,-0.07808895899263721,-0.9937165452347549,-0.0768475962920419,0.022890809384660708,0.008857044868818775,0.0005992900588869299,30883.8581049099
1683662037121557235,23,1683662037121557235,camera_1,25,0,-0.07246834728709883,-0.2300807560436281,1.6710295287432895,-0.0776438533385173,-0.9936307454290861,-0.07888620705758584,0.021126762952550032,0.008815771962872532,0.0005967055215006652,30874.524331116747
1683662037141028165,24,1683662037141028165,camera_1,26,0,-0.07249287417580623,-0.23011628922346195,1.6722090109557033,-0.0778324992558315,-0.9939501259920304,-0.07639575260789919,0.012997618377633384,0.00045937961112940684,3.1145563301826416e-05,30868.106095880823
1683662037159860849,25,1683662037159860849,camera_1,27,0,-0.07257437603921327,-0.23010891937671085,1.6725829512065826,-0.0776906924252706,-0.9944785270974349,-0.0652455280601934,0.02682604183894822,0.0012577067691381671,8.521886201058776e-05,30888.7285881621
1683662037178858041,26,1683662037178858041,camera_1,28,0,-0.07254723850940409,-0.2299369252574297,1.671037328148501,-0.07794209781539074,-0.9939579527086052,-0.07080927227995737,0.030962309258793678,0.01840438507952058,0.0012450776563602587,30896.210181707684
1683662037198341369,27,1683662037198341369,camera_1,29,0,-0.07256204224405276,-0.23013311064091652,1.6722178491762172,-0.0771093644075078,-0.9944008670901264,-0.06621214090562313,0.028931191606444952,0.01514358168515173,0.0010258384880611991,30888.971521863787
1683662037216857433,28,1683662037216857433,camera_1,30,0,-0.07258147113305144,-0.23010444672634023,1.6717848265785713,-0.07801551117918132,-0.9942134128136121,-0.06853401596058067,0.02750197180705934,0.06890207791730063,0.004667278738482527,30896.38154495346
1683662037236138820,29,1683662037236138820,camera_1,31,0,-0.07248928432462197,-0.23000281125286712,1.671026885688524,-0.07817974799086858,-0.9939628243316188,-0.07445238154732765,0.01956204827534838,0.009045016461641353,0.0006121504344588712,30910.63089879969
1683662037255836009,30,1683662037255836009,camera_1,32,0,-0.07254523962295596,-0.22997098540584981,1.670824934698917,-0.07736830915043337,-0.9936988769695019,-0.0780515932799073,0.022014436972631914,0.003459950164142356,0.00023410901164499387,30885.393266320872
1683662037274684429,31,1683662037274684429,camera_1,33,0,-0.0725255968270864,-0.2300912469483996,1.671464619951691,-0.0776897073405352,-0.9939339007900537,-0.07373798549048287,0.02494834121570175,0.05070577824608337,0.0034336103927195714,30883.447274678092
1683662037293917417,32,1683662037293917417,camera_1,34,0,-0.07249483050914202,-0.23004870854080045,1.670955869535799,-0.07671463705380067,-0.9937548192171777,-0.07877950230315293,0.018974028597156883,0.030180820494024374,0.0020435385036970096,30883.76634149359
1683662037313294410,33,1683662037313294410,camera_1,35,0,-0.0725254664320814,-0.2299347037348764,1.6708760090748345,-0.07753761334198259,-0.9940250524910123,-0.07290778581737234,0.024219172254178994,0.03136153477316839,0.002121971200900348,30912.721546169567
1683662037333096265,34,1683662037333096265,camera_1,36,0,-0.07245863871575604,-0.22999368603450743,1.670619345328553,-0.07736993338586556,-0.9936262927190649,-0.08059833092618335,0.014986423093841655,0.0023718178454146255,0.00016052994594375504,30891.700097141897
1683662037352032661,35,1683662037352032661,camera_1,37,0,-0.07257420731204753,-0.2299313998163657,1.670688787670095,-0.07809732194123861,-0.993891917234256,-0.07362029732443026,0.025684956373020106,0.015793945363839157,0.0010682826671636937,30910.02742154024
1683662037370999574,36,1683662037370999574,camera_1,38,0,-0.07254858389215825,-0.23016705695180747,1.6720696257622216,-0.07775304773738977,-0.9940533653333254,-0.07268964254931916,0.02299100482992642,0.008124898665300861,0.0005504614498748841,30874.209079253327
1683662037390500545,37,1683662037390500545,camera_1,39,0,-0.07242989239354994,-0.22992285459701972,1.6704915848683657,-0.07784201549490263,-0.9935031912779257,-0.08172560409713875,0.014592983904140103,0.00019022354172193445,1.287448001546893e-05,30888.55434141506
1683662037410159826,38,1683662037410159826,camera_1,40,0,-0.07254537600726761,-0.23020036078205466,1.6722095855192012,-0.07747711728150253,-0.9941179663168666,-0.07264774533353906,0.021191282210355704,0.0021981728614264284,0.00014892827861793243,30874.721953850043
1683662037429087162,39,1683662037429087162,camera_1,41,0,-0.07250618587896521,-0.2300854719076793,1.6720924626525107,-0.07730924235085744,-0.9941917084162166,-0.07212915575004218,0.02008762938644441,0.006905867657224007,0.00046794195524942333,30885.485983064318
1683662037448050737,40,1683662037448050737,camera_1,42,0,-0.07243774482397428,-0.23000450984368848,1.6709774744455348,-0.07695673102587676,-0.9936033916043634,-0.08118088175210374,0.0154798636966854,0.0015721631389169488,0.00010644517243063793,30872.998023634296
1683662037467143774,41,1683662037467143774,camera_1,43,0,-0.07246367242137679,-0.23000132914047977,1.6708711918846768,-0.07776328103495894,-0.9938668232712192,-0.07667441727413954,0.017396650801928964,0.0011718534806277603,7.930996603163135e-05,30906.10296447094
1683662037486534118,42,1683662037486534118,camera_1,44,0,-0.07243723219939045,-0.22988421219662822,1.6695423481049123,-0.07759444048271044,-0.9929031556415536,-0.08863403749962616,0.016322797546213734,0.0027981564971923945,0.00018925147254046816,30862.90413112146
1683662037505471229,43,1683662037505471229,camera_1,45,0,-0.07241032796117006,-0.2300039680563744,1.671007700225943,-0.07819687721136774,-0.9937306780840429,-0.0774479699181292,0.019657054321010867,0.0032924318593359203,0.00022285338123329603,30889.918097967056
1683662037524346590,44,1683662037524346590,camera_1,46,0,-0.07249656726051976,-0.23019498459590326,1.6720831194535541,-0.0773443524276907,-0.9939752833671776,-0.07544746008474586,0.0184029337183209,0.01748226771087502,0.00118484420918875,30867.86877704208
1683662037543983459,45,1683662037543983459,camera_1,47,0,-0.07255286635227196,-0.23012358603222088,1.6725347209758032,-0.07820721547861016,-0.994272621693167,-0.06940654846097653,0.02209787838713716,0.003931695278879488,0.00026647019801293156,30880.970712142953
1683662037563283205,46,1683662037563283205,camera_1,48,0,-0.07243313433593547,-0.2298788623678722,1.6699312737437313,-0.07758175759135676,-0.9937173822136557,-0.07782743864592963,0.021206719908778066,0.03422499623866315,0.00231412952731874,30922.557412122464
1683662037581695556,47,1683662037581695556,camera_1,49,0,-0.0725275664264032,-0.23005308068720554,1.6715351656591353,-0.07718288475930693,-0.9939393055063154,-0.0766379524568444,0.015939997273448345,0.030873942491780326,0.002092206255703667,30885.178761128445
1683662037600867986,48,1683662037600867986,camera_1,50,0,-0.07247315875148233,-0.2301275290286326,1.6716569140878448,-0.0774814564826775,-0.9940009225937785,-0.07429387476315832,0.02095733658450925,0.011095327857219672,0.0007514266460686212,30884.741372807133
1683662037619678020,49,1683662037619678020,camera_1,51,0,-0.07249236344825065,-0.23017602328945957,1.6718696050418498,-0.0779878251990084,-0.9937902278779698,-0.07813780015578221,0.013905620511036583,0.005042939945269609,0.00034177263348765183,30866.32849206628
1683662037639879941,50,1683662037639879941,camera_1,52,0,-0.07257572987435201,-0.2301445226638862,1.672424561056675,-0.07853137117676459,-0.9943945714554677,-0.06538557960306693,0.02714748572086979,0.001187031655717874,8.041416393316249e-05,30892.679441315722
1683662037659046888,51,1683662037659046888,camera_1,53,0,-0.07253217013719107,-0.23017011887740324,1.6718828257664684,-0.07744404034287095,-0.9938396264087298,-0.07616439114390922,0.02200461580682391,0.0050042235207001795,0.0003389763191707894,30860.29523502983
1683662037678178548,52,1683662037678178548,camera_1,54,0,-0.0725351176736972,-0.22995559807812208,1.6711193173378598,-0.07800608131840286,-0.9938485833671598,-0.07598654855865243,0.02015165141073985,0.024804036632303905,0.0016792339439800675,30894.69552281924
1683662037697214365,53,1683662037697214365,camera_1,55,0,-0.07251221696978317,-0.2299798863660365,1.670613548072752,-0.07764568086808799,-0.9934790362109692,-0.08158287533237699,0.017742246316531422,0.036948245666280854,0.0025015090097992515,30878.16994123662
1683662037716651201,54,1683662037716651201,camera_1,56,0,-0.07252163875016865,-0.2301512360405426,1.6725893534628107,-0.07766391609063276,-0.9942406231856915,-0.07000729642933007,0.0235133534709723,0.003950308387175028,0.0002676773818484448,30871.01590037258
1683662037735898017,55,1683662037735898017,camera_1,57,0,-0.07253840834834407,-0.22998006153091533,1.6708990392647378,-0.07778143501087528,-0.9938795798260143,-0.07632277742546895,0.01811802468749374,0.012019279449305031,0.0008135851272828041,30905.81943794478
1683662037755179166,56,1683662037755179166,camera_1,58,0,-0.07252304567074618,-0.23014762851617568,1.6717529292598006,-0.07801798935213071,-0.9938910629776208,-0.07599966092722284,0.017826940556732555,0.002636646753671812,0.00017863180807797138,30877.387277188784
1683662037774240970,57,1683662037774240970,camera_1,59,0,-0.07249070151802031,-0.22998909860017044,1.6706814012200968,-0.07767661575238312,-0.9935058947198824,-0.0809131494373508,0.019116557489037355,0.010384333745605545,0.0007027982767968076,30877.25351707723
1683662037793458461,58,1683662037793458461,camera_1,60,0,-0.07255408012001185,-0.23018561833661924,1.6724687747162075,-0.07838231108705282,-0.9942373650472477,-0.07050450393321529,0.01942653282728471,0.005953567296273832,0.00040354725969468294,30884.04997415346
1683662037812638044,59,1683662037812638044,camera_1,61,0,-0.0724952842298858,-0.22995577836334385,1.6707048357837566,-0.07799927681384397,-0.9933954861421116,-0.08219675730736575,0.018033691168179957,0.012894690990833624,0.0008729429129157054,30869.25153153399
1683662037831741094,60,1683662037831741094,camera_1,62,0,-0.072535156826082,-0.23014665589590338,1.672401668121024,-0.07740752681656937,-0.9941747432434385,-0.07248909049492851,0.019235031796268353,0.0027361230249880464,0.00018541795924739493,30873.924162747262
1683662037850951433,61,1683662037850951433,camera_1,63,0,-0.07247356683802864,-0.2299381636809193,1.6705417822170228,-0.07721744057888225,-0.9935844914208275,-0.08048692010591052,0.01868638462429517,0.016815708982903743,0.0011379549517659387,30886.738672392778
1683662037870350360,62,1683662037870350360,camera_1,64,0,-0.07254912156416399,-0.23000548075110538,1.6711312271862981,-0.07799419610046708,-0.9940575964279496,-0.06988812655284804,0.029699328703908266,0.0132098860667611,0.000893664763692656,30903.72301761512
1683662037889480113,63,1683662037889480113,camera_1,65,0,-0.07258068580410691,-0.2299826012153677,1.6712674887742458,-0.07836584181178947,-0.9941323217706707,-0.07174778272076207,0.02029722450581931,0.021295844814630982,0.0014416978626328755,30917.644365655775
1683662037908603429,64,1683662037908603429,camera_1,66,0,-0.07252645492308421,-0.230067385307879,1.6718421074529837,-0.07765343609334474,-0.9940238742958816,-0.07289843449899257,0.02392278078105477,0.01147373744242941,0.000777064116160206,30878.227799644435
1683662037927852630,65,1683662037927852630,camera_1,67,0,-0.07255934545750978,-0.2302145410403339,1.6724693018966614,-0.07772147472291502,-0.9942099442713384,-0.06973072296398122,0.025368984090776765,0.0003148981631966308,2.1335919906471935e-05,30871.07925300475
1683662037946896314,66,1683662037946896314,camera_1,68,0,-0.07262318691464281,-0.23016747674560809,1.6724106854627472,-0.07817385126591621,-0.9943356828258822,-0.06695727775461978,0.026497580892066646,0.03556785485579894,0.0024106554947636387,30886.237422196667
1683662037966310739,67,1683662037966310739,camera_1,69,0,-0.07246010644048609,-0.22983731756061776,1.6697801585037169,-0.07808259754971988,-0.9938656647168101,-0.07368787011936413,0.026537638443790725,0.0336721442763519,0.0022752416385290407,30940.4054896237
1683662037985269308,68,1683662037985269308,camera_1,70,0,-0.07249295861770814,-0.23008192232384553,1.6716043998347172,-0.07726841215826431,-0.9937945209441688,-0.07848873064295708,0.015542258071083906,0.0017006108828354627,0.00011522883964111685,30870.089392161448
1683662038004343509,69,1683662038004343509,camera_1,71,0,-0.07250188510465899,-0.22999370052075957,1.6710126528038152,-0.07771871440420589,-0.9940813336470281,-0.07274668226268788,0.021680031034918713,0.013196332951338261,0.0008930653294145304,30916.69663419162
1683662038024206638,70,1683662038024206638,camera_1,72,0,-0.07260487755673144,-0.23009059691918035,1.6720560383091985,-0.07712544767242878,-0.9943479501696453,-0.06824726264446725,0.02580950321662833,0.008769691081397468,0.0005939932762381127,30893.780702092823
1683662038043302059,71,1683662038043302059,camera_1,73,0,-0.07257450720378279,-0.23009848063629357,1.671347208264398,-0.07760812684753349,-0.9937924011519863,-0.07558305758486954,0.025314886251158738,0.017249179488317168,0.001167742423835801,30873.61961937839
1683662038062270641,72,1683662038062270641,camera_1,74,0,-0.07248961195974675,-0.2300260550430409,1.6712247638253097,-0.0776331399621255,-0.9940497500905541,-0.07278696827712569,0.023243217796876162,0.00795209990337753,0.0005381784874200135,30904.037381786315
1683662038080945491,73,1683662038080945491,camera_1,75,0,-0.0725581116361331,-0.23004632970006725,1.6713120138201043,-0.07788123724051255,-0.9939041281005795,-0.07477488680509739,0.022311730856186422,0.012981733268134121,0.0008788815366940451,30889.960844905756
1683662038100033998,74,1683662038100033998,camera_1,76,0,-0.07254928046868474,-0.23025835670791994,1.672986464278297,-0.07767344058264392,-0.9945867644675821,-0.06679184308225747,0.017402708744209686,0.00906805549038836,0.000615015455404038,30892.87075041386
1683662038119180202,75,1683662038119180202,camera_1,77,0,-0.07248085658702895,-0.2299665076955857,1.6710233609370224,-0.07761741069039994,-0.9935276662186431,-0.0811760184575829,0.016993176372549632,0.006336209218716249,0.0004290894370713989,30867.995154700737
1683662038137921571,76,1683662038137921571,camera_1,78,0,-0.07239783088678028,-0.2299040881312095,1.6700712800300939,-0.07756615761863736,-0.9937301174953446,-0.07782084969714635,0.020684780090286386,0.01751775950924639,0.0011840450709375819,30918.972389896968
1683662038157104015,77,1683662038157104015,camera_1,79,0,-0.07252524547915346,-0.23017132188579725,1.6719828548216435,-0.07792728609240511,-0.9939313080755637,-0.07569453976941763,0.017269324207026013,0.008679157906044566,0.0005882005695753824,30872.506029430413
1683662038176670312,78,1683662038176670312,camera_1,80,0,-0.07255141692622682,-0.23026629360730794,1.6729355635301364,-0.07748208905710317,-0.9942907842469697,-0.0712071499560049,0.01766080496569245,0.009263486790587194,0.0006282662543895731,30866.814835173045
1683662038196889162,79,1683662038196889162,camera_1,81,0,-0.07258796277305644,-0.23013398301675125,1.6724455469910229,-0.07854714189436357,-0.9943530909433284,-0.06658812969520818,0.025657318943524784,0.012841703662161308,0.0008702178985557134,30890.079774904996
1683662038215152978,80,1683662038215152978,camera_1,82,0,-0.0724029820594888,-0.23012557581257542,1.6713463739704795,-0.07809110735696052,-0.993637889279106,-0.08027770698531726,0.011874919027363456,0.010476174692485074,0.0007098087066129477,30873.380068342485
1683662038234348297,81,1683662038234348297,camera_1,83,0,-0.07249054686204413,-0.22996157784451463,1.6709091318714642,-0.07817838227197405,-0.9934504940773754,-0.08173630418940717,0.016230617370037136,0.006067269256163854,0.00041084903263945296,30869.57377257476
1683662038253396272,82,1683662038253396272,camera_1,84,0,-0.07241941805430824,-0.2299494757544554,1.6702977309194336,-0.0782577402941114,-0.9933768307673719,-0.08304317732012531,0.013491807855496241,0.003239852274418809,0.0002192844145391176,30887.42779563181
1683662038272703647,83,1683662038272703647,camera_1,85,0,-0.07248949940227091,-0.23008038726844326,1.671426171251148,-0.0772548434336551,-0.9937562602376854,-0.0782632536973708,0.018842704825797793,0.010417031011456855,0.0007053850213369135,30870.664248184294
1683662038291868448,84,1683662038291868448,camera_1,86,0,-0.07257813995474727,-0.23010082491886663,1.6719942280945248,-0.07835025336515924,-0.9941457264268495,-0.06973609260150643,0.025930480395110256,0.018030101459771686,0.0012212621766895995,30886.727939391407
1683662038310286283,85,1683662038310286283,camera_1,87,0,-0.0725343020277098,-0.23007543737881064,1.671730595386668,-0.07792719397922554,-0.993718939468846,-0.07862949516752375,0.016353111909861995,0.023470467858714983,0.0015907931128006782,30862.567446058063
1683662038329358100,86,1683662038329358100,camera_1,88,0,-0.07258196446662579,-0.22997194731608872,1.6712233703817214,-0.07788478905839591,-0.9938074801250822,-0.07526951464957078,0.024802262904455048,0.006456265200540656,0.0004369329528989924,30881.915269119665
1683662038348577737,87,1683662038348577737,camera_1,89,0,-0.07257576521122147,-0.23018775300957048,1.672548286613278,-0.07765012544543147,-0.9940681891897869,-0.07420487236479202,0.017103513573877575,0.005583983683209226,0.0003786578115941836,30862.233115382583
1683662038367683410,88,1683662038367683410,camera_1,90,0,-0.07236156799931176,-0.229822169497313,1.6697804892592794,-0.0773887298352379,-0.99345120490476,-0.08310896657143682,0.012593158586986083,0.008021546382224187,0.0005426000712735271,30907.56386344532
1683662038387652397,89,1683662038387652397,camera_1,91,0,-0.07255760912800283,-0.23000116576055546,1.6714066665899299,-0.0779138969567701,-0.9941600822561958,-0.06984205144434964,0.02640536611010478,0.009326075870376371,0.000631201657841702,30905.841019993764
1683662038406325817,90,1683662038406325817,camera_1,92,0,-0.07252536064366158,-0.2301219037473434,1.6719745094836227,-0.07779165706626337,-0.993960530646511,-0.0751508075586075,0.01852775569464727,0.0023663880210733623,0.000160340166374288,30873.509247381076
1683662038425810098,91,1683662038425810098,camera_1,93,0,-0.07245004787138136,-0.23010774828207292,1.6717545456812979,-0.07760564588222174,-0.993880684856835,-0.07560247545631982,0.021513105321837138,0.0005410328094512805,3.6642698150492556e-05,30870.433476196326
1683662038444683790,92,1683662038444683790,camera_1,94,0,-0.0726401049593769,-0.23023916235432573,1.6727038546692534,-0.07834799820290096,-0.9943229121247783,-0.06717856240691404,0.025895527687983987,0.04687188489060645,0.0031781479770145024,30876.41590885527
1683662038463986635,93,1683662038463986635,camera_1,95,0,-0.07252716316085903,-0.23008822013429625,1.6717510376331122,-0.07754575436670169,-0.9942515962248176,-0.06936306088609581,0.025282111632799777,0.007970884588758054,0.00053965785910037,30900.183550209797
1683662038483076333,94,1683662038483076333,camera_1,96,0,-0.0725486600806205,-0.23000302290762928,1.6713331413882584,-0.07794172174786482,-0.9937179718657005,-0.0779890589137211,0.019167344413072225,0.008211802153709868,0.0005560894878584099,30875.06861850506
1683662038502014398,95,1683662038502014398,camera_1,97,0,-0.07251900112426841,-0.2299298941674013,1.670496661780306,-0.07805309085964772,-0.9940000385119397,-0.0732142033604838,0.022612361040099577,0.024199496991968772,0.0016368136612719888,30929.778663366167
1683662038520884037,96,1683662038520884037,camera_1,98,0,-0.07255024568788321,-0.23010657869760123,1.672271329235779,-0.07738915747141957,-0.9945645090257836,-0.0654786078966207,0.023767784921748157,0.0022783468193665612,0.00015432980048759999,30909.152402292173
1683662038539961338,97,1683662038539961338,camera_1,99,0,-0.07263944065855307,-0.23018955136647384,1.6727063563664122,-0.07800803652593584,-0.9942941561969411,-0.0670859022454934,0.02816662759169885,0.012537216389318928,0.0008497985052525466,30868.56983241527
1683662038558929681,98,1683662038558929681,camera_1,100,0,-0.07246376612619346,-0.23004413232259577,1.671632435094729,-0.07757750671608926,-0.9942129141362175,-0.0718462861330957,0.018987442833800324,0.003752065767912427,0.00025407122884020576,30907.131431892725
1683662038578318357,99,1683662038578318357,camera_1,101,0,-0.07245454333388125,-0.229907936709295,1.6703760799255838,-0.07806438328546708,-0.9936851752567516,-0.07875795249422667,0.01711459774975099,0.00013462556307786144,9.106772935127824e-06,30909.82264936401
1683662038597543716,100,1683662038597543716,camera_1,102,0,-0.0725391773579228,-0.23021222624030502,1.6726118671339123,-0.07814324354369107,-0.9941886890314005,-0.07180200780182398,0.018081918209183544,0.012061822206305806,0.0008178945895231441,30873.86414418681
1683662038616495132,101,1683662038616495132,camera_1,103,0,-0.07245971124399604,-0.23009155498641182,1.670921581491417,-0.07789796943718348,-0.9932633917061312,-0.08437036978006582,0.015536465401477014,0.007932409710520005,0.0005373021198249152,30849.75215369707
1683662038635951757,102,1683662038635951757,camera_1,104,0,-0.07265584852099556,-0.23001641863621508,1.6716148285117636,-0.07774082786568066,-0.993964200883297,-0.07190859523783864,0.02864759983154533,0.051892131054955826,0.0035138976095812667,30876.544588369645
1683662038655043601,103,1683662038655043601,camera_1,105,0,-0.07244000279671672,-0.2300098039115403,1.670756334049408,-0.07854526549114249,-0.993445675764355,-0.08164733850981545,0.015167158214164065,0.0014024291485839058,9.49316153559216e-05,30878.213617681577
1683662038674523591,104,1683662038674523591,camera_1,106,0,-0.07253357858627626,-0.23002549664324756,1.6713467976005147,-0.07770166229685085,-0.993869112549804,-0.07433381171931494,0.025712316718815287,0.002748845004134637,0.0001860308311674763,30881.003026456405
1683662038693448305,105,1683662038693448305,camera_1,107,0,-0.08259462096596305,-0.2588247956182755,1.8887911931231693,-0.07834755344355679,-0.9864994286150086,-0.13789513471222298,0.04081017072212012,2.8506604487229197,0.24757724409264484,23612.84294128418
1683662038712658166,106,1683662038712658166,camera_1,108,0,-0.07251344359146421,-0.22999435441948318,1.670529420738211,-0.07757136720864634,-0.9934584930826676,-0.08207404810972478,0.016933875462498516,0.008263374926173128,0.0005593259255099043,30879.23490685132
1683662038731887102,107,1683662038731887102,camera_1,109,0,-0.07261550102214591,-0.23014579506960026,1.6723376903608427,-0.07778875436786131,-0.9943154656528201,-0.06883729595899354,0.02338997953324691,0.02640032806812087,0.001789245811609796,30887.702682243034
1683662038751622438,108,1683662038751622438,camera_1,110,0,-0.07255536706766401,-0.23001942210681456,1.6714079045582964,-0.07730563077427526,-0.9940352975848225,-0.0732468601410377,0.02350668172082612,0.003296105730441923,0.00022312009090801234,30893.205678263384
1683662038770261764,109,1683662038770261764,camera_1,111,0,-0.07248982371897356,-0.23002534965571997,1.6710564980583777,-0.07746135404988136,-0.9935635777709196,-0.08027989649886516,0.019654357632352345,0.013136598463461269,0.0008894906325952219,30866.950460880314
1683662038789078712,110,1683662038789078712,camera_1,112,0,-0.07249139307916264,-0.2300949015133213,1.6715008526385657,-0.07779166350453443,-0.9938389174723219,-0.07649698550923306,0.01951600406437292,0.011986709741904633,0.0008116653906683939,30879.005109282043
1683662038808029651,111,1683662038808029651,camera_1,113,0,-0.07263351752349331,-0.2301294404730416,1.6723780505769936,-0.07780087608445371,-0.994288278100241,-0.07014352197222848,0.02043844510428276,0.02158769664401916,0.001463421702995931,30886.793820937637
1683662038827115535,112,1683662038827115535,camera_1,114,0,-0.0725131079933441,-0.23005355272545788,1.6712290392974694,-0.07747481791175115,-0.9938957695502108,-0.07462846104952336,0.024483558996091524,0.005714555714803282,0.00038676794238429494,30887.328971892115
1683662038846818208,113,1683662038846818208,camera_1,115,0,-0.0725463985963911,-0.23011498341913866,1.6712548490661945,-0.07739649721076368,-0.9936776737500916,-0.07873283887264586,0.020386343300473724,0.0006876251900393981,4.655380916948756e-05,30869.251576045528
1683662038865783691,114,1683662038865783691,camera_1,116,0,-0.07255137956348814,-0.2301289074891405,1.6720629766801165,-0.0779669645360417,-0.9942308495880953,-0.07021201233815019,0.022281011911436444,0.01937474247552018,0.0013127456934677387,30892.820790926577
1683662038884810924,115,1683662038884810924,camera_1,117,0,-0.07243606529866808,-0.22989332379426644,1.6696641624350348,-0.07720287082486066,-0.9932373707887174,-0.08508534003394128,0.016725038607553817,0.02802330848589918,0.0018955646827032652,30887.548057571763
1683662038903918504,116,1683662038903918504,camera_1,118,0,-0.07262222820078469,-0.23008462299994972,1.6718107517910221,-0.07824516347751076,-0.9940043420775119,-0.07048237760272812,0.029415927163643756,0.019818978021248768,0.0013420900498633973,30875.87826978045
1683662038923989534,117,1683662038923989534,camera_1,119,0,-0.07246900154103349,-0.2302075858462716,1.671984958977519,-0.07748127340557552,-0.9939437100098031,-0.07517229568365555,0.0205348378383698,0.04571211960592336,0.0030978787921833784,30867.923677872932
1683662038943118333,118,1683662038943118333,camera_1,120,0,-0.07249235967422751,-0.22998418452741942,1.6712338447808375,-0.07824781478524258,-0.9939681785533395,-0.07501079123935374,0.016670953852052597,0.00014595490210922435,9.881178379962681e-06,30906.166079781015
1683662038962540149,119,1683662038962540149,camera_1,121,0,-0.07254773502846201,-0.23029280627064697,1.6731034306132793,-0.07735670436663271,-0.9942106845815123,-0.07043790963329437,0.02448582937100189,0.01822772599552991,0.0012359998819506236,30846.421226453225
1683662038981471300,120,1683662038981471300,camera_1,122,0,-0.072561844717484,-0.2302662271518353,1.6734693833898964,-0.07785199717185581,-0.9946379248454146,-0.06538416308858579,0.018957220597075636,0.0010593885417620186,7.186583101172064e-05,30879.301492078626
1683662039000330686,121,1683662039000330686,camera_1,123,0,-0.07248208951255403,-0.23001580053503792,1.6711589739026547,-0.07764607054314177,-0.9937687952975869,-0.07854181492678253,0.015028390798728484,0.0060711272271873895,0.0004111959656394911,30887.16615642878
1683662039019044876,122,1683662039019044876,camera_1,124,0,-0.0725286187614646,-0.22996830842573274,1.6716150907981238,-0.07778407203612779,-0.9943170031709831,-0.07035778536842989,0.018251503516242093,0.0092364880911191,0.0006254913457936546,30919.161262101028
1683662039038276433,123,1683662039038276433,camera_1,125,0,-0.0725780485483,-0.2300499998690173,1.6716171435823,-0.07796470013456029,-0.9941050561008222,-0.07237429989968286,0.020942867084996642,0.023377086228720145,0.001583128979586369,30898.79335711174
1683662039058045625,124,1683662039058045625,camera_1,126,0,-0.07256331052739651,-0.22999504962219539,1.6711037628183156,-0.07757605481855614,-0.9940159135970781,-0.07338945033106212,0.022984947567028544,0.026767374572955305,0.0018118518172264963,30905.070729853807
1683662039076886892,125,1683662039076886892,camera_1,127,0,-0.07253744566641215,-0.22988036736159442,1.6701706247023445,-0.07733385906090284,-0.9937345489879578,-0.07755487766436739,0.022279168317365466,0.013273831984406573,0.0008975407297351011,30912.442308364956
1683662039096040010,126,1683662039096040010,camera_1,128,0,-0.07262763328095542,-0.2300656369941222,1.6713103934521982,-0.0778697259674897,-0.9938246443190739,-0.07325982604665972,0.029696464594754696,0.020198858641379047,0.0013670882539383272,30874.961572111726
1683662039115440130,127,1683662039115440130,camera_1,129,0,-0.07249112052320306,-0.22997606796927952,1.6712259663302869,-0.07715854214203066,-0.9938271887780684,-0.07644805681336996,0.022578149380717477,0.012495982767177338,0.0008459654394815703,30880.71400496844
1683662039134181976,128,1683662039134181976,camera_1,130,0,-0.07252769900649232,-0.22994260719020873,1.6706248123288037,-0.07743167192505818,-0.9933936970612326,-0.08213731806659617,0.020658165521968256,0.0049280544380962965,0.0003334418855879215,30865.666738851796
1683662039153928995,129,1683662039153928995,camera_1,131,0,-0.07249875191936328,-0.23015566597099057,1.6717812070558415,-0.07742499549198074,-0.9940715061554001,-0.07365284833990386,0.020061621430489514,0.016593372359238856,0.0011239529679836632,30887.007430201033
1683662039172657012,130,1683662039172657012,camera_1,132,0,-0.072515030867709,-0.23002197158035445,1.6719156809210318,-0.07819102665750229,-0.9941218237459926,-0.07253143156256839,0.018632078189832497,0.011300123959699704,0.0007655637921323056,30893.073680005517
1683662039193081617,131,1683662039193081617,camera_1,133,0,-0.07258650319235574,-0.22993308727972456,1.670828132732952,-0.07764172681774077,-0.9936513697373964,-0.07869833470369034,0.020863599656366246,0.008193641665457108,0.0005545096196450764,30883.80284318258
1683662039212034225,132,1683662039212034225,camera_1,134,0,-0.07258114864980829,-0.23012767892652441,1.6725137658059939,-0.07743289803561795,-0.994574812369144,-0.06671071016546189,0.01935897858636205,0.0054911212719161995,0.0003721944479151255,30905.71197292589
1683662039231136322,133,1683662039231136322,camera_1,135,0,-0.07241056955754682,-0.2297813302773491,1.6696746717388014,-0.07816706238181602,-0.9931702502383034,-0.08504418448795524,0.016439315221798905,0.0021701416189898732,0.00014675762541483628,30888.18311906735
1683662039250229835,134,1683662039250229835,camera_1,136,0,-0.07252974941073365,-0.2300378138413306,1.67108881891568,-0.07812779793044407,-0.9936991544662235,-0.07798703580914215,0.019392262615692903,0.006280547721871699,0.00042519626011640083,30883.551530857163
1683662039269938230,135,1683662039269938230,camera_1,137,0,-0.07252690662450895,-0.23014123457340901,1.6718675533297076,-0.07717082153623293,-0.9940682675061718,-0.07433944290464489,0.018616956500130764,0.005144615643985162,0.00034852901437296374,30882.624946716256
1683662039289513587,136,1683662039289513587,camera_1,138,0,-0.07257662905110858,-0.230164082752827,1.6727410533371798,-0.07723046875081686,-0.9946933978217813,-0.06294065712036089,0.025670463718946254,0.003661652095615864,0.0002480818123551393,30899.743867978337
1683662039308945417,137,1683662039308945417,camera_1,139,0,-0.07247051301159596,-0.23005908912189815,1.6714197309714733,-0.07771365049345734,-0.9940988686213759,-0.0731676833768318,0.019352468626742184,0.007427721662679686,0.0005029372678044662,30905.40816233967
1683662039328231334,138,1683662039328231334,camera_1,140,0,-0.07261643193030068,-0.23029142846342404,1.6729315124275004,-0.0777437545642045,-0.9942969477626401,-0.06821639959409732,0.02600021389483278,0.025317629461824254,0.0017169543932375505,30861.324816412754
1683662039347308874,139,1683662039347308874,camera_1,141,0,-0.07251608819369962,-0.23001214380165325,1.6718205466277798,-0.07817031985489808,-0.9940422453084546,-0.0724135412937312,0.02292803247577265,0.0023421282567142043,0.0001585788525606269,30885.430047480135
1683662039366845130,140,1683662039366845130,camera_1,142,0,-0.07261405236687443,-0.23005576593383598,1.6717819921414818,-0.07756962085315379,-0.9944160813453605,-0.06517019176657829,0.0295373862679632,0.019884812730197154,0.0013463227720590097,30908.4346894166
1683662039386153697,141,1683662039386153697,camera_1,143,0,-0.07253514834151634,-0.23024744176265233,1.6726676102913898,-0.07751846898617022,-0.9940446745990846,-0.07395176018511185,0.019930103681708628,0.0037425021473609377,0.0002537128428526152,30852.64223171879
1683662039405418157,142,1683662039405418157,camera_1,144,0,-0.07253131748621977,-0.23007484502727354,1.6723757097547236,-0.07812106615326218,-0.9944287529081974,-0.06545185046349501,0.026918575063121515,0.0005918081669733509,4.0083717087867116e-05,30894.889267900868
1683662039425053119,143,1683662039425053119,camera_1,145,0,-0.07254808662749335,-0.2300727614184565,1.6712901790950643,-0.07782602106614052,-0.9937365838109279,-0.07803167664526463,0.018487019249418365,0.017846280377852963,0.00120875487847432,30878.14286176016
1683662039444184541,144,1683662039444184541,camera_1,146,0,-0.07258864850025118,-0.23007250367254795,1.6716314159562027,-0.07754912113717988,-0.9940193058574556,-0.07321559359869471,0.023478293113090118,0.038965626198660175,0.0026393552002390267,30885.28927683537
1683662039463380336,145,1683662039463380336,camera_1,147,0,-0.07253733477889837,-0.23015351924596036,1.6726156778225576,-0.0777204090473925,-0.9944286709911705,-0.06727975163791997,0.023336481049639837,0.0059225442755632685,0.0004014166420962764,30887.233469226194
1683662039483363628,146,1683662039483363628,camera_1,148,0,-0.07249571389771833,-0.23001615879737955,1.6714025510578314,-0.07746959098045941,-0.9939842054804279,-0.07549984332021592,0.017135792581192636,0.0021650895396305714,0.00014660971037840472,30895.36094341417
1683662039502144813,147,1683662039502144813,camera_1,149,0,-0.07255100305200957,-0.23011319036855044,1.6718802230969292,-0.07816943397413546,-0.994071619524432,-0.0735543724653799,0.01734673281803637,0.011111158896710547,0.0007529085287098328,30890.69227559762
1683662039521923780,148,1683662039521923780,camera_1,150,0,-0.07257142862327443,-0.23014152162477164,1.6724521985010965,-0.07731452822692926,-0.9942621345982089,-0.07070600659515318,0.02158545947221895,0.007900204444922565,0.0005354031883580146,30877.136045608335
1683662039541357040,149,1683662039541357040,camera_1,151,0,-0.07259539531866749,-0.2302684845243132,1.6734549232441658,-0.07690740661021107,-0.9946539579998585,-0.06502867133487245,0.022804090600783103,0.010457676185069431,0.0007095286977431045,30871.20670119743
1683662039560280561,150,1683662039560280561,camera_1,152,0,-0.07251084605393047,-0.2300943974088969,1.6717834753801186,-0.07776274316674249,-0.9939957373215612,-0.07380197038795333,0.021879193966066593,0.00622965581715107,0.0004219303178644505,30880.744961618027
1683662039580076694,151,1683662039580076694,camera_1,153,0,-0.07253639923663643,-0.22998042677258856,1.6712137758760557,-0.07840354568271016,-0.9938296807622875,-0.07556298006926258,0.02111126958193984,0.0030703159945915104,0.0002078291623340254,30891.657183078016
1683662039598655462,152,1683662039598655462,camera_1,154,0,-0.07259377549629253,-0.2302633558297201,1.6729155879891078,-0.07751767394351844,-0.9942841616943205,-0.07085877711070669,0.019210667260240906,0.014781148493057117,0.0010026040552037594,30865.88769389166
1683662039618054151,153,1683662039618054151,camera_1,155,0,-0.07255543585255214,-0.2300115708977297,1.6716728867861128,-0.07767663903663138,-0.9943561075393003,-0.06806774137927146,0.02427042914307926,0.0022924344702914823,0.00015518894872882036,30914.235044255183
1683662039637353658,154,1683662039637353658,camera_1,156,0,-0.07254794578378451,-0.23002983560352636,1.6712357395338049,-0.0781217388388152,-0.9938729247985746,-0.07419084030451278,0.024684458431107382,0.021540820165682817,0.0014581430692144864,30889.458986266825
1683662039656782388,155,1683662039656782388,camera_1,157,0,-0.07255235908808891,-0.23010772907867072,1.6723707470422924,-0.07750265979073102,-0.9942816373151537,-0.0696712568062402,0.023308354688790806,0.003131486636448244,0.00021214554903092438,30881.74481979612
1683662039675971984,156,1683662039675971984,camera_1,158,0,-0.07259176611056536,-0.23015112927910492,1.6729357118722112,-0.07741925234331672,-0.9942811026149725,-0.0709276398126261,0.019509440278157236,9.634992329665694e-05,6.5337001590602825e-06,30863.777306161428
1683662039695258140,157,1683662039695258140,camera_1,159,0,-0.0725319937876414,-0.22998654849971345,1.670851618845095,-0.07719308848320966,-0.9937394113116348,-0.07824770277032571,0.02001265868383912,0.005811272593746253,0.00039330685220100926,30888.665786666912
1683662039714836120,158,1683662039714836120,camera_1,160,0,-0.07255596403929508,-0.2301209443270477,1.6719824061912458,-0.07806520993965325,-0.9941157451712588,-0.07205618524974726,0.021156898802158063,0.0008140516774801654,5.514071035916918e-05,30887.021879269847
1683662039734051227,159,1683662039734051227,camera_1,161,0,-0.07260285761994079,-0.2301149085542402,1.6725113786873889,-0.0778293272795227,-0.993927825453602,-0.07582226530512404,0.0173510140421337,0.028507046667073155,0.001933465471348221,30851.726197810844
1683662039754141807,160,1683662039754141807,camera_1,162,0,-0.07259580364204594,-0.23012112385161204,1.6722702266367504,-0.0778717870260378,-0.9943075260437623,-0.06919898831624181,0.022361316019255704,0.003531843834934989,0.00023929380242552857,30891.129717527754
1683662039773704290,161,1683662039773704290,camera_1,163,0,-0.07243807789180196,-0.23002792907593056,1.6708843919552243,-0.07752991164824581,-0.9935178636698138,-0.08183568925919177,0.014638556358394178,0.0017332597280983464,0.00011735178315750401,30873.06721947161
1683662039793368339,162,1683662039793368339,camera_1,164,0,-0.0725862301163009,-0.23008075479386803,1.6715405116643045,-0.07763934286152685,-0.9939188479808773,-0.07222339733718497,0.02968563533884993,0.022794836273533292,0.0015431503282861698,30873.391188394926
1683662039812085866,163,1683662039812085866,camera_1,165,0,-0.072449270766229,-0.22983206662984657,1.6694799876803046,-0.07702662834990494,-0.9936045838887615,-0.0811559324071598,0.015183676610467068,0.03057730367891054,0.0020671404785745128,30929.09398579204
1683662039830924987,164,1683662039830924987,camera_1,166,0,-0.07250451394527209,-0.23004438162686305,1.6708576992936706,-0.07784499445568703,-0.9934560857697314,-0.08117598257365954,0.019890257375886313,0.002813941905515094,0.00019044752078454716,30866.83975045164
1683662039849969863,165,1683662039849969863,camera_1,167,0,-0.07261649867780243,-0.23017717815479657,1.672626591771257,-0.07761338645731244,-0.9942858404630088,-0.07001382490538459,0.021677038993238855,0.0166188636503648,0.00112678078204516,30874.953914191523
1683662039868904113,166,1683662039868904113,camera_1,168,0,-0.072481403101683,-0.23003906451377046,1.671378288570001,-0.07738319897833425,-0.993683045538502,-0.08020351422141019,0.01316213629100198,0.003845089016976999,0.00026051284865901737,30870.25279341987
1683662039887516260,167,1683662039887516260,camera_1,169,0,-0.07267963539793727,-0.2301000225631828,1.672063969878424,-0.07788239459623031,-0.994209970006642,-0.06980014212538732,0.02467404123010583,0.059453188372572185,0.004028745120029823,30887.550296578418
1683662039906660795,168,1683662039906660795,camera_1,170,0,-0.07262253330894021,-0.2300710583914639,1.6722020562077162,-0.07767787672399007,-0.9944043916079235,-0.06752554734548791,0.02379819056610049,0.009762867063727754,0.0006614196634318816,30899.402244657784
1683662039925948143,169,1683662039925948143,camera_1,171,0,-0.07262749042123195,-0.23016671443863285,1.672828767300377,-0.07782921583331169,-0.9943979058126612,-0.06814820808471993,0.021708058711161687,0.008737722350815604,0.0005924490623907193,30878.93758783402
1683662039944442510,170,1683662039944442510,camera_1,172,0,-0.07265985226305685,-0.2303435842430826,1.6744558529830442,-0.07806443539286612,-0.9949399249157143,-0.060134126774397355,0.01960552301232413,0.021551163583353627,0.0014631396744087038,30869.453160993908
1683662039962989330,171,1683662039962989330,camera_1,173,0,-0.07250754925648548,-0.2301795182199854,1.672287842953536,-0.07765962198919901,-0.9938405395393861,-0.07738059408173717,0.016192860776103053,0.0014977881583035924,0.00010154365079266107,30851.609612629545
1683662039982083082,172,1683662039982083082,camera_1,174,0,-0.07259473962945537,-0.23034692608941748,1.6736543488535398,-0.07690922657392135,-0.9947668142547351,-0.06425780973755946,0.019871839698885268,0.005710855115466984,0.0003874203937039447,30876.51343196369
1683662040000864744,173,1683662040000864744,camera_1,175,0,-0.07253229536180288,-0.23013842533457718,1.6724017934124167,-0.07781141567588117,-0.9942583202389585,-0.071712770938375,0.015907693436202307,0.003999390920398582,0.00027114372916541826,30887.105344789838
1683662040019549369,174,1683662040019549369,camera_1,176,0,-0.07248862368886363,-0.23000009938167237,1.6709446982814107,-0.07811145089251585,-0.9935454750584137,-0.08124688605825031,0.012842653006866564,0.0031746219983688206,0.00021502661036271005,30878.873522533308
1683662040038236141,175,1683662040038236141,camera_1,177,0,-0.07248094603552233,-0.23000072554842996,1.6704854147631811,-0.07761041781457166,-0.9936359088181067,-0.07836105764953649,0.02288773466092857,0.03298007234207034,0.002231178765165546,30893.24867757786
1683662040057289361,176,1683662040057289361,camera_1,178,0,-0.07253676357176629,-0.2302429787829417,1.6731203619582786,-0.07832515070770572,-0.994390695006609,-0.06879449725647581,0.017878299642780277,0.018247177482408006,0.0012375733484630536,30874.836311890947
1683662040076127052,177,1683662040076127052,camera_1,179,0,-0.07264090682246549,-0.2302031643219799,1.6727080952890656,-0.07751748538828242,-0.9943936658223996,-0.0675314161147077,0.0247342812490944,0.030600093597058734,0.002074486884617903,30878.009445448813
1683662040094557523,178,1683662040094557523,camera_1,180,0,-0.07263577985935193,-0.23018139302203172,1.672550430989586,-0.077861216373396,-0.9940033122502162,-0.07368346711149036,0.021582235632217294,0.011580272555875128,0.0007851251343178152,30853.97381442831
1683662040113232612,179,1683662040113232612,camera_1,181,0,-0.07254628531815989,-0.2300968677210546,1.671893755862648,-0.07794337871659945,-0.9939049402966653,-0.07614810942008,0.016711217785385316,0.006136477477411972,0.0004158671965828845,30873.83093604796
1683662040132082939,180,1683662040132082939,camera_1,182,0,-0.07258632452060608,-0.23013966371239114,1.6720671515393557,-0.07793450968825473,-0.9942989190323425,-0.06736969749182146,0.027517188639596173,0.025215492137249385,0.0017080380676194825,30892.97287625196
1683662040150932073,181,1683662040150932073,camera_1,183,0,-0.07252599789022068,-0.230031084756142,1.6713004234528486,-0.07793410319863563,-0.9939659309423314,-0.07479998795080041,0.019051653133758655,0.0035696909471880645,0.0002416767722663886,30899.39195147012
1683662040169415235,182,1683662040169415235,camera_1,184,0,-0.0724688477266005,-0.23002385585199395,1.6711979535967698,-0.077921328878555,-0.9939536252375288,-0.07509113131623957,0.018595144006476955,0.0054236920668699895,0.0003671678211598702,30902.390112139346
1683662040188511133,183,1683662040188511133,camera_1,185,0,-0.0724369346098626,-0.22990902407366254,1.669591292160301,-0.07742693566873725,-0.9932318422660312,-0.08467142434498971,0.01806452438249518,0.01348339815831423,0.0009116729090701668,30890.435783207657
1683662040207632541,184,1683662040207632541,camera_1,186,0,-0.07255531159304572,-0.23003384181920422,1.6714835394948824,-0.07775918592819488,-0.9943044362229333,-0.07049440263515341,0.018513138801730722,0.007650432762602577,0.0005180320747715761,30922.516653874638
1683662040226312875,185,1683662040226312875,camera_1,187,0,-0.07250256768343309,-0.23010354148788487,1.6711633354206321,-0.07738776423284903,-0.9936842819901314,-0.07963299024481398,0.016163803310712568,0.022707766715939215,0.0015382495162808757,30876.482424685666
1683662040245443582,186,1683662040245443582,camera_1,188,0,-0.07260837119637346,-0.23027495751895088,1.672926953980927,-0.07763367758730055,-0.994118797008745,-0.07205100217303922,0.022571721777870278,0.003393985521142895,0.00023012711597709503,30848.270723571437
1683662040264570474,187,1683662040264570474,camera_1,189,0,-0.07258519026109674,-0.23003041487681972,1.671343532975182,-0.07786651804445127,-0.9941199356014004,-0.07176025583036859,0.02264563292691402,0.022790572039411927,0.0015429669983868962,30908.166959756563
1683662040283991098,188,1683662040283991098,camera_1,190,0,-0.0725315393303021,-0.2300352355693772,1.6712338848995978,-0.0778277817347105,-0.9938634005417228,-0.07484719972583004,0.024005710718472382,0.004897325122328766,0.000331412637880806,30887.263241096734
1683662040302162647,189,1683662040302162647,camera_1,191,0,-0.07253684893595275,-0.23024036442624538,1.6728322874347665,-0.07774947768524203,-0.9943776796424894,-0.06986463319292645,0.01694054241483046,0.006550512716785306,0.0004441818257687309,30880.859215417135
1683662040321903705,190,1683662040321903705,camera_1,192,0,-0.07263180765827591,-0.23006410541627836,1.6723183990464094,-0.07815246090324869,-0.9941511584313354,-0.07062538587888385,0.02382691574373587,0.03318660453805933,0.0022490231902129267,30875.724155886237
1683662040341305255,191,1683662040341305255,camera_1,193,0,-0.07260275200249522,-0.23024240485487163,1.6732149148503768,-0.07773738686036329,-0.994391162796068,-0.06814738882830515,0.022339369576823663,0.0012483868968047318,8.465648485338465e-05,30863.018597197864
1683662040359934806,192,1683662040359934806,camera_1,194,0,-0.07247317596670418,-0.22992719654042437,1.6704684741391365,-0.07775839076071536,-0.9938544619278129,-0.07599169322696629,0.020789510166914684,0.022127844441456546,0.0014968616203463387,30917.130647019723
1683662040378378152,193,1683662040378378152,camera_1,195,0,-0.07246653098030724,-0.23000185258352224,1.670649138479876,-0.07858317925896904,-0.9938587693595811,-0.07311947477509632,0.026888155630795586,0.04881204916546267,0.003301422749540252,30911.153484358958
1683662040397167921,194,1683662040397167921,camera_1,196,0,-0.07245856731565742,-0.23007604454561664,1.671022930687663,-0.07760517804132698,-0.9935760209304688,-0.08132957523982419,0.013024099372332522,0.004675709341427137,0.0003167276088067513,30875.0848264377
1683662040416554689,195,1683662040416554689,camera_1,197,0,-0.07256078784034603,-0.2301506071427595,1.672241541247248,-0.07798534778556568,-0.9941174009511394,-0.07211724151211814,0.021165588430250782,0.00865712962422549,0.00058664550306028,30877.006987683784
1683662040435516834,196,1683662040435516834,camera_1,198,0,-0.07249506909660794,-0.22998570392163012,1.670687867817093,-0.07732078589027662,-0.9937114529074894,-0.0793825495070682,0.016045412539239357,0.007647713093319908,0.0005176851781451567,30896.09133714407
1683662040453372478,197,1683662040453372478,camera_1,199,0,-0.07263368256579214,-0.23010384624049451,1.6716721604030447,-0.0779816032598418,-0.9940209880117511,-0.07228968202355594,0.024806185077515856,0.05126705170641799,0.0034726133969292124,30885.598145398402
1683662040471962451,198,1683662040471962451,camera_1,200,0,-0.07245134043883009,-0.22992497578657853,1.6702436111914352,-0.07740775000957714,-0.9936085275075995,-0.08056010774009606,0.016130819679700422,0.00817639654269442,0.0005532210960858796,30903.387630322795
1683662040491477727,199,1683662040491477727,camera_1,201,0,-0.07251578650843687,-0.23000463791791834,1.6714436670404877,-0.07726661768158112,-0.9939311982122345,-0.07569212152200577,0.02003361554833407,0.0015011935402071686,0.000101637920552902,30885.29264676416
1683662040509903669,200,1683662040509903669,camera_1,202,0,-0.07267333600872969,-0.23006278858963145,1.672275095943594,-0.07766750909749734,-0.9945907685136485,-0.06299756262400309,0.02807611656649519,0.026583786298033374,0.0018010747567303376,30907.867344671035
1683662040528827905,201,1683662040528827905,camera_1,203,0,-0.07248447153876092,-0.2301369943421342,1.672217818566798,-0.07881390224992553,-0.9943065454196159,-0.06974754579716964,0.016677601839601975,0.004514702294727614,0.0003059562380511917,30904.85759014429
1683662040547360420,202,1683662040547360420,camera_1,204,0,-0.07256528287275221,-0.23027532878148543,1.6728031187008845,-0.07741088118150627,-0.9943421511475142,-0.0689210228269849,0.023262298650795245,0.026798833197972268,0.00181651980633364,30870.832229219217
1683662040566518545,203,1683662040566518545,camera_1,205,0,-0.0724446480722735,-0.22988274939254563,1.669748109882458,-0.07721062030172324,-0.993073745907593,-0.08728381125783839,0.014986380283131033,0.0021800793665534,0.00014748818669441303,30869.786972023823
1683662040585309028,204,1683662040585309028,camera_1,206,0,-0.07260859133809697,-0.23010579365566802,1.6721972378314847,-0.07816265780418548,-0.9941684674538136,-0.07027452222663998,0.024107027426434956,0.017192650881042937,0.00116493400118733,30881.667346944683
1683662040604240179,205,1683662040604240179,camera_1,207,0,-0.07254180461495263,-0.23005777338553726,1.6710118226860604,-0.07723407725134095,-0.993663675212427,-0.07949511490247235,0.018652736558176307,0.03015560363564873,0.002042171966593622,30877.09025746196
1683662040623127460,206,1683662040623127460,camera_1,208,0,-0.0725471724929337,-0.22999966389708648,1.6708635225363355,-0.07815769161578377,-0.9937872962859439,-0.07630190506968315,0.0213589387541355,0.04526501298551011,0.0030640727196200456,30898.613992802966
1683662040641760349,207,1683662040641760349,camera_1,209,0,-0.07262548651381273,-0.23012060337067144,1.672244254080071,-0.07790358517258032,-0.9943769268175711,-0.06723692205192891,0.02499510238195655,0.000192417724065308,1.3032621567492588e-05,30895.72726540106
1683662040660485982,208,1683662040660485982,camera_1,210,0,-0.07250212009105603,-0.23007274924805415,1.6716458032502797,-0.07795908854250354,-0.993980958257084,-0.07516712335768426,0.016557134476772557,0.02440088000457763,0.0016533818422065762,30890.28971624694
1683662040679349660,209,1683662040679349660,camera_1,211,0,-0.07250976428438269,-0.23000225269651686,1.6710660648343663,-0.07777733215332128,-0.9938945955702574,-0.07444121466731177,0.024139698800973722,0.008399397939683695,0.0005682630015639358,30895.857620032548
1683662040698891401,210,1683662040698891401,camera_1,212,0,-0.07258478646139273,-0.23021763022760577,1.672951043674723,-0.0778181675502395,-0.9943509213405847,-0.06796841627446516,0.024307867397084983,0.023598550979841093,0.0016002827645954635,30867.900468600354
1683662040718538761,211,1683662040718538761,camera_1,213,0,-0.07245630702585515,-0.23004707414724765,1.6715700670708127,-0.07764708307947235,-0.9940264966937439,-0.0750159175170693,0.015964538173225122,0.0003428874260862358,2.322398863210078e-05,30895.30502434753
1683662040737965583,212,1683662040737965583,camera_1,214,0,-0.07253410521373005,-0.230004737938871,1.671232063020205,-0.07762060024571256,-0.9939100083086463,-0.07529642448858762,0.02117513307246492,0.0313784813224629,0.002124705691342714,30892.74012352599
1683662040757451295,213,1683662040757451295,camera_1,215,0,-0.07260061245068038,-0.23028180622397149,1.6731733889839346,-0.0777269101451248,-0.9944152970932727,-0.06756421613456358,0.02306124550651521,0.035944558509982016,0.0024374024721276074,30866.144491300976
1683662040776343822,214,1683662040776343822,camera_1,216,0,-0.0724212302110635,-0.22996706644096526,1.670274487456461,-0.0770878857413481,-0.9937119167055292,-0.07940766828715727,0.01698548458387804,0.017466190736740828,0.0011816975924335647,30909.105309172537
1683662040796149253,215,1683662040796149253,camera_1,217,0,-0.07255602395194975,-0.22989889849195874,1.6706656427224331,-0.07723209311336737,-0.9940100638305248,-0.0722374146733804,0.027585371454273772,0.010537590431340504,0.0007126147314688893,30913.45153615695
1683662040815551042,216,1683662040815551042,camera_1,218,0,-0.0725013634904038,-0.23017930898142708,1.6724386822788913,-0.07749483002464853,-0.9945304022896451,-0.06502801482541377,0.0259843708585261,0.015253561800818716,0.0010333658911021743,30898.501124566734
1683662040834430932,217,1683662040834430932,camera_1,219,0,-0.0725830987850729,-0.23001144131546947,1.6719256889401886,-0.07770177478261261,-0.9944547746947517,-0.06673458892452123,0.023845962415425408,0.0014130096906228575,9.567957017897111e-05,30914.183925985715
1683662040853783130,218,1683662040853783130,camera_1,220,0,-0.07264310307727034,-0.2301311547530217,1.6718965741798157,-0.07718749990346152,-0.9941901255211141,-0.0705872814981112,0.02540708298233382,0.027974808534963813,0.0018950264261749887,30886.40416984104
1683662040873169898,219,1683662040873169898,camera_1,221,0,-0.07257906651211526,-0.23007379987912938,1.671139297021025,-0.07779387026764324,-0.9938474882080793,-0.07674693706755302,0.01803306912374423,0.03798147873749258,0.002572382467993714,30894.1350224149
1683662040892762899,220,1683662040892762899,camera_1,222,0,-0.07252544343801068,-0.23015210975610786,1.6719676501962903,-0.07787112226103898,-0.9940581367270555,-0.07433910651664408,0.016068801039539577,0.002526149351069762,0.0001711787973810495,30885.153376078237
1683662040912001609,221,1683662040912001609,camera_1,223,0,-0.07246963542542026,-0.22995501127775164,1.6711406463353515,-0.0777471728495606,-0.9939302428012714,-0.07548226005258434,0.01898625756331125,0.013822543845890323,0.0009354112621445566,30900.527647014256
1683662040931336879,222,1683662040931336879,camera_1,224,0,-0.07249266144328964,-0.23007836050036432,1.67118104752827,0.077519274654836,0.9937668747893215,0.07799547345108038,-0.01829936473201575,0.01965334006035846,0.0013302306528237826,30882.98673884345
1683662040950757265,223,1683662040950757265,camera_1,225,0,-0.0725847524372539,-0.23016515542864763,1.672687710218982,-0.07749062811059113,-0.9943433512490557,-0.0681586830076896,0.02511764942188155,0.005648214931170514,0.00038282698566852907,30873.474018355882
1683662040970217227,224,1683662040970217227,camera_1,226,0,-0.07250699486427234,-0.22989130907989114,1.6700964451421079,-0.07852057050573007,-0.9934591270365707,-0.08048237872429916,0.019901498186524043,0.009605812334484654,0.0006496273583486916,30900.079796593855
1683662040989646673,225,1683662040989646673,camera_1,227,0,-0.07254355585132113,-0.23005140921892764,1.6711892849290844,-0.07751988032565758,-0.9938942115127886,-0.07508359981250988,0.022965572382659054,0.013161937036784366,0.0008909529554275027,30890.391136159116
1683662041008616209,226,1683662041008616209,camera_1,228,0,-0.07245550406938925,-0.23001658648446008,1.6713300021616346,0.07789517744257801,0.9942186687427111,0.07199275217030203,-0.01669202473057513,0.02797884155097563,0.0018932335039391955,30922.975044775667
1683662041028573274,227,1683662041028573274,camera_1,229,0,-0.07257956312602516,-0.2300617415998395,1.6720824543774229,-0.07816626902009689,-0.9939413582792869,-0.0745905439353129,0.02017080674733391,0.013220128112152452,0.0008957465896758167,30868.906110138752
1683662041047662496,228,1683662041047662496,camera_1,230,0,-0.07252247869385298,-0.2299147385214924,1.6702675644596996,-0.0770854098670728,-0.9935596234857047,-0.0805184032347205,0.020344554679350778,0.007362375145930855,0.0004980032596060013,30892.257252762327
1683662041067358493,229,1683662041067358493,camera_1,231,0,-0.07256985788502208,-0.2300192773894238,1.6714615898969367,-0.07731605009448429,-0.9942023153566584,-0.07171276230467422,0.02100629095961619,0.0045034934491923195,0.0003048945504046219,30908.77962945536
1683662041086212635,230,1683662041086212635,camera_1,232,0,-0.07250046375518432,-0.23021595506260817,1.6725700280397233,-0.07772037962582916,-0.9940401112801324,-0.07476844974971242,0.015921013756160368,0.009198428219860943,0.0006236848081404063,30860.46120587601
1683662041105975866,231,1683662041105975866,camera_1,233,0,-0.07246814495359533,-0.23001312520595277,1.6709177582910335,-0.07763461590454877,-0.9940672889504242,-0.07472560734749907,0.014804562089252179,0.0009648969935369678,6.531167329181061e-05,30923.785982163106
1683662041124940633,232,1683662041124940633,camera_1,234,0,-0.072467528416584,-0.23002514751925007,1.6708805270503377,-0.07761358579803224,-0.9936897981389029,-0.07917229368662487,0.01698423641606709,0.019374724513909314,0.00131135729638083,30888.58922367702
1683662041144378423,233,1683662041144378423,camera_1,235,0,-0.07257043311914761,-0.22989276941075956,1.6706586683118696,-0.07755200290214175,-0.9939469767985335,-0.07424682208334464,0.02329170602266206,0.018140339297133323,0.0012270612067723354,30914.540405313957
1683662041163899898,234,1683662041163899898,camera_1,236,0,-0.07253926034986957,-0.23001908401767635,1.670777396176019,-0.0774268228935222,-0.9935810498844599,-0.08058801120721962,0.0175315959562869,0.019863720939611085,0.0013449023617540048,30880.19022595056
1683662041182763814,235,1683662041182763814,camera_1,237,0,-0.07257501389414986,-0.23018512488196377,1.672639814122045,-0.0781536072247384,-0.9942991527437761,-0.06969616180217388,0.020091131397096777,0.005747980151681986,0.000389690135598843,30880.972293021274
