%time,field.header.seq,field.header.stamp,field.header.frame_id,field.image_seq,field.transforms0.fiducial_id,field.transforms0.transform.translation.x,field.transforms0.transform.translation.y,field.transforms0.transform.translation.z,field.transforms0.transform.rotation.x,field.transforms0.transform.rotation.y,field.transforms0.transform.rotation.z,field.transforms0.transform.rotation.w,field.transforms0.image_error,field.transforms0.object_error,field.transforms0.fiducial_area
1684378879221273183,0,1684378879221273183,camera_2,1,0,0.7226693570673652,0.755070809849192,8.57151363497195,-0.9969250269267487,0.04736771035479725,0.03381337434572177,0.052473292427688216,0.002601289888843894,0.002662311592787073,3539.36049713625
1684378879227837324,1,1684378879227837324,camera_2,2,0,0.7230749662441486,0.7570308302884707,8.577342623088455,0.9972219422035401,-0.047695082654421725,-0.03535430114626858,-0.04498500271030683,0.005564936553128064,0.00570335411529152,3538.2560770511627
1684378879234580278,2,1684378879234580278,camera_2,3,0,0.7224730191756401,0.758678387769473,8.573068194891647,0.9970573824340071,-0.04816427637329986,-0.034728157080784715,-0.04848436573840115,0.007065960788168013,0.007233623700540847,3540.317723927321
1684378879248009443,3,1684378879248009443,camera_2,5,0,0.7224271803226624,0.7595302204051316,8.57320996358262,-0.997270825065653,0.047876934467874596,0.03848278289971161,0.04096066453469924,0.002778381749521941,0.002845032909583398,3542.092950925812
1684378879254354000,4,1684378879254354000,camera_2,6,0,0.7222074085903482,0.7586604348572503,8.57064553748707,0.9970341095835202,-0.04809036467277731,-0.03731908003613317,-0.047091266896241546,0.0052413761732168496,0.00536303743043555,3541.611255455528
1684378879261081933,5,1684378879261081933,camera_2,7,0,0.7224611891440235,0.7581128806023032,8.572842994309902,-0.9970436844844297,0.04775090681708409,0.04372133020533694,0.04137858640571635,0.00415143818827346,0.004251506621566008,3538.5688105039294
1684378879267836570,6,1684378879267836570,camera_2,8,0,0.7230968485719653,0.7576564510259417,8.579776033740469,0.9971269957659598,-0.047671977975269904,-0.036309870006355,-0.046332819586105634,0.0062832715339027345,0.006442970438833271,3534.984500215156
1684378879274418354,7,1684378879274418354,camera_2,9,0,0.7225159043535381,0.7537199244346571,8.569931554838183,-0.996661526883788,0.04745475601978312,0.03447831129904916,0.05678990236604739,0.0025637405342422426,0.0026229236283895428,3537.262719320366
1684378879281086206,8,1684378879281086206,camera_2,10,0,0.7229087517174119,0.7520992140755001,8.572149698772186,-0.9969480819979294,0.04786827739260018,0.041895110009879014,0.04525427689594847,0.005875029601156712,0.006015094151757918,3537.881334070001
1684378879287717342,9,1684378879287717342,camera_2,11,0,0.7234884228302185,0.750347557597721,8.576481225630706,-0.9969613682850219,0.047864251129891094,0.042469238674359346,0.044423050069217,0.004721408593468368,0.004839111503453474,3534.174581832136
1684378879294385910,10,1684378879294385910,camera_2,12,0,0.7238011829006433,0.7459384217778116,8.576381957102663,0.9971239514846556,-0.046734543010945755,-0.03404923405305984,-0.04899344369999089,0.007101919152773917,0.007277173854403615,3536.5929196797088
1684378879301084518,11,1684378879301084518,camera_2,13,0,0.723610020988424,0.7433479175125726,8.571245539176536,-0.9971072958529642,0.047945767202779155,0.03822348208351034,0.044913354155951615,0.009632791159674525,0.009860645795207217,3540.433410219849
1684378879307704687,12,1684378879307704687,camera_2,14,0,0.7242258342894896,0.741764196421056,8.57723482227301,-0.9970762109750053,0.0479703820317699,0.03720282609864066,0.04640928447764673,0.003552378562744707,0.0036412505475703814,3535.130644146585
1684378879314632892,13,1684378879314632892,camera_2,15,0,0.7239973940587713,0.7371232141038999,8.569602208696626,0.9969731444207567,-0.04710080735603385,-0.04216947565824617,-0.04525260846523135,0.002815801650285721,0.0028814808436882456,3538.4156455828343
1684378879321082115,14,1684378879321082115,camera_2,16,0,0.7244292209947021,0.7355397557859721,8.572425403032398,0.99693777049111,-0.047105483215409936,-0.042991598931649944,-0.045253482082133444,0.0044618185493163764,0.004569340053225665,3535.3238000705596
1684378879327689170,15,1684378879327689170,camera_2,17,0,0.7239652551136742,0.7333374705205653,8.563912121052248,0.9964856841078609,-0.04788833961392934,-0.04915586160704536,-0.04802800814919006,0.005218617909122259,0.005334445828687701,3536.066360382828
1684378879334542751,16,1684378879334542751,camera_2,18,0,0.7242700106131117,0.7312555283019968,8.565033253051157,0.9965967100256936,-0.0471505123328964,-0.050907444391045435,-0.044500099531144276,0.012763207152602263,0.013052718827617518,3535.422470818915
1684378879341053485,17,1684378879341053485,camera_2,19,0,0.7246727365729642,0.7311382481426589,8.568863657886299,0.9970772672558619,-0.04760723860536766,-0.03835475796438133,-0.0458190625771451,0.009962496464140711,0.010192635987241844,3540.6041971044033
1684378879347832918,18,1684378879347832918,camera_2,20,0,0.7248170315156561,0.7309994072614528,8.56974398295409,0.9970332784970328,-0.04743337216765928,-0.0439063966566876,-0.04179647242157944,0.007899774122051895,0.008086458414026111,3538.1546653191917
1684378879354572296,19,1684378879354572296,camera_2,21,0,0.7252930631679895,0.7319659206930657,8.575038558867806,0.9969660202999375,-0.047288356243156505,-0.040309538574823264,-0.04687970596121287,0.013018836980336346,0.013339454070982302,3533.6731476641726
1684378879361021757,20,1684378879361021757,camera_2,22,0,0.7251394905237117,0.7327796052467754,8.57387510666633,0.9968216129406408,-0.046798379819005725,-0.042851268037140976,-0.048170036831463245,0.006061603737180121,0.006209343671022245,3532.2709853611896
1684378879367887020,21,1684378879367887020,camera_2,23,0,0.724820393313876,0.7335742736899176,8.57084394689458,0.9968676779883159,-0.04774343835386722,-0.04054476188733234,-0.04828580495169864,0.0059034283622168005,0.00604288151966423,3536.385791358306
1684378879374396562,22,1684378879374396562,camera_2,24,0,0.7241025738228832,0.7362580908521893,8.565695495676392,0.9964437595996288,-0.04732235737108096,-0.041465490779733674,-0.0560449955142898,0.0030446749879047275,0.003112417593107588,3535.4126454056245
1684378879381062984,23,1684378879381062984,camera_2,25,0,0.7246927782975522,0.7389109922044009,8.575794787148,0.9968151750863897,-0.0473487163991893,-0.03486202075511003,-0.05387249095512247,0.00441090518143028,0.0045194275123451345,3532.8919042826146
1684378879387844800,24,1684378879387844800,camera_2,26,0,0.7247805342827357,0.7413510058512732,8.57903638115671,0.9969220628404121,-0.04747064355290691,-0.03907320099821943,-0.048643844281091544,0.0013991440646350384,0.0014347370158984893,3531.0960748998928
1684378879394369125,25,1684378879394369125,camera_2,27,0,0.7242392890864832,0.7455248783903712,8.577860656700707,0.9972822014673856,-0.04761112514052861,-0.03363306409813311,-0.04505783393139048,0.006373319949489087,0.0065333540583557585,3537.7610282727965
1684378879401154279,26,1684378879401154279,camera_2,28,0,0.7236682892678501,0.7472630181806096,8.573480429237632,0.9969861284780366,-0.04728280762035185,-0.03217957695906159,-0.05241631952597179,0.006400738900993019,0.006554113913890447,3538.0162475892585
1684378879407788038,27,1684378879407788038,camera_2,29,0,0.7227846363682824,0.7486441906237069,8.565629893376533,-0.9966466813046508,0.047671508260964,0.04937165024064461,0.044556257664508665,0.0004638285608962178,0.0004742982292874343,3537.8619520108914
1684378879414472341,28,1684378879414472341,camera_2,30,0,0.7222744673440747,0.7525239894155415,8.564549081970581,0.9967145395143228,-0.047438891553645765,-0.041767713058706794,-0.05064717598009438,0.0027243942604400218,0.002783916739245471,3541.15911730798
1684378879421070575,29,1684378879421070575,camera_2,31,0,0.7226970240444914,0.7549517082982887,8.572025062925889,0.9969947520735605,-0.04802159804833382,-0.03376925624018744,-0.0505472827325925,0.0026113861240446568,0.0026728688987446656,3540.188240331598
1684378879427819728,30,1684378879427819728,camera_2,32,0,0.7228935887307455,0.7568065068552239,8.576736054646728,0.997100186347351,-0.048041813159406734,-0.04014749197873044,-0.04325946673564474,0.0016851379186846316,0.0017269443778962033,3536.7077272300376
1684378879434369325,31,1684378879434369325,camera_2,33,0,0.7222134548144269,0.7583549178909744,8.571147245452863,0.9970569180201317,-0.04762960799975375,-0.03984913314471759,-0.04495519166459825,0.008131588518153876,0.008322093849169163,3540.7699277577904
1684378879440979242,32,1684378879440979242,camera_2,34,0,0.7219205536025138,0.7586785707484184,8.568958063269164,-0.9971282318961313,0.047869876542972166,0.04289666378122171,0.040045478045545826,0.004260208341293037,0.004358909217101747,3543.102194165228
1684378879447715044,33,1684378879447715044,camera_2,35,0,0.721851045435463,0.7587776097958143,8.567869961296879,0.997050879752956,-0.04780494849197799,-0.0395747641145494,-0.04514496792349582,0.005513856594916433,0.005638418143465233,3543.6167957384614
1684378879454587459,34,1684378879454587459,camera_2,36,0,0.722210164010472,0.7586891517874411,8.57242317814556,0.9970908291817732,-0.04805906908395984,-0.041276524463959297,-0.0423845817316098,0.0027421151171438396,0.002807405786481362,3540.1713856711294
1684378879461087703,35,1684378879461087703,camera_2,37,0,0.7221323850693617,0.7576906746633315,8.570492476189111,0.9970504191566805,-0.04805778261277307,-0.03959526521369285,-0.044867874503797124,0.002780532813630998,0.0028451554252130746,3541.494069232839
1684378879467895984,36,1684378879467895984,camera_2,38,0,0.7224091749355531,0.7568176366189984,8.572022774687248,0.9969190744978575,-0.04774425293202339,-0.03705633177297183,-0.049996734791681395,0.00966528063872829,0.009892816194694566,3538.747936118162
1684378879474310636,37,1684378879474310636,camera_2,39,0,0.7222032088239326,0.7531750173416091,8.565680410722415,0.9966612677407117,-0.04749186508353799,-0.04529980751277486,-0.04856714502284378,0.008285133575554937,0.008469405850096947,3539.0556999350665
1684378879481179714,38,1684378879481179714,camera_2,40,0,0.7230278715445063,0.752140339320106,8.57369290820808,-0.9968764944206074,0.04773556305573907,0.04311513481082447,0.04582200390289145,0.003906729631125927,0.0040012502408319425,3535.447006183444
1684378879487922430,39,1684378879487922430,camera_2,41,0,0.7232318059126207,0.7499478269083815,8.573870517299618,0.9969238901789252,-0.047500271814980316,-0.04504537084268865,-0.043097516560306914,0.0014641807065345347,0.0014998922842452765,3535.1867478026543
1684378879494341373,40,1684378879494341373,camera_2,42,0,0.7232488860158435,0.7452642714193891,8.568901421563698,-0.9970380329979911,0.04760103204023422,0.037879951131916736,0.04705753719060551,0.0027455694507807493,0.002808652346766174,3541.5998704102813
1684378879500993013,41,1684378879500993013,camera_2,43,0,0.7236668677128805,0.7432642133943803,8.571987205619743,0.9970147793358116,-0.04769335967492218,-0.03193091165903591,-0.051645814055974064,0.005197798542212695,0.005320685115369458,3539.5738925064225
1684378879507905721,42,1684378879507905721,camera_2,44,0,0.7243101487908229,0.7417053473743214,8.576995611165609,0.9968727518131603,-0.04759793260728302,-0.039143327149917445,-0.04946669024307772,0.00641709566116333,0.006576866523515012,3532.322605576249
1684378879514569520,43,1684378879514569520,camera_2,45,0,0.723967845312099,0.7368793248470443,8.568396703197477,0.9965931020567022,-0.047540669508938885,-0.04439854630429095,-0.05070347879295013,0.0077843472245149314,0.007963055976436944,3534.689661618321
1684378879521210193,44,1684378879521210193,camera_2,46,0,0.7242616743961228,0.7352413363601777,8.570151274689144,0.9966672196969966,-0.048758759597887835,0.05743592372903775,0.03127540901933009,0.002903927757870406,0.0029724198626905605,3534.687793552875
1684378879527656793,45,1684378879527656793,camera_2,47,0,0.7249243879293485,0.7343280974049105,8.575429582317765,0.9969149481942747,-0.04712495407853715,-0.04184170279956531,-0.046787783413356855,0.004082828352693468,0.004183982384867774,3532.645106747863
1684378879534452199,46,1684378879534452199,camera_2,48,0,0.7249185071949644,0.7318694005408185,8.572203263258647,0.9969923635238113,-0.04705032275159767,-0.0443137092695956,-0.042764347007118,0.009660651106969453,0.009894373438879375,3535.4351155359755
1684378879541548013,47,1684378879541548013,camera_2,49,0,0.7244307566364298,0.7308712282534786,8.566106576130924,0.9968105247079005,-0.047730367024449924,-0.04748486603105107,-0.042845972894597927,0.007300072422367521,0.007467388513880533,3538.0318005572776
1684378879548087358,48,1684378879548087358,camera_2,50,0,0.7250888163742026,0.7312187110638857,8.572563153730094,0.9970475441059542,-0.047191154642312653,-0.04599711666513352,-0.039413893163512896,0.012449139438103884,0.012754485812151212,3535.397192889941
1684378879554491996,49,1684378879554491996,camera_2,51,0,0.7250115565356338,0.7318348822507948,8.57320118021542,0.9970529020414027,-0.047804584205502335,-0.044205674037494036,-0.04057204262354788,0.007599909440614283,0.007785952587373216,3535.7368017624244
1684378879561189651,50,1684378879561189651,camera_2,52,0,0.7255799894693629,0.7333822000811885,8.580182871602759,0.9969828143629379,-0.04787801064411928,-0.03788708371792323,-0.047932586505093584,0.007618671996169724,0.007815135472759497,3530.5251722131507
1684378879568250417,51,1684378879568250417,camera_2,53,0,0.7247398754457216,0.7336022939523543,8.571010834826659,0.9969837335157997,-0.04765437138568306,-0.043150771691813965,-0.04347995969562616,0.003938880283385515,0.004032718732152373,3537.081018007127
1684378879574531316,52,1684378879574531316,camera_2,54,0,0.7242575350202197,0.7365930569860786,8.568126681010945,0.9968546449266248,-0.047628869512381856,-0.04414424379457602,-0.045426791841276015,0.0036735004978254437,0.0037583392514082803,3538.066766875563
1684378879581246137,53,1684378879581246137,camera_2,55,0,0.7245789568289701,0.7389166080480317,8.573814160061863,0.9967572495603818,-0.04746163820657376,-0.04102815059302514,-0.05038917747381302,0.006013110047206283,0.006158594227338133,3532.869110855972
1684378879587871313,54,1684378879587871313,camera_2,56,0,0.7244749877356128,0.7412003482234942,8.575073592602301,0.9968867804368348,-0.047628089553051624,-0.04211092620443178,-0.04663670196329711,0.0020000183139927685,0.0020491723809420333,3533.4993755193436
1684378879594846248,55,1684378879594846248,camera_2,57,0,0.7239908161504781,0.7453538578564982,8.573172382685225,-0.9971253799756425,0.047750783490916056,0.03393051147600774,0.048057878390653556,0.010844842763617635,0.011105268536904838,3539.780488599209
1684378879601060867,56,1684378879601060867,camera_2,58,0,0.7247258100762569,0.7484722341040726,8.584247889279233,0.9971755597908215,-0.047652683030840734,-0.028460865992579683,-0.05059746893646282,0.0065209115273319185,0.006694327335528591,3532.219693256774
1684378879607825517,57,1684378879607825517,camera_2,59,0,0.7237034914603189,0.7497550670437643,8.575316824638124,0.9969960322441441,-0.04756412358811524,-0.04418566889265683,-0.04223970290185332,0.001965708041097969,0.002014295238501961,3534.975733711616
1684378879614269495,58,1684378879614269495,camera_2,60,0,0.7232807135077136,0.7536346444811285,8.573747777714905,-0.9970514235345103,0.047676036457924696,0.03847778356810888,0.04620513550629632,0.013340412057004869,0.013662971008984778,3538.3487392849042
1684378879621091842,59,1684378879621091842,camera_2,61,0,0.7229041837496748,0.755179133093733,8.571384204097827,0.9971090110726283,-0.047861538803900996,-0.0415705987741911,-0.041890075896842266,0.011839406623039395,0.012120252164854342,3540.7178509694068
1684378879627647161,60,1684378879627647161,camera_2,62,0,0.7225436051273862,0.7563813366839606,8.569024620006344,0.9967516487364608,-0.047749635520788265,-0.03331185701687939,-0.05564569373155521,0.01016916730441153,0.010401878023113596,3539.6351132693244
1684378879634343147,61,1684378879634343147,camera_2,63,0,0.7222335128507997,0.7583460684476321,8.568653738841432,0.9969152858244406,-0.04765666178644653,-0.0409400685388047,-0.047038986649206756,0.006931016221642494,0.007089307411206923,3540.920108994469
1684378879641088008,62,1684378879641088008,camera_2,64,0,0.7221873687771463,0.7588222582095696,8.569022001485486,0.9970083688665928,-0.047846505428949186,-0.04206098363436469,-0.04377097193258816,0.007835543772671372,0.008015895599292763,3541.712820792572
1684378879647725105,63,1684378879647725105,camera_2,65,0,0.7223155252134696,0.7592740719322835,8.571664779939432,0.9970729170179866,-0.048310940409751715,-0.04264027305132064,-0.04115165002861163,0.002286617353092879,0.002340797131138941,3540.5130007350817
1684378879654588699,64,1684378879654588699,camera_2,66,0,0.7217584555563156,0.7580549701540847,8.565383512533739,0.9968484579329886,-0.04772263561192324,-0.041569462053734026,-0.047829716614645974,0.01003538869554177,0.010256494123739052,3542.7624608797487
1684378879661101579,65,1684378879661101579,camera_2,67,0,0.721995911852083,0.7573946354862218,8.567890405716204,-0.9971097659224969,0.04817699859426867,0.03802869180135126,0.04477622257749367,0.001996974169742316,0.002042169484459982,3544.6817671930194
1684378879667711496,66,1684378879667711496,camera_2,68,0,0.7227246641593091,0.7571056109043153,8.575783730835933,-0.9972644634297234,0.047569870842854946,0.03879481964500077,0.04117838434095925,0.00850848644040525,0.008718467279405949,3539.453576261643
1684378879674364089,67,1684378879674364089,camera_2,69,0,0.722709246433708,0.7535520375155278,8.572199404320022,-0.9968567434683627,0.04763005683305751,0.03720483595398155,0.051223147788552616,0.005649942962918431,0.005783520895185344,3537.4888602313595
1684378879680972099,68,1684378879680972099,camera_2,70,0,0.7225345958673974,0.7514508759908004,8.568368986462389,-0.9968300886852784,0.04768190527898576,0.04429722891443559,0.04575987009561583,0.002185179211664945,0.002235356676413431,3539.0292090594294
1684378879688032865,69,1684378879688032865,camera_2,71,0,0.7230101191077255,0.7496348260191891,8.572338725828672,-0.9968888334962532,0.047408741738397035,0.04395158259352776,0.045092385663057746,0.0005383446696214378,0.0005512220381397786,3536.1834885510607
1684378879694311141,70,1684378879694311141,camera_2,72,0,0.7232020483737709,0.7476541742673818,8.572756321442009,-0.9968881199856322,0.0474086307873083,0.045370884801003715,0.04368043922350889,0.0005775028257630765,0.0005914398960066133,3535.385155565805
1684378879700904607,71,1684378879700904607,camera_2,73,0,0.7236016400774185,0.7430466202096087,8.572011199555398,0.9969007082188618,-0.04790547581770707,-0.035586186251742764,-0.0512607714287189,0.004480650124605745,0.004586627667435808,3537.7171443328252
1684378879707783222,72,1684378879707783222,camera_2,74,0,0.7241189030900456,0.7413485835849511,8.575483073431496,0.9968857264972667,-0.047291578891420445,-0.040832496077247246,-0.048115092601749114,0.004618863575160503,0.004732657635067361,3533.245214649476
1684378879714402675,73,1684378879714402675,camera_2,75,0,0.7241270407866061,0.7370240452610017,8.571762901856697,0.996736613171276,-0.04829660664592794,0.05871186084102003,0.027138149290754428,0.004447471466846764,0.0045551859789738644,3534.845079058548
1684378879721156597,74,1684378879721156597,camera_2,76,0,0.7242545833191465,0.7350394931428346,8.56879032370157,0.9967383470192801,-0.04716841219020388,-0.04240002301024445,-0.04990036594514228,0.005077660956885666,0.005194866653200081,3536.066596899297
1684378879727768421,75,1684378879727768421,camera_2,77,0,0.7246298329403873,0.7336622481799643,8.570191835003651,0.9968292868364393,-0.047601535267776246,-0.042160893252105966,-0.047832267618112545,0.007816728786565363,0.00800037750659791,3536.1177528642584
1684378879734378099,76,1684378879734378099,camera_2,78,0,0.7251051356512652,0.7317988709229637,8.57216005593467,0.9970041839593125,-0.04711271263296255,-0.0429266704047706,-0.04382180329413041,0.015489460318349302,0.01586303256858404,3535.8857455109237
1684378879741040945,77,1684378879741040945,camera_2,79,0,0.7249168498409606,0.7311905723307053,8.571216911241153,0.9970590851674687,-0.048923408211529955,0.05148791320618391,0.02878672624059648,0.004734480302431621,0.004847118173525335,3538.598083886432
1684378879747642040,78,1684378879747642040,camera_2,80,0,0.7251400328030576,0.7310882423781355,8.572733661424024,0.9971952642453003,-0.04853078459797949,0.04793279865271188,0.030802836336431934,0.01226874157146085,0.012563826491684393,3538.422427393786
1684378879754407882,79,1684378879754407882,camera_2,81,0,0.7246829186334864,0.7312949575735057,8.566724671651844,0.9969702802305719,-0.04734946199095036,-0.04769548529501563,-0.03915902793246441,0.007284251056262292,0.007453322997772473,3539.0966772614056
1684378879761005163,80,1684378879761005163,camera_2,82,0,0.7255297433145124,0.733164745950601,8.577957219592392,0.9971938076986898,-0.04725563595724614,-0.039150428254305175,-0.042879584013483456,0.0094682809576625,0.00970831245502191,3534.2157920779428
1684378879767671585,81,1684378879767671585,camera_2,83,0,0.7249543198452343,0.733642738803229,8.571357939987795,0.9969209933386185,-0.04715903131119343,-0.04046505283552587,-0.04782403481043897,0.005716056737583131,0.005851766274829538,3536.2633537574434
1684378879774355888,82,1684378879774355888,camera_2,84,0,0.72403330530334,0.7362012229575866,8.564762413211922,0.9965810282475301,-0.04768936804979372,-0.035804295465497446,-0.05718418258860131,0.00431699090404436,0.004412170291602704,3539.0064300083322
1684378879781099557,83,1684378879781099557,camera_2,85,0,0.7249065355357506,0.7390965999752261,8.57710539456409,0.9971384240076611,-0.04738101181673986,-0.03914091783915842,-0.044022626426056394,0.006168353371322155,0.006323166013995109,3534.9668322581574
1684378879787535429,84,1684378879787535429,camera_2,86,0,0.7243622642165689,0.7409211919203471,8.573503218893597,0.9969108395072642,-0.04723178516594341,-0.03864542682451568,-0.04944155669587102,0.003214524534996599,0.00329188798599726,3535.448519411613
1684378879794888019,85,1684378879794888019,camera_2,87,0,0.7229197336304138,0.7465655682731185,8.563876285678475,0.9969319345219534,-0.04750200204607342,-0.04297969558153884,-0.04497803352358511,0.0034015076817013323,0.003476027706407895,3543.647855204647
1684378879807823657,86,1684378879807823657,camera_2,89,0,0.7232328633879249,0.7491388328800118,8.570646886692796,-0.9968570883436774,0.047401506070109886,0.03956279296461819,0.049636962579211505,0.0020307155209593475,0.0020781136496254896,3537.874193239959
1684378879821132659,87,1684378879821132659,camera_2,91,0,0.7228045341536649,0.7550233363389236,8.572283122608143,-0.996907488481235,0.047992105109535305,0.034259583556329,0.05194707106024855,0.005923832883127034,0.006063969224008179,3538.7965409331955
1684378879827668905,88,1684378879827668905,camera_2,92,0,0.722683352612786,0.7566461922620431,8.573485514237458,-0.9970963707712711,0.04783352642507404,0.037069870995437286,0.04622343354710371,0.002065899025183171,0.0021153955647264574,3539.732791451969
1684378879834436655,89,1684378879834436655,camera_2,93,0,0.7231670911208969,0.7582919955841891,8.58007288802982,0.9972203305898567,-0.04820281689503928,-0.032373802519179116,-0.04669087289920087,0.0016366136842407286,0.0016781807891368557,3536.83751649037
1684378879841054916,90,1684378879841054916,camera_2,94,0,0.7222672283175349,0.7589752905646354,8.571668407975238,0.9971525174216653,-0.048123424303601614,-0.03773022908371802,-0.044129614163520854,0.003294958791229874,0.0033724476867729274,3542.184666284593
1684378879847702980,91,1684378879847702980,camera_2,95,0,0.722212208422936,0.7591137421814647,8.570381458948287,0.9970633690081153,-0.04811867749207742,-0.045925890511960485,-0.03794790691571641,0.0030092140077613294,0.0030805425124000173,3540.725540978253
1684378879854459285,92,1684378879854459285,camera_2,96,0,0.7224642325030903,0.7591886506380705,8.57335048299126,0.9971871663344418,-0.04796280453035387,-0.04016998462221206,-0.041275864799187954,0.006305333634372801,0.00645718312321539,3540.7015334552852
1684378879861001968,93,1684378879861001968,camera_2,97,0,0.7228938800861457,0.7582678054482938,8.576508140746721,0.9972168995102113,-0.0481523799933394,-0.03810904768525949,-0.04227888499878701,0.005492822732776403,0.005628697965480865,3538.8083913887376
1684378879867784500,94,1684378879867784500,camera_2,98,0,0.7232599465766654,0.7575727949914833,8.580210645238475,0.9973927039614399,-0.04807578714895167,-0.03459624549262739,-0.041226357737619394,0.009354972222354263,0.009594456415274852,3538.3117215993116
1684378879874573230,95,1684378879874573230,camera_2,99,0,0.7225143331512306,0.7551680403574634,8.569465414059287,0.996859682187051,-0.04759162883311122,-0.04495996216239252,-0.04454674732569656,0.0038697358104400337,0.003959614236389134,3538.5863988379706
1684378879881054639,96,1684378879881054639,camera_2,100,0,0.7226487717671455,0.75148227422322,8.566931701858103,-0.9967399256116088,0.04740227257725596,0.04613031802915865,0.046201071468146684,0.002561428293120116,0.002619516804058609,3538.6069761354
1684378879887880563,97,1684378879887880563,camera_2,101,0,0.7230438414415843,0.7494999437982227,8.569174053081015,-0.9969045724370058,0.047343667247224164,0.04732265646187095,0.04123611052423136,0.002421348530333489,0.0024782009443851485,3538.26553983544
1684378879894456148,98,1684378879894456148,camera_2,102,0,0.7236731943298784,0.747906415066258,8.573806278208687,0.9969993985349658,-0.047208902539113556,-0.03780865013380069,-0.048311746160007746,0.0052602727664634585,0.00538706473872877,3537.034203791527
1684378879901339292,99,1684378879901339292,camera_2,103,0,0.7241898271256145,0.7435795665990574,8.575466901794776,0.9969255938692009,-0.04771279054552152,-0.03728589610168355,-0.04972536434049503,0.006313428224530071,0.00646809979251416,3534.7564820593684
1684378879907924413,100,1684378879907924413,camera_2,104,0,0.7240418043847525,0.7412884573359664,8.571858019140862,0.9969185828204922,-0.0472343646495161,-0.042362630854953585,-0.04612658160307347,0.003028189006727189,0.003100333807516004,3536.3072322848016
1684378879914307832,101,1684378879914307832,camera_2,105,0,0.7248083231753264,0.7396022958476774,8.57781068187259,0.9972016445626065,-0.04749182608501523,-0.03904947479279646,-0.04252699207739514,0.00529933487996459,0.005433167156963236,3535.2655552753727
1684378879921115875,102,1684378879921115875,camera_2,106,0,0.7243136964964781,0.7351496012631492,8.567477076716813,0.9965080034774287,-0.047438756786485056,-0.045821860449229895,-0.05120273884230191,0.0014913579798303545,0.0015254288465223705,3533.908513240982
1684378879927899599,103,1684378879927899599,camera_2,107,0,0.7240540711354305,0.7332213167377892,8.562970437989964,0.9965270279135497,-0.047325408632627804,-0.05113866916471982,-0.04559632497914282,0.0032454681931994855,0.003317502840745085,3536.5702153084567
1684378879934428215,104,1684378879934428215,camera_2,108,0,0.7248713655820072,0.7328077345578897,8.571211519737037,0.9967879872590568,-0.0475216840929879,-0.04073475281188067,-0.0499607637087312,0.009449433244299144,0.009673215661293273,3534.8950763624152
1684378879940925121,105,1684378879940925121,camera_2,109,0,0.7247829350873327,0.7311463962212619,8.568987300607322,0.9969091907505089,-0.047453844937518884,-0.048806186041444245,-0.03921930904413303,0.00431202347681392,0.004414779770459242,3536.3243280746387
1684378879947613954,106,1684378879947613954,camera_2,110,0,0.724910558911298,0.7310427974782581,8.569820639178904,0.9969678494471992,-0.04760250227409217,-0.042351412918640266,-0.044670647741740135,0.008170041255652905,0.008362254541585989,3537.7355746111134
1684378879954535245,107,1684378879954535245,camera_2,111,0,0.7248225368917429,0.7311089311433582,8.568500868770675,0.9970262786512891,-0.04722739888067792,-0.038661898195723056,-0.04704710513550227,0.011331030516885221,0.011592281255476095,3540.00682305824
1684378879961101055,108,1684378879961101055,camera_2,112,0,0.7251259734813063,0.732859656394325,8.573293064843366,0.9968885685772341,-0.04766500622363636,-0.04284193209543118,-0.04588897336032702,0.008810661049210466,0.009024881442453593,3534.0363376768073
1684378879967771291,109,1684378879967771291,camera_2,113,0,0.7247294943476464,0.733640060547332,8.570704694889839,0.996856662264191,-0.04903199460278755,0.052453089524367634,0.033486292779544964,0.0033527857740409672,0.0034317485098010808,3536.1552568328325
1684378879974630355,110,1684378879974630355,camera_2,114,0,0.7246391943430434,0.7350031817177781,8.57016228694711,0.9968460064258738,-0.04704453440113956,-0.044043602636174205,-0.046314277740171814,0.007956480025313795,0.008143762177877873,3535.7818842208944
1684378879981007099,111,1684378879981007099,camera_2,115,0,0.7241348700234134,0.7384040205485748,8.56811766116235,0.9967306296659132,-0.047439316778039496,-0.04193201110101355,-0.05019232565292711,0.002399492193944752,0.002454407867670288,3537.0703419881174
1684378879987637996,112,1684378879987637996,camera_2,116,0,0.7250341787221016,0.7417668253607821,8.581583203146968,0.997188546064711,-0.04769031424525672,-0.033443436491296726,-0.047139941452968515,0.007248765730764717,0.007437523191104574,3533.258887741016
1684378879994370698,113,1684378879994370698,camera_2,117,0,0.7246004749163797,0.7435243780557204,8.579081307441458,0.9971201559026504,-0.04724446664693754,-0.034507464176169504,-0.04825546580493323,0.004631240561138839,0.004748883863613719,3534.263117551572
1684378880001123666,114,1684378880001123666,camera_2,118,0,0.723847873657607,0.7475210377146047,8.574786313120061,0.9972772979781066,-0.047669985246651746,-0.03247069844981286,-0.045947983484065286,0.00566791178425774,0.005805860113787871,3540.6573252867665
1684378880007871389,115,1684378880007871389,camera_2,119,0,0.7236239877635264,0.7495010689963786,8.574713412531171,0.9971257116361117,-0.0474689689901895,-0.03967485978516848,-0.0437369143654819,0.006699956837110221,0.006863358205489404,3537.7675368050104
1684378880014482736,116,1684378880014482736,camera_2,120,0,0.7239297491246327,0.7522291069764147,8.581078552751618,-0.997056384427838,0.0480039750493325,0.037801036107565154,0.04631701976968521,0.003405781288165599,0.00349379480688017,3532.523547288263
1684378880021176099,117,1684378880021176099,camera_2,121,0,0.7234305002889075,0.7556586834012631,8.580235220680255,0.997152500107256,-0.04811999681790547,-0.037499582040965235,-0.04432988588803938,0.0013225024449639022,0.0013563030278293529,3534.8098936323086
1684378880028074979,118,1684378880028074979,camera_2,122,0,0.7228845908008168,0.756669060398787,8.575983921662164,0.9969750273361501,-0.04761902035913053,-0.038041002732874675,-0.04822971987475357,0.0006919129518792033,0.0007088578405683529,3535.8973138954034
1684378880034645795,119,1684378880034645795,camera_2,123,0,0.7231265464069442,0.7581211851101158,8.579715966090165,-0.9972827743333126,0.04778394713025047,0.03457661127278839,0.04413864936306067,0.004752586362883449,0.004873511839289765,3537.292767302831
1684378880041150808,120,1684378880041150808,camera_2,124,0,0.7224384630558585,0.7590372516190358,8.574278287060178,-0.9973435747702252,0.04837028822988788,0.03388107976261382,0.04264013971864157,0.005070987390354276,0.005193396534785515,3543.0960316567216
1684378880047835826,121,1684378880047835826,camera_2,125,0,0.7219674614500831,0.7588044336501553,8.569158229609974,0.9970453389752191,-0.048122480307900506,-0.03741337475754963,-0.046744607240383575,0.005473992321640253,0.005599195556760623,3543.0159534717677
1684378880054329872,122,1684378880054329872,camera_2,126,0,0.7221893281276595,0.7587659600634841,8.571266930380926,-0.9970041904552462,0.048039389899161275,0.04204995631460915,0.04366534560420893,0.0096251480281353,0.00985226315857423,3539.931369636907
1684378880061046838,123,1684378880061046838,camera_2,127,0,0.7221762133856506,0.7574671933124825,8.570336625614365,0.996940363035205,-0.047823514302068076,-0.04554969261011486,-0.041809682301565176,0.0036300315405242145,0.0037153828087656124,3539.0835320615433
1684378880067728996,124,1684378880067728996,camera_2,128,0,0.7226488470502921,0.7568430051759097,8.57460963847588,0.9969500803692433,-0.04732705985321753,-0.04253284482124463,-0.045184552325116804,0.006436925788875669,0.006593735769561864,3535.838122257962
1684378880074495792,125,1684378880074495792,camera_2,129,0,0.7223138987252516,0.7549346323678043,8.56890606611378,-0.9968754797829854,0.04745382382110093,0.0388636659621448,0.04976974864494859,0.0031696090009063482,0.00324200244054247,3540.203928502161
1684378880081137657,126,1684378880081137657,camera_2,130,0,0.7230254416219846,0.7518580340816978,8.572457386258478,-0.996827739777377,0.0480343185096035,0.0446652565033687,0.04507966633785222,0.00415049964794889,0.004250102882230265,3535.7484160622116
1684378880087860107,127,1684378880087860107,camera_2,131,0,0.7234647762347035,0.7499758403173066,8.575845386425591,-0.9970961486662071,0.04776707774960983,0.04042676752664001,0.04339646374564026,0.00029979617102071643,0.00030719643386936093,3536.5943654709263
1684378880094404458,128,1684378880094404458,camera_2,132,0,0.72348734233721,0.7477737642158733,8.573165593824799,0.9968588836898354,-0.04726226543072048,-0.04705978933607307,-0.04270855303865901,0.0022703951690346003,0.0023255616183557805,3534.2592495464482
1684378880101118564,129,1684378880101118564,camera_2,133,0,0.7245208811166116,0.7438124722353227,8.57918292903834,0.9969516259828017,-0.04741349203651182,-0.03732954055363682,-0.04945625971710397,0.006103548570536077,0.006258802765410492,3531.819468357484
1684378880107682466,130,1684378880107682466,camera_2,134,0,0.7241350227269457,0.7412878139467376,8.571754086901922,0.9967107577642188,-0.047486313098583026,-0.04367500385606318,-0.04904293489946329,0.005522928142454475,0.005654447247365463,3533.7950472751386
1684378880114305973,131,1684378880114305973,camera_2,135,0,0.724918914654096,0.7396276826185703,8.578049751138044,0.9970145775795658,-0.04754410334645926,-0.04119246569741508,-0.04477355358454828,0.003823229344561696,0.003919964799923466,3532.49920584436
1684378880121035337,132,1684378880121035337,camera_2,136,0,0.7249706011498833,0.7357366964576463,8.573504682252176,0.9967879448388497,-0.047247216645633756,-0.04448418816661928,-0.046932404011937136,0.0054153656819835305,0.005547009669828952,3532.406935395208
1684378880127681255,133,1684378880127681255,camera_2,137,0,0.7252006000709006,0.7342926785107998,8.57365932172247,0.9970696801433608,-0.047179080077979385,-0.04162365631788198,-0.043516187523066185,0.005152906582225114,0.005278505634697865,3535.9388772888324
1684378880134226083,134,1684378880134226083,camera_2,138,0,0.7251631977692479,0.7330211412237219,8.571959335677521,0.9969031819042464,-0.04732437035579877,-0.046271555718308356,-0.042466375063379254,0.009950161635060795,0.010191602953759597,3534.4233236497366
1684378880140922784,135,1684378880140922784,camera_2,139,0,0.725292285628348,0.7314989998195498,8.571519040288708,0.997058138261752,-0.04754800352000366,-0.039041190114036686,-0.04571697454720983,0.012349250857369043,0.012643141771695112,3537.982745142187
1684378880147839307,136,1684378880147839307,camera_2,140,0,0.7250428971273163,0.7310412993009452,8.569150429167188,0.9971107702857259,-0.0471036253647728,-0.03851987418215955,-0.04547064493376023,0.01876834168797359,0.019203269272281755,3540.380079150782
1684378880154271125,137,1684378880154271125,camera_2,141,0,0.7251105148303876,0.73121631294911,8.569882484952211,0.9969680675935831,-0.04723884288590925,-0.03892800184924333,-0.04803930259217133,0.01736142004665453,0.017766603475289248,3538.109209197456
1684378880161012649,138,1684378880161012649,camera_2,142,0,0.7254203057212906,0.7331170246596028,8.575512242710504,0.9969576322200878,-0.04720217638447557,-0.03809880671440045,-0.04894808504552518,0.009090725987334736,0.00931513531249881,3533.625767217251
1684378880167838573,139,1684378880167838573,camera_2,143,0,0.724645971950328,0.7333995523998604,8.56732625505881,0.9967063295288376,-0.0475048749425214,-0.046086974168413515,-0.04685904764127939,0.005460687913000584,0.005585958677164034,3536.1799136281475
1684378880174430608,140,1684378880174430608,camera_2,144,0,0.7249590063695689,0.7353385918773725,8.57351868075504,0.9969095542739547,-0.04730832767155777,-0.042482101026709435,-0.04613603605189882,0.0066849495633505285,0.006847485964439948,3534.2131071481863
1684378880180918693,141,1684378880180918693,camera_2,145,0,0.7242017753516341,0.7383085600226198,8.568894489539144,0.9968621271741541,-0.04750142927002463,-0.03851556477684177,-0.050259973070487456,0.0060756459715776145,0.0062153451868757325,3538.627253270708
1684378880187704324,142,1684378880187704324,camera_2,146,0,0.7240867681517954,0.7407171439598178,8.571568830231227,0.9968421746560004,-0.046968436630819815,-0.046353365222105626,-0.04417024247317092,0.0021944899926893413,0.002247116306987169,3534.670133794192
1684378880194541215,143,1684378880194541215,camera_2,147,0,0.7243311923989801,0.7432326704865749,8.57659243101933,-0.9969329478449506,0.04824014041899733,0.03373549265823795,0.05157036831978849,0.005378051078878343,0.0055115180865498,3534.7600069828322
1684378880201149940,144,1684378880201149940,camera_2,148,0,0.7238215149765842,0.7475411458103585,8.576241210995066,0.9972635503953472,-0.047684887811549864,-0.036098586906500967,-0.04345635224706189,0.003457894141320139,0.0035433122769659253,3538.719173582853
1684378880207760334,145,1684378880207760334,camera_2,149,0,0.7231559047510068,0.7490445917780179,8.570945777054076,-0.9969275083570356,0.0477995355721517,0.04533515280029282,0.04237300320597431,0.0013611490139737725,0.0013935106653492613,3537.6853593165297
1684378880214355230,146,1684378880214355230,camera_2,150,0,0.723008527581082,0.7513593158014616,8.572090969416198,-0.9968566982804665,0.04737782331569218,0.04762783341725606,0.04199588593198421,0.005895107053220272,0.0060375365389654665,3535.4147022140664
1684378880221013545,147,1684378880221013545,camera_2,151,0,0.7233033129688385,0.7556170651869818,8.580266990690909,0.9974037097704046,-0.048028109324687596,-0.03296995903932934,-0.042333464916956894,0.004868517455179244,0.004992936947069902,3538.485664842071
1684378880227625846,148,1684378880227625846,camera_2,152,0,0.7223145449951018,0.7561696952834966,8.569535657173141,-0.996930225404679,0.04779928638947618,0.03346467947523992,0.052206025733168626,0.010946517228148878,0.011198480060484697,3541.4687085901373
1684378880234481096,149,1684378880234481096,camera_2,153,0,0.7224561912738452,0.7574569676035466,8.572555326746766,0.99729567948957,-0.04788934160387769,-0.040724389561929406,-0.038071810135484406,0.007310483837500215,0.007485995660703682,3542.3732363225427
1684378880241130352,150,1684378880241130352,camera_2,154,0,0.7226874348833181,0.7592503602479178,8.57630161353591,0.9974183419880595,-0.04783706136849155,-0.0352639869954215,-0.040307788907413586,0.007978704466950148,0.00817529144921389,3541.7736684940746
1684378880247902393,151,1684378880247902393,camera_2,155,0,0.7218461336895655,0.7586447985566623,8.566284438381858,0.9969766863618781,-0.04806378231870682,-0.0418065587371586,-0.04449237380345028,0.004145177023019642,0.004237627023916687,3543.78695457254
1684378880254319667,152,1684378880254319667,camera_2,156,0,0.7222035075968348,0.7588949000502203,8.571051039740762,0.9970799407489941,-0.047779571300204604,-0.045229422162485794,-0.038768591581312024,0.0062352269305847585,0.006383602798910797,3540.2932319736565
1684378880261529922,153,1684378880261529922,camera_2,157,0,0.7229681811136225,0.758238908730007,8.577263316632282,0.9971236438856225,-0.0479228092405701,-0.03355344882988036,-0.04818723098883007,0.007507342612370849,0.007693497959729246,3537.629585494636
1684378880267900705,154,1684378880267900705,camera_2,158,0,0.7228429145949674,0.7569024211672413,8.574133955879082,0.9971765771201607,-0.04808612692069757,-0.03725444678147049,-0.04403072376980893,0.009538879035972059,0.009768967857980154,3540.2798207749142
1684378880274459123,155,1684378880274459123,camera_2,159,0,0.7225530604974609,0.7551481502910469,8.569731692310118,0.996866893342019,-0.047692309436795866,-0.03786346599783938,-0.050479684248687415,0.009421524708159268,0.009638512883596993,3539.6969248289242
1684378880281044483,156,1684378880281044483,camera_2,160,0,0.7231766939457056,0.7518935863304519,8.572093178814836,0.9969226858159546,-0.04799316441903917,-0.04537138666979242,-0.04222856789202103,0.007042732089757919,0.007211949465559819,3537.00428411644
1684378880287651300,157,1684378880287651300,camera_2,161,0,0.7232732054535194,0.7497209509776767,8.57163955047469,0.9968125477483033,-0.047463496527270506,-0.0465687533324479,-0.04408301670716464,0.001041435287334025,0.0010662923384500524,3535.3542517108144
1684378880294252395,158,1684378880294252395,camera_2,162,0,0.7236914398508196,0.7478270739493968,8.573261971279102,0.9971267109623339,-0.04743506443377045,-0.03592036103384296,-0.046882455255678794,0.004333382821641862,0.004437027995775015,3539.452989812824
1684378880301008224,159,1684378880301008224,camera_2,163,0,0.7242040724838846,0.7434767379125966,8.575042982900296,-0.9971028130438944,0.04726060659826212,0.040427104082352054,0.04379571371072288,0.003679669287521392,0.0037702964811906796,3536.409853133838
1684378880307734966,160,1684378880307734966,camera_2,164,0,0.7245264770055548,0.7416294319235307,8.576761171871997,0.9970062707273236,-0.047636679462063146,-0.040942229290209964,-0.045088543566754305,0.004222585586830974,0.004328096824415446,3533.779231137597
1684378880314451217,161,1684378880314451217,camera_2,165,0,0.7247496897134281,0.7395170644387066,8.57769872419028,0.9970656793558667,-0.04842654934073345,0.04923873382858882,0.033021923937456746,0.0035585841978900135,0.003647966475447112,3533.5323578681555
1684378880321055650,162,1684378880321055650,camera_2,166,0,0.7245142205926886,0.7352542637331722,8.569147207902308,0.9965361901723514,-0.04692032539695079,-0.04663401053714942,-0.050392199819423444,0.00817778118653223,0.00836823503687016,3532.3967578936144
1684378880327658176,163,1684378880327658176,camera_2,167,0,0.725188195008622,0.7342795160978657,8.575960267990853,0.9970528461652444,-0.04770296881067249,-0.04365385796415646,-0.04128425129851103,0.004910146875772625,0.00503332591562886,3533.7417981785247
1684378880334447383,164,1684378880334447383,camera_2,168,0,0.7250390835622874,0.7329787626145398,8.573021056849061,0.9971210759954182,-0.04792519266839139,-0.03829443569390144,-0.04456761052965139,0.007092664556694217,0.007263843017513036,3538.012477634007
1684378880341008663,165,1684378880341008663,camera_2,169,0,0.7248289976014255,0.7310547338704028,8.569324966188658,0.9968922009912321,-0.04826154209067942,0.05351575439937232,0.0318249460164899,0.01443356741219759,0.014770532937989213,3537.1589817625936
1684378880347831726,166,1684378880347831726,camera_2,170,0,0.7251408593931903,0.7311063322948431,8.571898521029647,0.9972270144254053,-0.04754057933162951,-0.04079194007595647,-0.04017701633826472,0.02328441613644827,0.023843262707258842,3539.251900990378
1684378880354456663,167,1684378880354456663,camera_2,171,0,0.7248945075453745,0.7310277032655068,8.568916114286136,0.9971622116957524,-0.047082201134082756,-0.04445348243573402,-0.03840153384620754,0.011265539054875262,0.011531486300225137,3539.9776594022987
1684378880361131191,168,1684378880361131191,camera_2,172,0,0.7251480885169619,0.7328113072161625,8.57370494145772,0.9970928839597198,-0.04755205558770838,-0.04368099837400777,-0.040454334098118404,0.007789465205860324,0.007980878861875592,3535.824368852307
1684378880367830753,169,1684378880367830753,camera_2,173,0,0.7249083069484217,0.7337584986354824,8.571831272059217,0.996871780173313,-0.047161305458036325,-0.04423213088575211,-0.0454530940518836,0.010590787860564888,0.010844775682688974,3534.592688959091
1684378880374525547,170,1684378880374525547,camera_2,174,0,0.725194523145633,0.7355786590991582,8.576476606444695,0.9968989245738866,-0.04760665282745249,-0.04472436424233854,-0.043884758551386654,0.006926373054739089,0.007100682713787787,3531.383318363223
1684378880381007909,171,1684378880381007909,camera_2,175,0,0.7247870240998975,0.7391089468728467,8.57668542263804,0.9970301415908231,-0.04778480739191152,-0.04183553234300498,-0.043557974878069367,0.0018710230942815542,0.001917904802242484,3533.7907736466723
1684378880387856483,172,1684378880387856483,camera_2,176,0,0.7240744540119906,0.7407287184196082,8.57050803105076,0.9966915007880802,-0.0474246935939824,-0.047225452238968166,-0.04611623743483262,0.0015575397992506623,0.0015944076325470511,3533.847963309613
1684378880394561767,173,1684378880394561767,camera_2,177,0,0.7246921342106757,0.7435812439672105,8.580634748975143,0.9973894981374654,-0.04738424177397051,-0.03293662413381472,-0.04340623719315992,0.003737168328370899,0.0038334299849356033,3536.522808892651
1684378880401077032,174,1684378880401077032,camera_2,178,0,0.7237542518816851,0.747529225845641,8.573707902381505,-0.9969323249057931,0.04796374146133895,0.029478840438421403,0.05437294390932134,0.0013155106571502984,0.0013472006099101567,3537.9783316266266
1684378880407655954,175,1684378880407655954,camera_2,179,0,0.7237016218278364,0.749631563664187,8.57598050632622,0.9971386230473143,-0.04780665819348708,-0.034111330549259626,-0.047597342235008104,0.00558426562929526,0.005721095940397453,3538.007970134728
1684378880414397239,176,1684378880414397239,camera_2,180,0,0.7229576670553142,0.7513241498766247,8.569869322659233,-0.9968756597997402,0.04765212200124938,0.04611003625152894,0.04291921160148723,0.004374175565317273,0.00447710271007925,3537.9208617237146
1684378880421520948,177,1684378880421520948,camera_2,181,0,0.7226249226637698,0.7548764286450429,8.570273093616953,0.9969751846565755,-0.04797315235280991,-0.04346912221138287,-0.04300573504188741,0.0035181023995392025,0.003600503905714116,3539.772048910498
1684378880428156375,178,1684378880428156375,camera_2,182,0,0.7229283265011128,0.7568766684931277,8.575745011943491,0.9971053958416807,-0.04770241112201198,-0.036191481028253356,-0.046856016236268797,0.0016532675363123417,0.0016936692714299964,3538.034577144775
1684378880434724092,179,1684378880434724092,camera_2,183,0,0.7222454145780431,0.7573117255084252,8.569814697900657,0.99702949988075,-0.04890612555667012,0.05139743290643198,0.029977844172082813,0.0013553726021200418,0.0013867103687942503,3542.9876913729818
1684378880440956115,180,1684378880440956115,camera_2,184,0,0.7226705680107229,0.7592205723288082,8.575270720699423,0.9972503134505624,-0.0482712942676746,-0.041440369717191096,-0.038005134260795936,0.004645791370421648,0.004760431494641171,3539.802740965504
1684378880447830200,181,1684378880447830200,camera_2,185,0,0.7221928535266081,0.7590338219932768,8.570481685228948,0.997139131066846,-0.04850946063411872,-0.04005432491261565,-0.04190509014471584,0.0033171309623867273,0.003394557582245238,3542.849962186301
1684378880454327583,182,1684378880454327583,camera_2,186,0,0.7223717324227132,0.7589802918031467,8.571767491098232,0.9971725374314213,-0.04794601920902774,-0.04078787123038504,-0.04104216606225613,0.007343299163039774,0.007517025372295409,3541.7034370098263
1684378880461227178,183,1684378880461227178,camera_2,187,0,0.7226793183627386,0.7580359668202149,8.57430925050065,-0.9970763569149286,0.04820311577234051,0.03743828216442639,0.045973613515465285,0.004878316423855722,0.004996149997006108,3539.065990367556
1684378880467575311,184,1684378880467575311,camera_2,188,0,0.7225342825845388,0.7566734609654047,8.571892550768444,0.9969937364626522,-0.04731490015039287,-0.04257546900945511,-0.04418279208722578,0.008871216501574963,0.009081565766207523,3538.5798806401435
1684378880474317550,185,1684378880474317550,camera_2,189,0,0.7225368665334747,0.7551723227692557,8.569964935209022,0.9969594842643648,-0.04759167126893254,-0.03708726119077376,-0.04930876817087502,0.004504268756136298,0.0046082345068101434,3540.71514830494
1684378880480931043,186,1684378880480931043,camera_2,190,0,0.7230977264228411,0.7519268943006207,8.572588630747758,-0.996956230169323,0.04727461140370917,0.044441962230964,0.043223815614332015,0.004626410896889865,0.004737968024510832,3536.77757412591
1684378880487672328,187,1684378880487672328,camera_2,191,0,0.7235555646959879,0.7500375475907193,8.575654209727286,0.996920675556748,-0.04770259110659245,-0.045101836154186975,-0.04288885431805701,0.001597628288436681,0.001637311257150346,3533.754599409527
1684378880494210243,188,1684378880494210243,camera_2,192,0,0.7244354175062138,0.7485791016019872,8.582935155250016,0.9973295959419836,-0.047506154970797604,-0.03451101633008739,-0.04342616780185606,0.00785957690095529,0.008066040776920538,3534.175295380991
1684378880500783920,189,1684378880500783920,camera_2,193,0,0.7239989332905616,0.74320132141404,8.57249717597136,-0.9968176692661609,0.04753791455079485,0.04153459703847934,0.0486781076849873,0.005526408436708152,0.005658751580004205,3535.0599781818464
1684378880507647752,190,1684378880507647752,camera_2,194,0,0.7239979727786613,0.7409918207543198,8.570540225280808,0.9968673243744298,-0.04804556975739863,-0.041789032998920714,-0.046913084979219075,0.007523621607106179,0.00769990289610608,3537.329083238495
1684378880514180660,191,1684378880514180660,camera_2,195,0,0.7242267782528466,0.7388808478664504,8.571006742963329,0.9968061834008246,-0.04747353896346763,-0.04805904788579283,-0.04259135767355715,0.0006978902383707464,0.0007146429939986085,3534.4696424448625
1684378880520987749,192,1684378880520987749,camera_2,196,0,0.7249244911619481,0.735514831017123,8.57362079492264,0.9967350346535591,-0.0476515216495394,-0.04626781177884345,-0.04591179338524493,0.00555579032516107,0.005691800249874261,3531.553470733108
1684378880527904033,193,1684378880527904033,camera_2,197,0,0.7244472790928761,0.7334722723712181,8.566872884451792,0.996728624365131,-0.04725948587607703,-0.05041551416582795,-0.041914988933768285,0.0015068550128489733,0.0015419126413744315,3535.804215217475
1684378880534334659,194,1684378880534334659,camera_2,198,0,0.7254688238786875,0.7332074196683295,8.57790199509187,0.9969651341494443,-0.04764045487313882,-0.04026728273876989,-0.046577401072806,0.012138858684920706,0.012446248831682574,3531.612804857432
1684378880541413545,195,1684378880541413545,camera_2,199,0,0.7253259457775505,0.731506773412915,8.574416195104927,0.9970959134801677,-0.04738003991788331,-0.04279764193571914,-0.041511841482543686,0.011764625902287662,0.012055327843784899,3535.209059502113
1684378880547903299,196,1684378880547903299,camera_2,200,0,0.7250122977503611,0.730984351395404,8.570872225788413,0.9971278395747244,-0.04770870917426028,-0.03551872586927045,-0.046886786268544804,0.00943350454326719,0.009655846774838498,3540.0517296415055
1684378880554599761,197,1684378880554599761,camera_2,201,0,0.7253222692866156,0.7315095976838741,8.574913579376867,0.9971594169882003,-0.04742770628918495,-0.041596525993584925,-0.041151413258407495,0.011573437208426185,0.01186051805775184,3535.799274813617
1684378880561169862,198,1684378880561169862,camera_2,202,0,0.7256685951411078,0.7333113945649408,8.580348380334945,0.9971208991981582,-0.047318262148111606,-0.039752417504698226,-0.043939045871199005,0.006432185196899809,0.006598977426339713,3531.329550247523
1684378880567578315,199,1684378880567578315,camera_2,203,0,0.7246877577408537,0.7335118029722776,8.570411075016464,0.9968591935388941,-0.047347498229143074,-0.03924593746816599,-0.04989708469111203,0.008859322930220515,0.009067104421923034,3536.65460856934
1684378880574827194,200,1684378880574827194,camera_2,204,0,0.724294001040556,0.7346356022099513,8.56731234402967,0.9967273867507519,-0.04725831480663062,-0.04838511500207409,-0.04427243870502907,0.007871651323512197,0.008053664720282626,3535.988908168046
1684378880581012964,201,1684378880581012964,camera_2,205,0,0.7244619960737023,0.7386825494254993,8.573383326720709,0.9968895701629091,-0.04698083424083527,-0.03832273234259278,-0.05035230183659266,0.010147249500732869,0.010391323460683628,3534.9972996471906
1684378880587574958,202,1684378880587574958,camera_2,206,0,0.7237097629534285,0.7404411423599881,8.56850045790257,0.9968323914457135,-0.048609073098929194,0.054778469006268565,0.03101065478851297,0.0004681374994106591,0.000478925179666131,3538.8960085121216
1684378880594471454,203,1684378880594471454,camera_2,207,0,0.7246613760003818,0.7436466968947271,8.580954241186495,0.996956103715204,-0.047627286839956116,-0.036830321048485014,-0.04953479852315097,0.0019410367822274566,0.001991131837875802,3530.6038665848314
1684378880601193904,204,1684378880601193904,camera_2,208,0,0.7238427892508519,0.747743510608815,8.576008202077873,0.9973663480606026,-0.04746440064112738,-0.035274102447551595,-0.041990905260010335,0.001996063918340951,0.0020452228253877744,3540.156691694632
1684378880607539892,205,1684378880607539892,camera_2,209,0,0.7229381184893595,0.7489962321880544,8.567301779890233,-0.996601378611016,0.047921494511782264,0.05392900256196611,0.039760347043895576,0.001042902295012027,0.0010673923688364374,3535.151599489617
1684378880614504814,206,1684378880614504814,camera_2,210,0,0.7232007224409573,0.7516879959431232,8.573008996047783,-0.9969077571457384,0.0479587083250592,0.04376878931458459,0.04426261538116546,0.00931277422932908,0.00953789655048614,3536.3363625155766
1684378880621001005,207,1684378880621001005,camera_2,211,0,0.7231220571906571,0.7554597085342472,8.575759852032478,-0.99715861522667,0.04790102587264075,0.03371146445773625,0.04736797402985552,0.003960411762818694,0.004057372551953293,3539.048097195222
1684378880627812385,208,1684378880627812385,camera_2,212,0,0.723224154145053,0.7572474358229029,8.57871146864405,0.99714116885495,-0.04767845572720256,-0.025938420511154987,-0.05256855120164443,0.004204093827866018,0.004310204480971627,3537.4843954939856
1684378880634354829,209,1684378880634354829,camera_2,213,0,0.7225178167371749,0.7576898634232703,8.57081249767397,0.9969519588009779,-0.0480897757884598,-0.040136152689277886,-0.04651080041035552,0.002674165240023285,0.0027365049535509334,3539.9094957900224
1684378880641012907,210,1684378880641012907,camera_2,214,0,0.7227763032602478,0.7595197109704498,8.575557800558919,-0.9972894881280036,0.04773562615516188,0.038624332975791334,0.04053575911629826,0.0039164149784483016,0.0040126625588401185,3540.2336941922554
1684378880647646903,211,1684378880647646903,camera_2,215,0,0.7223005660775602,0.7592316367498102,8.569667300142367,0.9971062065906179,-0.047308097335311765,-0.03918872961955394,-0.044781694650674914,0.0025962055660784245,0.002656047993466974,3542.559345222311
1684378880654555320,212,1684378880654555320,camera_2,216,0,0.7219463867755243,0.7586692695304096,8.56527607468119,0.9970071005685965,-0.04789370906463471,-0.04552391257963555,-0.04013237385546023,0.0012678224011324346,0.0012961536275118432,3544.205770344939
1684378880661072492,213,1684378880661072492,camera_2,217,0,0.7226793443303503,0.7579740234466934,8.571985519191,0.9971026595855396,-0.047678619271203565,-0.04058858075710826,-0.04319262233251518,0.005163355730473995,0.0052856945870258095,3540.4520135538187
1684378880667849779,214,1684378880667849779,camera_2,218,0,0.7230612794835628,0.7571773998688909,8.575762130526856,0.9973307008761365,-0.04787630718545701,-0.036249276998139277,-0.04153699817404187,0.012316553911659867,0.01261898557024237,3540.8272275984036
1684378880674303770,215,1684378880674303770,camera_2,219,0,0.7226442688469294,0.7552896400910749,8.569492559095009,0.9968613870639328,-0.04796376202586567,-0.04235283958901416,-0.0466164079702141,0.0022750652278773487,0.0023276151199844927,3539.256673182709
1684378880681114196,216,1684378880681114196,camera_2,220,0,0.723465187119847,0.7521841829420867,8.574844168060846,0.9969188473739904,-0.047609064262906516,-0.04528136155038887,-0.04284608554661416,0.006711903028190136,0.006877450702717294,3534.481403457118
1684378880687771797,217,1684378880687771797,camera_2,221,0,0.7238860349178514,0.7502453160119911,8.577698022670157,0.997120797968744,-0.04763754764835314,-0.03836395086383283,-0.04482170887353369,0.008637077058665454,0.008853864372602856,3535.6080930875623
1684378880694410562,218,1684378880694410562,camera_2,222,0,0.723467381869596,0.7475211078098934,8.57081172149297,0.9970200285937615,-0.04737834569677953,-0.0329182229738678,-0.05121274780925453,0.004151535336859524,0.004248447880673551,3540.61490994657
1684378880701091527,219,1684378880701091527,camera_2,223,0,0.7240843203172436,0.7432351685406613,8.573173752078487,0.9968116457501417,-0.04730488218030334,-0.04281304440555179,-0.04791486457801733,0.006211245141457766,0.006360999693664123,3534.0582379262214
1684378880707682371,220,1684378880707682371,camera_2,224,0,0.7245008063393166,0.7415591726919111,8.577045884361137,0.9969329509732575,-0.047912361718732206,-0.04101707211385298,-0.04633245788313983,0.004047918308060616,0.004149269269163626,3532.819715735968
1684378880714211940,221,1684378880714211940,camera_2,225,0,0.7251285975346342,0.7397092306586408,8.581555119504504,0.9970366464590791,-0.04779890849869173,-0.03382211964995317,-0.049892426142162466,0.006519017857499421,0.006688382790250349,3531.2853362294845
1684378880721041917,222,1684378880721041917,camera_2,226,0,0.7249377807176185,0.7355674460018824,8.575251250516526,0.9969247460714711,-0.04756606990497002,-0.04740721994706869,-0.04038657154325841,0.003278589923866093,0.003361048008158746,3532.1411022285465
1684378880727680683,223,1684378880727680683,camera_2,227,0,0.7247868232837253,0.7337739029790924,8.572318954472593,0.9968248365457321,-0.047068942134777296,-0.0398281882633335,-0.05038328444581819,0.0022316265967674553,0.0022849087515099138,3534.4328690231782
1684378880734351396,224,1684378880734351396,camera_2,228,0,0.7254186843687663,0.7331977739161312,8.578674205548591,0.9970949318455207,-0.047773888019170416,-0.03814901984103673,-0.04543131955684789,0.008917284620110877,0.009144391971009334,3532.9758195558106
1684378880741052865,225,1684378880741052865,camera_2,229,0,0.7248532739057616,0.7309630141443122,8.569720821534114,0.9969773118155766,-0.04704526747770582,-0.04216855269299382,-0.045219417253168234,0.017141821212135255,0.017544568113013838,3537.6441243230365
1684378880747596502,226,1684378880747596502,camera_2,230,0,0.724820695583738,0.7308045604212722,8.569272976292769,0.9968347119045435,-0.04739379337300951,-0.03822790438046413,-0.051117637059827324,0.014720491832122207,0.01506224431227866,3537.241019929295
1684378880754504203,227,1684378880754504203,camera_2,231,0,0.7251950126626269,0.7312925577787056,8.573630661364781,0.9970731563160518,-0.047314750904576375,-0.04183557786139338,-0.04308386851000664,0.011238429942750372,0.011513376939200076,3535.7491350250793
1684378880761214256,228,1684378880761214256,camera_2,232,0,0.7250461981400191,0.7327040432910105,8.574050387591685,0.9969458594101752,-0.047808686119979495,-0.04179037412739953,-0.045462595247966545,0.007196463775471784,0.0073723829277886396,3534.369668952422
1684378880767787456,229,1684378880767787456,camera_2,233,0,0.7247174332539664,0.7335838008422311,8.570156482855243,-0.9967239867286464,0.04720561684617325,0.04854122548709461,0.04423430169152101,0.006258602894376964,0.006408229199548051,3533.3991122189923
1684378880774435281,230,1684378880774435281,camera_2,234,0,0.7242812983555422,0.7346572950319477,8.567533233136125,0.9967372967052894,-0.047330006873375956,-0.04695584200059462,-0.04549484265291304,0.004424237122293562,0.004526280422910513,3536.266786872874
1684378880781293630,231,1684378880781293630,camera_2,235,0,0.7247219576652644,0.7390325428992399,8.576509023670638,0.996961704058412,-0.0475428971350706,-0.04319257060775117,-0.04406172281295672,0.009155450738035142,0.009384905173355282,3532.728486181122
