%time,field.header.seq,field.header.stamp,field.header.frame_id,field.image_seq,field.transforms0.fiducial_id,field.transforms0.transform.translation.x,field.transforms0.transform.translation.y,field.transforms0.transform.translation.z,field.transforms0.transform.rotation.x,field.transforms0.transform.rotation.y,field.transforms0.transform.rotation.z,field.transforms0.transform.rotation.w,field.transforms0.image_error,field.transforms0.object_error,field.transforms0.fiducial_area
1684726120014768600,18,1684726120014768600,camera_2,20,0,0.5522430399279308,-0.16212078092992024,1.4207508276469043,-0.9797551531250653,0.029663636771593237,0.19109791767198933,-0.05178314822210426,0.001776855206117034,0.0009355712712678932,7063.108045120724
1684726120021389245,19,1684726120021389245,camera_2,21,0,0.5521955327636301,-0.1619376855042603,1.4206332889134388,0.9797505279751647,-0.02901713475217065,-0.19195963396729823,0.04897354132897799,0.004324655106756836,0.0022743988294836007,7063.3542341918255
1684726120027942657,20,1684726120027942657,camera_2,22,0,0.5521360995398746,-0.16179355588468206,1.4205077203353351,-0.9796640080005635,0.029555000280066374,0.19170119953355513,-0.051337934162891334,0.0033804064732976258,0.0017793496968801566,7062.787701989991
1684726120034684658,21,1684726120034684658,camera_2,23,0,0.5522670331744415,-0.16167892376465998,1.4208433254188586,-0.9798904937705358,0.029150189836782147,0.19075113559585505,-0.050782781722812115,0.0061342898989096275,0.003227924304192714,7065.609084256456
1684726120041393518,22,1684726120041393518,camera_2,24,0,0.5524570327963602,-0.16171334366395793,1.4213395010130803,-0.9798927384609539,0.029200858828031313,0.1906192165620891,-0.05120395719525454,0.005864631966687739,0.0030886093587191485,7060.834645098074
1684726120048012018,23,1684726120048012018,camera_2,25,0,0.5521525443535511,-0.16163874887035576,1.4205627901543931,-0.9797899279048423,0.02931276835073488,0.19114161676991911,-0.051159956278531704,0.0032298093428835273,0.0016995268409683145,7065.6673807622865
1684726120054835081,24,1684726120054835081,camera_2,26,0,0.5525025445972309,-0.16186967976059294,1.421540866648852,-0.9800785970233175,0.029514928544516986,0.18967723296134922,-0.05096430070101722,0.0037610861472785473,0.0019801993256889595,7064.585664988494
1684726120061513423,25,1684726120061513423,camera_2,27,0,0.5520822483593841,-0.16187041199294794,1.4204563331442304,-0.9797652264535718,0.028916043570696555,0.19186275634735978,-0.04911869484618361,0.005602891847956926,0.002945917887487298,7065.603834597625
1684726120068034648,26,1684726120068034648,camera_2,28,0,0.5516754772282723,-0.16190559819771644,1.4194460902662969,-0.9794569357173573,0.029444839637950283,0.19306669971556353,-0.05022312171500916,0.0024037580005824566,0.0012635578122506582,7067.2977862749285
1684726120074800014,27,1684726120074800014,camera_2,29,0,0.5522010786783225,-0.1624503454521093,1.4208656043460195,-0.9797852756357304,0.029408201507802583,0.19140602212745,-0.05019667344394932,0.003427137911785394,0.0018036474027139395,7062.776614128848
1684726120081499338,28,1684726120081499338,camera_2,30,0,0.5519607002603968,-0.16259460794605712,1.4202565321780596,-0.9795420090745253,0.03000458847491753,0.19239876442876197,-0.05079264292177896,0.005255882220808417,0.0027661091386628326,7062.3461252422985
1684726120088110923,29,1684726120088110923,camera_2,31,0,0.5519249858749364,-0.16287078535678887,1.420208047430862,-0.9795865779587823,0.02961868874742616,0.19251944591246012,-0.04969036632431676,0.005584971106145531,0.0029376898267136848,7063.748267328132
1684726120094706535,30,1684726120094706535,camera_2,32,0,0.5522235724828082,-0.1635770077662769,1.421025763996734,-0.9798821338229118,0.029505338603953886,0.19088162253513805,-0.05024584546881695,0.004985223815310746,0.0026239756794470253,7064.161107451654
1684726120101458787,31,1684726120101458787,camera_2,33,0,0.5521344814081383,-0.16390771978573299,1.4208251775233276,-0.9796842629442769,0.029092817257587496,0.19223296997541445,-0.04918168538975579,0.005758144543506205,0.003030465422185383,7059.992895820178
1684726120108107089,32,1684726120108107089,camera_2,34,0,0.5522815896898812,-0.16430926872257995,1.421236966064903,-0.9799843248832787,0.029687677143378277,0.1902465640707214,-0.050553038169627904,0.006011039309669286,0.0031646412119974926,7065.197169930676
1684726120114932537,33,1684726120114932537,camera_2,35,0,0.5524058985287519,-0.16518105796107777,1.4216364573236973,-0.9800106592656176,0.02966696392395044,0.19033463383965576,-0.04971625627930073,0.00246755761327222,0.0012994667729135222,7061.884095686955
1684726120121493816,34,1684726120121493816,camera_2,36,0,0.5519899474523614,-0.16550734195368824,1.4206061092804168,-0.9797780452688288,0.02965946867477275,0.19126841168319034,-0.050711858764123936,0.002931592403911054,0.001543159869539297,7065.378782821586
1684726120128027915,35,1684726120128027915,camera_2,37,0,0.5523067901219266,-0.16607159649784678,1.4214446703941717,0.9799944231730853,-0.029178595152891004,-0.1905997736723454,0.049307873718163545,0.001837097865063697,0.0009672074361788714,7062.7406132631
1684726120134715080,36,1684726120134715080,camera_2,38,0,0.5522054871959989,-0.1670204718808856,1.4212468483322602,-0.9799299001248616,0.029543734090018557,0.1905131678594918,-0.05068817899114188,0.004021021071821451,0.0021181190144998513,7062.985198178794
1684726120141657114,37,1684726120141657114,camera_2,39,0,0.5526610278496193,-0.1676309349196471,1.4224259236531944,0.9801081161519573,-0.029584660324572343,-0.18976760685063118,0.05001083799263269,0.0011007017455995083,0.0005803958133900631,7056.279319752707
1684726120148105621,38,1684726120148105621,camera_2,40,0,0.5525375935561553,-0.16811502373506987,1.4221633533641516,0.980067981286285,-0.029493883050107125,-0.18982655543367677,0.05062352982791659,0.002214835025370121,0.0011679022919258088,7057.528548415052
1684726120154897689,39,1684726120154897689,camera_2,41,0,0.5523875625974333,-0.16911681592068903,1.4218405328306736,-0.9800046012105218,0.029735995331452846,0.18996345491792666,-0.05119216720846128,0.0037346982862800364,0.0019694969376332075,7058.699195969617
1684726120161491155,40,1684726120161491155,camera_2,42,0,0.5518919774885428,-0.16954142522701254,1.4205863842910473,0.9797153517934262,-0.029869012126284972,-0.1913910737522323,0.05133350234350372,0.001461336389183998,0.0007699587552138425,7062.5995058258995
1684726120168108701,41,1684726120168108701,camera_2,43,0,0.5521049607119185,-0.17011997215088095,1.4211778805089796,-0.9797887427329004,0.029699530425944216,0.19102644946425934,-0.05138923147352481,0.0028259126120246947,0.0014900502383541614,7058.461650137785
1684726120174859523,42,1684726120174859523,camera_2,44,0,0.5523134855663545,-0.17129259436173436,1.4217920344025248,-0.9800314461074952,0.029710888273328354,0.190079440473974,-0.050253697053676424,0.00394446641439572,0.00207986668704448,7058.784573288631
1684726120181576728,43,1684726120181576728,camera_2,45,0,0.5521246027981204,-0.17172417450244254,1.421306976820927,-0.9797703941198942,0.029864439629890764,0.19099731483244442,-0.051750514765904955,0.0031472377595491707,0.001660524867320456,7055.817423103146
1684726120188125371,44,1684726120188125371,camera_2,46,0,0.5518212355211761,-0.17219764100212384,1.420575357578945,-0.9797028141126672,0.029700066398241763,0.19156697018681176,-0.05101370413041749,0.003276763018220663,0.0017270970406292512,7060.624533059305
1684726120194703817,45,1684726120194703817,camera_2,47,0,0.5516625899918423,-0.1731627425328384,1.4202202217637239,-0.9796574031408285,0.029693710965565206,0.19187988326210015,-0.05071258620682445,0.005259378696791828,0.0027712500158258947,7062.0793531180825
1684726120201279163,46,1684726120201279163,camera_2,48,0,0.5520041849166497,-0.1737939665513219,1.4211297842430999,-0.980036403519435,0.02978151351756408,0.18974484091895663,-0.051367349298308884,0.004811545892152935,0.00253683581080206,7063.671812622111
1684726120208029747,47,1684726120208029747,camera_2,49,0,0.5519765485983175,-0.17422117987911398,1.4210981033288501,-0.9798174803608841,0.02974089618484416,0.19098796990347036,-0.05095860698176383,0.006396503071300685,0.0033740639474779104,7057.28390030097
1684726120214656352,48,1684726120214656352,camera_2,50,0,0.5519603503483138,-0.17514882662554618,1.4211155897649916,-0.9798672259267112,0.03007549276193256,0.1906999609913544,-0.05088427230210229,0.0053687228937633336,0.002832022033345987,7058.036262990447
1684726120221300840,49,1684726120221300840,camera_2,51,0,0.5516926751619223,-0.17551202594522483,1.42046864641762,-0.9797215516347595,0.030107595006651926,0.19113951179967614,-0.05200866287721881,0.00824999768519774,0.00435176362067035,7059.825967257611
1684726120227951765,50,1684726120227951765,camera_2,52,0,0.5518666175509065,-0.17599669148428398,1.420945162275445,-0.9798743942489684,0.030106180743310035,0.19046174729188606,-0.051615038455765955,0.00853242730954662,0.004501686778375664,7059.126079539537
1684726120234646558,51,1684726120234646558,camera_2,53,0,0.5519336965232741,-0.17677302107082993,1.4211562412267933,-0.979866633127208,0.030207822957678154,0.19030570590740217,-0.052274343756687734,0.007969913131091744,0.004207859674514984,7056.082814109975
1684726120241510868,52,1684726120241510868,camera_2,54,0,0.5516024399542058,-0.17697599326737257,1.4203128748102374,-0.979832409353815,0.03034069054410966,0.19061650020565635,-0.051703403432961904,0.010323140362743288,0.005443567771280145,7063.2808658315325
1684726120248085021,53,1684726120248085021,camera_2,55,0,0.5513120490983889,-0.17720673364888978,1.4195980431200714,-0.9796168500901374,0.02993900671755866,0.19173958537634356,-0.05186920373353539,0.009481256653089076,0.004998076111473778,7063.427668626418
1684726120254795551,54,1684726120254795551,camera_2,56,0,0.5513456955619981,-0.1777573365553835,1.4196974234172135,-0.979748451498024,0.03015604475815098,0.19128310641902874,-0.05093484024177633,0.006585397757589817,0.0034699804357522335,7065.884314199678
1684726120261853694,55,1684726120261853694,camera_2,57,0,0.5513997047278973,-0.17800354216696707,1.4198240483010462,-0.97958274791319,0.030323394610008797,0.19213866152074366,-0.05080222907694535,0.006227959704119712,0.003283660955322552,7059.676097847988
1684726120268522977,56,1684726120268522977,camera_2,58,0,0.5518107676460302,-0.17831777200180143,1.4208856153791232,-0.9798289287384884,0.02984437430571721,0.1907309958908667,-0.051635946161221996,0.00917267391923815,0.004842048517242358,7055.559558385516
1684726120274945974,57,1684726120274945974,camera_2,59,0,0.5517680398632709,-0.1785916484434944,1.4208013070717098,-0.9797960786840152,0.030511002930238035,0.19054222235771998,-0.05255839033493502,0.004301210923586041,0.0022712806977062427,7055.658839161743
1684726120281579017,58,1684726120281579017,camera_2,60,0,0.5516816291880108,-0.17865825969860252,1.420579030905724,-0.9796992834876951,0.03003951189274571,0.1912045489352831,-0.052227982206833924,0.0074817686108872294,0.003950250159532815,7054.531590581173
1684726120288005113,59,1684726120288005113,camera_2,61,0,0.5513425902514432,-0.17861625277018117,1.4196918502795774,-0.9795054452310523,0.030051903680973126,0.19214882813572698,-0.05239077871089828,0.004676522221416235,0.002467486773871605,7057.61199714686
1684726120294922828,60,1684726120294922828,camera_2,62,0,0.5516647124078327,-0.1787355725903624,1.4205149221506634,-0.9797346047534687,0.0300211499607054,0.19087973003444547,-0.05276138233195294,0.005028935382142663,0.002655263582535301,7056.002635362091
1684726120301513671,61,1684726120301513671,camera_2,63,0,0.5516506569458353,-0.17868918684477797,1.420484445051093,-0.9796561615410778,0.030030273426430925,0.19153603490533094,-0.051826008579473976,0.009013558737933636,0.004758305556700645,7054.177912659474
1684726120308372974,62,1684726120308372974,camera_2,64,0,0.55173692048662,-0.17864550496893786,1.420667296252127,-0.9798166785417323,0.030105479107397495,0.19023362849417222,-0.05351731653495989,0.0042487907339818776,0.0022438962694634186,7056.9806562797185
1684726120314762830,63,1684726120314762830,camera_2,65,0,0.5512587411656109,-0.17826029060528456,1.4193991746347119,-0.979565471131727,0.030074202486835448,0.19180646580668628,-0.052510092230038864,0.003107210446614772,0.0016384952729456286,7062.589993409578
1684726120321301460,64,1684726120321301460,camera_2,66,0,0.5516619707682014,-0.17820127868100666,1.4204191127383552,-0.9796671014506069,0.029826985071922135,0.19124255013235156,-0.052811062437341176,0.0038605716545134783,0.0020382886827421893,7055.376147828762
1684726120328050851,65,1684726120328050851,camera_2,67,0,0.5517481855653945,-0.1780134209358274,1.420621856572525,-0.9797801945720257,0.03012773024843591,0.19068642846504086,-0.05255260406229357,0.008314054983202368,0.004388997929381641,7057.174898364115
1684726120334635496,66,1684726120334635496,camera_2,68,0,0.5516654206488664,-0.17747914698041564,1.4203188675339011,-0.9797100201045672,0.030079633144409257,0.19091859389954877,-0.05304321521199077,0.005183120141737163,0.002735723965370229,7058.566918733995
1684726120341466903,67,1684726120341466903,camera_2,69,0,0.5519266688100574,-0.1772709976130592,1.4210021153230568,-0.9799083116740077,0.02972431024953096,0.19031401732388448,-0.05173722936561097,0.002903463551774621,0.0015323324455068013,7057.649925999338
1684726120348086595,68,1684726120348086595,camera_2,70,0,0.5515922148749719,-0.17684132236789252,1.420105080459642,-0.9796503345821927,0.030283333213289635,0.19133324114426803,-0.052533156346446404,0.006401667487807572,0.003377361840044106,7059.860098027622
1684726120354863405,69,1684726120354863405,camera_2,71,0,0.5521065840136418,-0.1762910550086688,1.421354310670247,-0.9798175710340469,0.029904901706870372,0.19073222219605737,-0.05181161803106558,0.004320426378399134,0.0022814421029778956,7052.706405008209
1684726120361543893,70,1684726120361543893,camera_2,72,0,0.5518804665003577,-0.17579812049582388,1.4207531661574146,-0.979699102512105,0.030015628972734347,0.19135640764896075,-0.0516861277910424,0.003734534257091582,0.0019707448603883495,7055.766545218881
1684726120368166685,71,1684726120368166685,camera_2,73,0,0.5519895797812024,-0.1754065420909397,1.4209989600267956,-0.9796525021273833,0.029817372596145204,0.19145517773999599,-0.05231457047101339,0.00751017133006826,0.003965670901103029,7052.174070995528
1684726120374819040,72,1684726120374819040,camera_2,74,0,0.5516642361490076,-0.17437569023995758,1.4200704178524908,-0.9794645881651195,0.030265057889871307,0.19219133472893274,-0.05287378988276637,0.004180515476036817,0.0022057255941960795,7057.119391333308
1684726120381428718,73,1684726120381428718,camera_2,75,0,0.5521909836414138,-0.17408921282554882,1.421371588309469,-0.9799004270226293,0.030024945272991956,0.18995542747165203,-0.053015010669477614,0.004807231132872403,0.002538061159229892,7056.96680134628
1684726120388126611,74,1684726120388126611,camera_2,76,0,0.5520707005885186,-0.173537037488313,1.4210191895800808,-0.9797524160065599,0.030318225807068985,0.19103684822996383,-0.05168105195893414,0.0020919241942465305,0.0011037068173096244,7056.878561323515
1684726120394896984,75,1684726120394896984,camera_2,77,0,0.5523008264583041,-0.17258355564710767,1.421554437324256,-0.979913406835823,0.0301469204437738,0.19010293615739077,-0.05217041264458967,0.01125771226361394,0.005941688000283121,7056.867057251744
1684726120401298999,76,1684726120401298999,camera_2,78,0,0.5523683148096167,-0.17204744701791153,1.4216813808892148,-0.9798249607027565,0.030329532965888223,0.19051456660074764,-0.05222418718220771,0.00810908997664228,0.004281287171948756,7053.576401758242
1684726120407906532,77,1684726120407906532,camera_2,79,0,0.5520516320902852,-0.17146431743770174,1.4208503344961279,-0.9799052582161354,0.02971023038658967,0.190118333378382,-0.05251672537555332,0.01329472364159301,0.0070096890110938545,7063.937710212544
1684726120414644241,78,1684726120414644241,camera_2,80,0,0.5522333957324921,-0.17040646703871049,1.421207871255507,-0.9798335993750569,0.030001532109959064,0.19049726237703682,-0.05231461204702021,0.007986879907548428,0.004212908304146633,7059.1853215447645
1684726120421310186,79,1684726120421310186,camera_2,81,0,0.5522414719021614,-0.16987920023548464,1.4211776190551415,-0.9798997809200399,0.03036777685142043,0.19009625569913155,-0.052322376199199494,0.00464645551983267,0.0024501483582331303,7061.984491997629
1684726120428020477,80,1684726120428020477,camera_2,82,0,0.5519565631425919,-0.16921557432467835,1.4204465662588035,-0.9797649245152564,0.029756600231351744,0.19073021833658935,-0.05288876294225824,0.006580003187991678,0.0034677996760343567,7065.144458688099
1684726120434695482,81,1684726120434695482,camera_2,83,0,0.5521499331512035,-0.16820396592101883,1.4208651929781606,-0.979775216830951,0.0297699514677607,0.1908224702482975,-0.05235512698683673,0.006294337334111333,0.003317943469497672,7061.731945105591
1684726120441306352,82,1684726120441306352,camera_2,84,0,0.552342483590752,-0.16774969282481264,1.4213151005326807,-0.9798963014281052,0.029737877054646467,0.19034726388105133,-0.05183450828164634,0.006278104498051107,0.003309582617242255,7060.899429368552
1684726120447921514,83,1684726120447921514,camera_2,85,0,0.5523607382046442,-0.1672591967773731,1.4213356149412872,-0.9799439486804518,0.02978876003065831,0.1900960886295976,-0.05182628973916632,0.004112135386094451,0.002167372567673552,7062.2928058828675
1684726120454630374,84,1684726120454630374,camera_2,86,0,0.5521580486374743,-0.1662057220491727,1.420741615757886,-0.9795614011893217,0.029650220806605378,0.19200422326279631,-0.052102820992561166,0.005344306351616979,0.0028171692575155428,7057.24317450635
1684726120461642980,85,1684726120461642980,camera_2,87,0,0.55242073789182,-0.16577882337427796,1.421388983689032,-0.979689391812209,0.029535133815213017,0.19134524501729405,-0.05218590471011479,0.004735654569230973,0.0024976644448640984,7054.548786771948
1684726120468178749,86,1684726120468178749,camera_2,88,0,0.5521648740561635,-0.16526221808842811,1.4206967650258333,-0.9795643745842504,0.029823634694464213,0.1917135744903454,-0.053010302914740466,0.0017055812058970332,0.0008991689682051137,7058.155276862205
1684726120474878787,87,1684726120474878787,camera_2,89,0,0.5524638188413311,-0.1644927197644771,1.4214155164382793,-0.9798545857792856,0.02958528933393821,0.19044676486806447,-0.05234244103612343,0.002466507605277002,0.0013002096281810825,7059.304216681051
1684726120481469631,88,1684726120481469631,camera_2,90,0,0.5518981199916556,-0.16396308924349753,1.4199397031922705,-0.9794643017647372,0.029537864471342566,0.1928213485935185,-0.05096198247287266,0.004532153543550521,0.002385276848107243,7062.546913022872
1684726120488229036,89,1684726120488229036,camera_2,91,0,0.5522262659706264,-0.16366478347240573,1.4207434894767064,-0.9797153801110301,0.02948884048596557,0.19139644571715994,-0.05153234739007557,0.002267175237648189,0.0011939809484512798,7061.831113142428
1684726120494858026,90,1684726120494858026,camera_2,92,0,0.5521741449971579,-0.1630178475881952,1.4205845346979475,-0.979583758098711,0.029508700160138457,0.19183768109355026,-0.052375582065640205,0.001826107152737677,0.0009620198320903457,7059.696800833797
1684726120501454114,91,1684726120501454114,camera_2,93,0,0.5523206187019797,-0.162762386856979,1.4209670573670945,-0.9795994744160665,0.0297524765813663,0.19184611831683598,-0.05191075753448751,0.0032864860841073096,0.0017318785861614298,7056.554599469759
1684726120508204221,92,1684726120508204221,camera_2,94,0,0.5519090888531515,-0.16241940515959413,1.4198846267157696,-0.979564304586602,0.02910133398644848,0.19250784098949045,-0.05047392096460458,0.003571115725208074,0.001878179616185749,7065.581212222343
1684726120515150785,93,1684726120515150785,camera_2,95,0,0.5516443565766136,-0.16192427711997748,1.419201011255725,-0.9794679277862578,0.029653070467820872,0.1926772414148512,-0.0513688085387204,0.0015326137654483318,0.0008056858841532647,7070.122397984379
1684726120521593809,94,1684726120521593809,camera_2,96,0,0.5523532455068242,-0.1619888193393495,1.4210505409876655,0.9798654480857236,-0.029083667523724075,-0.19115389197879368,0.0497798504667648,0.0025274998624809086,0.0013300193205396432,7062.681417621208
1684726120528196573,95,1684726120528196573,camera_2,97,0,0.5523392284731249,-0.16185066519808133,1.421022357374648,-0.9797553639846295,0.0295960314134742,0.1912157123829941,-0.05138144612389834,0.0033388875890523195,0.0017583888154631296,7060.3516505511925
1684726120534821748,96,1684726120534821748,camera_2,98,0,0.5521404867750154,-0.16164059527929903,1.4205129034930073,-0.9797827486836885,0.02921905081530804,0.1913947863491291,-0.05039889095664646,0.004232582228723913,0.0022264875194133063,7065.7877202765085
1684726120541494846,97,1684726120541494846,camera_2,99,0,0.5522899444740421,-0.161668872882286,1.420913025706175,-0.9798304315363198,0.029147729177706434,0.19118122578111596,-0.0503236944983423,0.006943092972505838,0.003653840496256994,7063.146033730356
1684726120548133850,98,1684726120548133850,camera_2,100,0,0.5520486118077833,-0.1616128534203693,1.4202938517948351,-0.9797884119343956,0.029197887930666053,0.19124113648266455,-0.05088200955428488,0.0027788523584604263,0.0014615412152379813,7068.173503736034
1684726120554828882,99,1684726120554828882,camera_2,101,0,0.5522865929972629,-0.16180821775033172,1.4209430281767788,-0.979736584188112,0.029220261456230957,0.19130491769235553,-0.05162199522065206,0.005271763366181403,0.002776356599707824,7060.369476280411
1684726120561442613,100,1684726120561442613,camera_2,102,0,0.5520896272834362,-0.16188506542411166,1.4204923200992619,-0.9797405908878548,0.02923546537937008,0.19206697412375037,-0.048620361801567,0.006645543850027025,0.0034939020393078756,7064.77612983785
1684726120568118333,101,1684726120568118333,camera_2,103,0,0.55181328261956,-0.16195124572501235,1.419801848707458,-0.9796531628602902,0.029432181474889175,0.1918012103538833,-0.051241808108656375,0.0025823217583820224,0.0013579170847417609,7069.535506693412
1684726120574828624,102,1684726120574828624,camera_2,104,0,0.5522506675403572,-0.1624767147654897,1.4209881308813441,-0.980042791273119,0.02962481437424574,0.19033821511450263,-0.04909034033199062,0.003800598031375557,0.001998427970682553,7069.114171728725
1684726120581516981,103,1684726120581516981,camera_2,105,0,0.5522618518857243,-0.16271009070537457,1.4210677601239847,-0.9798191023726944,0.02988358114568644,0.19098228418558966,-0.05086516814806918,0.0072024285909719765,0.00379227462761213,7062.274116460467
1684726120588030576,104,1684726120588030576,camera_2,106,0,0.5522183317139365,-0.16297955162126815,1.420961382484549,-0.9798248081867379,0.029801682666885786,0.19099604822797195,-0.05075149784334248,0.004935132164973766,0.00259803465933022,7063.410145949803
1684726120594826459,105,1684726120594826459,camera_2,107,0,0.5523368375010203,-0.16361466520884746,1.4213168677436054,-0.9799717321178655,0.02941888998775546,0.19056104090543616,-0.04976366998961766,0.007788894348777831,0.004099759213429871,7063.75758377626
1684726120601606845,106,1684726120601606845,camera_2,108,0,0.5521614360640263,-0.16395218654573893,1.420885244512197,-0.9799023659240975,0.028990938044860942,0.19088517927762397,-0.050137083080135425,0.003270592133048922,0.001721059832530093,7065.68453260744
1684726120608125209,107,1684726120608125209,camera_2,109,0,0.5521809282737401,-0.16430655163541066,1.4209787552169122,-0.9799659963837398,0.029676332108576103,0.1904018150693908,-0.05033001154864758,0.002974212169647217,0.0015652077360793386,7067.2067907736655
1684726120615070104,108,1684726120615070104,camera_2,110,0,0.552372121055242,-0.16520586854074468,1.4215147547535616,-0.9799607816165087,0.029417361296630553,0.19051535103047662,-0.050153627681746256,0.0033432459458708763,0.001760851882738613,7061.406524794176
1684726120621411323,109,1684726120621411323,camera_2,111,0,0.5522801104406861,-0.16560370743302585,1.4213346527368038,0.979943841678427,-0.02981616575646967,-0.19030250179730693,0.05104920396827749,0.0010868482058867812,0.0005725138320582519,7063.07138329535
1684726120628228425,110,1684726120628228425,camera_2,112,0,0.5520419927214484,-0.1660203156257074,1.4207561174485699,-0.9798490597789513,0.029375940240305314,0.1913226094779784,-0.049280151053343976,0.004255808482412248,0.0022393038248750066,7065.518066217426
1684726120634741067,111,1684726120634741067,camera_2,113,0,0.5521946013613585,-0.16704246832146535,1.4212160653614578,0.9798966734278768,-0.029787905692698135,-0.1904881527902219,0.051278199324790164,0.0009790360927581787,0.0005158433269210424,7062.5438101112395
1684726120641504526,112,1684726120641504526,camera_2,114,0,0.5518728662038298,-0.16743746523305572,1.42040645678624,0.9795959028173155,-0.02958794647240952,-0.19206913618111646,0.051243219392564286,0.0012188111431896687,0.0006419890967379158,7061.524824269115
1684726120648186922,113,1684726120648186922,camera_2,115,0,0.5522568416389038,-0.16804939447323086,1.4214327415328858,-0.9799466144630674,0.02938300877212116,0.19059894077737588,-0.05013297689557387,0.002431296103168279,0.0012809237693800941,7061.129413247107
1684726120654801607,114,1684726120654801607,camera_2,116,0,0.5523657201675937,-0.1691431434418274,1.4217765010261902,0.9799454672582063,-0.029937297295246426,-0.19025149983784076,0.051137131716631486,0.0012587842647917569,0.0006638469635685693,7057.764441491573
1684726120661547660,115,1684726120661547660,camera_2,117,0,0.5520994567767711,-0.16963771584881374,1.4211190501377815,0.9797609698339952,-0.029533852652890775,-0.19121119776592546,0.05132710186974129,0.0017440078081563115,0.0009194826173705215,7058.318331612274
1684726120668081521,116,1684726120668081521,camera_2,118,0,0.5521796031697537,-0.17018452951088298,1.4213777408887753,-0.9798614354743869,0.029528440962785125,0.19073293337806288,-0.05119166503817687,0.004761787597090006,0.0025108908958901923,7058.419212839801
1684726120674755334,117,1684726120674755334,camera_2,119,0,0.55210756894452,-0.17126114586134913,1.4212353607629542,-0.9800127320748436,0.02969046470241236,0.19000786439551762,-0.050897276398743696,0.004718987795058638,0.00248704282869678,7063.692029164635
1684726120681295156,118,1684726120681295156,camera_2,120,0,0.5526023670676415,-0.17189809240222018,1.422544526243609,-0.9801921079548932,0.029987578983064624,0.18894132918555231,-0.05123817654127145,0.008959933242294937,0.00472960505107155,7055.865447609216
1684726120688131093,119,1684726120688131093,camera_2,121,0,0.5520325655110491,-0.17228035555285034,1.4211068201993424,-0.9798464502444065,0.029594356829968582,0.1909096014621747,-0.05078023293379097,0.003975399362388998,0.0020959593271397637,7059.387457543287
1684726120694750308,120,1684726120694750308,camera_2,122,0,0.5518425640352939,-0.17325018077744422,1.4206887578900858,-0.9798336202162639,0.030208009605184112,0.19073065656905488,-0.0513358499912192,0.0039765535038895905,0.0020961781097203415,7062.964697635267
1684726120701563358,121,1684726120701563358,camera_2,123,0,0.5519549611171809,-0.17381987976178465,1.4210305391837121,-0.9799177819681493,0.03000343462736147,0.19033908609001873,-0.0513026977809241,0.0045731927384622395,0.002411527883120107,7061.424551217349
1684726120708130598,122,1684726120708130598,camera_2,124,0,0.5520785500048209,-0.1742822640250531,1.421345881545493,-0.980001792206754,0.029987344754713503,0.18996824115166652,-0.05108144261720266,0.0056390323443338275,0.0029742475653479726,7060.3261307459325
1684726120714918613,123,1684726120714918613,camera_2,125,0,0.5523345622697972,-0.17530167923858508,1.4220672840872026,-0.9802263460252879,0.029957311665221607,0.18876994711836845,-0.05123257850853943,0.007235502474941313,0.0038187942879041063,7058.816186049018
1684726120721329689,124,1684726120721329689,camera_2,126,0,0.5517384753353448,-0.17554691808394773,1.4205651766972998,-0.9797439845557016,0.030195713900935905,0.1911379022937618,-0.05153878050236069,0.0049178447225131094,0.002593855075653748,7059.561476863455
1684726120727989435,125,1684726120727989435,camera_2,127,0,0.5518135720956302,-0.1759968831110565,1.420792261437697,-0.9798615203785834,0.030227699349256162,0.19021470086731196,-0.052688278083276946,0.012896340631414205,0.006805562521819209,7060.285236478788
1684726120734851360,126,1684726120734851360,camera_2,128,0,0.5518028249050496,-0.1767412599185908,1.420790767688306,-0.9799088431383922,0.030152609530265266,0.19018682366958753,-0.05194662048840361,0.00710814690683037,0.0037501101617315956,7060.848933935164
1684726120741447687,127,1684726120741447687,camera_2,129,0,0.5518232208192784,-0.17706799159534192,1.4208756792156119,-0.9798689002596688,0.030406466970723307,0.19043720939550124,-0.05163384885828037,0.009032412082888186,0.004766148057215421,7058.779218642507
1684726120748191118,128,1684726120748191118,camera_2,130,0,0.5513563242348402,-0.17723037079290083,1.4197031340149826,-0.9796693414299505,0.03018834262346613,0.19153233170364875,-0.05149768289951287,0.0075458085630089045,0.003977281094496786,7064.130504976726
1684726120754768610,129,1684726120754768610,camera_2,131,0,0.5513397192294393,-0.17777607705136253,1.4196639249130918,-0.9795548861478485,0.030258132575240636,0.19217488800146731,-0.051239465830140864,0.005157805979251862,0.0027193214565836583,7060.616973814554
1684726120761464118,130,1684726120761464118,camera_2,132,0,0.551586001096145,-0.17807898799230315,1.420318915004297,-0.9797382312354751,0.030250402865537738,0.19101418903096942,-0.05207197874958,0.00821376871317625,0.004333937805760806,7059.123916931452
1684726120768029689,131,1684726120768029689,camera_2,133,0,0.5513377138893474,-0.17819527545908426,1.419672943483113,-0.9795622362223251,0.029903468457743512,0.1920773169259293,-0.05167119375290923,0.002775536908302456,0.0014636774362397865,7059.888421917336
1684726120774675607,132,1684726120774675607,camera_2,134,0,0.5520292797068386,-0.17868116549385407,1.4214693502319184,-0.9799325262248779,0.030190932769172,0.19000277183169917,-0.05215072694917709,0.005133033089805394,0.0027117240609465182,7052.704630409133
1684726120781338691,133,1684726120781338691,camera_2,135,0,0.551712520436052,-0.17867092575576482,1.4206327123739664,-0.9796416397072715,0.03014944624487185,0.19147620671999843,-0.05225065456907292,0.003970983321778476,0.0020971002319675044,7052.387070680041
1684726120788066625,134,1684726120788066625,camera_2,136,0,0.5514387886065983,-0.17864837075932882,1.4199394917476187,-0.9795495518801264,0.029937581477476424,0.1923148654946431,-0.051004010984437874,0.003925697004888207,0.0020707563690508146,7056.432588669702
1684726120794666051,135,1684726120794666051,camera_2,137,0,0.5514512639517517,-0.17866530824172125,1.4199546346891136,-0.9794402143004619,0.029956804612374346,0.19283514348723862,-0.05112791707802595,0.0070011173957027495,0.003694372721499798,7053.080994407876
1684726120801280021,136,1684726120801280021,camera_2,138,0,0.551525383612375,-0.17864296450036476,1.4201154927887853,-0.9795823149027805,0.02987952101716989,0.1918928735751534,-0.051988725937114746,0.0043711355538107455,0.0023069325142453714,7055.485331153501
1684726120808120489,137,1684726120808120489,camera_2,139,0,0.5516159110425344,-0.1786078847887887,1.4203340705864476,-0.9796359450997427,0.030145095764215268,0.19143924780697985,-0.05249478706498523,0.005854297487530857,0.003090736429602462,7055.132808298336
1684726120814812183,138,1684726120814812183,camera_2,140,0,0.5512034998522437,-0.17823408291628948,1.419245753048512,-0.9795018248370917,0.030129594169274777,0.19200401329904512,-0.05294186975412123,0.002532755956053734,0.0013357170035848288,7062.27563198539
1684726120821421623,139,1684726120821421623,camera_2,141,0,0.5515563528558596,-0.17814981492644286,1.420133614752045,-0.9796154643149115,0.029826011707044655,0.19168825521979294,-0.05214943826661213,0.008017624961212277,0.0042310310646037855,7056.765018273142
1684726120828058958,140,1684726120828058958,camera_2,142,0,0.5513821453862591,-0.17788491654738797,1.419655424595738,-0.9794861283274023,0.030284995495590963,0.19193393378809723,-0.0533957725166907,0.007135318184737116,0.0037657017674519225,7058.308375751601
1684726120834772586,141,1684726120834772586,camera_2,143,0,0.5516460552589353,-0.17746320024373607,1.4202873801932916,-0.9795766561251228,0.030231476705998843,0.19151947083753135,-0.053253402529881616,0.006867294781841338,0.0036260443540543402,7055.17565156566
1684726120841459989,142,1684726120841459989,camera_2,144,0,0.551763294688337,-0.17719118410763368,1.4205498423184009,-0.9797039386687002,0.03001111547584963,0.19126061364681493,-0.05195096892623564,0.002730291453190148,0.0014409066932866373,7056.446482524276
1684726120848003387,143,1684726120848003387,camera_2,145,0,0.5513982542160165,-0.17676769949622367,1.4195759229059566,-0.9794754860331369,0.029957361184744007,0.19218327674318644,-0.05287643058347137,0.004677383927628398,0.002467292168921804,7059.7040575405135
1684726120854653596,144,1684726120854653596,camera_2,146,0,0.5517908521074653,-0.17616164471876009,1.4205385068403142,-0.9796270702460461,0.029938976012078553,0.19158251417613587,-0.05225515494616051,0.005583752878010273,0.0029471204792052984,7055.316566525029
1684726120861563444,145,1684726120861563444,camera_2,147,0,0.5518395935904794,-0.17576062310809445,1.4206179391132625,-0.9796084742627411,0.03000420366714312,0.19154884178755033,-0.052688007409399634,0.004949188849423081,0.0026128145537000183,7054.405124726239
1684726120868078947,146,1684726120868078947,camera_2,148,0,0.5517703484167857,-0.17531664579655865,1.4204369342550494,-0.9795401837270741,0.029944130458052685,0.19188713169922644,-0.052760839675699056,0.005341300100553781,0.002819445149571623,7054.611348392207
1684726120874770402,147,1684726120874770402,camera_2,149,0,0.5520303004819863,-0.17446596544560647,1.4209949331021245,-0.9797417287402581,0.029813111770129828,0.19082385296326837,-0.052948847691761926,0.007629800005815923,0.004028088356193416,7055.575150721474
1684726120881258249,148,1684726120881258249,camera_2,150,0,0.5522665027972031,-0.17408520617631812,1.421542009892577,-0.9798396292554464,0.03020569170441449,0.1902077176043488,-0.053131358847214524,0.006617093284148723,0.003495162532628058,7053.668651545421
1684726120887958288,149,1684726120887958288,camera_2,151,0,0.5518344855549501,-0.17344121520748215,1.420424435599853,-0.9797862037399306,0.03012628535095564,0.1906184311278681,-0.05268790758986508,0.011529210722073911,0.006079559514697222,7063.6089542373065
1684726120894885778,150,1684726120894885778,camera_2,152,0,0.5519450995120369,-0.17245613492848877,1.4206239673717662,-0.9797181271326415,0.030148158427410053,0.19112823406938872,-0.052091055399770575,0.008748466148972511,0.004613515912986589,7060.432718014114
1684726120901393413,151,1684726120901393413,camera_2,153,0,0.552077257702788,-0.17192871773827434,1.4209295425612116,-0.9797869978610244,0.03011805709578395,0.19062042556086797,-0.05267062576284462,0.006450486194808036,0.0034028559362078974,7059.765636055497
1684726120907989025,152,1684726120907989025,camera_2,154,0,0.5521121955509627,-0.17144805998500404,1.4209939341288422,-0.9799485523668662,0.029954923395662216,0.18960979730764138,-0.053400955453985335,0.012386418995447457,0.0065333469154473115,7063.989313051337
1684726120914597034,153,1684726120914597034,camera_2,155,0,0.5522172332082677,-0.17035839806442854,1.421181226429662,-0.9798406746668461,0.029814342539094648,0.19053367785210779,-0.05215625419382356,0.007654202752746642,0.004036939782423519,7059.532044118503
1684726120921328544,154,1684726120921328544,camera_2,156,0,0.5517750056342509,-0.16972070487706917,1.419995344667217,-0.9795127393270336,0.030007596792775027,0.19189088714110744,-0.05321865333669725,0.005832983006257564,0.0030748155775207095,7062.232649305837
1684726120928031921,155,1684726120928031921,camera_2,157,0,0.5521657980473362,-0.16925124920761075,1.4209426843083837,-0.9797972726477979,0.029956518184282636,0.19050503134013927,-0.05298815494338364,0.007810233684722334,0.004118848116373196,7061.289214940744
1684726120934665679,156,1684726120934665679,camera_2,158,0,0.5524579282699638,-0.16827621290123632,1.4216439916027817,-0.9798673386513315,0.029727699507305545,0.19034121774899976,-0.052406901761009254,0.008204648096580058,0.004328714209257646,7056.63336390909
1684726120941414594,157,1684726120941414594,camera_2,159,0,0.5525401571744293,-0.16777107543494904,1.4218368086813182,-0.9799673644006428,0.02957135475561449,0.189942951379294,-0.05206894380433112,0.00477873400086537,0.002520726293661807,7057.681856130015
1684726120948193550,158,1684726120948193550,camera_2,160,0,0.5521041598826227,-0.16715213366116755,1.4206615967923095,-0.9797291491298576,0.029672364939775646,0.19136253884472096,-0.05129058228436037,0.004462757671717554,0.0023508142271671676,7062.6290457772575
1684726120954832792,159,1684726120954832792,camera_2,161,0,0.5521699451698117,-0.1661812314591384,1.4207590172461562,-0.9796754340825374,0.029615998110862955,0.19137414819104517,-0.052296002861034974,0.0052951956749893725,0.0027907096873124987,7060.3490568031575
1684726120961496829,160,1684726120961496829,camera_2,162,0,0.5523937631904303,-0.16575188629331322,1.421311810080239,-0.9797697495070709,0.029819384326011934,0.19097175426658522,-0.051882861733063675,0.004101455269847065,0.002162247132028226,7057.866557839794
1684726120968101024,161,1684726120968101024,camera_2,163,0,0.5523362301190575,-0.16527901604520373,1.4211213952243114,-0.9795638092899233,0.02985646485284348,0.1916774416660288,-0.05313279017962669,0.005518429097719491,0.00291117791138966,7053.951018303866
1684726120974830627,162,1684726120974830627,camera_2,164,0,0.552286513646097,-0.16442027535080705,1.4209423186982824,-0.9797437418078073,0.02988768358835515,0.19092108982667264,-0.052517275420140015,0.003948177502024919,0.0020806142399696966,7061.046793239191
1684726120981622695,163,1684726120981622695,camera_2,165,0,0.5517090079486181,-0.16388130266611772,1.4194263659596114,-0.9795272196095258,0.02905400843943265,0.19286876110709555,-0.049839057240755734,0.006188766856212169,0.003253004059311669,7068.95263017947
1684726120988151311,164,1684726120988151311,camera_2,166,0,0.5521817894088676,-0.16363998937610202,1.4206242269388278,-0.9797176264293401,0.02956182197904614,0.19148695402175023,-0.05110985799639093,0.004461611446458846,0.002348911196436042,7063.106757984029
1684726120994820833,165,1684726120994820833,camera_2,167,0,0.5522207361837759,-0.16302121402508524,1.4206978027737363,-0.9797245397065957,0.029293832517217563,0.19137508839946235,-0.05154874599105599,0.0033473040093667805,0.0017625430283848725,7062.400960367875
1684726121001392602,166,1684726121001392602,camera_2,168,0,0.5521891799816749,-0.1627143009796893,1.4206178418591133,-0.979616426022715,0.029734725128127863,0.19138662378231777,-0.05327911622054909,0.0026703455951064825,0.0014071203496674727,7060.592701409012
1684726121008447408,167,1684726121008447408,camera_2,169,0,0.5522260476343047,-0.1624950302612275,1.420716431346552,-0.9797487083079307,0.029024948127599603,0.1914894663494032,-0.05081146752803294,0.0037868102663196623,0.0019932412311418476,7062.653712650061
1684726121014763593,168,1684726121014763593,camera_2,170,0,0.5516833962690195,-0.16192613321456553,1.4192945779005808,-0.9795164311769866,0.0294011091931291,0.19230245614238314,-0.05198943348527714,0.0024250674177892506,0.001275145408374166,7070.431274985425
1684726121021433591,169,1684726121021433591,camera_2,171,0,0.5522298251099139,-0.16194546966495124,1.4207091107851448,-0.979798209765413,0.02890261027913276,0.19157280975549873,-0.049598042521132514,0.0022127433330751956,0.0011639601946447494,7063.922261250205
1684726121028146266,170,1684726121028146266,camera_2,172,0,0.5522321058899612,-0.16180997937789124,1.4207464965397747,-0.97980066220854,0.029359686150659682,0.19104548971876992,-0.05128637268277689,0.004512018174864352,0.0023749400576469778,7064.19304819661
1684726121034793138,171,1684726121034793138,camera_2,173,0,0.5522290332595869,-0.16166547796460062,1.420750024801451,-0.9797460140974324,0.029342323637226334,0.1914400034024124,-0.05086748471318752,0.005381814728025347,0.002832712885258107,7062.524514629969
1684726121041405200,172,1684726121041405200,camera_2,174,0,0.5518143495124945,-0.16152735894917908,1.4196691957282066,-0.979422505751321,0.029298901700137433,0.19331028744705026,-0.05004260538888998,0.005698738212231547,0.00299656460984735,7063.744983472632
1684726121047997713,173,1684726121047997713,camera_2,175,0,0.5521629480965672,-0.16165688715999313,1.4206217224481084,-0.9799030419286828,0.029516003453811314,0.19056814424523671,-0.05101584418546509,0.005111091071739793,0.0026887446884750654,7068.576853331644
1684726121054656982,174,1684726121054656982,camera_2,176,0,0.5526101604287013,-0.16191646461714976,1.4218114264148025,-0.9801029830358733,0.029522085646193855,0.18937575549411587,-0.051608258392571923,0.0039038469549268484,0.0020564789713738963,7062.664830572205
1684726121061248779,175,1684726121061248779,camera_2,177,0,0.5524291344945065,-0.16198734971073248,1.4213478677563267,-0.9800915234742356,0.02899791890580951,0.190247644392241,-0.048842196063316516,0.00428642809856683,0.002254459232975558,7066.251718822634
1684726121068210840,176,1684726121068210840,camera_2,178,0,0.5517731793264816,-0.16195585786604863,1.4197145972127425,0.9796336800908428,-0.02997381375173444,-0.19201441548413112,0.0504964114282997,0.0018856327515095472,0.0009912143198636688,7070.266391003741
1684726121074738740,177,1684726121074738740,camera_2,179,0,0.5522598008206661,-0.16248878935644706,1.4209972007846892,-0.9798304539950254,0.029654264540185476,0.19121634166547755,-0.049892050454501166,0.007174287980888039,0.0037756373354204493,7062.935380382462
1684726121081353425,178,1684726121081353425,camera_2,180,0,0.5521007734144028,-0.16266542003652565,1.4206355613783443,-0.9797110433999352,0.029706339241598805,0.19133565109002107,-0.051715311765772425,0.0051253525307402015,0.0026985767494230382,7063.319794812008
1684726121087970733,179,1684726121087970733,camera_2,181,0,0.5521571713124012,-0.16297034921431602,1.4208188952813003,-0.9798475987050591,0.029529541642548226,0.1909451482417656,-0.05066201580316958,0.007462129520718008,0.003927220605920376,7065.265761670891
1684726121094672918,180,1684726121094672918,camera_2,182,0,0.5523117620580211,-0.16362837283638185,1.4212613468353077,-0.9799779320288663,0.029356939743195615,0.19030668869994544,-0.05064372677245777,0.004552279948256911,0.002396642553145175,7064.506695416059
1684726121101294040,181,1684726121101294040,camera_2,183,0,0.5519871788069486,-0.16392355181782792,1.4204580948954584,-0.9798152908621864,0.029430097422793202,0.19146548458131687,-0.049364292483285055,0.006854694860521704,0.0036047546602895227,7067.7529647140755
1684726121107921123,182,1684726121107921123,camera_2,184,0,0.5523148337279823,-0.16437190015519743,1.421336492614058,-0.9799225967526943,0.02951442337328182,0.19040347297607985,-0.05125544522337552,0.004952774732373655,0.002608928921154856,7062.331373106224
1684726121114829778,183,1684726121114829778,camera_2,185,0,0.5523715273470295,-0.1652308933656933,1.4215143902842033,-0.9800173812446171,0.029847604455323792,0.1900351663346233,-0.050613125994087516,0.0036024614819325507,0.0018974075800320257,7063.446472365178
1684726121121590614,184,1684726121121590614,camera_2,186,0,0.5521664816467302,-0.1655862540853975,1.4210252497349496,0.979809573865107,-0.029535329265288707,-0.19115035000345976,0.05062022304399071,0.0014700767351314425,0.0007742057648385944,7061.962521644308
1684726121128123998,185,1684726121128123998,camera_2,187,0,0.5520785714523905,-0.1660695840279807,1.4208509257990463,0.9798911511853308,-0.029611413615114924,-0.19091687851429454,0.0498722519118591,0.0010398157173767686,0.000547242269212836,7066.0209793946715
1684726121134770154,186,1684726121134770154,camera_2,188,0,0.5521785695650674,-0.16704999682787364,1.4211748888288378,-0.9797981626730354,0.029553723947523352,0.19114418009513778,-0.050853124182639736,0.0017143776640295982,0.0009033361626452787,7059.872982830504
1684726121141708850,187,1684726121141708850,camera_2,189,0,0.5523499392066665,-0.16762444736662627,1.421659052564743,0.9800139546078288,-0.029818846602883132,-0.1897674762491395,0.0516893617607182,0.00224583555245772,0.0011839470880072997,7061.439794416541
1684726121148148775,188,1684726121148148775,camera_2,190,0,0.5520795332732378,-0.16801965688310522,1.420988635940446,0.9799601615526844,-0.029588674913316192,-0.1905500595945638,0.0499326233540656,0.0015444374876096845,0.0008130831377503254,7066.111782363152
1684726121154687881,189,1684726121154687881,camera_2,191,0,0.5524149001823618,-0.16918954552366558,1.421891429319825,-0.9798062367705881,0.029477902207900763,0.19097363239355475,-0.05137960098415584,0.0023932548938319087,0.0012629229849349772,7052.160085089502
1684726121161507844,190,1684726121161507844,camera_2,192,0,0.5522051238103455,-0.16967620836131223,1.4213868642686567,-0.9797762654470947,0.029604094376622377,0.19108745281322773,-0.051455346078289624,0.001425823022145778,0.0007520156478560431,7056.15120569966
1684726121167989015,191,1684726121167989015,camera_2,193,0,0.5522664141989089,-0.17024993875744288,1.4215838729937154,-0.9798924123134887,0.02956355683350074,0.19056049702814162,-0.05122063422285871,0.00357036548666656,0.0018830791419451164,7057.253898537717
1684726121174751043,192,1684726121174751043,camera_2,194,0,0.5519670906992988,-0.17124606237271237,1.420887431633352,-0.9798652727411479,0.029821348883524768,0.1908485113384307,-0.05051316805138875,0.002954366442281753,0.001556649526020318,7062.987184254456
1684726121181601524,193,1684726121181601524,camera_2,195,0,0.552322072938298,-0.17185150016119352,1.4218148166752727,-0.9800715901358668,0.029781035067077972,0.18956422731255917,-0.05136313738742643,0.006529795122332871,0.003444552410839512,7059.389084705384
1684726121188148736,194,1684726121188148736,camera_2,196,0,0.5521990161322221,-0.17234335766056685,1.4215461446453894,-0.9797654378246005,0.029897146886254,0.19115529603940878,-0.051239635522872494,0.003329541359562427,0.0017571781635899552,7052.951459210133
1684726121194691419,195,1684726121194691419,camera_2,197,0,0.5519051751493635,-0.17328231042692682,1.4208475395310085,-0.9800124621999929,0.02992722436065457,0.18972250532419077,-0.051819939678533565,0.006829426623880863,0.0035998302443961,7066.292535546001
1684726121201415777,196,1684726121201415777,camera_2,198,0,0.5520458922061615,-0.17386282983457826,1.421235186251687,-0.9798850393471987,0.030242801939012794,0.19032537336518918,-0.05183565228505925,0.006330958392936736,0.0033403518617397777,7058.590928387597
1684726121207952737,197,1684726121207952737,camera_2,199,0,0.5521287211035965,-0.17433738230681936,1.4214876015545654,-0.9798695456374101,0.0300521194513777,0.19055521911486456,-0.05139311351632035,0.005059942428488284,0.0026705743665435145,7055.126346914329
1684726121214713335,198,1684726121214713335,camera_2,200,0,0.552339665754597,-0.17533617684137315,1.4220826548631738,-0.9801976592588422,0.02983996112374193,0.1889457176932697,-0.05120196547980844,0.007772867858875544,0.00410280373560531,7057.702815957835
1684726121221418857,199,1684726121221418857,camera_2,201,0,0.5519384343482775,-0.17562132536757943,1.4210740031351765,-0.9798821210170144,0.03039599975620149,0.19038716834610536,-0.05157361960508282,0.00846259598620236,0.004465158381322003,7058.678858788453
1684726121228078365,200,1684726121228078365,camera_2,202,0,0.5520102166828268,-0.17608520924337234,1.4212980242170208,-0.9800163414378009,0.030444949748836058,0.18945263888194347,-0.05242874374163693,0.011033626273274422,0.005823781939372459,7059.926659142366
1684726121234699726,201,1684726121234699726,camera_2,203,0,0.5517201048522192,-0.1767247596353812,1.4205855401145349,-0.9798258123482523,0.029998155551028628,0.19086771505098837,-0.0510979791267557,0.008669479109812528,0.0045721513015696755,7060.391229335453
1684726121241249799,202,1684726121241249799,camera_2,204,0,0.5514748629960461,-0.1769790152258167,1.4199909100298846,-0.9796625792505471,0.030264844697651706,0.19142802798148556,-0.05196710589124838,0.0071819977019913495,0.003787538768584083,7061.427882120713
1684726121247992992,203,1684726121247992992,camera_2,205,0,0.5514094424692336,-0.17726159765369223,1.4198295844811935,-0.9797428627335766,0.030193458526533688,0.19134573185939593,-0.050784730815619676,0.003678244596812874,0.001938202676138734,7065.018515520731
1684726121254744768,204,1684726121254744768,camera_2,206,0,0.5513572808965691,-0.17779477596426185,1.4197081653135806,-0.9796449802272412,0.030193827536136336,0.1916480331822031,-0.05152743804692468,0.0044860775815323,0.002365006297942781,7062.700552097995
1684726121261872529,205,1684726121261872529,camera_2,207,0,0.5514794647561219,-0.1780478940983078,1.420022226499928,-0.9796988881604859,0.030368827826230998,0.1914529593348936,-0.05112325493824097,0.006860117660835385,0.003617309602060687,7061.061380722327
1684726121268508195,206,1684726121268508195,camera_2,208,0,0.5516412830766482,-0.17830420341814682,1.420480178296883,-0.9797704459705656,0.029901617498359383,0.19108013468082116,-0.05142128551465793,0.007246079680044204,0.0038231543592468897,7057.952134549387
1684726121275049209,207,1684726121275049209,camera_2,209,0,0.5517641883210305,-0.17861056243769308,1.4207803398260581,-0.9798127457115242,0.03024302212578135,0.19037351035197428,-0.053011975158547005,0.006643194530624896,0.0035083579298442707,7056.028404690327
1684726121281338214,208,1684726121281338214,camera_2,210,0,0.5519123620295928,-0.17875005199324323,1.4211652447308152,-0.9798944659280661,0.03033513370164095,0.19050491694539262,-0.05093615539558099,0.003773766162339598,0.0019921460972444284,7054.7039582994785
1684726121287947177,209,1684726121287947177,camera_2,211,0,0.5516688989638028,-0.17872719301601034,1.4205285133429026,-0.9796786531793674,0.03013927055929704,0.19142187354461654,-0.05175931996735592,0.0038375165895558894,0.0020257863436188074,7054.442575100809
1684726121294739723,210,1684726121294739723,camera_2,212,0,0.5513190984911863,-0.1786137346016055,1.4195995220602262,-0.9794787510325108,0.029860505698285394,0.19231907400718137,-0.05237461454040164,0.005554929142817855,0.002930811647463725,7057.533810186662
1684726121301557302,211,1684726121301557302,camera_2,213,0,0.5517206833623116,-0.17870275500279972,1.420628077558821,-0.9796749800488687,0.03023426094929046,0.19137016150397407,-0.05196425903486068,0.004696637683082372,0.0024798578982297005,7053.428873092867
1684726121308008909,212,1684726121308008909,camera_2,214,0,0.5516521466124409,-0.1786023662295376,1.4204402117351353,-0.9797170540717665,0.03032764881589223,0.19096332240507688,-0.05260928790863818,0.00761269056238234,0.004018942666676445,7056.626555630704
1684726121314923763,213,1684726121314923763,camera_2,215,0,0.5512262771477566,-0.17822782750451902,1.4192913226546509,-0.9793898676816593,0.029971162516255263,0.19269278524681474,-0.05259949632602109,0.00412429089192301,0.0021755908141845933,7058.457941797564
1684726121321288347,214,1684726121321288347,camera_2,216,0,0.5515938030044921,-0.17816272153275883,1.4202193834293333,-0.9795401201988552,0.029862986338744672,0.1921085973792554,-0.05199655546975763,0.00525724224280566,0.00277505146856672,7053.752734542825
1684726121327973604,215,1684726121327973604,camera_2,217,0,0.5516829541533487,-0.1779810857008791,1.420435482057294,-0.9797553076779842,0.030003130760303098,0.19054872688716404,-0.05357734505441283,0.003531622001901269,0.001864639983791734,7058.1071506561675
1684726121334643125,216,1684726121334643125,camera_2,218,0,0.5515362889096356,-0.1776953222202088,1.4200368117767141,-0.9797637964052212,0.02987128351932943,0.19105884911367402,-0.05164422378054083,0.0052331454353407025,0.0027593819454396597,7062.5868824014915
1684726121341512918,217,1684726121341512918,camera_2,219,0,0.5519426168264912,-0.17722050349913324,1.4210214423610654,-0.9797812694031394,0.029803847799344054,0.19092301511528817,-0.051853612047895965,0.0062152104219421744,0.003281479130136861,7053.877887218263
1684726121348101377,218,1684726121348101377,camera_2,220,0,0.5516303132580543,-0.176823971873452,1.4201798117823314,-0.9795407442158568,0.029961678053978803,0.19176794321820725,-0.0531722128850547,0.004980208235792816,0.0026290745216923654,7055.618378190321
1684726121354645013,219,1684726121354645013,camera_2,221,0,0.5517452605062522,-0.17647427597483129,1.4204368622628591,-0.979656954672899,0.030228157269349208,0.1909850633216136,-0.053695579493662084,0.007542522449512035,0.00398240940462628,7057.037896633845
1684726121361822366,220,1684726121361822366,camera_2,222,0,0.551643499912273,-0.1756925898426108,1.420127808982039,-0.9796244197550041,0.029858639690983905,0.19190196599642023,-0.05116730696630797,0.00796471704961732,0.004199435649450926,7059.705967117103
1684726121367992401,221,1684726121367992401,camera_2,223,0,0.551967298402042,-0.17534958941693282,1.4209169543316993,0.9798112049685361,-0.0301596245849293,-0.19062289147307016,0.05218537064587607,0.0019351911032572389,0.0010212333948875028,7057.910189307295
1684726121374630928,222,1684726121374630928,camera_2,224,0,0.5518717754228966,-0.17490408067360871,1.420633180261633,-0.9797105364178194,0.030151241568845834,0.1910263563125342,-0.05260321908136918,0.004209413018543273,0.0022212717707633927,7058.155328231163
1684726121381293773,223,1684726121381293773,camera_2,225,0,0.5517799539475267,-0.17390609486720715,1.4202886423718208,-0.9795715789341639,0.03024008370091102,0.19164021021527639,-0.05290641653746496,0.005044723977334797,0.0026615850664061975,7058.400693122761
1684726121387994050,224,1684726121387994050,camera_2,226,0,0.5520673318109492,-0.17349569642814638,1.4210259000109347,-0.9798459135644213,0.029982106595093146,0.19046122496583937,-0.05222624569828238,0.007910941261798143,0.0041737244361343484,7059.273273358585
1684726121394640684,225,1684726121394640684,camera_2,227,0,0.552033222111148,-0.17296177927868106,1.420906208442453,-0.9797715686310353,0.030259192945419004,0.19065077459810867,-0.052766814284298365,0.004844552953727543,0.0025562199534931358,7058.951147306011
1684726121401390314,226,1684726121401390314,camera_2,228,0,0.5518537361482817,-0.17183862440071782,1.4203608764866262,-0.9796139011548612,0.030236310952405195,0.19163273481639656,-0.052146573338346755,0.008141799014993012,0.0042927972082043315,7060.527032454267
1684726121408007860,227,1684726121408007860,camera_2,229,0,0.5522065550718657,-0.17144469214204736,1.4212345479777964,-0.979840336632603,0.02997161737505939,0.1903740876290721,-0.05265285955225075,0.007242363470140845,0.00382136211716991,7058.498945291618
1684726121414651632,228,1684726121414651632,camera_2,230,0,0.5523423982240167,-0.17093615181022026,1.4215639879978272,-0.9799556905097678,0.02974578982263482,0.1898704185717535,-0.05245242393578064,0.008819974784273654,0.0046537784054239625,7058.732388762755
1684726121421322822,229,1684726121421322822,camera_2,231,0,0.5521729808798398,-0.16981346841462355,1.4209898536432732,-0.9797294182495652,0.030156105414315036,0.1910183738673955,-0.05227673639072565,0.004926030756905675,0.0025979978137616977,7058.737651095957
1684726121428027868,230,1684726121428027868,camera_2,232,0,0.551906677995746,-0.16914790917659064,1.4202807067033203,-0.9796244163509235,0.029528270302005638,0.19180139045212571,-0.051733072233489226,0.009933924360666424,0.005233975643959285,7062.472640297607
1684726121434704303,231,1684726121434704303,camera_2,233,0,0.5523260729338987,-0.16876115571170305,1.4213212893237073,-0.9798240129062646,0.029820775031514632,0.1905824897200772,-0.05228708942827825,0.00489460799144581,0.0025815655980473322,7058.414336638992
1684726121441504716,232,1684726121441504716,camera_2,234,0,0.5523573842075533,-0.1676724721458016,1.4213440316555443,-0.9799030935226106,0.029788665611030343,0.19010099665623495,-0.05257541037631949,0.007471004966646433,0.003939516170487164,7060.906674429769
1684726121448033809,233,1684726121448033809,camera_2,235,0,0.552138162595472,-0.1671388350110673,1.420737459575825,-0.9798367751106504,0.029659928464298286,0.1907596110643117,-0.051487411770704254,0.007205576461274177,0.00379526457949561,7064.989692915692
1684726121454633951,234,1684726121454633951,camera_2,236,0,0.5521989486715283,-0.16663579227882747,1.4208876311819392,-0.9799591025969768,0.029551407047682457,0.1900768074379146,-0.051746293133325266,0.005844442290253936,0.0030780373284428303,7067.143106223082
1684726121461429357,235,1684726121461429357,camera_2,237,0,0.5522284228599602,-0.1656836675466287,1.4208907284899848,-0.9798450516591722,0.029483004382565993,0.19056933847308702,-0.052132086334059316,0.008414617332164198,0.004433059372634391,7063.95774650969
1684726121468036174,236,1684726121468036174,camera_2,238,0,0.5521665030679732,-0.16519625123455953,1.4206778462574603,-0.97958650757374,0.029897992371147618,0.19167519276966424,-0.052697293178775195,0.00494731985963881,0.002607695155065706,7059.021623946029
1684726121474693059,237,1684726121474693059,camera_2,239,0,0.5526247188370378,-0.16493990394408245,1.4218307794024492,-0.9799638982181423,0.029718323889294875,0.1898507861108246,-0.052385670057901436,0.0018139698076993227,0.0009565766534558788,7058.393764042291
1684726121481358289,238,1684726121481358289,camera_2,240,0,0.5519367492883922,-0.16392083665902688,1.420011764284152,-0.9794954757185632,0.029131112145310847,0.19298622961698303,-0.04996305165083519,0.004788237914908677,0.0025192070694416715,7062.288433191835
1684726121488005638,239,1684726121488005638,camera_2,241,0,0.552039893882726,-0.16358262576526228,1.4202547010218303,-0.9795365320392985,0.02940860644181602,0.19223712259220227,-0.05184790222415638,0.006640982872340828,0.0034970499637968274,7061.4430255226325
1684726121494816064,240,1684726121494816064,camera_2,242,0,0.5522483334885313,-0.16301550918796354,1.4207649725009355,0.9797210302254639,-0.029569223490750796,-0.19144119048763028,0.05121166410876302,0.0013797535793855786,0.0007264966441354726,7061.8357908136695
1684726121501339912,241,1684726121501339912,camera_2,243,0,0.5522509773979166,-0.16272502115711765,1.4207676958760775,0.9796402178572121,-0.02961902672708307,-0.19144157545428322,0.05270559742566387,0.0023354028817266226,0.0012305548819103304,7059.639903872276
1684726121508007526,242,1684726121508007526,camera_2,244,0,0.5521299108444518,-0.1624594048435829,1.4204532923203985,-0.9797236114353302,0.02910739019274923,0.19160016463112395,-0.05083091525447393,0.005567858810536563,0.0029298477660124746,7064.59771062131
1684726121514697074,243,1684726121514697074,camera_2,245,0,0.5523138388761661,-0.1622827748863815,1.4209265425195567,-0.9797854549379876,0.029137166616622072,0.19106694825031056,-0.05162275757676198,0.004570458782836795,0.002406847686481822,7061.7729605573695
1684726121521285295,244,1684726121521285295,camera_2,246,0,0.5519607265485609,-0.16185079326977764,1.420039281089522,-0.9796398906200185,0.028995038047480347,0.19234168937060697,-0.04969554310684599,0.008483170764520764,0.004460161986256797,7066.1057007452455
1684726121528025388,245,1684726121528025388,camera_2,247,0,0.5522679901010075,-0.1618078953555329,1.4208159482241383,-0.9797233020169638,0.029498314850739716,0.1914774081677034,-0.051073506510934084,0.00532058987300843,0.0028011619099407,7061.332716717156
1684726121534698486,246,1684726121534698486,camera_2,248,0,0.5523098499232855,-0.16175188427535234,1.4209565781002214,-0.9797573417950335,0.029440156534690204,0.19118518231879594,-0.05154662397938098,0.004649322479963303,0.0024484065528054214,7060.950179948707
