%time,field.header.seq,field.header.stamp,field.header.frame_id,field.image_seq,field.transforms0.fiducial_id,field.transforms0.transform.translation.x,field.transforms0.transform.translation.y,field.transforms0.transform.translation.z,field.transforms0.transform.rotation.x,field.transforms0.transform.rotation.y,field.transforms0.transform.rotation.z,field.transforms0.transform.rotation.w,field.transforms0.image_error,field.transforms0.object_error,field.transforms0.fiducial_area
1682906233151144981,0,1682906233151144981,camera_1,0,1,0.02773202708010412,-0.2725236084092795,1.8679894688602783,0.996131733962362,-0.015761161438224258,-0.002629014928532389,0.0864074225038665,0.01748274447163567,0.0014812126472309734,24873.01223917142
1682906233205107688,1,1682906233205107688,camera_1,2,1,0.027740070516167815,-0.2725860533537292,1.8684548924981383,0.9961968849673584,-0.01565747763816009,-0.000920877375863492,0.08570741951663724,0.011755377403460443,0.0009960496357351118,24867.059651940348
1682906233211747646,2,1682906233211747646,camera_1,3,1,0.02770977169057347,-0.2725755959650578,1.8682135904851263,0.9961255913359051,-0.01575218851422201,-0.001156256063001406,0.08651206802881765,0.015384090424049646,0.0013034327907264001,24867.39592550834
1682906233218246221,3,1682906233218246221,camera_1,4,1,0.027723719092975278,-0.27261831009456444,1.8686583522175375,0.9962244283511417,-0.01550568685319018,-0.0004058512075531263,0.08541836638832029,0.01908795622875914,0.0016174633580398013,24864.051246114075
1682906233224648714,4,1682906233224648714,camera_1,5,1,0.02774321165061435,-0.2726095404603189,1.8685592102494142,0.9962709349422345,-0.015556758443800254,-0.001556053658535174,0.08485157719841746,0.01996643125312403,0.0016919184205101627,24869.872122345383
1682906233231158733,5,1682906233231158733,camera_1,6,1,0.027724857659871163,-0.27252982857970703,1.8679655494683394,0.9960043466139515,-0.015747618988015046,-0.0007821466510592241,0.08790189001915799,0.023265263997018337,0.001970779655870717,24864.078588386074
1682906233237805366,6,1682906233237805366,camera_1,7,1,0.027720106233700633,-0.27245675781713385,1.8675975927433115,0.9960828547601531,-0.015697304512885313,-0.0017352379722352913,0.08700304611376035,0.01582116971258074,0.0013397330864644058,24879.86844794301
1682906233244410037,7,1682906233244410037,camera_1,8,1,0.027740652032824588,-0.2726078288543709,1.8685885756709113,0.9962320509913395,-0.015589832609191969,-0.0006874361700882917,0.0853122800557978,0.011736626038327813,0.000994589349035335,24866.470323384623
1682906233251264810,8,1682906233251264810,camera_1,9,1,0.027741342454604884,-0.2725659598465171,1.8683261610236748,0.996263776967944,-0.01571086712929397,-0.0014023296473771494,0.08490988651018465,0.014753027993720025,0.0012499323494140982,24875.791473197973
1682906233258177042,9,1682906233258177042,camera_1,10,1,0.02772404461948843,-0.27261512510833635,1.8685760981029675,0.996212052033642,-0.015650271727103024,-0.001051304487733945,0.08553076134737778,0.015136795525904745,0.0012827633357590357,24864.96650254073
1682906233271410226,10,1682906233271410226,camera_1,12,1,0.02773613049954999,-0.2726701349240219,1.8688485976714453,0.9962620691891266,-0.015620125310514732,-0.0011060102888360308,0.08495103249240069,0.023986159940250218,0.0020330085946157063,24861.739305189116
1682906233278295516,11,1682906233278295516,camera_1,13,1,0.027735523578597723,-0.27258470190205353,1.8684089314264725,0.9961124030308839,-0.01583299168433507,-0.0015834175545492964,0.08664230889819038,0.015740876435302198,0.0013340575615067994,24861.017967957872
1682906233284663200,12,1682906233284663200,camera_1,14,1,0.02773662028178973,-0.2725635027194267,1.8682194792743507,0.9960610930704105,-0.015634850575491036,-0.001236825960326432,0.08727153362010466,0.01938864483963698,0.0016428138755683272,24861.692984125235
1682906233291210651,13,1682906233291210651,camera_1,15,1,0.02773325741138399,-0.2725472003551139,1.868250351623873,0.9961462329125929,-0.01568109760668745,-0.0018475327950128045,0.08627498162544782,0.01759983174270019,0.0014912449817093506,24867.75460750028
1682906233298404693,14,1682906233298404693,camera_1,16,1,0.027750890202846816,-0.27254366406854863,1.868037338263313,0.9960625167602621,-0.015797197977511803,-0.0005249256925018363,0.08723322586199186,0.012811209133360535,0.001085190687468803,24867.255311772817
1682906233304805278,15,1682906233304805278,camera_1,17,1,0.027729568801663614,-0.27252728662002323,1.867987588779551,0.9960393904236138,-0.015684707885599024,-0.0013543901717986242,0.08750821841611162,0.015274207980837673,0.001293976171943472,24866.04611061199
1682906233311256647,16,1682906233311256647,camera_1,18,1,0.027745033239121263,-0.2726261252056992,1.868565079114124,0.9961142004347352,-0.015778980355505134,-0.0018749103000315376,0.086625678540347,0.026749301759991795,0.002267164608686515,24856.69898939039
1682906233319176912,17,1682906233319176912,camera_1,19,1,0.027728582563094704,-0.27259549949760753,1.8683854673603995,0.9961386881847304,-0.015555281697056434,-2.1551194800151894e-05,0.0864045522439395,0.01653265079949051,0.0014007034688597378,24864.359329094877
1682906233323758602,18,1682906233323758602,camera_1,20,1,0.027728582563094704,-0.27259549949760753,1.8683854673603995,0.9961386881847304,-0.015555281697056434,-2.1551194800151894e-05,0.0864045522439395,0.01653265079949051,0.0014007034688597378,24864.359329094877
1682906233337141752,19,1682906233337141752,camera_1,22,1,0.027726823132148182,-0.2724520155304364,1.8675654791398424,0.9959077956754028,-0.015847385858635016,-0.0006510702512472717,0.08897246193028363,0.01946533442242071,0.001648392591559471,24866.90949604253
1682906233343783140,20,1682906233343783140,camera_1,23,1,0.02772083513816301,-0.27255254113175786,1.8682230893353717,0.9961274554216297,-0.015700520366433122,-4.8601689417442444e-05,0.08650770979125617,0.02016236598137766,0.0017078604910634218,24867.98071339668
1682906233350533723,21,1682906233350533723,camera_1,24,1,0.02773292110345933,-0.27256236838158837,1.86829310749405,0.9961005520806285,-0.01564762889534078,-0.0005123274947895763,0.08682499280252742,0.01665747829247266,0.0014113238375430804,24863.533404771704
1682906233357661485,22,1682906233357661485,camera_1,25,1,0.027716212268265816,-0.2725760802509207,1.868284232651159,0.9960956345404844,-0.015719675905285526,-0.0012233917716580791,0.08686127993182859,0.013643962680362165,0.0011561461373115459,24862.98641336243
1682906233364359378,23,1682906233364359378,camera_1,26,1,0.02771909863754256,-0.2725439832999691,1.86806351161669,0.9961683678862467,-0.015783642745054786,-0.0020981719505806743,0.08599451795907423,0.020402974740136415,0.0017285291932719624,24874.422212507347
1682906233371100664,24,1682906233371100664,camera_1,27,1,0.02773223487684834,-0.2725967243922511,1.868346610662904,0.9961050760656469,-0.015728977130760283,-0.0009551583031371323,0.08675462170563486,0.023886873736046258,0.00202399594226753,24862.206091555992
1682906233378051757,25,1682906233378051757,camera_1,28,1,0.027728333147539603,-0.27258292046675103,1.868299550535229,0.9961109971802505,-0.015775127150409202,-0.0009457187654261386,0.08667832644884267,0.02100474515464157,0.0017796011992815544,24864.067627425644
1682906233385002613,26,1682906233385002613,camera_1,29,1,0.027741357957935673,-0.2725794558648236,1.8683978529195069,0.9961817939201775,-0.01566528878629673,-0.0011628770950405246,0.08587828541651742,0.019966502499300987,0.0016917978215740994,24867.137332994498
1682906233391035795,27,1682906233391035795,camera_1,30,1,0.027741116197572,-0.2725456650840479,1.8681517770010005,0.9961444500606018,-0.015706053202020624,-0.002588795794855238,0.08627196904330507,0.01197238883469254,0.00101449437273822,24869.744940884877
1682906233397635698,28,1682906233397635698,camera_1,31,1,0.027740836286540525,-0.2726287064592353,1.8686521092270427,0.9962040177909564,-0.015637449628437283,-0.0009449424982959006,0.08562787040414373,0.022742383822333068,0.0019272832251301054,24862.29644198693
1682906233404490470,29,1682906233404490470,camera_1,32,1,0.02773031826296809,-0.2725554654336043,1.8682439049640587,0.9961411798638926,-0.015626459722088912,-0.0009307646269191188,0.08635795975551577,0.01393489062320441,0.0011806250933303877,24867.956408938626
1682906233411071062,30,1682906233411071062,camera_1,33,1,0.0277241026397003,-0.2725320847131779,1.868029431701572,0.9961183852455564,-0.015767698182103062,-0.0010348226379067245,0.08659371462139523,0.0189518075203523,0.0016052767651059568,24871.82739634998
1682906233417786121,31,1682906233417786121,camera_1,34,1,0.027720331427938054,-0.27259498540556115,1.8684197958517401,0.9961148571076042,-0.015712556460999526,-0.0016687317500869421,0.08663441783323637,0.011064008169341832,0.0009376951931201625,24860.731751995627
1682906233424659729,32,1682906233424659729,camera_1,35,1,0.027718618647718147,-0.27251296380838025,1.8678843203966327,0.9961181629681494,-0.015809048744955468,-0.0015667474235473312,0.08658074084488991,0.0173227182822302,0.0014672516373341407,24875.380778254592
1682906233431294441,33,1682906233431294441,camera_1,36,1,0.027727734821038685,-0.27255254323811523,1.868225693747,0.9962287481122667,-0.015886505448815338,-0.0026316379375688845,0.0852582832401404,0.011323207581881434,0.0009594253889471788,24875.034857481485
1682906233438276052,34,1682906233438276052,camera_1,37,1,0.027747670789170044,-0.27263917414139605,1.8687724704771729,0.9961861847374718,-0.0156906584598587,-0.0015937792882042892,0.0858157820151765,0.022239885001908988,0.0018852192214982644,24857.31883507945
1682906233444732666,35,1682906233444732666,camera_1,38,1,0.02772036658648957,-0.27250409123579783,1.8678606276587175,0.9961053232265905,-0.01586168921699855,-0.0026755241978095082,0.08669159950710284,0.01785118569387123,0.0015122688124088372,24874.33942215272
1682906233451088190,36,1682906233451088190,camera_1,39,1,0.027728021389204778,-0.2725653261187867,1.8682602927741074,0.9961163192623625,-0.01575333357959301,-0.001152177122173917,0.08661860924889142,0.020081600814592093,0.0017014437451154621,24865.436961837917
1682906233458076953,37,1682906233458076953,camera_1,40,1,0.027734362768710656,-0.2726044973115489,1.8683796860411337,0.9961106358096805,-0.015621774804537207,-0.0015299452473799297,0.08670190682061515,0.021262250025756657,0.0018017898694984128,24861.31188569869
1682906233464741230,38,1682906233464741230,camera_1,41,1,0.02774282478878119,-0.2726284324921852,1.8685435218719357,0.9960904546292071,-0.0156438590576838,-0.0008318117147021244,0.08693896686546423,0.027186138147953898,0.002303927846757564,24855.717236041433
1682906233471051692,39,1682906233471051692,camera_1,42,1,0.027719402606482486,-0.2725609929827222,1.8681965086698902,0.9961825047271134,-0.015786417073076684,-0.002480620015537547,0.08581988601686692,0.014383896545041353,0.001218796150395868,24871.87069520331
1682906233477803945,40,1682906233477803945,camera_1,43,1,0.02775161129642508,-0.2726949057772784,1.868945176355845,0.99622736825841,-0.015649819547865547,-0.001840928450686152,0.08533888248319833,0.021106143365614116,0.001789291829457625,24855.86015548115
1682906233484438419,41,1682906233484438419,camera_1,44,1,0.027722062220783057,-0.2725129560998492,1.8679075735371884,0.9959998910506209,-0.015661411294267364,-0.0014976413621339186,0.08795848051082801,0.01547250006115064,0.0013107768682424237,24864.766963039987
1682906233491112232,42,1682906233491112232,camera_1,45,1,0.027721480502304354,-0.2725599141486298,1.8682058907847725,0.9961651411344795,-0.015658938700006488,-0.0009669705790771884,0.08607481742769663,0.014530516637023538,0.0012309944112059911,24870.944818429176
1682906233497666120,43,1682906233497666120,camera_1,46,1,0.027749001860937157,-0.27262562295712306,1.8685987325753184,0.9961505253152886,-0.01568299072022018,-0.001289163119375458,0.0862352177164048,0.020539722114335746,0.0017407521949912865,24859.094651119565
1682906233504603862,44,1682906233504603862,camera_1,47,1,0.027721690133356215,-0.27247424410976573,1.8677627845729876,0.9960793257522578,-0.015853140111398035,-0.0020512048184881003,0.08700831751234192,0.014257354254368693,0.0012076662679940866,24875.212757201287
1682906233511354684,45,1682906233511354684,camera_1,48,1,0.027734071364865703,-0.27256597883895795,1.8683673418515414,0.9961113968140458,-0.015769753807565835,-0.0009571153699743462,0.08667458642640226,0.015507774834986776,0.001314034104113715,24862.40359692811
1682906233518188238,46,1682906233518188238,camera_1,49,1,0.027725191961731302,-0.2726490593000243,1.8688202845552622,0.9961788612168506,-0.01563451836364154,-0.0011826786196500578,0.08591763248320207,0.02401526819448918,0.00203559381071807,24855.640752045445
1682906233524768829,47,1682906233524768829,camera_1,50,1,0.027733798208214845,-0.27253896532335703,1.8681272039749557,0.9961842359527456,-0.015818292247312744,-0.002807195182139844,0.0857838523548125,0.013893708179239184,0.001177270532075304,24873.722825680634
1682906233531213521,48,1682906233531213521,camera_1,51,1,0.027708877825480354,-0.2725672934185116,1.8683922273449558,0.9962856382672305,-0.015676328773853637,-0.0016040958631703224,0.08465581241174783,0.011151009239256382,0.000944802574656658,24875.766250209068
1682906233537956953,49,1682906233537956953,camera_1,52,1,0.027736244187244755,-0.27259963510730206,1.8685655279492588,0.9961464980975241,-0.015615682411351682,-0.0013360262242180804,0.08629322003955824,0.019408522348385304,0.0016448964234206038,24859.619378410152
1682906233544780731,50,1682906233544780731,camera_1,53,1,0.027719800663131275,-0.27261653969677274,1.8684109018005899,0.9961488717466868,-0.015589036075877973,0.00016652843347263898,0.08628081791631889,0.021081744984257966,0.0017859227316553482,24864.630070148047
1682906233551568984,51,1682906233551568984,camera_1,54,1,0.027726439130939574,-0.27256668092562225,1.8683201284315152,0.9962581151165399,-0.01571699942945847,-0.0015805551163395627,0.08497202974448465,0.014445363136474041,0.0012238751603344707,24875.389629198133
1682906233558394193,52,1682906233558394193,camera_1,55,1,0.027728942286354766,-0.27252171873306946,1.8679844916160233,0.9960884279327601,-0.01570924693932723,-0.0013677198353694204,0.08694361760068368,0.011212206562049687,0.0009498745842089241,24870.265427657276
1682906233564705371,53,1682906233564705371,camera_1,56,1,0.02772126025406307,-0.2725973661481711,1.8685120275565243,0.9962662971501982,-0.015676878814992048,-0.00022841896865204866,0.08489787075084823,0.01944000186631456,0.001646982815922099,24871.716342329983
1682906233571249485,54,1682906233571249485,camera_1,57,1,0.027731465841340633,-0.27256560846756317,1.8682521643410044,0.9960756773743173,-0.01566856438324301,-0.0014325612714788554,0.08709585984228306,0.01722493948182091,0.0014595452723774529,24861.992484713086
1682906233577838897,55,1682906233577838897,camera_1,58,1,0.02774100690073098,-0.2725807530755409,1.8684284879303883,0.9963082428398524,-0.01582034331015875,-0.002966840515546113,0.08432555866562409,0.021080584439914674,0.001786325558561903,24875.92959448346
1682906233584584712,56,1682906233584584712,camera_1,59,1,0.027723309417151742,-0.2726483246375443,1.8685871173554918,0.9961196449158468,-0.015648872921648998,-0.0004212853079299819,0.0866059369079214,0.020318125549238175,0.0017218227020632886,24857.225029181805
1682906233591044664,57,1682906233591044664,camera_1,60,1,0.0277261456443507,-0.27250816431205266,1.8679365116405868,0.996021676025622,-0.01580750448657833,-0.0001557234299349164,0.08769788731338504,0.0168591100955382,0.0014279146833273317,24866.836375808223
1682906233598192453,58,1682906233598192453,camera_1,61,1,0.027743342310285333,-0.2726226182228404,1.8686289690515614,0.9962534499839398,-0.01570544224845798,-0.001258176803239841,0.0850342252861163,0.01018769678194076,0.0008633724657276042,24866.955395264657
1682906233604619503,59,1682906233604619503,camera_1,62,1,0.027740710576533278,-0.27251812873654757,1.86802317706813,0.9961753429456575,-0.015775506149917556,-0.0029294886774710233,0.08589084706128028,0.019450781517662108,0.001647850549217914,24875.62165968994
1682906233611177921,60,1682906233611177921,camera_1,63,1,0.02772279401694174,-0.2725129270890667,1.8679065419083178,0.996045959044959,-0.015761592001007216,-0.0018231765116246208,0.08741107318417421,0.012118062935769558,0.0010266079990012772,24868.57736597769
1682906233617537975,61,1682906233617537975,camera_1,64,1,0.027725778963193635,-0.27254768310772154,1.8680713231366652,0.9960975186210206,-0.015780780933522035,-0.0024658171759621332,0.08680218946448548,0.014493882830720395,0.001228074323295615,24868.091377323373
1682906233624645948,62,1682906233624645948,camera_1,65,1,0.027743684538803152,-0.2726147319883774,1.8685845760642712,0.9962535979774872,-0.015758579782066667,-0.0023143747679994337,0.08500046676105204,0.016951088444329798,0.0014367102511439762,24867.543911875124
1682906233631253242,63,1682906233631253242,camera_1,66,1,0.027732906275538042,-0.2726130428207635,1.868416601254854,0.9961861522453257,-0.01573976323120636,-0.001713588048833298,0.08580485734547577,0.02055056201061234,0.0017412985354613001,24866.66841955902
1682906233638154506,64,1682906233638154506,camera_1,67,1,0.02772245303023187,-0.2725660636959881,1.868388810350057,0.9961826754639521,-0.01570159893650914,-0.0015687898488381939,0.0858549695400883,0.01729737187270075,0.0014657567222610315,24867.32150621352
1682906233644953250,65,1682906233644953250,camera_1,68,1,0.027751429213800596,-0.27257955464554096,1.8684746078218373,0.9961962884736051,-0.015778400167432625,-0.002649031151495352,0.08565617055138879,0.012991339492145926,0.0011010982562504425,24865.60167057102
1682906233651452064,66,1682906233651452064,camera_1,69,1,0.027737062533502402,-0.27266063675229735,1.8688075820667007,0.9962476762562987,-0.015618884803209991,-0.0010381397715870746,0.08512073928980961,0.024193215707782656,0.0020503815688859375,24861.69686820532
1682906233658251523,67,1682906233658251523,camera_1,70,1,0.027741268473894343,-0.27264796757812515,1.868727810054596,0.9961042155158845,-0.015675862533169767,-0.0011159803242908497,0.08677219458583207,0.02326066803652793,0.0019716914830835586,24851.899122519426
1682906233664635419,68,1682906233664635419,camera_1,71,1,0.0277498563791315,-0.27259420621803676,1.8683684920954524,0.9960740029038425,-0.015662446567264836,-0.0013528565537771142,0.08711738222529639,0.019436106726061553,0.001647077381121022,24858.74019537482
1682906233671018600,69,1682906233671018600,camera_1,72,1,0.027731812323772472,-0.2724969864267842,1.867778240545071,0.9960937319085316,-0.015811861003283502,-0.0011327148765882995,0.08686759615158998,0.01865189737873152,0.0015795466442352505,24876.41676895738
1682906233678137779,70,1682906233678137779,camera_1,73,1,0.02770813155489414,-0.2725578366727167,1.8680827969751812,0.9960920258080487,-0.015723987872320565,-0.0003857629349985654,0.08690962843072582,0.015480027126614004,0.0013113580199456347,24868.474754278293
1682906233684598207,71,1682906233684598207,camera_1,74,1,0.02773215257413244,-0.27256592018047826,1.8682242863451388,0.9960954653596301,-0.015679887040432054,-0.0013354447620394258,0.08686876089635906,0.02451463823672384,0.0020769572684332183,24864.42524158059
1682906233690979003,72,1682906233690979003,camera_1,75,1,0.027726126464463083,-0.2725396304979617,1.8681624087969588,0.9961827119865473,-0.015845724621217267,-0.0021332776770032306,0.08581588708805157,0.012030557147227228,0.0010193007989700096,24873.152776218943
1682906233697807073,73,1682906233697807073,camera_1,76,1,0.027729868812554917,-0.2726121653205882,1.8684462987604733,0.9961145012837497,-0.01577975100689736,-0.0012492105004380531,0.08663336114634278,0.024303031736053526,0.0020595175330706296,24860.236802380517
1682906233704484939,74,1682906233704484939,camera_1,77,1,0.027699979683692505,-0.27255461213418325,1.8680223680030426,0.9960773228877176,-0.015668890556581806,-8.767793709950788e-05,0.08708871918993198,0.01861471578013152,0.0015766084445293642,24868.945332801562
1682906233711000204,75,1682906233711000204,camera_1,78,1,0.027708276355078696,-0.272536562080346,1.8681234265041329,0.996089370406707,-0.015642602445908295,-0.0019957341060528764,0.08693268773520886,0.016929684323258698,0.0014344797997842714,24866.224644471877
1682906233717883825,76,1682906233717883825,camera_1,79,1,0.027732905264857645,-0.2725954166386586,1.8684254811877945,0.9961140272986321,-0.015667257092239643,-0.0016724883184296663,0.08665208858954719,0.014672881690785289,0.0012435854495739633,24860.42316307395
1682906233724845409,77,1682906233724845409,camera_1,80,1,0.027748610656875606,-0.27261350719415745,1.8685114326518324,0.9960881326379719,-0.01569536755600278,-0.0019446437018888656,0.08693851744740563,0.02651427366072312,0.002247322552564548,24855.801910884686
1682906233731360912,78,1682906233731360912,camera_1,81,1,0.027725222697981423,-0.27251964081211455,1.8679911131391307,0.9961748457039239,-0.015797718707657296,-0.002472110545389488,0.08590691206095372,0.011439812020398676,0.0009691080609980464,24876.759561831954
1682906233738187789,79,1682906233738187789,camera_1,82,1,0.02772204585384404,-0.27255807258158965,1.8682662458207089,0.9961713287952144,-0.01564724179328956,-0.0002752153504206308,0.08601030035495844,0.015006334520876408,0.00127125105336154,24870.29480784481
1682906233745061159,80,1682906233745061159,camera_1,83,1,0.02771619250998926,-0.27255938835084537,1.8680952582251686,0.9960905280319265,-0.015673022202363572,-0.0023151671077174794,0.0869060201676804,0.02090230124304071,0.0017710264091319286,24866.788859016036
1682906233751406431,81,1682906233751406431,camera_1,84,1,0.027732571396054798,-0.2725917458967191,1.868381711135097,0.9960617142848546,-0.015567760342770815,-0.0009452880255304884,0.08728008137241655,0.014145529712550342,0.001198770558571681,24857.52966718981
1682906233758136272,82,1682906233758136272,camera_1,85,1,0.027723731109832565,-0.27253700427405364,1.8681424719751256,0.9961691973097898,-0.015720977560166084,-0.002154398079510684,0.08599499848617397,0.015823795285541564,0.0013406617175901966,24872.375223733034
1682906233764637470,83,1682906233764637470,camera_1,86,1,0.027733958485565608,-0.27249341236649477,1.8677005401735565,0.995972619562533,-0.015627272076662525,-0.0005870377863501687,0.08828354793405883,0.018126690993085504,0.0015350899066116452,24868.425529640168
1682906233770696640,84,1682906233770696640,camera_1,87,1,0.02773873221723551,-0.2725556769336492,1.8682756447585422,0.9961072716624636,-0.015647875262858275,-0.001459566494514014,0.08673705670916496,0.016074610757641494,0.0013620677940964824,24864.010854605694
1682906233777441501,85,1682906233777441501,camera_1,88,1,0.02774631597111922,-0.27253747215544777,1.8681846507609765,0.9960705065908354,-0.015685627075643537,-0.0033061796872839604,0.08710095394997482,0.01990996889071539,0.001687372541420947,24862.276384439778
1682906233784108400,86,1682906233784108400,camera_1,89,1,0.027731333376559666,-0.2726179016274787,1.8685537076752783,0.9961343918042573,-0.01577468157679355,-7.126738623347022e-05,0.0864142801096719,0.015929697605315596,0.001349844318966723,24859.803285028436
1682906233790717840,87,1682906233790717840,camera_1,90,1,0.027733244822399947,-0.27258930965564326,1.8683037492899357,0.996148826093722,-0.015742977982693997,-0.001005167694527974,0.08624769303721677,0.018683248083107173,0.001582917656996832,24866.998317994876
1682906233797587394,88,1682906233797587394,camera_1,91,1,0.027729608303865685,-0.27251460904701436,1.867900118268896,0.9960470134467332,-0.01571299690231486,-0.0007069359384621494,0.08742396109631605,0.01402182213496417,0.0011876156876034526,24869.438371133067
1682906233804443359,89,1682906233804443359,camera_1,92,1,0.027726205284972577,-0.27255188853457335,1.868253734172807,0.9963091314395007,-0.01579784281972077,-0.0025302827630377706,0.08433350722963104,0.011631389497779308,0.000985421906791,24880.938265282435
1682906233810930013,90,1682906233810930013,camera_1,93,1,0.02775073491970184,-0.27245841865119,1.867760762335309,0.9961027319374915,-0.01596758463746266,-0.002391374842165199,0.08671023580798067,0.014526931918226182,0.0012304565367233873,24877.20062840321
1682906233817776441,91,1682906233817776441,camera_1,94,1,0.027751069887882673,-0.2725739124233592,1.8684929823099996,0.9963132848147486,-0.01582366884769022,-0.0032288401401778847,0.08425570958216176,0.015221008623484524,0.0012899587539018623,24874.54885042482
1682906233824379920,92,1682906233824379920,camera_1,95,1,0.027720068626619774,-0.2725735636283266,1.8681916101961826,0.9960537493903335,-0.015598902193480356,-0.0006083137325012558,0.0873683725968369,0.013589674374088647,0.0011514342193373304,24862.105711119497
1682906233831144809,93,1682906233831144809,camera_1,96,1,0.027744829870389044,-0.2725764001622226,1.8683975554011396,0.9963250783541177,-0.01576445813905098,-0.0032005876593994833,0.08412833256922324,0.01894406060455367,0.0016053232996392798,24877.925291608673
1682906233837699651,94,1682906233837699651,camera_1,97,1,0.02774782121862843,-0.2725995877100667,1.8685960052637438,0.9963158528647201,-0.015718897857555307,-0.0013850723022682634,0.08429542784342689,0.018561983481049538,0.001572790483264862,24872.995367856238
1682906233844405651,95,1682906233844405651,camera_1,98,1,0.027730191673586427,-0.27264879356046295,1.8688045168490768,0.996247737276001,-0.015593508803635294,-0.0007222206835979364,0.08512794401912549,0.018391347548458725,0.0015587311601529003,24861.99126817042
1682906233850966453,96,1682906233850966453,camera_1,99,1,0.027726896797464325,-0.27267659896933255,1.8688599413630758,0.99623993570556,-0.015484806686428612,-0.0016140566647160435,0.08522679208059343,0.021587895636912435,0.001830025528101134,24859.11602648884
1682906233857755184,97,1682906233857755184,camera_1,100,1,0.027728866142242677,-0.27260480083504274,1.8685969365025685,0.9962657417672752,-0.015696753513015586,-0.0008562108637315472,0.0848967055486225,0.014848806313239038,0.001258241399454012,24869.10243731666
1682906233864269256,98,1682906233864269256,camera_1,101,1,0.02773397189430857,-0.2725777383511227,1.8682738980735767,0.996091140046503,-0.01567083504780031,-0.002489688421171619,0.08689457463690171,0.017448083497583866,0.0014787674004247049,24862.006723985556
1682906233870939731,99,1682906233870939731,camera_1,102,1,0.027727057262484325,-0.2726181632161335,1.8685929296018906,0.9963280195612791,-0.015559909306290844,-0.002982514564783197,0.08413959392788972,0.0238984624738805,0.0020255525598595345,24872.81891260507
1682906233877818822,100,1682906233877818822,camera_1,103,1,0.027727551726755128,-0.2726483962280435,1.8687770787606603,0.9962538897583971,-0.015692335693917283,-0.00078019515369121,0.08503722148127396,0.01876748289214447,0.0015905402956485262,24863.30699109589
1682906233884458303,101,1682906233884458303,camera_1,104,1,0.027729088035231497,-0.2725154900905806,1.867834776643932,0.9960157485128492,-0.015753720085973914,-0.0012324233249336439,0.08776633836836228,0.013530578813515605,0.0011461508219456039,24868.233837991946
1682906233890982389,102,1682906233890982389,camera_1,105,1,0.027726121722409812,-0.2725149558904084,1.8679665578376814,0.9961572743927893,-0.015720285461349858,-0.0025648547320984085,0.08612188351136997,0.022514433425385505,0.0019072421694452772,24875.75859337626
1682906233897837638,103,1682906233897837638,camera_1,106,1,0.02772526017488168,-0.2725982161335571,1.8684159115141827,0.9960780655795631,-0.015596772327488084,4.261106180664387e-05,0.08709320380223358,0.013131562038324773,0.0011126471629694528,24858.62330318719
1682906233904599905,104,1682906233904599905,camera_1,107,1,0.027724420206723055,-0.2726352941954604,1.868679453081338,0.9961865380259755,-0.015576995928390023,-0.002369314088968094,0.08581448015583824,0.02042268990771845,0.0017312694839090538,24859.175544189282
1682906233911189556,105,1682906233911189556,camera_1,108,1,0.02774781573659893,-0.27270359485027845,1.8691364513029634,0.9963178536437307,-0.01564448919150793,-0.001526819415216784,0.08428317323855247,0.021423561323899776,0.0018162539990662296,24858.557141463858
1682906233918149471,106,1682906233918149471,camera_1,109,1,0.02773304605864414,-0.27259834483100653,1.8685701968586368,0.9962481085180959,-0.015581625090429452,-0.003105834111643847,0.08507216365021232,0.01992828625952825,0.0016891392065071001,24866.818316070814
1682906233924784898,107,1682906233924784898,camera_1,110,1,0.027749514769426296,-0.27259815580180063,1.8685749348761054,0.9962013574008353,-0.01579635132179065,-0.0016124173745563168,0.08561968761833984,0.019775213790126145,0.0016758932249140164,24863.995571060572
1682906233931532859,108,1682906233931532859,camera_1,111,1,0.02772770342498803,-0.2725674443157349,1.8681813009355495,0.9960765747086747,-0.015652474080524205,-0.0012644658522543055,0.08709109310314686,0.01869751256890595,0.0015841625803528995,24863.97296971525
1682906233938298940,109,1682906233938298940,camera_1,112,1,0.02774868933802043,-0.2726056676693844,1.8684726418604394,0.996143743630162,-0.015663945277478553,-0.0008573350395100224,0.08632234833147305,0.022870097891427577,0.0019378494508615384,24862.110412907547
1682906233944967508,110,1682906233944967508,camera_1,113,1,0.027737307625893326,-0.2725825950318148,1.8684226170280431,0.9962761924846424,-0.01565390130351463,-0.003076028610060286,0.08473040605516981,0.015454947599209845,0.0013097576319734477,24873.153691330106
1682906233951669216,111,1682906233951669216,camera_1,114,1,0.02772070437278537,-0.2726208815912731,1.8684490126969207,0.9961380178103818,-0.015604646057478274,-0.0005614825242552928,0.08640155803918899,0.01745447184657678,0.0014789958407965867,24862.305770566916
1682906233958369970,112,1682906233958369970,camera_1,115,1,0.02774521342878304,-0.2726093944587426,1.8686008649814634,0.9962425390376235,-0.015752178288709107,-0.001028388079454724,0.0851564131994073,0.013763979659415781,0.0011663421468283846,24867.019811272396
1682906233964710235,113,1682906233964710235,camera_1,116,1,0.02775130386869493,-0.2725710424190748,1.8684046067373437,0.9961968803687511,-0.015827581097526813,-0.0026826859034346073,0.08563916403441242,0.016907902259845287,0.0014329343314039547,24867.526458510667
1682906233971057415,114,1682906233971057415,camera_1,117,1,0.027726353068393356,-0.27255589814167447,1.8681327549773823,0.9961314453051219,-0.01565371498848002,-0.0011369272456517195,0.08646277972530444,0.012098159524612129,0.001024897212891348,24869.95504022738
1682906233977851152,115,1682906233977851152,camera_1,118,1,0.02771205297983586,-0.2724817067261857,1.8677720080351154,0.9960337794998483,-0.015809699463711337,-0.002667923450348836,0.08751940174942947,0.01645982766058296,0.0013945174280681834,24870.69692582439
1682906233984394788,116,1682906233984394788,camera_1,119,1,0.02773005209678223,-0.27248077262747983,1.8678012195050644,0.9960922925919784,-0.015807104032456876,-0.001876361610294568,0.08687208624219261,0.014017349050845947,0.0011873061468463473,24875.317295491586
1682906233991197109,117,1682906233991197109,camera_1,120,1,0.027739956186909772,-0.27255013520524995,1.868191437036067,0.9961687417112715,-0.015693317871125115,-0.0014902994292437185,0.08601939792389386,0.016801640565972775,0.0014233863801005919,24871.376204933957
1682906233997761964,118,1682906233997761964,camera_1,121,1,0.027733722323862328,-0.27252956176330384,1.8679536196164104,0.9960741742459123,-0.01571522163018746,-0.002734585883668769,0.08707349338049485,0.018266585539095104,0.0015476238210263473,24869.002706562285
1682906234004294395,119,1682906234004294395,camera_1,122,1,0.027727314789128252,-0.2726198345037903,1.868578989324689,0.996129310318222,-0.015615265094810052,-0.0013695844223064761,0.08649095247176142,0.015809075150173157,0.0013399179285812715,24857.755888444142
1682906234011096239,120,1682906234011096239,camera_1,123,1,0.027752002820207886,-0.27254394313116254,1.8680767787756636,0.9960908000811952,-0.01581543866900375,-0.001542553353842081,0.08689424850047325,0.02248842886183411,0.0019050970360343243,24867.977954514783
1682906234017691850,121,1682906234017691850,camera_1,124,1,0.027725470993683884,-0.27255780621450043,1.8682333363820423,0.9960863903491104,-0.0156699245029354,-0.0025068990755290526,0.08694867385059571,0.02183949708705768,0.0018508410719474371,24862.72839437099
1682906234024453163,122,1682906234024453163,camera_1,125,1,0.027753736913200544,-0.2725703751144216,1.8683890774144445,0.9962222601473434,-0.01575212152872019,-0.002931439746484082,0.08534919867975392,0.015334569208789617,0.0012995654793844528,24869.79552367702
1682906234031000137,123,1682906234031000137,camera_1,126,1,0.027732765779377347,-0.2725322918092365,1.8682261521255734,0.9962253606300626,-0.01569744821440693,-0.00277961787437245,0.08532815878436628,0.013665010861586781,0.0011578952997796314,24874.477365051738
1682906234037779092,124,1682906234037779092,camera_1,127,1,0.027739848985514348,-0.2725561621396274,1.8682444447255755,0.9961336574871489,-0.015729450928196873,-0.0013311001960291465,0.08642076698942915,0.01608271960867569,0.001362602761546372,24867.200309505228
1682906234044478416,125,1682906234044478416,camera_1,128,1,0.027732921241307086,-0.27250275596414353,1.8679222764381131,0.9960410594505186,-0.01578067499923931,-0.002560259430568498,0.08744497273660169,0.01410753873642534,0.0011952892266736143,24867.359270232606
1682906234050915002,126,1682906234050915002,camera_1,129,1,0.027739350441216087,-0.27257298389239304,1.868397672709918,0.9961519196794181,-0.015822215562899027,-0.002431285490566654,0.08616901568751317,0.018602432392071933,0.0015765897704032139,24864.110152014182
1682906234057757139,127,1682906234057757139,camera_1,130,1,0.027718839631542633,-0.2725270858697713,1.8680528175183801,0.9961510521826171,-0.015693540078496864,-0.00239215052388701,0.08620366379186319,0.017792920756619427,0.001507467596375056,24873.041864253933
1682906234064437866,128,1682906234064437866,camera_1,131,1,0.027740512095954045,-0.2725514379531452,1.8682324438965456,0.9961862549347249,-0.01578296024920263,-0.0015070614113666485,0.08579960612264959,0.01735602261032909,0.0014703980630454776,24871.862212295182
1682906234071066141,129,1682906234071066141,camera_1,132,1,0.027731277042253123,-0.27255899940154826,1.8681501355480485,0.9961771425700275,-0.01581686808059957,-0.001697619905659676,0.08589554931305676,0.0192781233927235,0.0016331295825603384,24873.13889759244
1682906234077763080,130,1682906234077763080,camera_1,133,1,0.02774569778626597,-0.2726052010771894,1.868618581883533,0.9962115762683496,-0.015761436693550804,-0.0012124739678487277,0.08551375520442743,0.020346222969237715,0.0017241990101083493,24863.890399296182
1682906234084511041,131,1682906234084511041,camera_1,134,1,0.02774415991646273,-0.27260880467066767,1.8684835445965442,0.996155373651628,-0.01568995285870364,-3.128560898821516e-05,0.08618756259163791,0.021323338034562767,0.0018066242427797557,24863.29911445034
1682906234090987682,132,1682906234090987682,camera_1,135,1,0.027723618978633943,-0.27257739669743075,1.8682915767358783,0.996155308401647,-0.01565726157360538,-0.0007428618280782348,0.08619106600767569,0.013654997921548784,0.001156844403492212,24867.979037974474
1682906234097760677,133,1682906234097760677,camera_1,136,1,0.027729810368437243,-0.27258901688401144,1.8683867685822764,0.9961782847604089,-0.015667255643127806,-0.0011957938926998096,0.08591817124094786,0.023706197505816817,0.002008547031482919,24867.086085500778
1682906234104373455,134,1682906234104373455,camera_1,137,1,0.027733200741651292,-0.2726094700505968,1.868372605466329,0.9961122747185331,-0.015838646976490487,-0.0018289048187784098,0.08663791620409521,0.022863752266857773,0.0019375307568058407,24861.702602269834
1682906234111037254,135,1682906234111037254,camera_1,138,1,0.02775126928286804,-0.2726099629219213,1.8685827938194102,0.9961962182943996,-0.01568672010633615,-0.0017705325619541124,0.0856964799900766,0.017525105737149715,0.0014852480715212561,24863.094262187245
1682906234117914199,136,1682906234117914199,camera_1,139,1,0.02772289852234476,-0.2724836819138946,1.8678174852132434,0.996052280941078,-0.015630897156313144,-0.0024084567897000955,0.08734831436299711,0.010346155671868473,0.000876539801974727,24871.00581981497
1682906234124331235,137,1682906234124331235,camera_1,140,1,0.027728458430294513,-0.2725245948422692,1.8680089866809495,0.9961073617390499,-0.01574244834203975,-0.0020286569616280955,0.08670746081162822,0.013126613455824554,0.0011121334286076981,24870.834313066684
1682906234130915641,138,1682906234130915641,camera_1,141,1,0.027728754208079406,-0.27249851228009986,1.8678598721419533,0.9961461659269472,-0.015749785010710456,-0.001976013397462768,0.08626039503858582,0.01789609034312889,0.0015157026762851046,24878.089545980565
1682906234137726545,139,1682906234137726545,camera_1,142,1,0.02772420496885969,-0.27247732171996125,1.8676431720469813,0.9960586525142522,-0.015603430654702648,-0.0005455651541614104,0.08731206137733043,0.01677081297384575,0.0014200831093083295,24877.15742062148
1682906234144397497,140,1682906234144397497,camera_1,143,1,0.027732427815917338,-0.27252570892244227,1.8679629655801624,0.9961109478732669,-0.0156472069267049,-0.002983761382530727,0.08665588041458377,0.01612494618166238,0.0013662531804038804,24871.595854799267
1682906234150953769,141,1682906234150953769,camera_1,144,1,0.027745559266007025,-0.27257015853986444,1.8683910872011906,0.9960849821719958,-0.01575653563221602,-0.0028115522093420512,0.08693983580879147,0.016083133697975427,0.0013632694560343195,24858.403765512296
1682906234157830715,142,1682906234157830715,camera_1,145,1,0.02773338771626158,-0.27257784495953646,1.8683156471702134,0.996068879266195,-0.01577492842592225,-0.001032121232177393,0.08716004885442367,0.014775616466067731,0.00125206388243236,24860.10393133003
1682906234164205074,143,1682906234164205074,camera_1,146,1,0.027731439743478428,-0.27251285092115024,1.867955237082292,0.9960409565445432,-0.015816145266570117,-0.001625093328473903,0.08746211469208898,0.014836683520115912,0.0012569366298956176,24867.071376440806
1682906234170695066,144,1682906234170695066,camera_1,147,1,0.027736796293406057,-0.27259318052499126,1.8685165602724425,0.9961449967158577,-0.015786357095921178,-0.0021117844070368263,0.08626399488907392,0.01554818794829771,0.0013178463527472963,24860.539639663766
1682906234177594184,145,1682906234177594184,camera_1,148,1,0.027734043282193786,-0.27256459318157855,1.86819467807552,0.996050466648439,-0.015805914778134957,-0.0017787257639735464,0.08735260203399631,0.020197100006043914,0.0017113891686583592,24861.340780164464
1682906234184324026,146,1682906234184324026,camera_1,149,1,0.027737139882088188,-0.2725936992547524,1.8683771146050148,0.9962531355039911,-0.01590417516169082,-0.002546612720887405,0.08497212469123354,0.019229218771215528,0.0016294279281018741,24873.010556073517
1682906234190815210,147,1682906234190815210,camera_1,150,1,0.02773798599470386,-0.27260305720647177,1.8685896412085696,0.9962182855448668,-0.01565346735599969,-0.0011498993485328246,0.08545627090664142,0.013662627141457051,0.0011578763705269541,24865.119485425766
1682906234197766065,148,1682906234197766065,camera_1,151,1,0.02774037379593979,-0.2726120519210367,1.8686622727940339,0.9961987820772451,-0.015547026445792717,-0.0015034378368770317,0.08569723584327486,0.019534992694389075,0.0016558474070491685,24861.209058150882
1682906234204407215,149,1682906234204407215,camera_1,152,1,0.02772193985244665,-0.27244963233582836,1.867508361418889,0.996019919520247,-0.015793229068987263,-0.000739502629952965,0.08771742683364198,0.012589698075316846,0.0010659700481661899,24877.67732055974
1682906234210978507,150,1682906234210978507,camera_1,153,1,0.027737015039058253,-0.27258116655767906,1.8683127849288141,0.9961880409945455,-0.015735064731487558,-0.0027843213145197776,0.08575571276692542,0.02192640636349097,0.001858158750571164,24868.941606269684
1682906234217769145,151,1682906234217769145,camera_1,154,1,0.02774221796741427,-0.27259257041721513,1.8686168022596816,0.9963027017805834,-0.01584262087883391,-0.0019340679309804657,0.0844168062037284,0.011789195879828185,0.000999117182900219,24871.235221595147
1682906234224514484,152,1682906234224514484,camera_1,155,1,0.027712882447178896,-0.27248844977004033,1.867718000835028,0.9959759615563472,-0.015684426243348558,-0.00029779181347224155,0.08823714691309242,0.012872542603872716,0.0010901890621499578,24868.527125710505
1682906234230937004,153,1682906234230937004,camera_1,156,1,0.027720157150917996,-0.2724667053651292,1.867623657474786,0.9961279869879984,-0.015599995113956258,-0.002467569744234353,0.08648459279686663,0.01515506935538724,0.0012834186018307048,24882.346833741285
1682906234237771511,154,1682906234237771511,camera_1,157,1,0.027745894999390744,-0.27253225697348493,1.8680792631766883,0.9961825132857403,-0.0157567273911166,-0.001497305079922164,0.08584802760183588,0.01851433952106163,0.0015683267132236389,24875.559116965393
1682906234244464397,155,1682906234244464397,camera_1,158,1,0.027738283037934536,-0.2726248490870822,1.8686877782750653,0.9961463782409549,-0.015713589561762154,-0.00202487498824938,0.08626341114166154,0.02315353404264897,0.001962676632355164,24856.03765653492
1682906234250911951,156,1682906234250911951,camera_1,159,1,0.027738760460911727,-0.27256697571679045,1.8682526484351631,0.9961706897739134,-0.015684052619459793,-0.0012692821298536277,0.08600207120570097,0.012620540219359098,0.0010692745943266004,24870.00936906668
1682906234257759332,157,1682906234257759332,camera_1,160,1,0.027737113800102804,-0.272527180968743,1.8679747113433263,0.996129533797941,-0.015803912847856264,-0.0019643474705535974,0.0864426374725418,0.01190994179341942,0.0010089079549239586,24873.68936735683
1682906234264440298,158,1682906234264440298,camera_1,161,1,0.027730315967790093,-0.27259730047217196,1.8683522480795864,0.9960835872455843,-0.015687018246106875,-0.0004231497289674122,0.0870127899956186,0.018164464621804655,0.0015390785176275068,24860.54770749365
1682906234270969629,159,1682906234270969629,camera_1,162,1,0.027733300425411972,-0.2725983029622534,1.8684307378330223,0.996174920832179,-0.015615433486730277,-0.00224346641725982,0.08594563514488765,0.01794312073616311,0.00152068873193673,24864.927088624798
1682906234277731418,160,1682906234277731418,camera_1,163,1,0.027732680637240097,-0.2725287058179955,1.8679970765977358,0.9961186409452178,-0.01570901200343926,-0.002284001043379137,0.08657749963219095,0.01498699834337458,0.0012696615394533139,24871.873107278967
1682906234284474849,161,1682906234284474849,camera_1,164,1,0.02772868490780437,-0.27258612176765507,1.8683300229732505,0.9960706472973286,-0.015640488960219683,-0.0006487898566047376,0.08716776795059167,0.017814254737459123,0.0015094931043305487,24859.89371508592
1682906234291059017,162,1682906234291059017,camera_1,165,1,0.027726456951885692,-0.27253234913445934,1.8680226476417288,0.9960439619038626,-0.015689732101249295,-0.002032709895421042,0.08744213144662434,0.014335029001813382,0.0012145922687986001,24865.094868771503
1682906234297753095,163,1682906234297753095,camera_1,166,1,0.027729001247760832,-0.2726169186800693,1.8685426350923413,0.9961539279721641,-0.01558243635504825,-0.002455701418054193,0.08618879853794743,0.017227355274371803,0.0014602998158927153,24860.037751521693
1682906234304388284,164,1682906234304388284,camera_1,167,1,0.027737129066008278,-0.2724955917899453,1.8679742172692064,0.9962105123476274,-0.01578100226658948,-0.0035777382167458925,0.0854562744612258,0.014793403795920312,0.001253360988616787,24879.51427967241
1682906234311094284,165,1682906234311094284,camera_1,168,1,0.027750957076758787,-0.27262512975908204,1.8686863560760765,0.9961721141024369,-0.015728524696491084,-0.0023741584328128905,0.08595403403732231,0.023799968126695603,0.0020175389285956285,24857.997917228375
1682906234317802906,166,1682906234317802906,camera_1,169,1,0.027731977132518897,-0.2725312883594839,1.8680739693220687,0.9961252693789935,-0.01579837340353935,-0.002057747238792384,0.086490605147215,0.014463871833868325,0.0012254548074100706,24870.664050300722
1682906234324399471,167,1682906234324399471,camera_1,170,1,0.027752187508487097,-0.27265593067584387,1.8688745699903668,0.9962434447842553,-0.015829551652509894,-0.0025659040611508734,0.08509900208128156,0.02161717280978337,0.0018327299177466356,24858.939174547784
1682906234331046342,168,1682906234331046342,camera_1,171,1,0.02773239210226828,-0.27250723683410333,1.8678673086380915,0.996142283292136,-0.01567594760729806,-0.0016022174255387654,0.08632640965234387,0.015988067025318742,0.0013541750560007143,24877.656114115613
1682906234337814331,169,1682906234337814331,camera_1,172,1,0.02773774471726974,-0.2725135801471436,1.8679990330930998,0.9961299575780463,-0.015799629767422975,-0.0017556337547885133,0.08644302785587162,0.011228724441025406,0.0009512425953607019,24873.26314017723
1682906234344525098,170,1682906234344525098,camera_1,173,1,0.027736831140272485,-0.27254923084619,1.868194318564923,0.9960914178873884,-0.015691968202608212,-0.0018003069519812195,0.08690459274341705,0.011818030965514481,0.0010014241002784404,24864.68024433252
1682906234350562095,171,1682906234350562095,camera_1,174,1,0.02773623421660157,-0.2726202442805775,1.868746009605317,0.9962743196800463,-0.01561297417633985,-0.0021954164660538764,0.08478735241750814,0.01960471720667556,0.0016617804349680224,24864.951986714495
1682906234357187271,172,1682906234357187271,camera_1,175,1,0.02773656230097372,-0.2725549886321929,1.8682408342804813,0.9961758937246339,-0.015711117248830817,-0.0016573288065810676,0.08593022063248366,0.02391238568816334,0.002025919494040002,24870.569542432553
1682906234364081382,173,1682906234364081382,camera_1,176,1,0.02773083851127419,-0.27252666999786107,1.8680735011696137,0.9960318018381299,-0.015755376263505653,-0.0013360729193987672,0.0875821486093941,0.012058104679454118,0.001021634928181065,24863.300272020733
1682906234371227502,174,1682906234371227502,camera_1,177,1,0.027717609208422506,-0.2726206475046065,1.8685282452345915,0.9963168323169921,-0.015504053231211977,-0.0012404564700757774,0.08432588714614477,0.0174258059123531,0.00147645167411981,24874.59093390091
1682906234378351688,175,1682906234378351688,camera_1,178,1,0.02776756474910074,-0.2726031741241156,1.868559922663465,0.9961764215068953,-0.015801538196050163,-0.0013751594249097822,0.08591249944514034,0.0172585456748493,0.0014625790815311099,24862.43925337936
1682906234385178804,176,1682906234385178804,camera_1,179,1,0.02773624043958935,-0.27254194711701807,1.868165237565444,0.9962397089219313,-0.015710847992984653,-0.0009201398259493569,0.0851983859306485,0.018248387495987117,0.0015456016079345243,24878.355292188593
1682906234391655683,177,1682906234391655683,camera_1,180,1,0.027734023225697783,-0.2726320626574807,1.8686169218297122,0.9961180731915568,-0.015714621332901798,-0.001662160350031117,0.08659718332876128,0.01517339627025649,0.00128618215247053,24855.728639837456
1682906234398467302,178,1682906234398467302,camera_1,181,1,0.02774173508847712,-0.27261877543643115,1.8686575653685564,0.9962614607842103,-0.015773632012743673,-0.00169110381850127,0.08492016519716086,0.016887394653167576,0.00143118712086609,24866.702447550604
1682906234404971361,179,1682906234404971361,camera_1,182,1,0.02772151380521078,-0.27256629603762456,1.868218379484064,0.9960912467969109,-0.015516328497050227,-0.0007400092158030954,0.08695357376731568,0.012948466348461807,0.0010970519478895103,24864.402405025212
1682906234411666870,180,1682906234411666870,camera_1,183,1,0.027750248614568703,-0.27265384628777933,1.8688174715065797,0.9963524696377575,-0.015635468485142367,-0.0012957080409391594,0.08387854023923078,0.022101905313320458,0.001873058608941225,24870.00516562898
1682906234418446302,181,1682906234418446302,camera_1,184,1,0.02773295344376801,-0.2725808472188735,1.8684614363501757,0.9962409523782306,-0.01576266457600474,-0.0012581449513455274,0.08516994940272099,0.019513205566909164,0.0016532800182633809,24870.48867646559
1682906234424863338,182,1682906234424863338,camera_1,185,1,0.027714260804868628,-0.27265420100897503,1.8687464950593216,0.9961765247823033,-0.01556528140262467,-0.00043294831802401267,0.08596433006348632,0.020927216100972146,0.001773627388464972,24857.696300206717
1682906234431654691,183,1682906234431654691,camera_1,186,1,0.027735396718312447,-0.27254576015034426,1.8681682175137535,0.9961007086452269,-0.015768184006424994,-0.0014778813795679564,0.08679031326273805,0.01630244217813015,0.0013813135792507146,24866.417814065473
1682906234438420772,184,1682906234438420772,camera_1,187,1,0.027744097639441145,-0.27255558246406564,1.8682177780035765,0.996098194582784,-0.01564920031848656,-0.0005218779620358839,0.0868516949846285,0.01727998477872461,0.0014638924323538787,24865.313130754526
1682906234445074081,185,1682906234445074081,camera_1,188,1,0.027737620821887833,-0.2725511114904217,1.8681431806654702,0.996151501339385,-0.01577882905817158,-0.002345332089570719,0.0861841885164078,0.013925009174272418,0.0011798422679044887,24870.7780353166
1682906234451477289,186,1682906234451477289,camera_1,189,1,0.027755404907288683,-0.27256451621683453,1.8683414933202063,0.9961930196510297,-0.015810656616690018,-0.0008160267684445522,0.08572528702912281,0.014111045806203038,0.0011955328199923989,24869.98811508157
1682906234458465337,187,1682906234458465337,camera_1,190,1,0.027749403289400856,-0.27260851178344103,1.8685246860595752,0.9961853095367789,-0.01578743978911228,-0.0019128017004851365,0.08580167246430587,0.01678092806832865,0.0014221830471465495,24863.733902028653
1682906234464863300,188,1682906234464863300,camera_1,191,1,0.02774598340555437,-0.27252348706381824,1.8680756411715678,0.9961471000664085,-0.015701882636517634,-0.0019296590578880537,0.08625938978960097,0.018462257809005678,0.0015640572988843027,24872.41123143211
1682906234471220493,189,1682906234471220493,camera_1,192,1,0.027754172392620628,-0.2725993726924605,1.8685063755697098,0.9963018774425151,-0.01546365932319865,-0.0007277068520465835,0.08451576591141594,0.01148442312842235,0.0009729411551506176,24874.260211824912
1682906234478209018,190,1682906234478209018,camera_1,193,1,0.027728565910213505,-0.2725508565753755,1.868215766198045,0.9961346404400595,-0.015658275665184726,-0.003212221750545622,0.0863729017109648,0.015951666166074574,0.0013518380115303877,24866.807080404713
1682906234484590768,191,1682906234484590768,camera_1,194,1,0.0277369136602934,-0.2725351221752351,1.8682143785869127,0.9962782587199177,-0.015782095384286505,-0.002494072134862572,0.0847014537742794,0.013147532183211297,0.00111390797571117,24879.448742972905
1682906234491348743,192,1682906234491348743,camera_1,195,1,0.027749761572875883,-0.27256545430308843,1.8683692105572502,0.9961399015020798,-0.01584556467648394,-0.002120152160833043,0.08631175858667912,0.022608074767049402,0.0019158592046751004,24864.088303474477
1682906234498018503,193,1682906234498018503,camera_1,196,1,0.027757811862025108,-0.27253905437735937,1.8682362487787265,0.9961960065372043,-0.015727887352913483,-0.0023539398753780437,0.08567735456819114,0.017717134323902428,0.001501102674024251,24872.030852208383
1682906234504711627,194,1682906234504711627,camera_1,197,1,0.0277537271027107,-0.2725622274730669,1.8684375194540068,0.9961943884361659,-0.01569022914899172,-0.0031893221736181954,0.08567604905467086,0.012034740939270705,0.0010200748704804127,24866.02531151961
1682906234511279106,195,1682906234511279106,camera_1,198,1,0.027738605439706805,-0.2725402420046188,1.8680529027018966,0.9960314920699522,-0.015733315634944144,-0.0005779178985125156,0.08759792003774178,0.020676837651990354,0.0017516051571942043,24864.133637313033
1682906234517826795,196,1682906234517826795,camera_1,199,1,0.027745758751120442,-0.27262719303636124,1.8688444091980307,0.9962746859201017,-0.01569827936376827,-0.0012086415826849143,0.08478710636261025,0.01812255842378363,0.0015360414126935654,24863.11317590554
1682906234524400711,197,1682906234524400711,camera_1,200,1,0.027734922890971195,-0.272547999128565,1.8680970205368093,0.9961493531492975,-0.01574548622325043,-0.001314806709908904,0.08623698259532,0.018441663356497884,0.0015621411615424827,24872.39298133902
1682906234531328678,198,1682906234531328678,camera_1,201,1,0.027726543527634154,-0.27261686589664325,1.8685337043602097,0.996190970687323,-0.01563501129440074,-0.0012196488361098567,0.08577650493923143,0.02035987115232274,0.0017252993834169126,24864.176067954402
1682906234538216352,199,1682906234538216352,camera_1,202,1,0.027736981174753178,-0.27254891229809675,1.8683159526079955,0.9961827624590521,-0.015752969617931815,-0.002402407642549389,0.0858252653079925,0.0170085706631653,0.0014413612813408052,24868.827093829983
1682906234544703722,200,1682906234544703722,camera_1,203,1,0.027752206334912294,-0.2725590250823177,1.868378653548341,0.9961638638162206,-0.015662612303930703,-0.0021730148644506634,0.08606693330747876,0.01565331086749211,0.0013265122815721553,24865.62088899606
1682906234551503181,201,1682906234551503181,camera_1,204,1,0.027730380220037674,-0.27253415726409064,1.8680620214253763,0.9960590079160137,-0.015728255585356322,-0.001680739804104097,0.0872711283261507,0.016416212485637516,0.001390842861355994,24865.581791945733
1682906234557986736,202,1682906234557986736,camera_1,205,1,0.02773844794475744,-0.2725459224126697,1.8680037048792109,0.9959392057687955,-0.015675439736468004,-0.0006030552668020864,0.0886510875626138,0.025301998131908476,0.002143484170136844,24857.583920331323
1682906234564553022,203,1682906234564553022,camera_1,206,1,0.027739059389938852,-0.2725713769701742,1.8683958222236359,0.9962199278510742,-0.015694426491038697,-0.0019626156555970146,0.08541480240161256,0.012498420022893695,0.0010591186970204457,24869.969681282302
1682906234571355342,204,1682906234571355342,camera_1,207,1,0.02775861051767722,-0.27257536030919105,1.8683564642620836,0.996218011515728,-0.01563588689312418,-0.0008050705425210323,0.08546662760479089,0.014835797890555114,0.0012568161458184294,24871.43348127022
1682906234578337430,205,1682906234578337430,camera_1,208,1,0.02772491394382974,-0.27253744066271535,1.8680648926858279,0.996005875719835,-0.015808062096639097,-0.0004928860596992296,0.0878758087737783,0.02453917433740571,0.0020787122456480673,24861.862324734804
1682906234584876775,206,1682906234584876775,camera_1,209,1,0.027747840009631725,-0.2725901430187278,1.8684623993269225,0.9961748129527095,-0.015582963717752706,-0.0017534352319610962,0.08596417128834948,0.016719739709515125,0.0014169405300687584,24864.384726649383
1682906234591342449,207,1682906234591342449,camera_1,210,1,0.02773241131636925,-0.27256150304368293,1.8682647661062448,0.995960486964823,-0.015672811693757165,-0.0005284156196034837,0.08841262441155008,0.01602264604298398,0.0013578080988893041,24852.59263170988
1682906234598271369,208,1682906234598271369,camera_1,211,1,0.027729061914980053,-0.27255877804825207,1.8683077938809318,0.9961423387134644,-0.015729658660890867,-0.002118734115951051,0.08630486560227894,0.01904921216191724,0.001614264989445738,24865.781719529885
1682906234606653451,209,1682906234606653451,camera_1,212,1,0.02774303341528646,-0.2725419066819143,1.8681808591941098,0.996114981771379,-0.01576535955898123,-0.00013004610637971852,0.08663936528271526,0.010369060910306871,0.0008783719122072007,24868.116517498165
1682906234611046314,210,1682906234611046314,camera_1,213,1,0.027751809496365302,-0.2726500609987522,1.8688863006715155,0.9962959528652302,-0.015627031320334682,-0.0013491217558225662,0.0845479158049702,0.01904668123461306,0.0016144425384481086,24863.51518077694
1682906234617748022,211,1682906234617748022,camera_1,214,1,0.027744420792273444,-0.27254391820177926,1.868218535201509,0.9962348075357388,-0.01579313627426529,-0.002861542281804997,0.08519739829725835,0.01576103747356683,0.0013354236148304028,24875.469486958576
1682906234624305009,212,1682906234624305009,camera_1,215,1,0.027724762542329327,-0.2725036250530582,1.86785715836932,0.9961424303235437,-0.015745431150767764,-0.0019355111332953882,0.0863052356675624,0.012585695076268166,0.0010660274202863404,24877.852097277886
1682906234631079435,213,1682906234631079435,camera_1,216,1,0.027728997217225177,-0.2725386276056349,1.8682582133079348,0.9961254200146465,-0.015627322983712798,-0.0008574120133969917,0.08654015958874976,0.010048133437521756,0.0008513501772410933,24866.403613014852
1682906234638025283,214,1682906234638025283,camera_1,217,1,0.02774343168756172,-0.2726053227246619,1.868483232208087,0.9961972159801079,-0.015630926487877363,-0.0006814797360531399,0.08571065625686443,0.01864935050252825,0.0015801746412259757,24866.35078115912
1682906234644560337,215,1682906234644560337,camera_1,218,1,0.02773338806772565,-0.2726796815309017,1.8689323026607807,0.9962194115315739,-0.015451605142038683,-0.00031760852591016154,0.08548702305638912,0.017036743462085724,0.0014440739676558952,24856.27118581813
1682906234651125907,216,1682906234651125907,camera_1,219,1,0.027723152297584607,-0.27256747471723786,1.8683233046409615,0.9962110669634121,-0.01560748401871923,-0.0010716350119189626,0.08554979895141056,0.01602319336961955,0.0013575833314397193,24871.55774243222
1682906234657918453,217,1682906234657918453,camera_1,220,1,0.027728875261090958,-0.2726358211129821,1.8687133348855614,0.9962020697945123,-0.015587459167373469,-0.0007889499621018638,0.08566122116683085,0.021383936458732933,0.0018123971704632608,24860.549322315717
1682906234664529323,218,1682906234664529323,camera_1,221,1,0.027748642373657113,-0.27260108286931295,1.8684480350520378,0.9961098951287466,-0.01565744241257595,-0.0003925837950045207,0.08671659127098087,0.01675572112435475,0.0014198168096972157,24860.212030422743
1682906234671144247,219,1682906234671144247,camera_1,222,1,0.027728001658174344,-0.2725536084078768,1.8681278773468069,0.9961024956146979,-0.015614838109274361,-0.0007806509672310566,0.08680659908704662,0.013690086896531284,0.001159794003227102,24867.82127996896
1682906234678201436,220,1682906234678201436,camera_1,223,1,0.027726009337114617,-0.27253117429749574,1.8680635744256315,0.9961848197065262,-0.015525273837468616,-8.750512356960414e-05,0.08587644148077495,0.014156043471302837,0.0011988303674989524,24876.751337588306
1682906234684919357,221,1682906234684919357,camera_1,224,1,0.02775128504153344,-0.27253220704182757,1.8682028520883596,0.9961814972827694,-0.015646719309863753,-0.0005664238588599467,0.08589111601504659,0.01108722615754232,0.0009391668321385795,24872.719222215354
1682906234691321134,222,1682906234691321134,camera_1,225,1,0.027737262398240724,-0.27251285891139887,1.8680184005716,0.9961493546646104,-0.015701589569224024,-0.0008849407561188504,0.08625045023730615,0.011806936061475426,0.0010000976543070115,24874.77882529504
1682906234697870254,223,1682906234697870254,camera_1,226,1,0.027730155555672945,-0.2725415120494726,1.8682482275157222,0.9961228259453969,-0.0157267529591974,-0.0017038992810392845,0.08653948000281082,0.01571943861199543,0.0013319928297748085,24866.028271553336
1682906234704698801,224,1682906234704698801,camera_1,227,1,0.027729255902175457,-0.2725506151545943,1.8682461352019644,0.9960506925525884,-0.015673840423628783,-6.279659421979903e-05,0.08739190264819541,0.013545043882913888,0.0011475917779111451,24860.94603288685
1682906234711355447,225,1682906234711355447,camera_1,228,1,0.027720665966300573,-0.2725630875831762,1.8682188478918444,0.9961120669095499,-0.01572864697133184,0.0009620087283967408,0.08667430046352874,0.028130671824328598,0.002382472284865696,24867.355650933583
1682906234718328714,226,1682906234718328714,camera_1,229,1,0.027727203274524867,-0.27251953774491455,1.8679314407909116,0.9960895827496523,-0.015724156405892722,-0.0004959048258302097,0.08693703538395128,0.012321140500716863,0.0010435433093111122,24872.294879983638
