%time,field.header.seq,field.header.stamp,field.header.frame_id,field.image_seq,field.transforms0.fiducial_id,field.transforms0.transform.translation.x,field.transforms0.transform.translation.y,field.transforms0.transform.translation.z,field.transforms0.transform.rotation.x,field.transforms0.transform.rotation.y,field.transforms0.transform.rotation.z,field.transforms0.transform.rotation.w,field.transforms0.image_error,field.transforms0.object_error,field.transforms0.fiducial_area
1684727528120182275,7,1684727528120182275,camera_2,8,0,0.5573108387019619,-0.16505223585482337,1.4192880683318738,0.9797077565617713,-0.029604824806297607,-0.19096185076073627,0.05319621823892741,0.0029726773500442505,0.0015677776944818382,7057.203856217207
1684727528127042055,8,1684727528127042055,camera_2,9,0,0.5574487475424046,-0.16553024686576193,1.4196660240971224,-0.9797810009533134,0.029473157170250796,0.19106439988928048,-0.051525899043977294,0.004300899861846119,0.002267882616338819,7055.280784416709
1684727528133728981,9,1684727528133728981,camera_2,10,0,0.5574365660607828,-0.16603724038503673,1.4196656985254856,-0.9798411868809268,0.029607679332910697,0.19054695208844455,-0.05221582965059953,0.0027297675260342658,0.0014396337846992553,7057.068915762007
1684727528140283346,10,1684727528140283346,camera_2,11,0,0.5574304268103462,-0.1670327728462328,1.4197101896266295,-0.9797115896334649,0.02944573204508404,0.19117846770724625,-0.05243036798753179,0.002350443392060697,0.001240349894507079,7052.472259524044
1684727528147061347,11,1684727528147061347,camera_2,12,0,0.557652374603375,-0.16760372089592976,1.4203113370380327,-0.9797543867922992,0.029459667658713166,0.19095480387421415,-0.05243789107167109,0.0032862176885828376,0.0017355774902694232,7047.600481236351
1684727528153707504,12,1684727528153707504,camera_2,13,0,0.5572154415053857,-0.1679880184491528,1.4192408587337215,-0.9796328765315281,0.029630343461486314,0.19159419672345748,-0.05227938166056945,0.0026506682042963803,0.0013982726626982338,7054.67364284629
1684727528160363674,13,1684727528160363674,camera_2,14,0,0.5568187139064982,-0.1689364459405165,1.418297317350563,-0.9794365587499526,0.029538000550315406,0.19274071565436673,-0.05179334355477189,0.0025007313233800232,0.0013180859951856573,7057.80870984751
1684727528167045116,14,1684727528167045116,camera_2,15,0,0.5569454242156779,-0.16954605842796044,1.4186278153931238,-0.9794187075574238,0.030019688836099928,0.19250841037472982,-0.052709823597922145,0.002299617335665971,0.001213213788345892,7054.12857902609
1684727528173752307,15,1684727528173752307,camera_2,16,0,0.5573935161596685,-0.17022157974313704,1.4198292160598145,0.9798076185224212,-0.03001657503319464,-0.19061530210333705,0.0523626060538608,0.0014672298566438258,0.0007745548470967018,7053.203178274908
1684727528180209159,16,1684727528180209159,camera_2,17,0,0.5572181222456725,-0.17125157064062346,1.4194477027383505,-0.9797549809911295,0.029843106450915594,0.19072741980953462,-0.05303411687987595,0.0017766928067430854,0.0009379431294852883,7054.6568507698785
1684727528187033176,17,1684727528187033176,camera_2,18,0,0.5570833773989694,-0.17169484857383904,1.4191337028750275,-0.9795847610647049,0.030143023901420218,0.19129661426805483,-0.0539508977632671,0.002369844471104443,0.0012515965996212665,7052.785431106575
1684727528193848609,18,1684727528193848609,camera_2,19,0,0.5571567698966956,-0.1722608653887925,1.4193542978866485,-0.9797185541381269,0.030117940699100034,0.19086738049350305,-0.05304816103402657,0.004059560189489275,0.0021434305711206803,7054.076407309853
1684727528200357913,19,1684727528200357913,camera_2,20,0,0.5570828276292921,-0.17323637842039713,1.4192400598120214,-0.9797068174760057,0.030081395290850684,0.19106382671123565,-0.05257637844936497,0.0019421559991315007,0.0010253153623209492,7054.102435734121
1684727528207086563,20,1684727528207086563,camera_2,21,0,0.5567156791312372,-0.17363307527621563,1.4183056433251877,0.9794254635737868,-0.030302668436661694,-0.19227633025736393,0.053266522428743815,0.0009430589270778,0.000497749465465958,7054.947946377796
1684727528213650226,21,1684727528213650226,camera_2,22,0,0.5566588327855131,-0.17404597346875825,1.4181873034768182,-0.9793333205062972,0.030183416462980454,0.19291002607957,-0.05273452905556572,0.004719276737887412,0.002490805898940979,7052.994584610449
1684727528220387935,22,1684727528220387935,camera_2,23,0,0.5567436103898917,-0.17497927173720976,1.418467341597897,-0.9797152858058057,0.03020544543932211,0.19128945993153637,-0.05151633084141092,0.006376255361828953,0.0033623944948651388,7060.551141622478
1684727528226956844,23,1684727528226956844,camera_2,24,0,0.5569360287596248,-0.17542324714744276,1.418980402350868,-0.9796953015794843,0.029912882020752284,0.1912308714988877,-0.05227895693366474,0.006896912236697972,0.0036410642270533634,7054.215045203686
1684727528233581066,24,1684727528233581066,camera_2,25,0,0.5568442101322808,-0.17581291998213977,1.4187732401369553,-0.9796769768788856,0.0303262574254321,0.19092890041029265,-0.05347423746188844,0.008007231168448925,0.0042283508730946405,7055.643201994708
1684727528240194797,25,1684727528240194797,camera_2,26,0,0.5565436702271647,-0.17640661515472708,1.4180588374739798,-0.979403790684795,0.030124040663236807,0.19271077032056294,-0.05218539995850659,0.006837479828391224,0.003608425063980418,7054.018618557135
1684727528246818780,26,1684727528246818780,camera_2,27,0,0.5568851680319309,-0.17680564993258618,1.4189106862553866,-0.9797776946856398,0.0303528935953724,0.19062321235180327,-0.05269878328349282,0.007133562467060983,0.0037664144397327967,7056.208841422576
1684727528253508090,27,1684727528253508090,camera_2,28,0,0.5567403523650427,-0.17704277860424603,1.4185697542220703,-0.9796052963031527,0.030130194200516762,0.19165908022343872,-0.05227266800305256,0.005434686609078199,0.002869069987030007,7054.134063751437
1684727528260429859,28,1684727528260429859,camera_2,29,0,0.5564014871783501,-0.17741932905037833,1.4177187863526057,-0.9794596664874539,0.029843475522548176,0.19268591565185947,-0.051383524620494336,0.003738669736776501,0.001971671544240027,7057.603086671795
1684727528266796827,29,1684727528266796827,camera_2,30,0,0.5565170524313556,-0.17764239269348397,1.4180156620987734,-0.979524712903141,0.03015481803993853,0.19198440136180694,-0.052573885102264406,0.006647718430031091,0.003508362240457843,7056.521244659092
1684727528273521184,30,1684727528273521184,camera_2,31,0,0.5566780981016974,-0.17783667606163645,1.418404836567108,-0.9795237722190917,0.03046256922627376,0.19193783908606354,-0.05258400384896384,0.008768478932324797,0.004630356999531379,7052.693882459775
1684727528280242204,31,1684727528280242204,camera_2,32,0,0.5565290138060051,-0.17802045836402208,1.418030917468492,-0.9794614281154783,0.030164673196778628,0.19216546876736468,-0.05308329245947873,0.005983516341075301,0.003159280213720968,7054.0065012201685
1684727528286971092,32,1684727528286971092,camera_2,33,0,0.5564653461058411,-0.17805942756131374,1.4178786550875375,-0.9794295571092017,0.03013395549350847,0.19214972479703465,-0.05374170305835378,0.004852471873164177,0.0025623928443121694,7054.466742971445
1684727528293709039,33,1684727528293709039,camera_2,34,0,0.5565499868812747,-0.17810226871576393,1.4180712985091857,-0.9794288498873405,0.03013376228870577,0.19224946082075492,-0.053396902464642286,0.005810443137306721,0.0030687466080298333,7052.50513958256
1684727528300478219,34,1684727528300478219,camera_2,35,0,0.5563227672693613,-0.17797183041922324,1.417454205816572,-0.9792870663516066,0.029948101738328733,0.19302299118602784,-0.05331114097759965,0.008785435580648482,0.004637575936819242,7054.380011520345
1684727528307195663,35,1684727528307195663,camera_2,36,0,0.5566972871291413,-0.17798503306576088,1.4183795579532992,-0.9793686997032263,0.029561910124413136,0.19292702785779967,-0.05236607139516824,0.005166195565834641,0.0027290413943454753,7047.360647289546
1684727528313783407,36,1684727528313783407,camera_2,37,0,0.5566136906609148,-0.1778594920612121,1.418170108483446,-0.9794050066905582,0.02992031491544884,0.19230126802055103,-0.05376643881192221,0.007038783805910498,0.003718606147411775,7050.853275935863
1684727528320332050,37,1684727528320332050,camera_2,38,0,0.5564439761091642,-0.17748180314494325,1.4177061209609978,-0.9793876297903851,0.03002091682161395,0.1926524235684404,-0.05276039101416499,0.003015283145941794,0.0015912974975353087,7055.4779299639595
1684727528326921939,38,1684727528326921939,camera_2,39,0,0.5567372369828628,-0.1773465111614537,1.4184206407586128,-0.9795528438709851,0.029893595007828455,0.191892100694528,-0.05253589946707509,0.007376559427939355,0.003894740346879883,7053.298739081715
1684727528333569765,39,1684727528333569765,camera_2,40,0,0.5563876225060307,-0.17698727865574262,1.417504290001601,-0.9793164774626335,0.030034566328188447,0.19274169774449068,-0.05373825216945692,0.007955682347528636,0.004199341966864578,7055.8705766201
1684727528340359926,40,1684727528340359926,camera_2,41,0,0.5565455247461546,-0.1764698588503598,1.4178434756800542,-0.9792663945319019,0.029786186839471474,0.19312955932686138,-0.053395551577504814,0.0036566018243320286,0.0019308195112499162,7051.41278045927
1684727528346908569,41,1684727528346908569,camera_2,42,0,0.5568952688346287,-0.17625317973296623,1.4187193376046092,-0.979519312354483,0.029931510525832674,0.1914102142183064,-0.054846616077428835,0.005200401938054711,0.002748800401515764,7050.4533999741525
1684727528353589057,42,1684727528353589057,camera_2,43,0,0.5567847029626046,-0.17587254222236673,1.4183755626480088,-0.9795017521478016,0.029765782206191214,0.19170117692271807,-0.05423075248865233,0.007945852586999536,0.004197011523658997,7053.544171803863
1684727528360373735,43,1684727528360373735,camera_2,44,0,0.5569473894940034,-0.1751540728457419,1.4187394874832162,-0.9796650583437959,0.029859839832672458,0.19095096976648238,-0.053874767476565256,0.00537771318340674,0.0028399155384823674,7055.524683572817
1684727528366973161,44,1684727528366973161,camera_2,45,0,0.5569462392222013,-0.17469541244993692,1.4186958958328058,-0.9796195862733512,0.029958387833941162,0.19082595967933025,-0.055076440521172366,0.010780265380162746,0.005695314514765616,7055.09965896886
1684727528373698234,45,1684727528373698234,camera_2,46,0,0.5572587752265671,-0.17434226024699265,1.4194680557775923,-0.9796350701923978,0.030097787741959148,0.19102972837272975,-0.0540082891787628,0.004232360515743495,0.0022372458103354503,7048.457561580233
1684727528380322217,46,1684727528380322217,camera_2,47,0,0.5572753390085268,-0.1733953704513819,1.4194542908291687,-0.9797208251655553,0.029989438002773997,0.19050299154002132,-0.05437231427393925,0.011202847817912698,0.00592024805771184,7051.795799467478
1684727528386991024,47,1684727528386991024,camera_2,48,0,0.557086158435932,-0.1728611720972292,1.4189226065037355,-0.9796376096241021,0.029713374343619415,0.1912405896730938,-0.05342570595302325,0.008984248153865337,0.00474332382552629,7054.785584457684
1684727528393745422,48,1684727528393745422,camera_2,49,0,0.5575459028177495,-0.17246778802193954,1.420060319033496,-0.979806100910101,0.0295794592591021,0.19049401356088155,-0.053076275366220976,0.006629037263337523,0.0035031324022083885,7048.665309108093
1684727528400262594,49,1684727528400262594,camera_2,50,0,0.5570503519077017,-0.17129824589733889,1.4186999680964156,-0.9794949200608222,0.029973762004804255,0.19201641989258192,-0.05311280126258356,0.00606400758260861,0.0032005030724626487,7054.165461390511
1684727528407009601,50,1684727528407009601,camera_2,51,0,0.5573460092039678,-0.17080299588560807,1.4194198292767743,-0.9798465718001611,0.029889696741023097,0.19009346669380492,-0.05358895110498713,0.009055350034032017,0.004780096022360931,7057.5059642835995
1684727528413511991,51,1684727528413511991,camera_2,52,0,0.5572220559173642,-0.17024684100648704,1.4190701860428623,-0.9797764919059724,0.02966400583996804,0.19071789299311126,-0.052770805927338044,0.009628591826185584,0.005079241585565615,7059.055033569458
1684727528420402288,52,1684727528420402288,camera_2,53,0,0.5573461851079762,-0.16917820347632678,1.4193281207756563,-0.9797137595542867,0.029797584118947736,0.1906342617265391,-0.05414454336917916,0.011283580446615815,0.005957279335417666,7055.404838618826
1684727528426989793,53,1684727528426989793,camera_2,54,0,0.557232568811969,-0.16863430048223518,1.4189930579903842,-0.9797841710773556,0.029629348811951162,0.19036552526245362,-0.0539077599867491,0.009834323136601597,0.005187876707672289,7060.847271236824
1684727528433725118,54,1684727528433725118,camera_2,55,0,0.5573443626175941,-0.16807916622684999,1.419222106692052,-0.9797129377892598,0.02958599681939363,0.19112259695511755,-0.052529812998645634,0.009969338134396821,0.005258760909957463,7056.660145082282
1684727528440462589,55,1684727528440462589,camera_2,56,0,0.5572606026630763,-0.16701566840878618,1.4189276346502047,-0.9795841666832332,0.029985557890513426,0.1913720271797717,-0.053781724727039626,0.011838605627417564,0.006246141972400314,7056.5989324306165
1684727528447021245,56,1684727528447021245,camera_2,57,0,0.5574129494176185,-0.16654930842075033,1.4192761319458125,-0.9796713947341934,0.02962037521975343,0.19104272996221472,-0.053565539668573706,0.0076744831167161465,0.00404955508926891,7055.481782114131
1684727528453758001,57,1684727528453758001,camera_2,58,0,0.5575219341092342,-0.16609492193915149,1.4195243846326273,-0.9798625425051928,0.02956525383081091,0.1903490826658163,-0.05255968311796806,0.008282765978947284,0.004368023941973068,7058.590914234985
1684727528460489511,58,1684727528460489511,camera_2,59,0,0.55711709166887,-0.1650211804087359,1.4184377904086458,-0.9795208159266822,0.029624974129505405,0.19178239753848228,-0.053673495028221246,0.006101067992858589,0.003216250001977181,7059.798487785507
1684727528466931819,59,1684727528466931819,camera_2,60,0,0.5573845498056929,-0.16462472299501085,1.4191022088216871,-0.9798135362014206,0.02938709838267954,0.19049975187936377,-0.0530252511452329,0.005427954776678234,0.002861056251023192,7061.530088702686
1684727528473726272,60,1684727528473726272,camera_2,61,0,0.5571790247388689,-0.1641361073686177,1.4185491366763814,-0.9794597437806305,0.029691085637698907,0.19211432295840294,-0.053564322651098555,0.004412719106767327,0.0023265667296508007,7057.110021470117
1684727528480318307,61,1684727528480318307,camera_2,62,0,0.5571922611918542,-0.16333158598502373,1.4185605441305646,0.9795478187030698,-0.02946304754665958,-0.1918502130050109,0.05302353697418852,0.0011496951919980347,0.0006058482558916531,7059.405974155294
1684727528487227678,62,1684727528487227678,camera_2,63,0,0.557310424815957,-0.16302654940725333,1.41884568530038,-0.9795357471387574,0.029611883058708037,0.1917664368680103,-0.05346484966761986,0.003023604629561305,0.0015942155156053255,7056.401894812472
1684727528493883132,63,1684727528493883132,camera_2,64,0,0.5569329934591658,-0.16257696169509697,1.417875493337921,-0.9795368382854966,0.029193343527137205,0.19202683037249707,-0.052735448727129125,0.003718338266480714,0.001957246986146013,7065.689198899781
1684727528500231266,64,1684727528500231266,camera_2,65,0,0.5573536371060098,-0.1621360471447283,1.418927621070109,-0.9796105763482715,0.02912824956600465,0.1915464717051071,-0.05314708798375311,0.003893439541570842,0.0020522236874548133,7057.338257636873
1684727528506897926,65,1684727528506897926,camera_2,66,0,0.5568577384324399,-0.1617261917994111,1.4176589191495348,-0.9793839236360218,0.029529084060878057,0.19264181195929442,-0.053144102239822175,0.003444335248786956,0.0018132585007097678,7063.71619142778
1684727528513653278,66,1684727528513653278,camera_2,67,0,0.5574020912394075,-0.16168250683658272,1.4190519409414513,-0.9797871415847202,0.028614473942123242,0.19107287705593734,-0.051860627838714646,0.0075301926699467,0.003966037996561765,7060.682432886676
1684727528520389318,67,1684727528520389318,camera_2,68,0,0.5570239075656703,-0.16122703772284178,1.4180881438243438,0.9795839068785572,-0.029476158957168774,-0.1917298426581897,0.05278439989182217,0.001271901244763285,0.0006695086511227363,7065.162933158919
1684727528526936054,68,1684727528526936054,camera_2,69,0,0.556956149874411,-0.161098246214857,1.417922581744304,-0.9796797100808949,0.028901142395134374,0.1917473435723039,-0.05123812893768222,0.002261580084450543,0.0011892267052160262,7068.9668421437955
1684727528533618450,69,1684727528533618450,camera_2,70,0,0.5572353181762636,-0.161081509393541,1.4186341631334733,-0.9796180007937605,0.028928222505414786,0.19224234197927081,-0.050543173761036383,0.005581952922511846,0.0029378901130293514,7060.043988537044
1684727528540453672,70,1684727528540453672,camera_2,71,0,0.5574151591053063,-0.16107174158448637,1.4191510532442486,-0.9798304165923464,0.029105121661780215,0.1903661033973451,-0.05334785179211578,0.006240033369977027,0.003288050366853979,7061.547436824772
1684727528546918153,71,1684727528546918153,camera_2,72,0,0.5577625067714109,-0.16120115101095886,1.4200323139862117,-0.9801060264916291,0.02892074122413369,0.18934803220222488,-0.05199125179279902,0.003560901270247996,0.0018764389173291285,7060.482516208431
1684727528553578853,72,1684727528553578853,camera_2,73,0,0.557294554284828,-0.16111017155641633,1.4188712375071444,-0.9799230781152024,0.029000222300188318,0.19076523150121583,-0.05018340895210446,0.00649283902021125,0.003415276125279517,7066.6766667231
1684727528560295820,73,1684727528560295820,camera_2,74,0,0.55699529115885,-0.16123208259380806,1.4181313416036185,-0.9796806372025317,0.029592118998072844,0.19134836078931886,-0.052306408850982415,0.004355680255685002,0.002291910153424909,7067.751424501883
1684727528566943645,74,1684727528566943645,camera_2,75,0,0.5572388574521762,-0.16146274119479487,1.4187650742580735,-0.9796749760857044,0.029183167506773154,0.1915866815487523,-0.05176704954779096,0.0025955551536753774,0.001366758227352421,7060.898383812046
1684727528573868036,75,1684727528573868036,camera_2,76,0,0.5572349985116245,-0.16166128140502017,1.418805760884556,-0.9798432696266989,0.029044877209595817,0.19092634876411751,-0.05109492560658546,0.006912020035088062,0.003637536492267141,7065.283862935609
1684727528580403089,76,1684727528580403089,camera_2,77,0,0.5571556904997884,-0.1621036587982506,1.4186597891037747,-0.9796535367151292,0.029334822266240453,0.1917625691447758,-0.051434747779512964,0.006309896474704146,0.0033221736466261228,7061.583462269044
1684727528587125301,77,1684727528587125301,camera_2,78,0,0.5569324863318679,-0.1622906173658854,1.4181009334644403,-0.9794839973373821,0.029838691084386918,0.1926835166240919,-0.05092949926837043,0.005738518084399402,0.0030198220744505435,7062.6168955154735
1684727528593528270,78,1684727528593528270,camera_2,79,0,0.5571243035987964,-0.16266349761265037,1.4186209897242144,0.9797239203682158,-0.02941863840766317,-0.19157625769733502,0.05073579662583042,0.0029609963530674577,0.0015582914089522506,7064.066904979989
1684727528600137233,79,1684727528600137233,camera_2,80,0,0.557407278141404,-0.1634178507716838,1.419367685828031,-0.9797891856880375,0.029529906670871194,0.19109513551344878,-0.05122289921391341,0.002341792976949364,0.0012338330472240824,7058.645118946206
1684727528606964111,80,1684727528606964111,camera_2,81,0,0.5566789548783566,-0.16361754553007496,1.4175471227367187,-0.9795155179143478,0.029167329020794386,0.1928411183789111,-0.05010908246167163,0.002570239477790892,0.0013512077910914177,7068.43184736464
1684727528613676786,81,1684727528613676786,camera_2,82,0,0.5572510653014648,-0.16416990919328386,1.419048666347803,-0.9797539105117542,0.029252890298193557,0.19099116694210133,-0.052430119170397554,0.0021660563652403653,0.0011414304609536283,7060.633032331705
1684727528620375156,82,1684727528620375156,camera_2,83,0,0.5571704076115329,-0.16504128038303814,1.4189397522327427,-0.9795981950964185,0.029839777840325103,0.19171661940892704,-0.0523612611067757,0.004306668066419661,0.002270211565905161,7057.650254797656
1684727528626971960,83,1684727528626971960,camera_2,84,0,0.5570369029823015,-0.16542386860879302,1.4186042608004477,-0.9795759059885601,0.029549612225617108,0.19196003537363307,-0.052050068620134345,0.004375723714474589,0.0023055552564737636,7059.9586045043525
1684727528633700370,84,1684727528633700370,camera_2,85,0,0.5576270707023844,-0.1661229516147885,1.4201366260149177,-0.9798844320883185,0.02950072117259503,0.19050026851246576,-0.05163191743416986,0.004122801416087896,0.0021750740602245263,7053.498275913531
1684727528640213489,85,1684727528640213489,camera_2,86,0,0.5572798053734169,-0.16701828799411766,1.4193298711061708,-0.9796564115042772,0.029746483746131407,0.19141206914501577,-0.05243931625152369,0.0029076229548081756,0.0015337859760244557,7054.907803708687
1684727528646907329,86,1684727528646907329,camera_2,87,0,0.5571203997458147,-0.16748506310449,1.418955760729834,-0.9795177799914312,0.02967973986599385,0.19221269459730905,-0.05213743144600327,0.002114528906531632,0.0011152013330502457,7054.364305568859
1684727528653777122,87,1684727528653777122,camera_2,88,0,0.557665779318101,-0.16815204326254485,1.4203913622879507,-0.9798399669874904,0.029526961296534267,0.1906148711016233,-0.05203622358951614,0.0017838385538198054,0.000941940610891861,7049.141530290479
1684727528660357236,88,1684727528660357236,camera_2,89,0,0.5571177377522173,-0.16905516218450692,1.4190354751765126,-0.979431402845848,0.02977144342136596,0.19261179526343108,-0.05223489830966062,0.004548456985503435,0.0024003444634408794,7050.496171989947
1684727528666949272,89,1684727528666949272,camera_2,90,0,0.5572131389219157,-0.16964446803563862,1.4193402435300255,-0.9796587895641701,0.02997205481127316,0.1911474717256942,-0.05322570819566492,0.0023668237263336778,0.0012493664061869088,7054.001920312642
1684727528673621177,90,1684727528673621177,camera_2,91,0,0.5573962035758656,-0.17025947872686173,1.4198351250996577,0.9796765524862895,-0.02984826254770173,-0.19133448373268877,0.05228813504235357,0.0017200834699906409,0.0009083403733943682,7049.177890069781
1684727528680493116,91,1684727528680493116,camera_2,92,0,0.5574516317288146,-0.1713544440671554,1.4200488044398112,-0.9798317992720719,0.029993010426434333,0.19032926086988264,-0.052960711074705305,0.00463649193989113,0.0024492234767347506,7051.0399415798
1684727528687055826,92,1684727528687055826,camera_2,93,0,0.557521169444657,-0.17185736504259688,1.4202257421721014,-0.9798897701575342,0.02979448195290363,0.19002582752648456,-0.05308966056255728,0.003255391085986048,0.0017200501502125315,7050.419331600886
1684727528693679332,93,1684727528693679332,camera_2,94,0,0.5569974118638709,-0.17223017062027796,1.418943564078774,-0.9795739559380047,0.029921395088584917,0.19171504775577608,-0.05277229792155785,0.005221263389103115,0.002756018651335999,7053.774978935713
1684727528700164556,94,1684727528700164556,camera_2,95,0,0.5574964810858531,-0.1733792328908073,1.4202962885412083,-0.9799052142919579,0.029799372315548796,0.1897922807451014,-0.053634490606363605,0.003717882849741727,0.001965426067676265,7049.078146345912
1684727528707104682,95,1684727528707104682,camera_2,96,0,0.5572584877712716,-0.173820715314865,1.4196852439334517,-0.9797925080873827,0.03017258249154274,0.19061713636060132,-0.05254867921566906,0.002020082902163267,0.001066982401950554,7051.763585237555
1684727528713776588,96,1684727528713776588,camera_2,97,0,0.5570526724565734,-0.1742010241269053,1.4192086891042819,-0.9797187248722184,0.030376856941034452,0.19076740584194035,-0.0532565823675811,0.00781648769043386,0.004128042151326155,7054.174581809898
1684727528720326423,97,1684727528720326423,camera_2,98,0,0.5567698875505717,-0.17502613504803402,1.4185344459748668,-0.9796151605755016,0.030016336192028793,0.19181129049449647,-0.051590556995223975,0.003775333520025015,0.001991617842559643,7056.769345825073
1684727528727097511,98,1684727528727097511,camera_2,99,0,0.5568666700851542,-0.17541728275483642,1.418783383075857,-0.9797753339621398,0.03018653079438551,0.19075557800745607,-0.0523581681976998,0.008216692425776273,0.004335846825672394,7058.6883651509415
1684727528733690023,99,1684727528733690023,camera_2,100,0,0.5567981533985371,-0.17581064907733748,1.418635313888357,-0.9796327931156764,0.03022074318123813,0.1914194890628738,-0.0525820933480237,0.01341390615561977,0.007080762069409254,7055.643968784484
1684727528740178346,100,1684727528740178346,camera_2,101,0,0.5566786146954535,-0.17645502147565864,1.4183781405266656,-0.9794855502055568,0.02989992186778785,0.1924243961510914,-0.05183534871789353,0.005852301139384508,0.003088855330239729,7052.991346595109
1684727528746985912,101,1684727528746985912,camera_2,102,0,0.5566797966316402,-0.17675967734817882,1.4183945058471692,-0.9795354441545874,0.030196413657560626,0.19187453643629843,-0.05275085321065768,0.00890373345464468,0.00470077368182261,7054.156764391342
1684727528753562211,102,1684727528753562211,camera_2,103,0,0.556576790093881,-0.1770042530552471,1.4181387804704984,-0.9795261486456398,0.030001663374237448,0.19238231355234592,-0.051161213301346105,0.002903526707086712,0.0015315956536273289,7056.034296130296
1684727528760237455,103,1684727528760237455,camera_2,104,0,0.5561485569763731,-0.17734334463942028,1.4170636659237994,-0.979312350999036,0.03017115224911238,0.1934450162124654,-0.05114730154427391,0.004720766621176153,0.00248805962463254,7060.134993479589
1684727528766957283,104,1684727528766957283,camera_2,105,0,0.5566732897296799,-0.17770123295384957,1.4183999405010337,-0.9796659303629595,0.03039922414427731,0.19105066961290598,-0.05319956482870322,0.0051098764524795115,0.002697815365773675,7056.939951170004
1684727528773601531,105,1684727528773601531,camera_2,106,0,0.5564436192570121,-0.17777833795618006,1.4178066205556756,-0.9793482873907134,0.030151696184823204,0.19276808164832737,-0.052993149554244806,0.005815905111376196,0.003070496570966561,7053.21591558866
1684727528780425310,106,1684727528780425310,camera_2,107,0,0.5561395116338298,-0.17790157542859802,1.4170302427097032,-0.9792161726663634,0.03004133958030329,0.19337527155898154,-0.053284232699269275,0.005230109498370439,0.002759600018992315,7056.697006705682
1684727528787057161,107,1684727528787057161,camera_2,108,0,0.5562837090528845,-0.17800563527453347,1.4174055722825067,-0.9792477977304054,0.030271515012701776,0.19296626521391738,-0.05405003708027399,0.007934786146506667,0.00418977529887641,7053.984846505802
1684727528793976545,108,1684727528793976545,camera_2,109,0,0.5561736866150738,-0.17798267439849474,1.417098233112315,-0.9791551623593284,0.030196501307935136,0.19360426282553975,-0.0534857808171159,0.004543983726762235,0.0023984112022114976,7054.263949922057
1684727528800387859,109,1684727528800387859,camera_2,110,0,0.5563108889036021,-0.17797065597345132,1.4174196948809343,-0.9792699643383753,0.030203533570619768,0.1930442416215835,-0.05340415977537095,0.0034303630818612874,0.0018108123406533237,7054.4359759758245
1684727528807314157,110,1684727528807314157,camera_2,111,0,0.5567583042991789,-0.1780098833233665,1.4185407049414607,-0.979472141508689,0.029893743917075465,0.19239010719359972,-0.05221814566832465,0.0039505333406850696,0.002086639732772731,7049.0656272638635
1684727528813799381,111,1684727528813799381,camera_2,112,0,0.5564963205055994,-0.17781285133285119,1.4178399828501558,-0.9791930774833434,0.02983938531605232,0.19359293478215703,-0.053031157776261745,0.010935364116448909,0.00577628323814717,7047.936275594171
1684727528820316553,112,1684727528820316553,camera_2,113,0,0.5565107852298722,-0.17749462144747682,1.4178469535306708,-0.9795166917164517,0.02963735788916742,0.1919431602843961,-0.053164846338964435,0.0044373926357366145,0.0023418543218520597,7057.420453388246
1684727528827023029,113,1684727528827023029,camera_2,114,0,0.5564453602357117,-0.17724709514869036,1.4176689232320188,-0.9794091154695033,0.029788712661165867,0.19263300135892072,-0.052563712965219875,0.008634696830995381,0.004555996651269437,7056.505525977116
1684727528833791494,114,1684727528833791494,camera_2,115,0,0.556550595409673,-0.17703150923363017,1.4179112294492797,-0.9792975123627174,0.029990965690394677,0.19284467437306027,-0.05373877392627583,0.004273512458894402,0.0022571265592792877,7051.227532672694
1684727528840411186,115,1684727528840411186,camera_2,116,0,0.5568556952548398,-0.17655994517749032,1.4186448049873295,-0.9795924690217237,0.029840008629633638,0.1912249698312413,-0.05423264177548008,0.010624173795804381,0.005613186515244442,7052.941772016698
1684727528847153186,116,1684727528847153186,camera_2,117,0,0.5569562443099838,-0.17625211528850052,1.4188445299142511,-0.9796112122290808,0.02992766959285718,0.19096909163944212,-0.05474498612857807,0.006341525644529611,0.0033516344490479807,7051.857252555434
1684727528853704690,117,1684727528853704690,camera_2,118,0,0.5565994339225828,-0.17580166094127012,1.4178996339757328,-0.9792411281088945,0.029749408292984572,0.19313423187476944,-0.053860506907937124,0.006446590938139707,0.0034046958596692677,7050.720171643421
1684727528860205650,118,1684727528860205650,camera_2,119,0,0.5564934775207951,-0.17498079701376226,1.4175576596663118,-0.9792487407699831,0.029643185369530506,0.19311298393180681,-0.053856853774647516,0.008210641390178353,0.00433355593548812,7055.000159051269
1684727528866865634,119,1684727528866865634,camera_2,120,0,0.5570902371470023,-0.1747267418290902,1.419065975694652,-0.9796886323680734,0.029953891391075613,0.1906056513342413,-0.05461166247932066,0.008063740853685886,0.004260851042618398,7053.45136572258
1684727528873533248,120,1684727528873533248,camera_2,121,0,0.5568319340461035,-0.1741769587661731,1.4183761537251467,-0.9793170520670782,0.02994552017503405,0.19265786567955484,-0.05407702047906162,0.011355766211636364,0.005998791392259157,7049.974481827113
1684727528880297660,121,1684727528880297660,camera_2,122,0,0.5569816013329284,-0.17328369554889336,1.41869209748716,-0.9795741387026258,0.029989556319638126,0.19124603728883385,-0.05440667714608518,0.010488068510312587,0.00553880324345353,7055.109737440946
1684727528886838436,122,1684727528886838436,camera_2,123,0,0.5569219117249462,-0.17278927755882814,1.4184966676391542,-0.9795584258392058,0.029758901771294675,0.19177500910081274,-0.05293433684449909,0.008181874523870647,0.00431722799042897,7056.784675017694
1684727528893599271,123,1684727528893599271,camera_2,124,0,0.5573377560329692,-0.17238701973218587,1.4195084313563142,-0.9797150464730363,0.02985241631334225,0.1907211817327822,-0.05378375026941208,0.005771623225882649,0.003049147855783186,7051.719250004038
1684727528900322198,124,1684727528900322198,camera_2,125,0,0.5570862689578872,-0.17128674324355095,1.418791789764511,-0.979615898462475,0.02979094193213319,0.1913532770121493,-0.05337709841370266,0.008810248284135014,0.004649530114764623,7056.612211248839
1684727528906944036,125,1684727528906944036,camera_2,126,0,0.557094218791022,-0.17071452338958315,1.4187828320294502,-0.9796182744830185,0.029907412135818084,0.1911320994382529,-0.054056484926210235,0.008747995889279991,0.004617244546869207,7057.247913844418
1684727528913761138,126,1684727528913761138,camera_2,127,0,0.557373269582546,-0.17027242919518995,1.4194568620294068,-0.979724452462423,0.029816388112742065,0.1906817990716551,-0.05377203501740334,0.012770854460541159,0.0067438500672225695,7053.85733994143
1684727528920198440,127,1684727528920198440,camera_2,128,0,0.5572436075362102,-0.1691102789835928,1.4190377762447801,-0.9796588993072584,0.02971337972682053,0.19094963711695423,-0.054072101477603655,0.005828844383358955,0.003076464810166428,7056.60406331066
1684727528926884174,128,1684727528926884174,camera_2,129,0,0.5573743392635286,-0.1686512230556847,1.419327998135493,-0.9797666888681777,0.02988115520711114,0.1905438062662172,-0.05345474573280121,0.00703403219813481,0.003711939306958228,7057.198074388782
1684727528933574676,129,1684727528933574676,camera_2,130,0,0.5578182501923993,-0.16818701675038597,1.4204335105103951,-0.9800351959122828,0.029735895103059858,0.1894839155713529,-0.05237019243177779,0.009396511712111533,0.004960549484483642,7054.112039467085
1684727528940197229,130,1684727528940197229,camera_2,131,0,0.5570724969417882,-0.1669481448859155,1.4184660128122453,-0.9795500679261883,0.02988529483424701,0.1914873862364385,-0.0540473356494756,0.01074105582665652,0.0056643609920354054,7060.153880973114
1684727528946857452,131,1684727528946857452,camera_2,132,0,0.5572549537805082,-0.1664688976436715,1.4188814716330935,-0.9795838141223248,0.029752449892797538,0.191651196723049,-0.05291655345502389,0.009437180415261537,0.004976860259149513,7056.980724684893
1684727528953918218,132,1684727528953918218,camera_2,133,0,0.5576518539659212,-0.16611627618328817,1.4198593903563748,-0.9798879076549348,0.029405371015339275,0.1902500544461826,-0.05253502993535571,0.010671032883692533,0.005629762615487459,7055.8717653553485
1684727528960281372,133,1684727528960281372,camera_2,134,0,0.55720884941626,-0.16501790903169342,1.4186800475937393,-0.9794079955606372,0.02987489198434901,0.1923211478723701,-0.053666052042908995,0.005302450503222644,0.002796980390080541,7054.357266471721
1684727528966840028,134,1684727528966840028,camera_2,135,0,0.5575441108975558,-0.16465447600553382,1.419493507190935,-0.9798236294765129,0.029611480317112436,0.19049310764329036,-0.0527370011785291,0.009351522661745548,0.004931279878632807,7058.095727599461
1684727528973630666,135,1684727528973630666,camera_2,136,0,0.5571231045832692,-0.16409002329446506,1.4184022005467318,-0.9794956681589136,0.02978152595626706,0.19193894070541034,-0.053485884217468395,0.006797531386837363,0.0035827756899695,7059.684349980669
1684727528980488777,136,1684727528980488777,camera_2,137,0,0.5571406079647172,-0.16330121785823765,1.4184279767256152,-0.9795161861075081,0.02949293212373588,0.1918185257338476,-0.05370159488729927,0.003631255589425564,0.0019138226510810273,7059.883807673583
1684727528987241029,137,1684727528987241029,camera_2,138,0,0.5572906729044984,-0.1629944388476743,1.418801042964374,-0.9794758036035649,0.029714360497694214,0.19208265061822066,-0.053370987126363324,0.004088505753315985,0.0021558143961169837,7055.200654532297
1684727528993525981,138,1684727528993525981,camera_2,139,0,0.5569457071495597,-0.1625681305128243,1.4179144897462952,-0.9794534799445164,0.029294291590046574,0.1924951095534914,-0.0525200714280149,0.004752445733174682,0.0025020600429271505,7062.960206878834
1684727529000388622,139,1684727529000388622,camera_2,140,0,0.5572161267793133,-0.16207309207507553,1.4185836116508546,-0.9796148409311766,0.02933618648911256,0.1912505458716158,-0.05401277898304035,0.005198807746637613,0.002739756974766696,7061.1394826951455
1684727529006942749,140,1684727529006942749,camera_2,141,0,0.556745656802173,-0.16168486989588007,1.417378775594774,-0.9793923080864119,0.02942965422241633,0.1926026035402924,-0.05318683505361916,0.0023070003953762352,0.001214020126281526,7066.6721799345705
1684727529013527154,141,1684727529013527154,camera_2,142,0,0.5571508494075222,-0.16159327421730013,1.4184044287178055,-0.9796683117071061,0.028927214568929493,0.191677634862075,-0.05170009272634525,0.004245355317834765,0.00223446177102697,7063.90970542957
1684727529020305395,142,1684727529020305395,camera_2,143,0,0.5568693107602236,-0.16116690445265117,1.4176828324563016,-0.9793666862126953,0.029453206757049717,0.1928470282395667,-0.05275818654633826,0.002599312108941376,0.0013682228191537207,7062.852182273287
1684727529027008295,143,1684727529027008295,camera_2,144,0,0.5568146118738637,-0.16105586003576228,1.4175641401938874,0.9794759159043048,-0.02903545500166199,-0.1929589904446828,0.05050446042517855,0.001216279633808881,0.0006394069389694565,7066.6605863245195
1684727529033586978,144,1684727529033586978,camera_2,145,0,0.557181116124061,-0.16107128127136122,1.4185396767974785,-0.979822111770544,0.0289870723715039,0.19105319092600911,-0.051059349367483214,0.00805052911164239,0.004235116204674117,7067.065703176891
1684727529040372848,145,1684727529040372848,camera_2,146,0,0.5574519825264977,-0.1610731664560968,1.419226703941532,-0.9797443970770856,0.029122833810961604,0.19109344878973547,-0.05230746387010129,0.0061635320307686925,0.0032476387910260964,7058.189649138132
1684727529047054290,146,1684727529047054290,camera_2,147,0,0.5573989395020619,-0.16108300236584067,1.4191399842019414,-0.9798609525929581,0.02912961970020017,0.19049162700950892,-0.05231557013941722,0.00648095813812688,0.0034134326010250055,7062.505076323172
1684727529054121971,147,1684727529054121971,camera_2,148,0,0.5572040430731754,-0.16108802154964247,1.4186651729644122,-0.9798990902357517,0.028879875367675334,0.19091867412806246,-0.050137666709535844,0.011371383909136057,0.0059800035304213035,7067.960307912439
1684727529060469865,148,1684727529060469865,camera_2,149,0,0.5572685014704,-0.1613233897442485,1.418828039919663,-0.9796985999496701,0.02922790644050266,0.1915259797340524,-0.05151875220415099,0.002592894365079701,0.001365252935125559,7060.948446697326
1684727529066966056,149,1684727529066966056,camera_2,150,0,0.556988753459512,-0.16139417394066113,1.4181601943959272,-0.9796501171742391,0.02920125861576403,0.1914968001157168,-0.052553876747544935,0.006014500744640827,0.0031655010459114897,7066.327663891947
1684727529073623180,150,1684727529073623180,camera_2,151,0,0.5572174457094898,-0.16167494236851204,1.4187561065276804,-0.9798218568354446,0.02879594977710886,0.19126466788335186,-0.050376075308096756,0.002636473043821752,0.0013871017622648278,7064.870495946381
1684727529080315828,151,1684727529080315828,camera_2,152,0,0.557177397382922,-0.16211871631821015,1.4187165625951565,-0.9797146627627259,0.029229200412276037,0.1912729143156402,-0.052148879759581726,0.005408993747550994,0.0028483512493227515,7062.761100764854
1684727529087229013,152,1684727529087229013,camera_2,153,0,0.5572075972034768,-0.16239514486382636,1.4188157765729414,-0.9796937772006454,0.029563421986648936,0.19098408882493384,-0.05339648687396284,0.00504500517854467,0.0026584385099417624,7061.570279646896
1684727529093688488,153,1684727529093688488,camera_2,154,0,0.5571874163813321,-0.16268857269678402,1.4188054591358692,-0.979700950097716,0.02941247241419528,0.19118967571188114,-0.052606679664304386,0.006686567910946906,0.0035224680265780964,7061.736885513412
1684727529100443601,154,1684727529100443601,camera_2,155,0,0.5569602794593329,-0.16329900375735784,1.4182455343861187,-0.9795411170990354,0.029339679087914225,0.1924347787140914,-0.05106113085949688,0.0026960885152220726,0.00141908547945939,7062.4547057510335
1684727529107073545,155,1684727529107073545,camera_2,156,0,0.5570530756922509,-0.1637397963139267,1.4185322275565355,-0.979722636019114,0.02915597290634864,0.19181462389924453,-0.05000635733618534,0.002515342610422522,0.0013234257819321588,7064.661290726392
1684727529113736867,156,1684727529113736867,camera_2,157,0,0.5572881207655296,-0.1641979707457134,1.4191667949561084,-0.9796881455523451,0.02944834730521249,0.19140001118479233,-0.05205735321412588,0.0045890582841821015,0.002418768672422324,7057.726932805965
1684727529120313882,157,1684727529120313882,camera_2,158,0,0.5572414328821604,-0.16508981471583165,1.4191244149561344,-0.979576187584238,0.029534329659047877,0.19188446245379848,-0.052331340116005556,0.004713526752311736,0.002485466764379458,7054.907820412656
1684727529126919746,158,1684727529126919746,camera_2,159,0,0.5572723899521209,-0.16551464089657253,1.4192157795761682,-0.9796265797622307,0.02921278813575391,0.19184324718367535,-0.05171601050654292,0.004508951678872109,0.0023772111447613203,7055.051144815983
1684727529133603572,159,1684727529133603572,camera_2,160,0,0.5570976428248511,-0.1659804030335126,1.4188245770483594,-0.9795061351991475,0.029610246261450004,0.19244801030026787,-0.05152405025843318,0.003661666123662144,0.0019300294522839817,7055.703640678431
1684727529140184164,160,1684727529140184164,camera_2,161,0,0.5570576802459459,-0.16696279099264966,1.4187814165678974,-0.979385573530515,0.029651586673578128,0.19285677642306398,-0.05225844961102223,0.004586630559060723,0.0024191627986271287,7052.436809833627
1684727529147099733,161,1684727529147099733,camera_2,162,0,0.5569951054834645,-0.16748641801148215,1.418666517420523,-0.9795338314151034,0.02984982170736975,0.19194113743322957,-0.052735766023869125,0.002304730995092541,0.0012152267442438335,7057.896862911293
1684727529153767108,162,1684727529153767108,camera_2,163,0,0.5574368331702378,-0.1681000740274019,1.419818895629074,-0.9797077498789022,0.02952239404137193,0.1914144225285644,-0.0515913939077109,0.003469242772553116,0.0018307839433255178,7050.987334942211
1684727529160843610,163,1684727529160843610,camera_2,164,0,0.5573067181263706,-0.16915379419554435,1.4195410982577996,-0.9795931404685388,0.029737303569018613,0.19174233697046808,-0.052419921180151006,0.002252517326269299,0.0011891312299804968,7050.142889253331
1684727529167031764,164,1684727529167031764,camera_2,165,0,0.5571363267998103,-0.1696399021099063,1.4191660468192842,0.9795946098961594,-0.029844467038300515,-0.19154436348126636,0.05305153030919592,0.0010655278456397355,0.0005623730093080957,7053.776409033219
1684727529173624515,165,1684727529173624515,camera_2,166,0,0.5570788189447464,-0.17018574303154724,1.4190426850626559,-0.9795565020940779,0.03000575333074211,0.19196813672012544,-0.05212435569359876,0.0029108257149346173,0.0015358323842443486,7053.713317972604
1684727529180361032,166,1684727529180361032,camera_2,167,0,0.5572615321893112,-0.17131872464601025,1.4195838100807423,-0.9797884160894371,0.02980275438931415,0.19065725675147463,-0.05269028350430916,0.006173965986818076,0.003259340631060703,7054.243709385624
1684727529186888933,167,1684727529186888933,camera_2,168,0,0.55736440097188,-0.17185206397090877,1.4198860125025436,-0.9798354503583179,0.029573890401723868,0.19034750990143667,-0.053063176515752195,0.0024880473501980305,0.0013141493974904832,7052.075442150004
1684727529193561553,168,1684727529193561553,camera_2,169,0,0.5572894994008697,-0.17233293494538093,1.419704481001859,-0.9796341349431329,0.030098665279708232,0.19122411291826805,-0.05333264142362951,0.004065942543093115,0.002148565061944439,7048.125317059925
1684727529200161218,169,1684727529200161218,camera_2,170,0,0.5570632975357508,-0.17327686018327612,1.4192017739400833,-0.9797558383419436,0.029951730783154034,0.19100146281190197,-0.051959910139285644,0.003955293504986912,0.002087294180359102,7055.779656178318
1684727529206989765,170,1684727529206989765,camera_2,171,0,0.5571366498015439,-0.17380022339980652,1.4194200655180227,-0.9797373772585112,0.029811807031145766,0.190835205908151,-0.05298916823413301,0.007901815988589078,0.00417342536620093,7052.515477423556
1684727529213711977,171,1684727529213711977,camera_2,172,0,0.557000544210485,-0.1742185184864451,1.4191043575160098,-0.9797355235445327,0.03036601194073654,0.1907011012399736,-0.05319115725002341,0.007933123270049691,0.0041887010455834055,7055.704165788367
1684727529220356464,172,1684727529220356464,camera_2,173,0,0.5570698678756322,-0.1751446725701754,1.419332750209304,-0.9798834796948911,0.030006590742223983,0.1900268094594995,-0.05308278835652859,0.005992620310280472,0.003164342659493324,7056.561651357917
1684727529226857423,173,1684727529226857423,camera_2,174,0,0.5570636502219396,-0.175499924637018,1.419323588171176,-0.9798195567844183,0.03003918960204374,0.19056282796788024,-0.05231722305056517,0.006080972380004823,0.0032108493485258844,7054.500024818116
1684727529233629941,174,1684727529233629941,camera_2,175,0,0.5568988675276165,-0.17586431170037303,1.41893281810802,-0.9796448544007426,0.0302546871678298,0.19144005864477476,-0.0522620043302023,0.010093986871652305,0.005329669870640757,7053.114503361752
1684727529240216493,175,1684727529240216493,camera_2,176,0,0.5567193166059835,-0.17647564252518044,1.4184981513381145,-0.9796631925485881,0.030153398235307886,0.19142521995684986,-0.05203063429214194,0.00597705936525017,0.003153964296844055,7057.180891991595
1684727529246971845,176,1684727529246971845,camera_2,177,0,0.5568024607291207,-0.1768112590795461,1.4186938745351616,-0.9795186900881685,0.03021325748027747,0.19204795832408963,-0.05242019213946071,0.005854283459484577,0.0030918640356104145,7050.6997521598805
1684727529253551244,177,1684727529253551244,camera_2,178,0,0.5566352724361404,-0.17703021641845015,1.418321781115739,-0.9796614243209698,0.03012366981247729,0.19112784043060727,-0.05316208072272757,0.009623143705539405,0.005079402777827865,7058.17086684215
1684727529260385513,178,1684727529260385513,camera_2,179,0,0.5565888942486436,-0.1775028230385773,1.4181860258997239,-0.979494530281505,0.03001401094720548,0.19232487283140234,-0.051968909800571,0.005919472547248006,0.0031242443921209373,7054.040158478776
1684727529266894102,179,1684727529266894102,camera_2,180,0,0.5564772130718619,-0.17764472980261897,1.4179302409931982,-0.9794616417763005,0.030319058552630507,0.19217730600189106,-0.05294837141227119,0.010716710763517767,0.005656878242178541,7055.671640745363
1684727529273715257,180,1684727529273715257,camera_2,181,0,0.5567603405881375,-0.17788276445261036,1.4186378677539482,-0.979612057229162,0.030339480204937208,0.19134424771596162,-0.0531705946755937,0.008125025837216526,0.004291876573824286,7052.789271051067
1684727529280202150,181,1684727529280202150,camera_2,182,0,0.5563903472474641,-0.17798544881880438,1.4176900500380076,-0.9794637092779863,0.03014678510060756,0.19230750570534338,-0.05253414894043092,0.006574379338417202,0.0034688808755591956,7057.494130213281
1684727529286849975,182,1684727529286849975,camera_2,183,0,0.5565577608669865,-0.17809202035897773,1.4181116577006023,-0.9794257471591824,0.03016833916972647,0.19234996959412887,-0.053071332285475885,0.0057105683372356,0.0030158201233614905,7052.112625399138
1684727529293594360,183,1684727529293594360,camera_2,184,0,0.5563348608877786,-0.17803390001296238,1.41752877921748,-0.9794306343815278,0.03007227182229637,0.19229590906526697,-0.05323132779864462,0.008372867596335709,0.0044184396442217685,7057.91775469808
1684727529300384283,184,1684727529300384283,camera_2,185,0,0.5563840647404626,-0.177984494783332,1.4176329012876516,-0.9793080836498306,0.03003842323885076,0.192871081150166,-0.053423931747729456,0.005168178933672607,0.0027287305834205688,7053.323585038539
1684727529306936979,185,1684727529306936979,camera_2,186,0,0.5566099593292252,-0.17795003676328308,1.4181970761083016,-0.9793490370161941,0.029875131800107695,0.1929526183401178,-0.052461674306793604,0.00563117244746536,0.0029741300124697906,7048.949327852344
1684727529313605070,186,1684727529313605070,camera_2,187,0,0.5567296048456424,-0.1778855616033361,1.4184735359314558,-0.9794469810112256,0.030101039107299287,0.19202361068313437,-0.05389315144680917,0.006448704516515136,0.0034080554453212795,7049.2395262161735
1684727529320180654,187,1684727529320180654,camera_2,188,0,0.5564730839071546,-0.17746678043743863,1.41780964783508,-0.979461412274101,0.02998408405590914,0.19239625390368148,-0.05234479967658732,0.005997259693685919,0.0031643880863534693,7056.657013357385
1684727529326955080,188,1684727529326955080,camera_2,189,0,0.5566663487753938,-0.17730539058735412,1.4182394225150896,-0.9793941139604347,0.02991848568529968,0.1924835384075525,-0.05331173600683058,0.003767776128370315,0.0019902038455852237,7050.486217707396
1684727529333444118,189,1684727529333444118,camera_2,190,0,0.5565483476741481,-0.17702054483035276,1.4179201036503535,-0.9793514119956149,0.03021273546613002,0.19260819845689608,-0.05347975621707769,0.003790639457292855,0.002001620657113211,7052.950562951855
1684727529340329408,190,1684727529340329408,camera_2,191,0,0.5564635992705768,-0.17641716247743772,1.4176253214776966,-0.9791848868324653,0.030021721531524343,0.19364847153276044,-0.0528764891818792,0.004789622034877539,0.002528377685312373,7051.474304442759
1684727529346960783,191,1684727529346960783,camera_2,192,0,0.5565049956269489,-0.17608681436503415,1.417726690919056,-0.9792891299335718,0.02992346796885655,0.19269331533974526,-0.05446716700951629,0.009245281631592661,0.004882327198403886,7053.711372692141
1684727529353743076,192,1684727529353743076,camera_2,193,0,0.5569909393253445,-0.17590822861423372,1.4189381449797835,-0.9797256392027309,0.029833855577488563,0.19055220381846646,-0.05419843697107379,0.006133466551546007,0.003240235547706725,7054.591740190985
1684727529360528707,193,1684727529360528707,camera_2,194,0,0.5568158998242952,-0.17505907945365062,1.4184344824532802,-0.9796264734575371,0.02964583360610267,0.19109838621137962,-0.054171060893756895,0.007544380729086697,0.003983194053564212,7057.335218811875
1684727529366909027,194,1684727529366909027,camera_2,195,0,0.5569617865390453,-0.1746691351797131,1.4187647594824095,-0.9795947813125933,0.029972650400621317,0.19103199173895105,-0.054794915688813166,0.008845089352689683,0.004673170989634819,7053.787810562175
1684727529373877763,195,1684727529373877763,camera_2,196,0,0.5567479685830405,-0.17412420228357356,1.4181868568932254,-0.9794224381739597,0.030090120259305592,0.19195271573130782,-0.05459328885066951,0.010328112926799804,0.005453881503142431,7055.082101006527
1684727529380720853,196,1684727529380720853,camera_2,197,0,0.55722271958211,-0.17333263586463604,1.419322947412962,-0.9798429109413802,0.0301442426349808,0.19005357187909575,-0.05365476987075056,0.007366415637079626,0.0038898002720606077,7056.835220786976
1684727529386939764,197,1684727529386939764,camera_2,198,0,0.5574292955345971,-0.1728995280211826,1.4198097335564153,-0.9798710850125912,0.03016417037176847,0.19007754135045557,-0.053040624583392156,0.008025349001400173,0.004239057936401922,7053.225709119345
1684727529393749952,198,1684727529393749952,camera_2,199,0,0.5573645307032274,-0.1723747740270296,1.419600962128727,-0.9797303299196416,0.029797841888907942,0.19064716219020092,-0.05379803716807231,0.006920728657860309,0.003656550192518173,7051.241661388427
1684727529400572299,199,1684727529400572299,camera_2,200,0,0.5574702539856037,-0.17137318227275683,1.4198058783228285,-0.9799361128506342,0.029959636824859904,0.18962291247201218,-0.05357971592070263,0.012980310479179025,0.006854677738248252,7056.040496481585
1684727529406907558,200,1684727529406907558,camera_2,201,0,0.5572407669318877,-0.17072925525383378,1.419172085353909,-0.9796675957610137,0.030186568153885665,0.1908456897288654,-0.054019400504258415,0.01024951075669378,0.005411898709932056,7055.0963763229065
1684727529413615942,201,1684727529413615942,camera_2,202,0,0.5571521569887609,-0.17016290572084014,1.4189136365291575,-0.9797154036157908,0.029935632480140764,0.19102435305358703,-0.05264297072184118,0.008957868500147015,0.004724836630914648,7059.144300822167
1684727529420220613,202,1684727529420220613,camera_2,203,0,0.5570357976207521,-0.1690188596089515,1.418522424379856,-0.979531870382691,0.029891748758248373,0.19181589667668167,-0.05320206803200092,0.008892685058526695,0.004690259793151695,7058.222645099503
1684727529426830530,203,1684727529426830530,camera_2,204,0,0.5574021480153697,-0.16862904086334654,1.419419597946694,-0.9798495099905151,0.030052810222442803,0.19002171237521365,-0.053698372368936036,0.006498510134406388,0.003429282939496863,7058.887082132511
1684727529433715105,204,1684727529433715105,camera_2,205,0,0.5575375303583797,-0.16808513665221558,1.4197302885948084,-0.9798019679233704,0.02979297650540982,0.1904323660691842,-0.05325407174790705,0.00813368835952133,0.004293561778993434,7054.440031532897
1684727529440447330,205,1684727529440447330,camera_2,206,0,0.5573948061882528,-0.16751815432358827,1.4193395570280216,-0.9798036667845169,0.029609342984745247,0.1904634968548331,-0.053213886622348994,0.0053523118840530515,0.0028235004127712153,7058.412013222003
1684727529446910619,206,1684727529446910619,camera_2,207,0,0.5572098752595351,-0.16641899832792087,1.418787377351334,-0.9795975272962991,0.02962006080343588,0.19156096977123566,-0.053063465522721454,0.00930441782111302,0.00490623351931718,7058.245075259826
1684727529453474521,207,1684727529453474521,camera_2,208,0,0.5575924662712908,-0.16606898884945076,1.4197265230464229,-0.9798509573349256,0.029671948553173847,0.18998972282726737,-0.053996130406780175,0.00809199787909165,0.004270864428471869,7056.453831786756
1684727529460177183,208,1684727529460177183,camera_2,209,0,0.5574648733265406,-0.16551801070917585,1.4193832426176325,-0.9797596743242833,0.029471807659342805,0.19077855668071064,-0.052971081092326004,0.007682868512347341,0.004052183920496325,7057.129968306981
1684727529466888189,209,1684727529466888189,camera_2,210,0,0.557345269093034,-0.16458456742015248,1.4190291855786494,-0.9797002916424118,0.02938188639909034,0.1909478890421595,-0.053506513414233514,0.00436519697541371,0.0023016825707324697,7059.03947048937
1684727529473506927,210,1684727529473506927,camera_2,211,0,0.5576244922470242,-0.1642115693374187,1.4197001667331568,-0.9798552688997937,0.02954997317601687,0.1901763413963687,-0.05332363704495096,0.005991159996483475,0.0031603579687334645,7057.034338523634
1684727529480283021,211,1684727529480283021,camera_2,212,0,0.5573147602932983,-0.16333401847149734,1.4188658904471014,-0.9795628166150523,0.029294323334756886,0.19189121050144212,-0.0526905518839501,0.00279185181716457,0.0014716178805886891,7056.635053557573
1684727529487109899,212,1684727529487109899,camera_2,213,0,0.5571922869538781,-0.16294087572177904,1.418550673946786,-0.9794197646590668,0.029534513949621036,0.192219635200067,-0.0540023048072129,0.007308824511710554,0.003853955562260098,7055.954521142645
1684727529493798255,213,1684727529493798255,camera_2,214,0,0.5569868555665833,-0.16257555544102176,1.4180267920490957,0.9794533517554874,-0.029574113264221748,-0.19231976549965316,0.053005767212021514,0.0010502748773433268,0.0005531204147402763,7062.122795826755
1684727529500274896,214,1684727529500274896,camera_2,215,0,0.5571860345203953,-0.16205391478741105,1.418516139181783,-0.9795240349648218,0.029457312469428114,0.19203293404115918,-0.05280420354343904,0.0027021317509934306,0.0014235941828504848,7059.186530476438
1684727529507121801,215,1684727529507121801,camera_2,216,0,0.5564886354021464,-0.16159739990695,1.416708629251625,-0.979138833445127,0.02946774837539131,0.1940288824887177,-0.05264588688188256,0.002045462024398148,0.001075870841675949,7065.944749311546
1684727529513560056,216,1684727529513560056,camera_2,217,0,0.5571080040451731,-0.16156693746633122,1.4183107492078755,0.9796756829232649,-0.02919948125211264,-0.1914843957471891,0.05212171110752479,0.0033277744660153985,0.0017514866943871288,7065.3438541162795
1684727529520436763,217,1684727529520436763,camera_2,218,0,0.5567956550430657,-0.16114493885939388,1.417518733758404,0.9794012983418597,-0.029427983301582226,-0.19273475234350199,0.052539564560150034,0.001546932675410062,0.0008139385628780747,7065.482158389173
1684727529526962518,218,1684727529526962518,camera_2,219,0,0.556804457085824,-0.16103630892153456,1.4175480547284738,-0.9796662583102433,0.028970312145462356,0.19214440195273308,-0.04995269903447341,0.0026956923538818955,0.0014161461756711266,7072.258616521025
1684727529533653736,219,1684727529533653736,camera_2,220,0,0.5573211769569217,-0.1611006556065379,1.418871899457801,-0.9798550434056109,0.029040445513387254,0.19092773471315747,-0.05086596656188454,0.0029125665896572173,0.0015326761571192826,7064.702790726678
1684727529540180921,220,1684727529540180921,camera_2,221,0,0.5574707077674959,-0.1610934199319037,1.4192611975570641,-0.9797704496922098,0.029200556965257453,0.191058953403042,-0.05190057521240037,0.006764017860405147,0.00356348198178694,7058.613577854356
1684727529546886920,221,1684727529546886920,camera_2,222,0,0.5575614591193652,-0.16113293562070571,1.4195350869058494,-0.9798488983699573,0.0294518382788256,0.19069875187366095,-0.05160146915550968,0.005093624407891184,0.0026836240573905935,7058.414167682404
1684727529553718566,222,1684727529553718566,camera_2,223,0,0.5574309449515009,-0.16115549089748996,1.419219928194551,-0.9799833154665739,0.028978032212707096,0.19017725823398252,-0.05124046747274918,0.004108505556359887,0.002162631610004778,7065.033432461321
1684727529560357570,223,1684727529560357570,camera_2,224,0,0.5570016561664761,-0.16125333344957343,1.4181626828182872,-0.9795884748259731,0.02932785953683971,0.19183334238661853,-0.052404822219808155,0.0033576966379769146,0.0017673505268385372,7064.561253407506
1684727529567008256,224,1684727529567008256,camera_2,225,0,0.5569227288156688,-0.1613845033623259,1.4179765953757806,-0.9795799383390484,0.029145956385324776,0.1917915831941379,-0.05281710183205022,0.005039806070271879,0.0026525560292924005,7066.074701420732
1684727529573839664,225,1684727529573839664,camera_2,226,0,0.5575004432706739,-0.16176389633758953,1.419484853175268,-0.980108630048016,0.028896690389784194,0.18969680443202805,-0.05066731666661773,0.005498001934029162,0.00289375936259112,7066.058926052413
1684727529580406427,226,1684727529580406427,camera_2,227,0,0.5571962122713484,-0.16186836606977636,1.4187448335816926,-0.9796112856435122,0.02980058069522773,0.1919665633047194,-0.0512102822006269,0.00482878863113001,0.0025426643895102565,7059.861545231424
1684727529587054729,227,1684727529587054729,camera_2,228,0,0.5572325053879297,-0.16241925956592695,1.4188799243173058,-0.9797039879596645,0.02966148325368781,0.19105870020363058,-0.052885399342541654,0.0033292295993305743,0.001754105325502391,7061.2769085462205
1684727529593708992,228,1684727529593708992,camera_2,229,0,0.5571879458102981,-0.1627041846552445,1.418787577159963,0.9798068400669601,-0.029323078684285714,-0.19090335837505112,0.05171673786696961,0.0012374580837786198,0.0006514803637888533,7064.810692152707
1684727529600186824,229,1684727529600186824,camera_2,230,0,0.557676791315705,-0.16318633499507013,1.4200752241242185,-0.9798573822014757,0.02941118711372758,0.1903484386310876,-0.05274433171952983,0.0036363769904710352,0.001918447354512506,7053.658088788159
1684727529606882095,230,1684727529606882095,camera_2,231,0,0.5569856515212246,-0.16374138675656727,1.4183600657344722,-0.9795657622994273,0.02915459942742472,0.1923801288270806,-0.050900026477835356,0.00237602909328416,0.0012507336218310259,7061.877498819029
1684727529613545417,231,1684727529613545417,camera_2,232,0,0.5574792036143921,-0.16428868952684358,1.419653911661759,0.9797645525785096,-0.029632179797040376,-0.19090654730794007,0.0523263377857672,0.0044446143438108265,0.002343984090691706,7055.278683155777
1684727529620425462,232,1684727529620425462,camera_2,233,0,0.5574056765853581,-0.16468378105760256,1.4194971806607406,0.9798503690559097,-0.029492768325102073,-0.1906529382522051,0.05171931953651539,0.001504169893451035,0.0007927787516456556,7059.1196577018145
1684727529627007246,233,1684727529627007246,camera_2,234,0,0.5570542064939237,-0.16548485390902185,1.4186818731954254,-0.9794786127345836,0.02965186120412211,0.19254373708758762,-0.05166549749119941,0.0023993144859559834,0.0012644643350974046,7056.468521255067
1684727529633620023,234,1684727529633620023,camera_2,235,0,0.5576400478878644,-0.16616361649652336,1.4201659890864602,-0.9797707705904244,0.02954572422833234,0.191001927022687,-0.05190906616468513,0.0017934765201061962,0.0009465954187704353,7049.952774520033
1684727529640444278,235,1684727529640444278,camera_2,236,0,0.557213982806088,-0.16702059087071924,1.4191678867013406,-0.97943962018073,0.03001630590422559,0.19233273443710883,-0.052963865644757295,0.004875666287261993,0.0025733122948625505,7050.485155920026
1684727529647030353,236,1684727529647030353,camera_2,237,0,0.5572385963996003,-0.1675930192525498,1.419262513853098,0.9795252038247929,-0.03000952159214912,-0.19207948724161986,0.052299849586827964,0.0016852655098773537,0.0008892304214884819,7051.804805719759
