%time,field.header.seq,field.header.stamp,field.header.frame_id,field.image_seq,field.transforms0.fiducial_id,field.transforms0.transform.translation.x,field.transforms0.transform.translation.y,field.transforms0.transform.translation.z,field.transforms0.transform.rotation.x,field.transforms0.transform.rotation.y,field.transforms0.transform.rotation.z,field.transforms0.transform.rotation.w,field.transforms0.image_error,field.transforms0.object_error,field.transforms0.fiducial_area
1684938397344553232,22,1684938397344553232,camera_2,24,0,0.22378874196780782,-0.05290832187901863,0.46820985848376545,0.973055670316347,-0.0017516059184927793,-0.2230405228104442,0.058416774357667296,0.5147869478096254,0.04353962630747854,31794.247690041084
1684938397354626893,23,1684938397354626893,camera_2,25,0,0.22373122098945405,-0.05291845435253882,0.4680700319311572,0.9729153150119859,-0.0018310998094806944,-0.22371845653947786,0.05815917031913201,0.48294702247949317,0.04083356188398536,31792.78706719679
1684938397364366292,24,1684938397364366292,camera_2,26,0,0.22396558669783947,-0.05247890580796742,0.4685402463771827,0.9729743645839992,-0.002055248618841251,-0.22325661677217556,0.058933393614483125,0.4715554174617864,0.03994395430829435,31745.67620978155
1684938397374380111,25,1684938397374380111,camera_2,27,0,0.2238966679304518,-0.05203585089271198,0.4683757008028698,0.9728151315213033,-0.002008306528767368,-0.22395031203059507,0.05893169206356563,0.5085940764984116,0.043052983655042946,31752.752463408993
1684938397384542703,26,1684938397384542703,camera_2,28,0,0.22404447363788638,-0.05159762050006245,0.46868181182868823,0.9730134764437712,-0.0018610020404875335,-0.2229002384678966,0.059638871729491644,0.48908832808956504,0.04143179987246927,31746.22223712575
1684938397394533395,27,1684938397394533395,camera_2,29,0,0.22391795117997104,-0.051127455174916826,0.46839417880818496,0.9727764402299781,-0.0020775139688519115,-0.22380378683924665,0.06011277955322015,0.5309851600904949,0.04494777541982873,31759.443461403724
1684938397404571056,28,1684938397404571056,camera_2,30,0,0.2238790277270425,-0.05078321090625456,0.46828208092248486,0.9728445909949046,-0.0019346254023424913,-0.2234436687802459,0.06035383897096485,0.5070699964417145,0.04288881824169725,31787.824057188835
1684938397414436817,29,1684938397414436817,camera_2,31,0,0.22380544098240573,-0.05060079245556966,0.46814104940187357,0.9726963570766636,-0.001890478649641681,-0.2239533224557892,0.060853367871273586,0.5210951387416571,0.044067563259529964,31790.205655543607
1684938397424431562,30,1684938397424431562,camera_2,32,0,0.22393631624737836,-0.050832564062079894,0.46842636636191654,0.9728092493273974,-0.0019389130157821284,-0.2235357605199008,0.060581918161878905,0.5023282038164325,0.04252198524890846,31764.10795661062
1684938397434369087,31,1684938397434369087,camera_2,33,0,0.22397426260668094,-0.05118642470519695,0.46852811453106114,0.9728914913760573,-0.0019062012072425696,-0.2232488607307529,0.06031963683121246,0.5601968193077482,0.04743836062175233,31757.06896044338
1684938397444767475,32,1684938397444767475,camera_2,34,0,0.22398372532066146,-0.0516469173605315,0.4685748813657074,0.9730420842399043,-0.0019336145190637563,-0.2226352687116165,0.060157298465446846,0.5092584715457633,0.043129585623369326,31764.81576196057
1684938397454784154,33,1684938397454784154,camera_2,35,0,0.2238865828613902,-0.05210131233528348,0.4683860460705647,0.9729054274614239,-0.0019623860253630714,-0.22343006294976678,0.05941536188103838,0.4588111849152483,0.03884047961509476,31763.91784867596
1684938397464263916,34,1684938397464263916,camera_2,36,0,0.22385086842435195,-0.05282778230387899,0.4683473337064867,0.9730622985735066,-0.0018409703528728008,-0.2228725441977151,0.05894236986957197,0.507207058253698,0.042929490508098384,31778.908471250204
1684938397474370956,35,1684938397474370956,camera_2,37,0,0.22369420358696634,-0.05292368915466764,0.46800874780066026,0.9728951058868226,-0.0019174106989526135,-0.22378675139716298,0.05823166129163963,0.4696736680343747,0.03970413791268535,31798.706104502307
1684938397484314918,36,1684938397484314918,camera_2,38,0,0.22379171240243242,-0.05288207855015109,0.4682038913191307,0.9729980831786089,-0.0018928233901720833,-0.22332444317385247,0.05828670887479657,0.501053926825989,0.042380412450123556,31787.172082498913
1684938397494379043,37,1684938397494379043,camera_2,39,0,0.22380421352576957,-0.052639012794441824,0.4682218202855304,0.9729524981181833,-0.0019977088572429237,-0.2233947608592715,0.058772666993571095,0.5135253963526338,0.043445640788641944,31783.006131448325
1684938397504743576,38,1684938397504743576,camera_2,40,0,0.2239127329477168,-0.052287381719701334,0.4684348275530941,0.9729535531596071,-0.002079318975779103,-0.2232765246948048,0.059200112727111905,0.49402253731386736,0.04182883514152394,31760.56144608511
1684938397514276981,39,1684938397514276981,camera_2,41,0,0.2240668284640309,-0.05139028845918518,0.4687143874172662,0.9730088205673048,-0.00207101948854543,-0.22301234948382082,0.05928775551668907,0.5633547854376957,0.04771714053353695,31743.739848831443
1684938397524382829,40,1684938397524382829,camera_2,42,0,0.22388293842028542,-0.05095850777162947,0.46831343701759837,0.9727184476770537,-0.0021067772338708183,-0.22410224626128442,0.05993802014645285,0.5263124151388183,0.04453396067311821,31764.398582294118
1684938397534345388,41,1684938397534345388,camera_2,43,0,0.22385629689962858,-0.05068778779594477,0.4682419826503881,0.9727354047925298,-0.0020609920155269736,-0.22379623402295418,0.060801564224682955,0.4664960906957276,0.039466122851025055,31780.416271300055
1684938397544644832,42,1684938397544644832,camera_2,44,0,0.22386646569603608,-0.05067779794402897,0.46827127523912276,0.972766230532872,-0.0019392725091244192,-0.22382449888911066,0.06020542877549657,0.4563702827435918,0.03859927443275503,31780.389304130353
1684938397554566621,43,1684938397554566621,camera_2,45,0,0.22400578729084425,-0.05134704817833789,0.46859450250578216,0.9729808294326259,-0.002015622667311878,-0.22292202445140183,0.060083390686205065,0.479391630506143,0.04059988801364313,31757.49739389401
1684938397564326047,44,1684938397564326047,camera_2,46,0,0.22396520665101902,-0.051802581124934424,0.4685439875169088,0.9729308288044365,-0.0021046729575301426,-0.2232243107090346,0.05976687897264426,0.4672132426057942,0.039573571934802196,31751.24278104865
1684938397574444532,45,1684938397574444532,camera_2,47,0,0.22385912895890628,-0.05223658501376392,0.46834070179575077,-0.9729790529915343,0.0020640017097064496,0.2231496252323104,-0.059259995741806334,0.5586337163695134,0.04727741674723737,31778.187250419523
1684938397584358692,46,1684938397584358692,camera_2,48,0,0.22383989434398557,-0.052624646342081534,0.4683154570629601,0.972953554029617,-0.001981276968977704,-0.22336608330564808,0.05886466742795249,0.4772119208355434,0.0403889147925811,31771.54425784177
1684938397594501733,47,1684938397594501733,camera_2,49,0,0.2237189250976078,-0.05285350599334304,0.4680745312590748,0.9728619691132959,-0.001714385606344869,-0.22387447730612792,0.058453984859044524,0.462546783615835,0.039115453726285096,31787.29846894113
1684938397604273080,48,1684938397604273080,camera_2,50,0,0.22382187291332592,-0.052836130371662654,0.46826003218823953,0.9729904081553132,-0.0018779805437136676,-0.22335987615069555,0.05827953802820172,0.4687749086879194,0.039659008283984554,31779.149591348138
1684938397614283084,49,1684938397614283084,camera_2,51,0,0.22382740612601765,-0.052545824072260286,0.468252727482634,0.972904987013419,-0.0022261776338992393,-0.22355187354893694,0.05895328837580984,0.436710933689028,0.03695668575837784,31773.46628956405
1684938397624306201,50,1684938397624306201,camera_2,52,0,0.22400115656740743,-0.05216910836686076,0.46860553192085536,0.9730255958698312,-0.0021085078983063437,-0.22295685754385203,0.05921979103959489,0.4453327688970603,0.03772346508648023,31748.94517281882
1684938397634379625,51,1684938397634379625,camera_2,53,0,0.22390630675436002,-0.0516659806574555,0.46839479293473896,0.9728552254948547,-0.0020932862330276247,-0.2236447427658481,0.05942522539544631,0.4693424823926762,0.03972671488669132,31761.856152007356
1684938397644367933,52,1684938397644367933,camera_2,54,0,0.22397151724387246,-0.051234589835450775,0.4685238538029793,0.9729487055357086,-0.0021418022999597406,-0.2231032725156875,0.05992627864374571,0.5137359698419459,0.04349229440095658,31764.21408451444
1684938397654403686,53,1684938397654403686,camera_2,55,0,0.22383372983101762,-0.050620462528932514,0.4681911619659322,0.9727742331259573,-0.001860573362727866,-0.22364961241130993,0.060726275212946206,0.48650821787305176,0.04114168511839469,31793.255762215467
1684938397664765834,54,1684938397664765834,camera_2,56,0,0.22385151114230187,-0.050601307876034285,0.4682307484406326,0.9726736063253907,-0.002038366431962412,-0.2241713259440654,0.060407923691578755,0.4743587569100782,0.04012493499489567,31774.293588593137
1684938397674822330,55,1684938397674822330,camera_2,57,0,0.22387675561269185,-0.050764590112324176,0.4683118892444869,0.9727698545422152,-0.0018401314202391996,-0.22367356739046634,0.06070880711310471,0.5075780750485137,0.04294919847175004,31775.530559867606
1684938397684576749,56,1684938397684576749,camera_2,58,0,0.2239464811456521,-0.05111096435505498,0.46847269710677936,0.9728952103040317,-0.001987669715923563,-0.22331693540474884,0.06000421066896623,0.4970294128288515,0.042070895490055646,31765.715542588157
1684938397695116043,57,1684938397695116043,camera_2,59,0,0.22404154306892013,-0.05156021055993085,0.46870679406205135,0.9730869467386025,-0.001999427143174699,-0.2224361359663759,0.06016611832577762,0.47657041234197095,0.040376007970557654,31754.94397670355
1684938397704958200,58,1684938397704958200,camera_2,60,0,0.22398732722586442,-0.052465789029832455,0.4686287084294413,0.9731703376526105,-0.0018944439883575004,-0.22232132399567045,0.059237943008608254,0.47551949630724266,0.04027793327214388,31762.305634591725
1684938397714533567,59,1684938397714533567,camera_2,61,0,0.2238392985842735,-0.05276089961572184,0.46832425957337825,0.9730045296739828,-0.0018352549124089584,-0.22315691976266055,0.05882011760749446,0.5043698265217245,0.04268671209465715,31775.263297303343
1684938397724692583,60,1684938397724692583,camera_2,62,0,0.2237043096223885,-0.05291268894864522,0.4680473547537539,0.9729049979793144,-0.0018254422723419754,-0.223666945480213,0.05852888318541682,0.511241385480389,0.04322792102145639,31795.99403079132
1684938397734461784,61,1684938397734461784,camera_2,63,0,0.223806407862464,-0.05292839086569822,0.4682491365457023,0.973056964414998,-0.001964186223912113,-0.2230047821254623,0.05852480777518381,0.503418922657147,0.042588272926998176,31788.98696095287
1684938397744562387,62,1684938397744562387,camera_2,64,0,0.223833561900793,-0.052734499279715824,0.46829656840477274,0.9729963869114445,-0.0020150172331046914,-0.22324876007776678,0.05860001609696635,0.4878057034802623,0.04127761505136151,31777.580559503054
1684938397754407644,63,1684938397754407644,camera_2,65,0,0.22390751484398672,-0.05196406397832688,0.4684179271303573,0.9728338665054642,-0.00203525791706266,-0.22386019951320976,0.058963861636986414,0.4897235508542508,0.04145822183517517,31751.454437615837
1684938397764272689,64,1684938397764272689,camera_2,66,0,0.22395490978416593,-0.051514306089425956,0.46849751650471877,0.9729252781950564,-0.002064464547699515,-0.22328728872975045,0.05962321466443072,0.49448004487203434,0.04186285295726679,31760.256073132845
1684938397774427175,65,1684938397774427175,camera_2,67,0,0.22383307050411932,-0.051059687051783646,0.4682225030209833,0.9726136704483204,-0.0021371387297747365,-0.22462006669636306,0.0596984617257189,0.5012807627790608,0.04240950092488492,31761.024705470078
1684938397784387350,66,1684938397784387350,camera_2,68,0,0.2238529879050815,-0.0505987347878589,0.4682430922174638,0.9727601741896014,-0.0019561712249702686,-0.22372083657479827,0.06068611197817499,0.5090938060311601,0.043061322775074774,31785.104594711454
1684938397794837951,67,1684938397794837951,camera_2,69,0,0.22388509722925645,-0.050851173455358126,0.4683313561088249,0.972777026505946,-0.0019562145209156803,-0.22379006290903256,0.06015843806291378,0.4962056310614571,0.041983280408601026,31772.10332752183
1684938397804544448,68,1684938397804544448,camera_2,70,0,0.2239643753108106,-0.05123202556852268,0.4685299328659189,0.9730008475845217,-0.002029397693408948,-0.2228594421021594,0.059990842723860266,0.5642444515251555,0.047763052576509916,31771.357652813196
1684938397814468860,69,1684938397814468860,camera_2,71,0,0.22385756679681362,-0.051659757001109655,0.4683204514270231,0.9727774314534618,-0.002053752014560806,-0.22394237997426392,0.059579034978173635,0.549697152164299,0.04652457110014973,31762.58364026434
1684938397824470043,70,1684938397824470043,camera_2,72,0,0.2238894271016377,-0.0521485455436871,0.46840353798931944,0.9730007415602276,-0.001890990207765975,-0.22305109852857735,0.05928059146530615,0.5214460177812725,0.0441346668221639,31774.102156875415
1684938397834589958,71,1684938397834589958,camera_2,73,0,0.22387229629330307,-0.052566796992347196,0.4683984298105087,0.9730551404660268,-0.001995988370558757,-0.2229853684256979,0.05862793797432465,0.4796669008792378,0.04059319802965596,31775.51450543455
1684938397844638824,72,1684938397844638824,camera_2,74,0,0.22374680990289647,-0.05294479762557731,0.4681288344739688,0.9729349868990173,-0.0017383607497522145,-0.22355096401730437,0.058476113556278214,0.47463929193327203,0.040143819910289966,31788.24988373042
1684938397854494094,73,1684938397854494094,camera_2,75,0,0.22375519886122627,-0.05286295344209632,0.4681463704099007,0.9729167722239885,-0.0017122153099900239,-0.22366725575888916,0.05833507817150481,0.4401792181306518,0.03722888960819703,31784.696562869238
1684938397864571809,74,1684938397864571809,camera_2,76,0,0.22381393291891233,-0.052612212682480244,0.4682436139136677,0.9729532033267324,-0.001865773098939924,-0.22347426547951169,0.0584622587263462,0.49509485869202763,0.04188180581697494,31780.380018555086
1684938397874534845,75,1684938397874534845,camera_2,77,0,0.22390184148505976,-0.052232762482218045,0.4684124793825432,0.9728821690276469,-0.0019905574733031697,-0.22364282234418204,0.05899331218820789,0.5185699173016474,0.04390411913297411,31754.654183696246
1684938397884448766,76,1684938397884448766,camera_2,78,0,0.22392591302221626,-0.051771314044940134,0.4684564936660673,0.9729048761394814,-0.0020526119044107587,-0.22336959939966367,0.05964822572737794,0.5452540792757645,0.04616557356032863,31759.758829778737
1684938397894552946,77,1684938397894552946,camera_2,79,0,0.22398128178838458,-0.050931269763781165,0.46852971303907165,0.9729021268161219,-0.0020533979288848434,-0.2232116243048573,0.06028105812607996,0.5188956165802665,0.043931647486468446,31761.47624941496
1684938397904483556,78,1684938397904483556,camera_2,80,0,0.22381070922432988,-0.05066121153702724,0.4681591083370797,0.9726271005255773,-0.001901761755332529,-0.22433542994026195,0.06055180838713371,0.4602474924759008,0.03892803255290823,31777.324141945242
1684938397914565324,79,1684938397914565324,camera_2,81,0,0.22383146318071298,-0.05058637343454639,0.468205087135899,0.9726858228692785,-0.0018727817122981235,-0.22402649520994813,0.06075287747687334,0.4942345726885833,0.041805866833584435,31780.567986571696
1684938397924532413,80,1684938397924532413,camera_2,82,0,0.2239156177368643,-0.050721180353099395,0.46839872025550267,0.9728775505721516,-0.001895538471610952,-0.2233005146930384,0.060353613516154744,0.47583015356212854,0.04025954601973429,31778.848482325222
1684938397934529542,81,1684938397934529542,camera_2,83,0,0.22395489610375227,-0.051013393989060615,0.4684905227992064,0.972880852559756,-0.0018819481354477002,-0.22340988946182555,0.059894292586796606,0.5536368064349517,0.046860668424542985,31762.819304265555
1684938397944417238,82,1684938397944417238,camera_2,84,0,0.22405494362354098,-0.051904497452653145,0.4687571320573721,0.9731520155079586,-0.0019730155556405057,-0.2223111185584321,0.05957372313120781,0.5625626950641163,0.047663794713582244,31751.969612343702
1684938397954511880,83,1684938397954511880,camera_2,85,0,0.2239097620080148,-0.05232219332673843,0.4684550936569337,0.9729266954381532,-0.0018265659335219627,-0.2234655259406209,0.05893613218363955,0.5112695543793961,0.043289633760108644,31754.31354433344
1684938397964427947,84,1684938397964427947,camera_2,86,0,0.22387790222996432,-0.05269173008872053,0.468416474369764,0.9730692247379678,-0.0019148199966846232,-0.22283305812209372,0.058974956890075605,0.4614845761680044,0.039065850040021936,31773.346016845906
1684938397974553585,85,1684938397974553585,camera_2,87,0,0.22381628475398663,-0.052900154581418994,0.4682895066182833,0.973084812381128,-0.0018444024216499268,-0.22289011415533777,0.05850250511484486,0.43451510032173246,0.036760708723876136,31788.35472593362
1684938397984447240,86,1684938397984447240,camera_2,88,0,0.2237272057078673,-0.05293693487767158,0.4680975630866558,0.9729729188770206,-0.0018819737203879697,-0.2233983615156431,0.05842370562513879,0.4662112410296686,0.03942098716794261,31797.9626274889
1684938397994368791,87,1684938397994368791,camera_2,89,0,0.22390255574688323,-0.052522802194024935,0.46842826093894363,0.9729886051463182,-0.0019561185938686875,-0.22320231408180113,0.0589073411723689,0.47892333334311843,0.0405466785601891,31762.414144841725
1684938398004296541,88,1684938398004296541,camera_2,90,0,0.22398080754928854,-0.05211681937278709,0.46858264769056535,0.9730476234636842,-0.0018370161344358762,-0.22292873960294632,0.058972238404522544,0.47289738949621096,0.04004438588093417,31756.290737568408
1684938398014446735,89,1684938398014446735,camera_2,91,0,0.22399648365921113,-0.051649666929292654,0.46860802457796746,0.9729556042191886,-0.002009882296015367,-0.22312705881143108,0.05972996080519398,0.5122545741614886,0.04339074621975413,31748.46117700867
1684938398024636268,90,1684938398024636268,camera_2,92,0,0.2239409414376353,-0.05083717378884043,0.468446235487145,0.9728398575976468,-0.0018188670726807018,-0.2234075265786432,0.060567154960219007,0.511972563166637,0.04333751544956479,31765.87238476215
1684938398034640312,91,1684938398034640312,camera_2,93,0,0.22385513351268904,-0.050613277880966354,0.46826328079384555,0.9727174778370286,-0.0020623620791756633,-0.223788771231561,0.061114980517809725,0.49222060601459816,0.041649648154658596,31777.387561640695
1684938398044486284,92,1684938398044486284,camera_2,94,0,0.22381072304943936,-0.05078167107941024,0.46817549352553106,0.9726054000160732,-0.002187047180941768,-0.22440970094219062,0.06061549972770481,0.5074133691960014,0.042928408423749204,31771.20925681921
1684938398054571866,93,1684938398054571866,camera_2,95,0,0.22381349806216286,-0.051122080580277236,0.4682129854501977,0.9727287336084571,-0.001997190129608524,-0.22407739832040136,0.05986770085808977,0.48872942390153185,0.04133742079858857,31778.16082285207
1684938398064482212,94,1684938398064482212,camera_2,96,0,0.22395977638045236,-0.05160432613166693,0.46854213256323424,0.9729569942682899,-0.0019509358662254408,-0.22305745284361583,0.059968774246095397,0.4799297927529551,0.04064304832668163,31758.666474278085
1684938398074737310,95,1684938398074737310,camera_2,97,0,0.22394033511382674,-0.0520767999287104,0.46852137565130264,0.9729274571527827,-0.001947155381516662,-0.2233923244507426,0.0591966306527207,0.5078867316478863,0.04301098568876174,31749.92090914353
1684938398084474563,96,1684938398084474563,camera_2,98,0,0.22383364431050376,-0.05280047246821575,0.46832758738171754,0.9729765096124185,-0.0018490101464478756,-0.22323254975352363,0.05899594591541336,0.4935142347239889,0.0417754407619006,31770.970451032746
1684938398094427108,97,1684938398094427108,camera_2,99,0,0.22375791673068182,-0.052942938700872695,0.46816811486358173,0.9729596142164465,-0.001882669673687792,-0.22342943708277516,0.058526330002468104,0.4559110126574524,0.03856444709771833,31786.921823515557
1684938398104527950,98,1684938398104527950,camera_2,100,0,0.22379578162304856,-0.0529121183283169,0.4682351178893722,0.9729931645066505,-0.0018933806165073622,-0.22331891818593683,0.058389876806155115,0.45935272285714746,0.03885989070253398,31782.55418356834
1684938398114551782,99,1684938398114551782,camera_2,101,0,0.22383820678813457,-0.052697432083765934,0.4683066774572547,0.9729683885272131,-0.0019367120964833607,-0.22346424979045348,0.05824511257267183,0.47679217235418037,0.040341561513348646,31772.758921078894
1684938398124491691,100,1684938398124491691,camera_2,102,0,0.22385365403748136,-0.0523360494694359,0.4683249487449646,0.9728531239233214,-0.0021360514264125467,-0.22388981188423576,0.05852852886738431,0.5079546620254405,0.04298779286276699,31760.693244576694
1684938398134354352,101,1684938398134354352,camera_2,103,0,0.22397602623138244,-0.0514463435927914,0.46855269715408626,0.9728973336475559,-0.0021347513050330204,-0.22330661292601395,0.060003146932918555,0.48922373983077705,0.04143539547304735,31750.902493869646
1684938398144407033,102,1684938398144407033,camera_2,104,0,0.22390703982247745,-0.05102170058514241,0.46839157369091444,0.9727497682486718,-0.0020826627372077244,-0.22389754464677827,0.06019501963802597,0.5110261892550625,0.04325779430536407,31758.455814735273
1684938398154439210,103,1684938398154439210,camera_2,105,0,0.2239039781115611,-0.05072959308077426,0.4683608689412317,0.9727581075448609,-0.0018771689780493748,-0.22368682643016904,0.060846890832386154,0.45271736482391134,0.03831814155505503,31767.66299038776
1684938398164535999,104,1684938398164535999,camera_2,106,0,0.22382984235389794,-0.05059289274016933,0.4682061363483685,0.9726751318172473,-0.001964403717075203,-0.22416169776863046,0.06042153850923007,0.48884647188242525,0.04134565893233,31778.652676508063
1684938398174547195,105,1684938398174547195,camera_2,107,0,0.22385325827191652,-0.05065969474485106,0.46825944265452546,0.9727580387376902,-0.0019805975252991785,-0.22372885295057893,0.06068999639202071,0.469064065720886,0.03968055387021956,31782.219568480727
1684938398184558868,106,1684938398184558868,camera_2,108,0,0.22390682120514344,-0.05127099736495995,0.4684108852546997,-0.9727351297396957,0.001914566794482881,0.22399548852019777,-0.060072647077390316,0.4972932423115708,0.04210545277852937,31750.70112926444
1684938398194427967,107,1684938398194427967,camera_2,109,0,0.22396502402090912,-0.05174406312431738,0.46856408598457866,0.9730599432696501,-0.0019576665820115694,-0.2225929993187259,0.06002392023113002,0.5189304130617529,0.04394507034901132,31767.9816301225
1684938398204533338,108,1684938398204533338,camera_2,110,0,0.22390429506896303,-0.052206643468458235,0.46846332935499546,0.973002218474791,-0.002036453605473814,-0.22301620986592974,0.05938270654730658,0.533187787339557,0.04514294169962024,31766.45654042694
1684938398214454412,109,1684938398214454412,camera_2,111,0,0.22380764603266742,-0.0525857421742826,0.46826496947810203,0.9729499369389352,-0.0018477828566976155,-0.22336033900232968,0.05895052900357235,0.4936091132112779,0.041767347273839406,31779.11638848811
1684938398224515438,110,1684938398224515438,camera_2,112,0,0.22372544559190752,-0.05284041535459399,0.4680897055327164,0.9728549062660845,-0.0018943623470179273,-0.2238992465249583,0.05847110526458447,0.46108025504508987,0.0389957162405348,31784.62869457507
1684938398234645605,111,1684938398234645605,camera_2,113,0,0.2237780080619744,-0.0528578839760598,0.46820654061261613,0.9729481543578082,-0.001839893375443617,-0.22346097220985833,0.05859776124671256,0.4701091558672488,0.03977155081867257,31781.716492281303
1684938398244312286,112,1684938398244312286,camera_2,114,0,0.2238843853354158,-0.05260764338021531,0.4684076321604319,0.973017434749996,-0.0018232328030800082,-0.22321334496337708,0.058391353169315374,0.43745618232060224,0.037023466957211745,31767.654029741876
1684938398254295349,113,1684938398254295349,camera_2,115,0,0.22390866978452206,-0.0522001467380493,0.46843455841485004,0.9729610691563381,-0.0018922631625975911,-0.22329556962596792,0.05901072641218207,0.5023287344374694,0.042523024212698025,31763.15520232587
1684938398264649868,114,1684938398264649868,camera_2,116,0,0.2238958314073674,-0.05126288041424901,0.4683670722693345,0.9728053002976671,-0.0020313854170407796,-0.2237132205456692,0.05998429910516565,0.5404236305621453,0.04573950916100383,31765.476453564588
1684938398274540185,115,1684938398274540185,camera_2,117,0,0.22385439806127114,-0.050652533912422096,0.46826116354958397,0.9727880153229591,-0.0019344930433676097,-0.22369897090773375,0.06032002483010486,0.47621660656295717,0.04027534700436817,31785.72979705828
1684938398284384965,116,1684938398284384965,camera_2,118,0,0.22378093638344831,-0.0505847534508097,0.46811988936038695,0.9727117611944693,-0.00199527578436037,-0.22400290864410052,0.060419743689302446,0.5263904636958614,0.044500159056080894,31795.883404104497
1684938398294343233,117,1684938398294343233,camera_2,119,0,0.2238152482758824,-0.05072938583039991,0.4682016679409206,0.9726615759912751,-0.0021587475969133824,-0.22409212644513274,0.06088938548121855,0.47660718171391636,0.040323350923794916,31776.861452266574
1684938398304171562,118,1684938398304171562,camera_2,120,0,0.22382307293908088,-0.051038429140963924,0.46823639059811867,0.9727648789014023,-0.0018077903771207679,-0.22390738384555864,0.059922497689351484,0.5630820328951813,0.0476233509972632,31781.47611690544
1684938398314362287,119,1684938398314362287,camera_2,121,0,0.22401741328132724,-0.05150352076183532,0.468656195742567,0.9730709367880002,-0.001986003518188145,-0.22250598958166037,0.060167203432065636,0.4394349214271642,0.03722150505509672,31760.312892354803
1684938398324442863,120,1684938398324442863,camera_2,122,0,0.2238435537924491,-0.052381430928594444,0.4683445748327807,0.9729502254797942,-0.001852736511807831,-0.22335087290970532,0.058981468926336905,0.5407011890783906,0.04575985600628385,31772.272031815024
1684938398334227085,121,1684938398334227085,camera_2,123,0,0.22388961016567555,-0.05274107661456632,0.4684450618202379,0.9731312294455413,-0.0018200275889629718,-0.2225196486315214,0.0591380059715329,0.4317307810415514,0.036549782094323184,31777.276252966836
1684938398344390630,122,1684938398344390630,camera_2,124,0,0.2236651257804749,-0.05289302735534713,0.4679824549954981,0.9728077556946354,-0.0017842911913026477,-0.2240223257389483,0.05878677007476849,0.4995155304786749,0.04223823915250887,31792.57991029928
1684938398354324817,123,1684938398354324817,camera_2,125,0,0.22361253212066393,-0.05289671326198584,0.46786024724005976,0.972725262442613,-0.0019385321177877543,-0.22447361009726666,0.0584243465438698,0.5374242031248286,0.04542449502089845,31797.03469555895
1684938398364473104,124,1684938398364473104,camera_2,126,0,0.22385104625537838,-0.05278431675384773,0.46835380144312105,0.9729716582074034,-0.0018378415402354588,-0.22338954854871843,0.05847977652837453,0.5376980629516765,0.045510251150794954,31766.41781201819
1684938398374572515,125,1684938398374572515,camera_2,127,0,0.22403929900141012,-0.052077541075641276,0.4687166294560665,0.9730836822010316,-0.001965393464687204,-0.22275113839409788,0.05904417843229191,0.5354582031723112,0.045363061765455355,31744.53994261822
1684938398384458780,126,1684938398384458780,camera_2,128,0,0.22393303264856232,-0.051575440117835776,0.46847828720299994,0.9729455399440639,-0.0020224488409968013,-0.2231778024578442,0.05970389010547914,0.48229636769974604,0.0408289448398824,31765.562391386127
1684938398394622325,127,1684938398394622325,camera_2,129,0,0.223928082710507,-0.05114106864399702,0.4684468182683677,0.9728129021308445,-0.0021762857807635593,-0.2236975364495038,0.05991438403578451,0.5677544422214851,0.04806116527360897,31758.065041393493
1684938398404376506,128,1684938398404376506,camera_2,130,0,0.22388272031580153,-0.05079719204955735,0.46832918410370566,0.9727817326934874,-0.0018783492622123626,-0.223881631689761,0.05974267598489212,0.5347697528195567,0.04523434586415798,31773.51655862106
1684938398414307117,129,1684938398414307117,camera_2,131,0,0.2237848463909842,-0.050598796300104304,0.46811037642475795,0.9726330943246692,-0.0019631471329583055,-0.22431749610273177,0.06052000346955131,0.5162191140116192,0.043649528293939345,31785.79513473809
1684938398424532413,130,1684938398424532413,camera_2,132,0,0.2238896731306384,-0.050827672869321244,0.46835725101412173,0.9728636222968154,-0.0018541474339505786,-0.22330542200606734,0.06056090365495397,0.5155956177040935,0.043625452440575946,31781.729391229346
1684938398434375524,131,1684938398434375524,camera_2,133,0,0.22395778066158845,-0.0511863827993085,0.46852588004155615,0.972909972407415,-0.00205160557671658,-0.2231866945158077,0.060246791581528944,0.5671367308823392,0.04802188441870957,31760.887204314124
1684938398444407224,132,1684938398444407224,camera_2,134,0,0.2239826583991135,-0.05164900932485821,0.46860238890346684,0.9730622340406231,-0.002091434267535766,-0.2225690277975963,0.0600711449184153,0.4411010076873936,0.03735772377000734,31764.604833997793
1684938398454384565,133,1684938398454384565,camera_2,135,0,0.2238148571824871,-0.052091926110198125,0.4682739363331692,0.9728999631453268,-0.0020661691671702096,-0.22354903289441136,0.05905270991891753,0.5021613399730995,0.04248316708501346,31779.313698070364
1684938398464595556,134,1684938398464595556,camera_2,136,0,0.2237863494900382,-0.05251578408044287,0.46822714694909534,0.9728575251499405,-0.002049194624458183,-0.22374649060033136,0.059004614264986856,0.5150900851585902,0.0435862015845479,31773.16415799899
1684938398474424839,135,1684938398474424839,camera_2,137,0,0.22367362731763207,-0.052930250246981274,0.4679974820522322,0.9729007482890192,-0.0016930819606520888,-0.2236597490381175,0.058630914305913925,0.4939800492138602,0.041761137280982685,31802.270957185174
1684938398484614372,136,1684938398484614372,camera_2,138,0,0.22379392758607067,-0.05289375887737248,0.46823757342497324,0.9729650604246424,-0.0016685962729762998,-0.22342178530636062,0.05847147022154061,0.4711771794827655,0.0398636278172814,31779.04951168829
1684938398494540691,137,1684938398494540691,camera_2,139,0,0.22386098247425001,-0.05266892167322337,0.46836032574415326,0.9729844149189126,-0.001893825329674479,-0.2231879493601603,0.05903288076088346,0.5022547555854544,0.0425168743481786,31769.18930925567
1684938398504662036,138,1684938398504662036,camera_2,140,0,0.22389895047334174,-0.05182365776218103,0.4684221310677742,0.9728987639678217,-0.0018955123185373272,-0.22356187811206168,0.05902955834107796,0.507357787922956,0.04294013342074588,31762.73709109334
1684938398514577388,139,1684938398514577388,camera_2,141,0,0.22402017579597344,-0.050993840809776106,0.4686239840457438,0.9729610731358609,-0.0019105673679865223,-0.22301553183318507,0.060059740723784616,0.5028467844240367,0.04258043082328222,31756.114635897815
1684938398524450778,140,1684938398524450778,camera_2,142,0,0.2239198344500534,-0.0507138757704969,0.46841013718261637,0.9727783019038869,-0.0019870636545524334,-0.2237681449092994,0.06021830491531401,0.4731485469965264,0.040041379986443096,31763.92068728267
1684938398534549236,141,1684938398534549236,camera_2,143,0,0.22377123554007053,-0.05057786647432881,0.4680937066954417,0.9726436827508872,-0.001967920795979993,-0.22422185051412558,0.06070383385383156,0.48328829335514456,0.040863647941227564,31790.289164467256
1684938398544657468,142,1684938398544657468,camera_2,144,0,0.22389104383614752,-0.05069362762389734,0.46837418203287734,0.972880743408195,-0.0021487554176579083,-0.22333256550165853,0.06017480487812494,0.531336058920715,0.044946394840173015,31783.771112560986
1684938398554503679,143,1684938398554503679,camera_2,145,0,0.2239071463741619,-0.05095447655034224,0.46840384297605486,-0.9728004740548677,0.001978530869298292,0.22373458608940147,-0.059984648716385786,0.5693656753865071,0.04818518817528973,31764.946492010266
1684938398564633369,144,1684938398564633369,camera_2,146,0,0.2239594036632266,-0.05181270738403132,0.46856247504102255,0.9730045735584315,-0.002065160424234998,-0.2228923210189339,0.05980675695596306,0.4838117694016546,0.04097426609425471,31759.681432944948
1684938398574516534,145,1684938398574516534,camera_2,147,0,0.2238614146182572,-0.05225400003531996,0.4683779171016708,0.9729168413646299,-0.0018583771782537885,-0.22343877919079655,0.059198633236431486,0.46882699301932007,0.03968477078527875,31765.33377042856
1684938398584561347,146,1684938398584561347,camera_2,148,0,0.22378877811860448,-0.052627096540054416,0.4682401446571719,0.9729576222130137,-0.0017842723900298842,-0.22343967177300547,0.05852345536285732,0.467839487711899,0.039574597318708056,31782.814440281363
1684938398594412326,147,1684938398594412326,camera_2,149,0,0.22373136696113294,-0.05286907370093527,0.4681243130103903,0.9729178062869366,-0.0017104445555543985,-0.22353769753096994,0.0588125358387984,0.47582683560904115,0.04024750287361108,31789.067250883905
1684938398604478359,148,1684938398604478359,camera_2,150,0,0.22368942883357276,-0.052937142875455784,0.46803376133709995,0.9728617289137509,-0.0019046665633449843,-0.22394234851030442,0.05819152175290948,0.473107066238299,0.03999971268998487,31791.744870131122
1684938398614345312,149,1684938398614345312,camera_2,151,0,0.22385110486931392,-0.05256204355078363,0.4683300894500313,0.9729529793549938,-0.002016622449228001,-0.2234615680093263,0.05850949342586604,0.43949287274153903,0.037191358202562294,31769.90028131126
1684938398624426841,150,1684938398624426841,camera_2,152,0,0.22391174788761273,-0.05215409902786755,0.4684530937672251,0.9729391143638603,-0.0018689256330007887,-0.22352988617260516,0.05848398794121237,0.5568132461630739,0.04712802035436255,31758.493098836858
1684938398634400844,151,1684938398634400844,camera_2,153,0,0.22395087190371685,-0.05168718963078723,0.4685197473611162,0.9730008336455043,-0.0021803986883592056,-0.22294357940527335,0.059672305039092,0.4474642568384297,0.03788503584443506,31765.816928218122
1684938398644294261,152,1684938398644294261,camera_2,154,0,0.22392492764676483,-0.05122916779329417,0.46844724564383944,0.9728696019494828,-0.00211028133229017,-0.22338422828136686,0.06016453166519073,0.5021560678724198,0.04251061307942474,31764.73689402292
1684938398654484748,153,1684938398654484748,camera_2,155,0,0.22390865128833415,-0.05085982770405738,0.4683812074025996,0.9727625004176458,-0.0021586213547809792,-0.22386757806157134,0.06009796691987624,0.4990174997365102,0.04223118558708576,31763.318171937728
1684938398664346933,154,1684938398664346933,camera_2,156,0,0.22382711951730797,-0.05060110482646256,0.4682210265937908,0.9727082312872877,-0.002021875413288676,-0.2240054351633718,0.06046630320300737,0.5156500447192229,0.04361250740771304,31781.827530344006
1684938398674469947,155,1684938398674469947,camera_2,157,0,0.22391228039604605,-0.05077757599137463,0.46841019522849536,0.9729282507042744,-0.0021457507433680838,-0.22311045514714498,0.06023071923281193,0.46154496108647436,0.039047410382746436,31783.833546027075
1684938398684389829,156,1684938398684389829,camera_2,158,0,0.22394647501142995,-0.051107852385523074,0.4685013939810411,0.9728787789104898,-0.0018829116006439345,-0.2233705896814313,0.06007425284519484,0.5573565371450968,0.04718500315097388,31760.86114095665
1684938398694603681,157,1684938398694603681,camera_2,159,0,0.22394269373377476,-0.051545150494515204,0.46851111376333704,0.9729588505253577,-0.0019130338363524822,-0.2230930098606145,0.0598073945030831,0.4809862569672987,0.04072196670582183,31763.966542276332
1684938398704839229,158,1684938398704839229,camera_2,160,0,0.2239619982966594,-0.05202843626237897,0.4685789944475403,0.9730415404742194,-0.0019523451711820072,-0.22280243053642884,0.059543478290663684,0.487169562431518,0.04125930990066191,31759.14461327951
1684938398714585542,159,1684938398714585542,camera_2,161,0,0.22376644505254048,-0.052754244817225134,0.46820631266456547,0.9729503280949862,-0.0018309866008773535,-0.2233732396521825,0.05889569046386171,0.48578566557262093,0.04109825616593361,31784.92843515799
1684938398724687099,160,1684938398724687099,camera_2,162,0,0.22370632254618045,-0.05291598768461094,0.46807346201254346,0.9728113000736933,-0.0017308036024353342,-0.22406263330605844,0.05857572128258442,0.5332660060958005,0.045105130295095115,31780.573926305187
1684938398734344959,161,1684938398734344959,camera_2,163,0,0.22378767662988003,-0.05292762408282079,0.4682425472716331,0.9729881573960134,-0.0017288936181129326,-0.22333144563236915,0.05843048763893993,0.49689882551319897,0.042037944849636175,31781.534344013315
1684938398744604110,162,1684938398744604110,camera_2,164,0,0.2238872877803347,-0.05240470844902965,0.4684142615289173,0.97289719049535,-0.002086174814111758,-0.22362438535100915,0.05881189401203895,0.4932905259192921,0.04176448482607463,31754.460922458675
1684938398754735708,163,1684938398754735708,camera_2,165,0,0.22390646964754732,-0.05150835142288304,0.4684315180595167,0.9727998387775108,-0.0020277556497733445,-0.2238471463421286,0.05957194772676018,0.5194396558799781,0.04397546095150981,31753.36030366667
1684938398764706373,164,1684938398764706373,camera_2,166,0,0.2239827005240721,-0.05110322415297973,0.4685694212946549,0.9729170908478455,-0.0022351142816753366,-0.22315056017392165,0.06025915776359761,0.5010372679680585,0.04242957311046819,31756.86811777227
1684938398774751663,165,1684938398774751663,camera_2,167,0,0.22390988078643057,-0.05076800927367638,0.46839486777302825,0.9727879238300355,-0.0020955602190922446,-0.2238041207192709,0.059924781408790866,0.4679703112342395,0.03959694006052238,31766.352769118756
1684938398784600257,166,1684938398784600257,camera_2,168,0,0.22381892222823987,-0.050596825480233684,0.4681983902341072,0.9727399660833685,-0.0020967893862051386,-0.22383663282221375,0.06057824415753911,0.4905224140966311,0.04148294545380522,31789.106215267224
1684938398794614076,167,1684938398794614076,camera_2,169,0,0.22380260587999642,-0.05062354504680354,0.46816781140476865,0.9726976390810533,-0.0019867573428129846,-0.22397272192401338,0.06075833733204238,0.4750464019016363,0.04017654456825209,31787.37231068965
1684938398804433345,168,1684938398804433345,camera_2,170,0,0.22391771640896233,-0.05123044340566015,0.46845631431800433,0.9729040556481705,-0.001900851774569478,-0.22340291294303832,0.05954178158602615,0.5000812301877886,0.042318774238852344,31768.3109633911
1684938398814490079,169,1684938398814490079,camera_2,171,0,0.2239021511133287,-0.051676841278402726,0.46845075228219235,0.9728600505209434,-0.00187463383282801,-0.2235644810560502,0.05965509750657781,0.5470986520522274,0.04631892054329146,31757.405274568606
1684938398824308633,170,1684938398824308633,camera_2,172,0,0.22386640542102404,-0.05214695002004072,0.46839544040368153,0.9729374867824714,-0.00192405512963137,-0.2232310118806148,0.05963941783772926,0.5230048232479021,0.044277411324163296,31768.32157619182
1684938398834340095,171,1684938398834340095,camera_2,173,0,0.22385210206903514,-0.052558804322604374,0.468376148756714,0.9729749754222068,-0.0019478434767132944,-0.2233721133707608,0.058487623273872726,0.47678384446771815,0.040350107680598594,31768.313983948436
1684938398844595909,172,1684938398844595909,camera_2,174,0,0.2237168008940459,-0.05282381777231536,0.46809603858512117,0.9728164121518621,-0.0016441229171898877,-0.22399022939796515,0.05876990932491323,0.4377042614505626,0.037025303480677646,31779.855168770766
1684938398854506731,173,1684938398854506731,camera_2,175,0,0.22370857332772745,-0.052858648581729104,0.4680788921030301,0.9728403855921205,-0.0017796068863293532,-0.22394908152469842,0.05852543075064603,0.47817094379570335,0.04044041184670115,31784.669325002247
1684938398864566326,174,1684938398864566326,camera_2,176,0,0.22384735646959592,-0.05262707639166022,0.46834018353717943,0.9729223691778001,-0.001981894215477389,-0.22367363802174917,0.05820858444328271,0.502874672296457,0.04255591193294446,31763.780006560497
1684938398874594211,175,1684938398874594211,camera_2,177,0,0.2239389670230444,-0.052254931676207136,0.46852066836113,0.9730203989601812,-0.0022215089892214063,-0.2229998740977696,0.059139024827601236,0.5048791688168421,0.04275315081556076,31759.708840418367
1684938398884589195,176,1684938398884589195,camera_2,178,0,0.22396207339404525,-0.051781153494270774,0.46855397389095516,-0.972999664414715,0.0020111776372778354,0.22296756852370853,-0.0596076471603174,0.5188650494092144,0.04393829402469594,31760.058266737964
1684938398894515037,177,1684938398894515037,camera_2,179,0,0.22394913287417684,-0.051311299301052264,0.46850460512167624,0.9728678379750079,-0.0020424034030469256,-0.2234560116175872,0.05992836802495196,0.5405936989118345,0.04577332929949236,31755.668326103136
1684938398904556512,178,1684938398904556512,camera_2,180,0,0.22381242877343607,-0.05066228221200743,0.4681934886418436,0.9727166523349742,-0.002077286570803454,-0.22403097305029418,0.06023389631164765,0.48750912636751315,0.041224353985936754,31785.581338924807
1684938398914480447,179,1684938398914480447,camera_2,181,0,0.22384347535646046,-0.05059728801767309,0.46826522969490775,0.972745752327465,-0.0019432247426482134,-0.22377235739112755,0.060727730684518665,0.47782000579172745,0.04042069407189935,31781.598573504947
1684938398924566030,180,1684938398924566030,camera_2,182,0,0.22385859285484092,-0.05071419591849335,0.46830903628618686,0.9727615048845989,-0.0020410277988457725,-0.2237657663651479,0.060496038078482035,0.47672347706975415,0.04033315468762394,31776.376323438948
1684938398934412240,181,1684938398934412240,camera_2,183,0,0.22390710593920704,-0.0510039551910952,0.4684219408267172,0.9728373938230108,-0.002143731924527255,-0.2235986380191943,0.0598870492598296,0.49204310710774735,0.04163994117084019,31767.160740694264
1684938398944491147,182,1684938398944491147,camera_2,184,0,0.2239855378934031,-0.0514278377486438,0.4685969111989164,0.9729849140115098,-0.0019712004099136523,-0.22296255524680433,0.05986794161130639,0.4701004690141417,0.039809986394849436,31757.753850938745
1684938398954491853,183,1684938398954491853,camera_2,185,0,0.2238984477232923,-0.052324983852995645,0.4684756071431751,0.9729633190970918,-0.0020185761675700527,-0.2232621126571574,0.059095973582717135,0.5104970336542465,0.04322632711847641,31758.112651091986
1684938398964688539,184,1684938398964688539,camera_2,186,0,0.22377922777119863,-0.05267087323803172,0.46823796408501095,0.9729165714152379,-0.001925402018081997,-0.22338734299121457,0.0593947210113196,0.48465088568627834,0.04101748219658198,31778.178186521865
1684938398974704980,185,1684938398974704980,camera_2,187,0,0.22368998478601582,-0.05293283572503758,0.4680490283650926,0.9728480847649748,-0.0017665745089543387,-0.22396967534396137,0.058318673767032266,0.5078062229440548,0.04293840688595964,31788.56957428484
1684938398984586477,186,1684938398984586477,camera_2,188,0,0.22384304269740815,-0.05283022141241215,0.4683553448130606,0.9730539493303579,-0.0018529693142481283,-0.22301592147582483,0.058536116762237946,0.4745913593797013,0.04016254695428505,31777.06406735326
1684938398994646310,187,1684938398994646310,camera_2,189,0,0.2239862822814352,-0.05212438134606986,0.4686216892384816,0.9730269941364025,-0.0018617352423940658,-0.22306327390101804,0.05880287799354649,0.5342888144077733,0.04524877199192188,31749.068722621545
1684938399004487276,188,1684938399004487276,camera_2,190,0,0.22405127869197,-0.05166971561379512,0.4687394587010375,0.9731237803361026,-0.002112835564400892,-0.22238316288804788,0.059760964970108806,0.5232913116924465,0.04433235813394706,31753.98097572245
1684938399014475107,189,1684938399014475107,camera_2,191,0,0.22392032203721118,-0.05118989499577995,0.4684418921972715,0.9728277302173401,-0.0020946651308492896,-0.22369568170912424,0.05968301000165863,0.5189525175374001,0.04392397415075608,31760.039607610557
1684938399024516582,190,1684938399024516582,camera_2,192,0,0.2239269278045292,-0.050843406156046905,0.46844901770659964,0.9728232484349629,-0.002057402326504846,-0.22358433920768367,0.06017256568550676,0.502851314493455,0.0425603013098774,31763.789510436814
1684938399034497261,191,1684938399034497261,camera_2,193,0,0.22385579267946193,-0.05062337781720603,0.4682864673954993,0.972768705083094,-0.002039538491685269,-0.22374308844988486,0.06046418001270393,0.4769951243069954,0.04034875900806242,31781.054043687865
1684938399044463634,192,1684938399044463634,camera_2,194,0,0.22397608872763758,-0.050813770445166793,0.46855520099051773,0.9729661923353228,-0.001917134622105567,-0.22287656903299682,0.060490893061884446,0.4908919796580449,0.041557169817052285,31769.804875648806
1684938399054498195,193,1684938399054498195,camera_2,195,0,0.22393855259175804,-0.051147599445447826,0.46850208971386187,0.9729122876467851,-0.002242493834281406,-0.22319709976973665,0.0601639960581147,0.5378178803366609,0.04553177222359665,31765.363269089714
1684938399064547061,194,1684938399064547061,camera_2,196,0,0.2238858559372112,-0.05158417635174278,0.4684137007387299,0.9729242794354805,-0.001917390473336753,-0.22313554527556928,0.060209621600689274,0.5486561258439906,0.04644554785936153,31772.94469829719
1684938399074636220,195,1684938399074636220,camera_2,197,0,0.22388499666179623,-0.052065378063542764,0.46844169570833927,0.9729683846496602,-0.0020919834644308067,-0.2231068831985241,0.05959416705396205,0.5439546900452115,0.04605263086108854,31767.921278764745
1684938399084455251,196,1684938399084455251,camera_2,198,0,0.22375258413979546,-0.05246360804694657,0.46817299154719,0.9727767024543484,-0.00194730778012465,-0.22400515201806426,0.059358125171011626,0.48238216765457764,0.0408212962173768,31771.11915679439
1684938399094589710,197,1684938399094589710,camera_2,199,0,0.22367639982712464,-0.05292654987457794,0.46801925552066886,0.9728639573191474,-0.001711273815094016,-0.22390359374558966,0.058309285701917714,0.4789096394670196,0.04048797632719316,31794.68781149038
1684938399104440212,198,1684938399104440212,camera_2,200,0,0.2237331205729059,-0.05289883445789179,0.4681276405873976,0.9728568054111896,-0.0018231405972778314,-0.22391688414208866,0.058374149412182386,0.48492637561867014,0.04101722714164573,31779.490429114558
1684938399114552974,199,1684938399114552974,camera_2,201,0,0.22380395744681042,-0.05269798642866824,0.4682679391009776,0.9729377091444558,-0.001925146715586853,-0.22351628396234438,0.05855748234450158,0.5222876209882088,0.04419145923510587,31775.212392607245
1684938399124574184,200,1684938399124574184,camera_2,202,0,0.22380203587672892,-0.052322084653789076,0.4682400731868472,0.9728672457858758,-0.0021684176830433066,-0.22367844953868332,0.05909798011545758,0.5070747875724919,0.0429063570270115,31775.439527822902
1684938399134474039,201,1684938399134474039,camera_2,203,0,0.22388135237953422,-0.05188542551884437,0.46840273387663023,0.972891130120177,-0.0020247135206026097,-0.2235269285495492,0.05928289535649302,0.5340559695032425,0.04520386666692537,31764.19768671668
1684938399144365787,202,1684938399144365787,camera_2,204,0,0.22403074415104027,-0.05104726335361174,0.46866841176710905,0.9729989219936411,-0.0021296296998136633,-0.22291333625864831,0.05981811593984671,0.5191039106575772,0.04395850581262466,31755.05450834192
1684938399154515266,203,1684938399154515266,camera_2,205,0,0.22387317224722575,-0.05073101650876872,0.4683231114138605,0.9727886093877071,-0.001939564870797024,-0.2237404008788306,0.06015640072530294,0.4950461760745384,0.04187772763505085,31777.037714069942
1684938399164694309,204,1684938399164694309,camera_2,206,0,0.22378604214281675,-0.05059146120328734,0.4681494168452677,0.9726977583015667,-0.0020532259016172003,-0.22404982397287612,0.06046926191237285,0.5176010427530855,0.04376472809441208,31790.61086060666
1684938399174487829,205,1684938399174487829,camera_2,207,0,0.22385215240639336,-0.050667712279233,0.46829909381097756,0.9728272096558658,-0.002038081680407622,-0.22344608900964752,0.06062104983039338,0.4440295654349029,0.03755957937798085,31787.444022549087
1684938399184439897,206,1684938399184439897,camera_2,208,0,0.22387507934841244,-0.050893707201584995,0.46836141918110646,0.9727493778885187,-0.0019743097145266367,-0.22381228968135897,0.06052114429055783,0.4968896338250488,0.0420553106919377,31765.833953901405
1684938399194491147,207,1684938399194491147,camera_2,209,0,0.22386327381026358,-0.05171947092233849,0.4683683386095398,0.972886336109268,-0.0018827881260202561,-0.2234562490115583,0.05963167697156871,0.47567021410213783,0.04025731365645492,31771.085791894227
1684938399204368114,208,1684938399204368114,camera_2,210,0,0.22391217332518343,-0.05220050598005399,0.4685059019075676,0.9730018464506192,-0.001897388290390195,-0.22308693337254631,0.05912720930159321,0.5411267218296416,0.04581683877161439,31761.477742044714
1684938399214574813,209,1684938399214574813,camera_2,211,0,0.22376000936281182,-0.05258428469171233,0.46820757727171614,0.9728881959012907,-0.0020182336206721473,-0.22361616464674597,0.05899403289879096,0.4660089384415187,0.03942728265179488,31779.822587292656
1684938399224481344,210,1684938399224481344,camera_2,212,0,0.22366779455223762,-0.05293325391195996,0.4680041033339089,0.972939540833089,-0.0017948013946096682,-0.22352462504052964,0.058499321123778154,0.496615813637618,0.04197886971606522,31807.127288167132
1684938399234699010,211,1684938399234699010,camera_2,213,0,0.22380569299752237,-0.05259569314256565,0.46826597204487364,0.9728483132223547,-0.0019164886696414214,-0.22393628558322523,0.058438228333741155,0.476073581376113,0.04028382500371627,31764.736619594973
1684938399244506597,212,1684938399244506597,camera_2,214,0,0.22395577993419513,-0.05221527225375872,0.468566634084176,0.97304660393637,-0.001905043051943584,-0.2229250447210522,0.0590008628325416,0.5729800148983486,0.04851990384665171,31758.126936642453
1684938399254475116,213,1684938399254475116,camera_2,215,0,0.22396551313952665,-0.05174517601080778,0.4685709226399471,0.9729208083247864,-0.0019884036037827015,-0.2233258786642691,0.0595541677683852,0.5171120295417495,0.04379779395867773,31747.968333469245
1684938399264562845,214,1684938399264562845,camera_2,216,0,0.22389532954099284,-0.0512662476438138,0.46840843946186816,0.9728200693877784,-0.0021570439274222093,-0.22365294129978353,0.05996516993896291,0.5281368895084597,0.044704046380253555,31763.27932409872
1684938399274517536,215,1684938399274517536,camera_2,217,0,0.22390713251676392,-0.05088795788129841,0.46841507990867365,0.972872108692314,-0.001948125454159319,-0.2235014283919942,0.059692348274495426,0.5202488925424404,0.04401416373809402,31774.056308378225
1684938399284406900,216,1684938399284406900,camera_2,218,0,0.22382722947352443,-0.05059628908205567,0.46824905158441565,0.9727449448596577,-0.0020247491207758114,-0.22387194894352183,0.06036988584723736,0.5310821342864074,0.04491592303410731,31783.973167995468
1684938399294522047,217,1684938399294522047,camera_2,219,0,0.22381585258228756,-0.05072851648993002,0.4682218441282796,0.9727040142428603,-0.0019086791510161069,-0.223931510672197,0.06081065817594367,0.44882453442551196,0.037969970272751286,31780.40070532728
1684938399304538965,218,1684938399304538965,camera_2,220,0,0.2239528437139498,-0.051074343445021875,0.468533385732524,0.972950167210358,-0.0021544941949636956,-0.2231068963961031,0.059888588734406875,0.5636142689036205,0.04770764953995055,31767.185348742634
1684938399314520120,219,1684938399314520120,camera_2,221,0,0.22403403277709952,-0.05151181902919533,0.4687227682540831,0.973081034150237,-0.002055116035994274,-0.2224549323323367,0.06019036929775105,0.499989535252098,0.04236178622883798,31753.89139808434
1684938399324543237,220,1684938399324543237,camera_2,222,0,0.22386595297238723,-0.051947041340492425,0.46840336694758705,0.9728382184190923,-0.0018335086751527646,-0.22363491684414008,0.05974833049733906,0.5183064090670086,0.04388517089416828,31757.46219049419
1684938399334571361,221,1684938399334571361,camera_2,223,0,0.2237665942988629,-0.05272148787611167,0.4682076529758739,0.9728188731525135,-0.002052568119711974,-0.22396672745481006,0.05880588402167539,0.42434578557731584,0.03591054775065921,31767.368187224485
1684938399344619035,222,1684938399344619035,camera_2,224,0,0.2236443569234083,-0.05289271751801667,0.4679696090043936,0.9728116319008944,-0.0019091378300409155,-0.22413276336856705,0.05829569809029382,0.5572695487644523,0.04710782735666572,31795.56631699694
1684938399354488372,223,1684938399354488372,camera_2,225,0,0.223703031884273,-0.052923466660027375,0.46808350508634217,0.9728372578228094,-0.0017215428805575262,-0.22397901300969525,0.05846458597398891,0.4866968950955197,0.04116268973345993,31782.991972760516
1684938399364429235,224,1684938399364429235,camera_2,226,0,0.22371151488362137,-0.052761353178484696,0.4680919485691353,0.972778047554303,-0.0018697386669270881,-0.22420187363694444,0.05859090485254037,0.5081196002429351,0.042979999191023924,31776.540775856018
1684938399374457836,225,1684938399374457836,camera_2,227,0,0.22383259612973114,-0.052462333850414516,0.46832942928978005,0.9728368286247846,-0.0018660489487870376,-0.2239041082253774,0.05875349395900484,0.5316908414242789,0.04500477559995015,31757.62559982668
1684938399384309053,226,1684938399384309053,camera_2,228,0,0.22391623885216824,-0.05157766145226443,0.46846900351334353,0.9728964078187583,-0.0021166400510791946,-0.22343499072435524,0.05953909982740578,0.47514367901021615,0.04022270170748221,31760.804231391292
1684938399394448757,227,1684938399394448757,camera_2,229,0,0.22399337598436742,-0.05116036924365962,0.46861331298514564,0.9729351363046713,-0.0019701666950116092,-0.22306292819947532,0.060301484642423006,0.5094530964852311,0.04314931369365251,31753.378128456417
1684938399404456377,228,1684938399404456377,camera_2,230,0,0.22388482008332203,-0.05080095874535016,0.4683616484203275,0.9727887557458116,-0.0018978669558020382,-0.22377481351798234,0.06002722407813037,0.5097893742495216,0.043130937860551756,31771.275875993073
1684938399414589643,229,1684938399414589643,camera_2,231,0,0.22382437698123336,-0.05061341527942822,0.4682396669907433,0.9727989009601771,-0.0020609636147867847,-0.2235642913540651,0.06063875288134522,0.4778368320548907,0.04041101620867463,31792.374016835354
1684938399424662590,230,1684938399424662590,camera_2,232,0,0.22377899926566694,-0.05061583061096791,0.46814582849170233,0.9726818220650338,-0.002088033083134208,-0.22410916669548503,0.060504500205727514,0.527767930936534,0.04462624165153406,31789.022230473827
1684938399434437036,231,1684938399434437036,camera_2,233,0,0.22396522247328587,-0.051197612332178136,0.468564770063605,0.9729582738843255,-0.0019995103831997956,-0.22300719454049767,0.06013310586887952,0.5744037164840847,0.04863534378952442,31762.731196706198
1684938399444410085,232,1684938399444410085,camera_2,234,0,0.22393268310015776,-0.05163674905012368,0.4685226312663098,0.9729710514364737,-0.0020860681991778153,-0.22299596699729915,0.059964823763691645,0.5030033705406822,0.04259309156926733,31763.95657158224
1684938399454463481,233,1684938399454463481,camera_2,235,0,0.2237798298351321,-0.052082810743521786,0.4682286086980466,0.9728500165518855,-0.002052261557343383,-0.22364407596881666,0.059514374747202586,0.5363669986836612,0.045381484673100526,31780.179857405157
1684938399464532375,234,1684938399464532375,camera_2,236,0,0.22371930855635058,-0.05281445970771915,0.4681295882396717,0.9728204619552321,-0.0018320782700261295,-0.22393586105082738,0.05890434980411871,0.4416076057241298,0.037361994188682995,31777.168608891774
1684938399474621772,235,1684938399474621772,camera_2,237,0,0.22371958347744703,-0.052878669749119186,0.4681118446196438,0.9728031017329645,-0.0017444833098579362,-0.22409534267378126,0.05858634165593592,0.489170920685865,0.04138159462115083,31775.281288642444
1684938399484615325,236,1684938399484615325,camera_2,238,0,0.22378961010550452,-0.0526572104539676,0.468250636803822,0.9729537336275423,-0.0018491541770648367,-0.2232373486270363,0.05935232958381654,0.5094006032450125,0.04310932961436913,31781.465277922332
1684938399494533061,237,1684938399494533061,camera_2,239,0,0.22384919609093623,-0.05228804535068069,0.46834658103107846,0.9728484609799385,-0.0019129934077554017,-0.2240105455773966,0.05815056229568207,0.5107631954015233,0.043218235576667215,31758.64853359665
1684938399504366636,238,1684938399504366636,camera_2,240,0,0.22397895089483505,-0.05184648646724482,0.46860874298046756,-0.9729615729966016,0.0020423493422003147,0.22315000010735495,-0.05954564411634876,0.5214415491209365,0.04417115682978927,31747.17048326599
1684938399514303684,239,1684938399514303684,camera_2,241,0,0.223902215793315,-0.051363225223516794,0.4684198406764031,0.9728238799815815,-0.0021203131634684614,-0.2237105254323313,0.05968922532970772,0.5122089760843664,0.04335595304183742,31760.395562850885
1684938399524326086,240,1684938399524326086,camera_2,242,0,0.2238859815138203,-0.050708300177831,0.46836503161053233,0.9727114446793759,-0.0018431068241818295,-0.2241218290657444,0.0599871159768608,0.4781555841327645,0.040458313461402766,31761.58757807222
1684938399534382343,241,1684938399534382343,camera_2,243,0,0.22380332900119757,-0.05059092642728503,0.4681928051313164,0.9727505631813503,-0.001984106016533838,-0.22387843739651583,0.06025653842177972,0.5259721830952913,0.044469984111432624,31791.984940290444
1684938399544344425,242,1684938399544344425,camera_2,244,0,0.22389045331167196,-0.05070505926841095,0.4683872940511057,0.9728380274641042,-0.002086915961757322,-0.2234665772762386,0.06036974359695858,0.47245464473962784,0.039974864183179984,31776.644945029635
1684938399554348468,243,1684938399554348468,camera_2,245,0,0.22386775704006373,-0.05095444995217255,0.468363069542742,0.9727182433852567,-0.002012883688006046,-0.2240057542036517,0.06030414055777684,0.5311132415663451,0.0449525302885255,31760.92075086035
1684938399564386367,244,1684938399564386367,camera_2,246,0,0.223956880436085,-0.05136041113570401,0.4685571148605538,0.9729102633726645,-0.0023348732097944126,-0.22309334220662033,0.06057663290664581,0.4817284092423506,0.04080632617078083,31755.436235957764
1684938399574563980,245,1684938399574563980,camera_2,247,0,0.22382441774113984,-0.052251229663969265,0.46833253521901697,0.9728686963722752,-0.0019516212957592317,-0.22372037622236243,0.05892269559475669,0.5510108902235515,0.046631937912941845,31765.912790657727
1684938399584315299,246,1684938399584315299,camera_2,248,0,0.22385275694001744,-0.052645504827564964,0.46841016787160966,0.9730012556389512,-0.0018771682953198836,-0.22322482087503917,0.05861494783348613,0.47577233152696863,0.04027152124011503,31767.050777141012
1684938399594391107,247,1684938399594391107,camera_2,249,0,0.2236790428212356,-0.05285966953066085,0.4680438435270743,0.9727735845857661,-0.0018800557809546456,-0.22423754563580955,0.05852812699590018,0.4555100643192418,0.03852378236758634,31781.124611440362
1684938399604512691,248,1684938399604512691,camera_2,250,0,0.22370784620353032,-0.05294374249447801,0.46810399023809723,0.9728794369612765,-0.001778366936767574,-0.22377744233130414,0.05853285276327873,0.46053030487382784,0.03895035491150196,31785.957630381232
1684938399614281892,249,1684938399614281892,camera_2,251,0,0.22381932540263724,-0.05285609676755443,0.4683288059519338,0.9730466657330099,-0.0018365723821688593,-0.22300222698722214,0.05870962499025648,0.45516769803361967,0.03851821744632292,31780.034013817312
1684938399624271392,250,1684938399624271392,camera_2,252,0,0.2238626270553378,-0.05215677542310501,0.46838381666527423,0.9728673199201733,-0.0020717382648022175,-0.22377946876761992,0.05871656572027673,0.4897933757165447,0.041454520130864675,31759.176760635346
