%time,field.header.seq,field.header.stamp,field.header.frame_id,field.image_seq,field.transforms0.fiducial_id,field.transforms0.transform.translation.x,field.transforms0.transform.translation.y,field.transforms0.transform.translation.z,field.transforms0.transform.rotation.x,field.transforms0.transform.rotation.y,field.transforms0.transform.rotation.z,field.transforms0.transform.rotation.w,field.transforms0.image_error,field.transforms0.object_error,field.transforms0.fiducial_area
1684965028017664194,0,1684965028017664194,camera_1,1,0,0.22937791692317236,-0.11085535769109792,0.5168807317173246,0.9734047733534195,0.045095602891658475,-0.19104510556545024,0.11811562746775754,0.5276550984708592,0.05014750990866955,31934.58883436538
1684965028028282880,1,1684965028028282880,camera_1,2,0,0.22939658190761147,-0.11105261584793163,0.5169390361909122,0.9734288346893541,0.044987922426891924,-0.1913731668206039,0.11742530243559633,0.5887761357007548,0.05596598774293767,31923.938444442683
1684965028037415742,2,1684965028037415742,camera_1,3,0,0.22932770791960766,-0.11154848361825195,0.5168173151930395,0.973412236712297,0.045023173959518284,-0.19131338008663232,0.11764659716796663,0.576655596436467,0.054828598964924334,31922.70102337411
1684965028048137903,3,1684965028048137903,camera_1,4,0,0.22938483345343547,-0.1119153351049068,0.5169580697476572,0.9735237046481523,0.04505730714282637,-0.19145992383779606,0.11646687565655492,0.5436675773817115,0.0517032282866299,31909.43951584351
1684965028058571577,4,1684965028058571577,camera_1,5,0,0.2293694241137435,-0.11230739044371216,0.516920752130641,0.9735684955229417,0.04492838606448906,-0.19162171293839805,0.1158746899947965,0.5049234454636462,0.04802096493463367,31905.977635904565
1684965028068354368,5,1684965028068354368,camera_1,6,0,0.22936334964762903,-0.11273747981578243,0.5169032928095005,0.9737284910547293,0.04506873769147367,-0.19092223311800477,0.11563016687876636,0.5316221635439433,0.05055481455593653,31918.08371040912
1684965028077211618,6,1684965028077211618,camera_1,7,0,0.229305311943218,-0.11318989387156891,0.5167804638949915,0.9737000029209033,0.0449580048025988,-0.19118673316583817,0.1154760372431303,0.5064906274201348,0.04817424297055448,31913.09452269889
1684965028088293075,7,1684965028088293075,camera_1,8,0,0.22934702725502956,-0.1137147749907465,0.5168843688258793,0.9738682210521975,0.04497085952532392,-0.19097119440167226,0.11440416394074254,0.5240931218722835,0.04985692088489029,31906.90903374007
1684965028097761392,8,1684965028097761392,camera_1,9,0,0.2292193067483933,-0.11476389444725077,0.5165786660409784,0.9739646805909916,0.044983492246406874,-0.1908676096675355,0.1137490306174368,0.5619359546108171,0.053444791899373206,31920.021156707902
1684965028108459949,9,1684965028108459949,camera_1,10,0,0.2291716689718224,-0.11590903900110053,0.5164320277404939,0.9741117006169935,0.045235291228902796,-0.19122240216729766,0.11177726091595519,0.548390956770163,0.05214937061781087,31916.313234577425
1684965028117299556,10,1684965028117299556,camera_1,11,0,0.22927561146688485,-0.11655552963970427,0.5166606992609656,0.9742208001454462,0.04499816716336205,-0.19039466749204112,0.11233373538924096,0.5144365596352145,0.048998483983668746,31881.61002248665
1684965028128676176,11,1684965028128676176,camera_1,12,0,0.22920639172327176,-0.1171295612701826,0.5164927451516733,0.9742945344408697,0.045167911058473696,-0.1906307663832663,0.11122019096095552,0.5544865591800772,0.05278916315201565,31890.282589734285
1684965028137568712,12,1684965028137568712,camera_1,13,0,0.2290943251235191,-0.11765270720919449,0.5162215038699514,0.9742198134286302,0.044956184660632045,-0.19108218773565327,0.11118585392936,0.5064991989638656,0.04822248382768343,31889.357918981113
1684965028148259162,13,1684965028148259162,camera_1,14,0,0.22907526379703871,-0.11877639097123138,0.5161493105232932,0.9744019445434278,0.04533024786684508,-0.1911182664527234,0.10936099545277927,0.5226762607344426,0.0497665796607502,31881.166746342446
1684965028158418893,14,1684965028158418893,camera_1,15,0,0.22897940910343373,-0.11927638254693507,0.5159096771419511,0.9743941894000527,0.045277367608892574,-0.19166171757433706,0.10849750993584377,0.5612724281963892,0.053420162615914486,31886.351891213908
1684965028168278217,15,1684965028168278217,camera_1,16,0,0.2290101937688804,-0.11979607552010452,0.5159549643608893,0.9745473915956414,0.045517402417962365,-0.19135913506476696,0.10755105317251518,0.5350218890816905,0.050925342581088454,31882.765518867294
1684965028177105426,16,1684965028177105426,camera_1,17,0,0.22893289112946474,-0.12025131617655241,0.515762778809279,0.9746505552712316,0.04573587247369863,-0.19099281760020242,0.1071740113259051,0.532014753727708,0.050612773718621724,31902.014086990606
1684965028187387704,17,1684965028187387704,camera_1,18,0,0.22888291571038374,-0.12065496007121854,0.5156310457278724,0.9746857724653601,0.04549486726816734,-0.1911993932841565,0.10658636879838973,0.5548672694130801,0.05278000355500848,31903.217105208878
1684965028197751522,18,1684965028197751522,camera_1,19,0,0.22883963458409892,-0.12104525350410311,0.5155185624577615,0.9747464261954917,0.04551027350532783,-0.19099301337326574,0.10639496448228537,0.5751795209362172,0.054708062434594466,31908.402132593103
1684965028208084821,19,1684965028208084821,camera_1,20,0,0.22861725067364216,-0.12158759359222718,0.5149698006522172,0.9745859637829394,0.0457408503299542,-0.19209658187892065,0.10577748833663518,0.559876364772208,0.05320485882027421,31925.139731011004
1684965028217792034,20,1684965028217792034,camera_1,21,0,0.22859599500419883,-0.12183352675257329,0.5149044873832691,0.9747253181529346,0.04554053112370035,-0.1919075242799877,0.10491957063082998,0.5733404539641924,0.05445506384302374,31939.84733419308
1684965028227688789,21,1684965028227688789,camera_1,22,0,0.22864625723576365,-0.1220542826307014,0.5149926062021823,0.9748146611497222,0.04568998844680061,-0.19125123847670986,0.10522245551406008,0.5335297395358793,0.05069723760457875,31933.608498640602
1684965028237995624,22,1684965028237995624,camera_1,23,0,0.22855103416230368,-0.12221636485125845,0.5147581525285132,0.9747874160240458,0.04561011883689686,-0.1916234339729478,0.1048316277335396,0.6365456986823119,0.06044949977418129,31948.37872223789
1684965028247845888,23,1684965028247845888,camera_1,24,0,0.22864918659901792,-0.12228491854941669,0.5149459752656438,0.9748130042272711,0.045726564232665745,-0.19136068890020214,0.10502273495066798,0.5769233856117353,0.05482906944807147,31927.46109043982
1684965028258192777,24,1684965028258192777,camera_1,25,0,0.22864968541635164,-0.12213618638850239,0.5149253941229686,0.9747117998221464,0.045655467797320215,-0.191792381340853,0.10520536111474918,0.5445668114116415,0.0517592497858668,31920.415149267752
1684965028268053293,25,1684965028268053293,camera_1,26,0,0.22859298130879982,-0.12194233382768259,0.5147835939250249,0.974672323160962,0.04574424000343073,-0.191767508845006,0.10557722065816327,0.5761493553291076,0.05473211235407886,31939.526675652014
1684965028278183221,26,1684965028278183221,camera_1,27,0,0.2286981047089778,-0.12177943192116021,0.5150174640566719,0.9746625427838992,0.045726479579279354,-0.19162221066264604,0.10593840257465682,0.5472076548612677,0.05202145099165362,31918.27094850212
1684965028288056373,27,1684965028288056373,camera_1,28,0,0.2287987005079043,-0.12154616875029782,0.5152494215831114,0.9747236377223357,0.04568451886645502,-0.19104860312004424,0.10642925371887786,0.5884476767387241,0.05596912486465864,31910.677730716874
1684965028297930955,28,1684965028297930955,camera_1,29,0,0.2287551469258086,-0.12119308356314608,0.5151511632255636,0.974513639107914,0.04564288087076435,-0.19194288245575658,0.10676059428948162,0.5793343760888092,0.05509671842915248,31906.30649758503
1684965028307642459,29,1684965028307642459,camera_1,30,0,0.22878476251209934,-0.1208259326608848,0.5152150363473081,0.9744739996418053,0.045706584472609904,-0.1918447667251127,0.10727030175280768,0.6201658496866003,0.05897960635067037,31909.224366926926
1684965028318098545,30,1684965028318098545,camera_1,31,0,0.22893459197716104,-0.12001574748627282,0.5155564208054495,0.9743245561739697,0.045616877003298056,-0.19185502913822342,0.1086388860548292,0.5684091727016494,0.05411092171086827,31881.98593568417
1684965028327574968,31,1684965028327574968,camera_1,32,0,0.22898957016814375,-0.1195344379276634,0.5157009784684977,0.9742918871991256,0.04557956867826111,-0.19179072890791976,0.10906024831275171,0.6185926363104954,0.058892765166213314,31880.74899369305
1684965028337850332,32,1684965028337850332,camera_1,33,0,0.22907174161862576,-0.11905066882869884,0.5158813355995417,0.9743057416241965,0.04557297097754785,-0.19128363028416184,0.10982713207453079,0.5928879227139987,0.056454500064538136,31881.354963768732
1684965028347440481,33,1684965028347440481,camera_1,34,0,0.22907780151075796,-0.1184891069376045,0.5158892437226111,0.9742138305571406,0.04545918986773998,-0.1913113258617378,0.11063837943849208,0.57189006509725,0.054447144832704686,31888.677079285273
1684965028356713294,34,1684965028356713294,camera_1,35,0,0.22925068063953488,-0.11801186980262889,0.516297088634119,0.9742471710440639,0.04550498264763625,-0.19048027458411745,0.11175424493609194,0.573943565657828,0.0546986979963071,31866.86549874605
1684965028367200374,35,1684965028367200374,camera_1,36,0,0.2292894693152964,-0.11743308486699897,0.5163990800265781,0.9742016888151275,0.0455195753284163,-0.19048664043911673,0.11213330275120334,0.5381202542921528,0.05127546143258415,31871.08021477562
1684965028377875566,36,1684965028377875566,camera_1,37,0,0.2291728425333496,-0.11619336259099139,0.516173436729188,0.9738500196424676,0.04520512582996299,-0.1915648802509301,0.11347040361040961,0.5224417507997714,0.04973503883133848,31892.117573135074
1684965028387775182,37,1684965028387775182,camera_1,38,0,0.2292983980126469,-0.11506626527800642,0.5164822502083936,0.9738158921418589,0.04535531287998454,-0.19123639417331445,0.11425473884746651,0.5580387619556859,0.053118718788411505,31893.953166603555
1684965028397849082,38,1684965028397849082,camera_1,39,0,0.2293000132710387,-0.11449837308273692,0.5164942168503581,0.9736822900348715,0.0453365056510057,-0.19171082974743037,0.11460522276648896,0.5552931451238692,0.05284793964459121,31893.29081502698
1684965028407884359,39,1684965028407884359,camera_1,40,0,0.22936127334680487,-0.11397856743539195,0.5166598991829598,0.9736967039720181,0.04515248793523203,-0.19095324943136452,0.1158138076348841,0.5159207650576718,0.04911425853065392,31894.892887210008
1684965028417923927,40,1684965028417923927,camera_1,41,0,0.22936804836533636,-0.1134506971095997,0.5166978588347394,0.9735881798690544,0.04503704256538387,-0.19112129981053594,0.11649192922669187,0.5537280266871676,0.05271536831361638,31893.366143083913
1684965028428269386,41,1684965028428269386,camera_1,42,0,0.22939186059308908,-0.11250469039562161,0.5167915175034944,0.9734617118394487,0.04520898258173271,-0.19170323442609027,0.11652602021484361,0.5457305787713267,0.05192485169842741,31896.96116902389
1684965028438528537,42,1684965028438528537,camera_1,43,0,0.22929491746569036,-0.112046440711366,0.5165860761496147,0.9733130850037722,0.04498956547468175,-0.19174839811368577,0.11777151344732986,0.5331204874673858,0.050703351466116986,31914.909408605898
1684965028447836875,43,1684965028447836875,camera_1,44,0,0.2293619726520251,-0.11171200385611564,0.5167691516217755,0.9734033819324084,0.045046187504996525,-0.19125256186565356,0.11780982392669473,0.5643094578408636,0.05366548049806976,31918.39705444128
1684965028458214282,44,1684965028458214282,camera_1,45,0,0.22943263724936203,-0.11142122267673736,0.5169471800057125,0.9734781133630831,0.04508753288154063,-0.1907216253985333,0.11803702295064038,0.551872844924219,0.05248839754062622,31918.52001039346
1684965028468278169,45,1684965028468278169,camera_1,46,0,0.2294047624921846,-0.11114331771723557,0.5168850412468716,0.9733885985703334,0.045096880577175764,-0.19080239881497346,0.11863958926910581,0.56405046407599,0.0536410759266316,31922.551541098517
1684965028477290868,46,1684965028477290868,camera_1,47,0,0.229379977281907,-0.1109330137974914,0.516849529787773,0.9734141506896273,0.045160127598299356,-0.19080773761798614,0.11839704969973924,0.5110564755741507,0.0485723963789786,31937.092824872136
1684965028486683607,47,1684965028486683607,camera_1,48,0,0.22933589033474283,-0.11067884081176148,0.516801000278607,0.9732598613891861,0.04504039754509897,-0.19176844736635562,0.1181586534807294,0.5434948665788397,0.05164965128386615,31928.45342387874
1684965028496944904,48,1684965028496944904,camera_1,49,0,0.22933257009730748,-0.11065301260958642,0.5167999744491986,0.9733078998812897,0.0450161649961732,-0.1913902242013804,0.11838521443937158,0.5283127511502244,0.05020146020858453,31936.71857558041
1684965028506823778,49,1684965028506823778,camera_1,50,0,0.22938394908851584,-0.11071221587450403,0.516923332405356,0.9733580707620785,0.04504864133385532,-0.1913743434093166,0.11798536638478231,0.5422882275888696,0.05154061660132186,31927.455242446842
1684965028516707897,50,1684965028516707897,camera_1,51,0,0.2294190703523967,-0.11098866033373435,0.5170403955466664,0.9734622551226614,0.04498278529637815,-0.19129145439665113,0.11728327397074363,0.5382888763560915,0.05117068382214318,31919.97744083403
1684965028526807308,51,1684965028526807308,camera_1,52,0,0.22929324321273423,-0.11113938195841501,0.5167715475908873,0.9733575996665992,0.04495678605625085,-0.19163506881895362,0.11760047175723362,0.5505486896727234,0.05231766671742108,31932.867667539962
1684965028537410020,52,1684965028537410020,camera_1,53,0,0.2293532053762194,-0.11174887402681583,0.5169222627638026,0.9735227510781712,0.044820816779625135,-0.19130706687839766,0.11681675256049906,0.5334905597264878,0.05072503089763427,31918.677846104598
1684965028548065185,53,1684965028548065185,camera_1,54,0,0.22937922705089317,-0.11212272802319441,0.516990044223726,0.9735644474018561,0.044881788951059015,-0.19143318203581935,0.1162378105063582,0.5222243354073726,0.04967237947252488,31904.95784830475
1684965028558499097,54,1684965028558499097,camera_1,55,0,0.2293884804626901,-0.11253398717857296,0.5170088020325728,0.9737836751295649,0.04495593730384524,-0.19061183626233313,0.11572141387397822,0.5444006137549877,0.05176783158356921,31921.089599322982
1684965028568757772,55,1684965028568757772,camera_1,56,0,0.22938424727371098,-0.11298345267645393,0.5170132046661131,0.9738730864116844,0.044813151499342924,-0.19046523785666994,0.11526485233530243,0.6306705885217525,0.05998266425146077,31918.15756862961
1684965028577535629,56,1684965028577535629,camera_1,57,0,0.22927790717027602,-0.11341544643158345,0.516762221285264,0.973727306751744,0.04493829027150528,-0.19128049355234253,0.11509758876640848,0.5302846519043669,0.05043687821240077,31912.600265041
1684965028587856054,57,1684965028587856054,camera_1,58,0,0.2292898713097793,-0.11392806210551522,0.5167726636317906,0.9738795704300692,0.0449074178782553,-0.19140819659714478,0.11359933271758363,0.4834676599712111,0.045972249163360034,31913.231884309083
1684965028597329616,58,1684965028597329616,camera_1,59,0,0.22923524423233121,-0.11501025907005415,0.5166363767572718,0.9739967419774934,0.044882593581225226,-0.1912243908450833,0.11291205319441142,0.5237247892655432,0.049818678343435584,31908.271336236277
1684965028607293605,59,1684965028607293605,camera_1,60,0,0.22921716427095903,-0.11558874498547747,0.5165951607639863,0.974069922632126,0.04484815728133381,-0.1909987433302045,0.11267612283973605,0.5664647520752624,0.053902882482750526,31903.249859052714
1684965028618364095,60,1684965028618364095,camera_1,61,0,0.22914115128667203,-0.11613751619519487,0.5164037058724158,0.9741918155342124,0.04498589569263022,-0.1909620198702501,0.1116247405459972,0.5975996945635416,0.05682577780541144,31922.580622174195
1684965028627876758,61,1684965028627876758,camera_1,62,0,0.22924699032355775,-0.11680373742882048,0.5166213442848446,0.9743412553169751,0.04495169627545335,-0.19048825981516765,0.1111426383612061,0.5365878835436888,0.05107888973216283,31893.542191748056
1684965028637839317,62,1684965028637839317,camera_1,63,0,0.2290455373485501,-0.11730471902905126,0.5161734857503842,0.9741587817492121,0.04516819859932135,-0.19187220997200494,0.1102703805046586,0.5993973583099432,0.057017510904835166,31901.56655234843
1684965028648026466,63,1684965028648026466,camera_1,64,0,0.22909640242338908,-0.11791864564084201,0.5162456313476398,0.9744182426135558,0.045258461675130986,-0.19083812960340282,0.10973408038610925,0.5345165467588231,0.05085273998604736,31906.270679816836
1684965028658101797,64,1684965028658101797,camera_1,65,0,0.2289496965490345,-0.11898881203196295,0.5158766856648063,0.9743879950205961,0.04547161363312432,-0.19177825846786142,0.1082657244578208,0.5699421510798857,0.05420989996288605,31902.58131061286
1684965028668107748,65,1684965028668107748,camera_1,66,0,0.22886981153354552,-0.11999269883351421,0.5156495137702657,0.974609460614782,0.0452750012663684,-0.1909688578032325,0.10778436291885157,0.5058439747663215,0.04810602946599691,31917.566883983098
1684965028678124904,66,1684965028678124904,camera_1,67,0,0.22878091122644473,-0.12041392679199281,0.515427697489918,0.9745353289182515,0.045423150314796386,-0.19172059594090857,0.10705532774102239,0.5528594533680007,0.05256563503983105,31915.322253314982
1684965028687017202,67,1684965028687017202,camera_1,68,0,0.22873149523529948,-0.12081876168360756,0.5153027570296802,0.9745533206463878,0.04550790634991597,-0.1920338089898844,0.10629144782898968,0.5789875990012661,0.05503963190575859,31915.432791249594
1684965028697908163,68,1684965028697908163,camera_1,69,0,0.22877270299040672,-0.12121907396460668,0.515359162076882,0.9747606955126069,0.04544453153780268,-0.19117522692911895,0.10596420926750968,0.5524395260144956,0.052519151077390816,31920.3816991453
1684965028707197427,69,1684965028707197427,camera_1,70,0,0.2287220356976376,-0.12180363819165449,0.5152145321668773,0.9747961684314883,0.0455280061001721,-0.19161888686590114,0.10479424062468903,0.5369692113017663,0.051039468548136346,31916.536781155737
1684965028718188524,70,1684965028718188524,camera_1,71,0,0.22866046546572544,-0.1219916852090981,0.5150432519769215,0.9748336491542379,0.04554627141076285,-0.19148269771854076,0.10468653261828512,0.5502097451826558,0.05227405825615123,31932.54716535609
1684965028728590250,71,1684965028728590250,camera_1,72,0,0.22869034133325727,-0.1221684624184615,0.5150985232617085,0.9749249325342172,0.04572128313170395,-0.19076882651082416,0.10506281465687972,0.5508247052785009,0.05234766650279588,31932.90314519357
1684965028738071203,72,1684965028738071203,camera_1,73,0,0.22855982634988203,-0.12219979250176623,0.5147830208981827,0.9747758669628238,0.04566532701173024,-0.19133345303153906,0.10544286057773111,0.5569395590573549,0.05290542824511563,31945.26791949581
1684965028746776342,73,1684965028746776342,camera_1,74,0,0.22853545035148143,-0.12223451968811412,0.5147178451784002,0.9747723948835447,0.04582063878636485,-0.19161890901370887,0.10488775401639645,0.5916114911087789,0.05617684836142911,31951.222622535646
1684965028757399797,74,1684965028757399797,camera_1,75,0,0.22854813923981082,-0.1222161787976903,0.5147145803519414,0.9747403001250726,0.04575574467980984,-0.19162256733507518,0.10520718050016471,0.5524603610974737,0.05247077830645167,31946.383947678853
1684965028768175601,75,1684965028768175601,camera_1,76,0,0.22862097838116702,-0.1220566052263998,0.5148740037411252,0.9746778125494094,0.04566281040001641,-0.19193928351720513,0.10524913735120373,0.5626956388587132,0.053472779044410175,31925.33350618485
1684965028778421163,76,1684965028778421163,camera_1,77,0,0.22865732489285218,-0.12188878387130156,0.5149333103640702,0.9746890362468865,0.04569343032969657,-0.19148532717847797,0.10595641802256246,0.5521081638289616,0.05247636990557298,31927.09468684929
1684965028787797689,77,1684965028787797689,camera_1,78,0,0.2286913988841756,-0.12165939789852774,0.5150054999999858,0.9746507588963759,0.04563778197603535,-0.19134852638351896,0.10657782363082022,0.5829968341859058,0.055427989702851704,31922.964508447214
1684965028797695159,78,1684965028797695159,camera_1,79,0,0.22880560155697874,-0.12106419132088025,0.5152500979856501,0.9745498537901486,0.04564620454445595,-0.19142404150561487,0.1073584781092877,0.5620092111057602,0.05346406466691751,31905.449455178445
1684965028807945251,79,1684965028807945251,camera_1,80,0,0.22888337395560285,-0.12070076762092559,0.5154278794003224,0.9745530236264361,0.045490820174330426,-0.19096734696263623,0.10820564594553311,0.5593112537171692,0.05323026378117284,31900.140977674622
1684965028817923069,80,1684965028817923069,camera_1,81,0,0.2288634650738197,-0.11977805302577776,0.5153940899334793,0.9742292759134243,0.04565746595763091,-0.19228776015312518,0.10871122780479882,0.5449722282355651,0.051848070094689946,31896.51460713554
1684965028827415704,81,1684965028827415704,camera_1,82,0,0.22900084282502906,-0.11933684806661186,0.5157071163375899,0.9742856206567796,0.04551662260932863,-0.19140417208417,0.10981898449925279,0.544923936133273,0.05188070156361883,31886.29034435448
1684965028837586164,82,1684965028837586164,camera_1,83,0,0.22916924425373963,-0.11886417087150211,0.5160875714834617,0.9744539045058591,0.045492272273340725,-0.19020692590695462,0.110414521208583,0.5758820750634186,0.05484917811368159,31885.737807650126
1684965028848043441,83,1684965028848043441,camera_1,84,0,0.22914384350813805,-0.11828627809017755,0.5160440796280228,0.9742465272394021,0.045529030002321134,-0.19082365665790452,0.11116269000307111,0.5969989040750079,0.056855122827132225,31884.57972595551
1684965028858034133,84,1684965028858034133,camera_1,85,0,0.22910761308232283,-0.11766231175385948,0.5159665776008121,0.9740913761116986,0.04528173523723316,-0.19094347718347351,0.11241060430318356,0.5729737667134032,0.05455812866113527,31894.477132772445
1684965028868069171,85,1684965028868069171,camera_1,86,0,0.22919668139899615,-0.1171016910283707,0.5161758557028491,0.9741126710210103,0.0452669897419855,-0.19086813362071858,0.11235995445066492,0.5633769134292379,0.05363756047360437,31894.23523388955
1684965028877334117,86,1684965028877334117,camera_1,87,0,0.22927931671131735,-0.11592801468327416,0.5164039167814966,0.9739715134521743,0.04533719586012567,-0.19072793368194382,0.11378437928221072,0.5776631474727765,0.055002005048356145,31893.547179937847
1684965028886909246,87,1684965028886909246,camera_1,88,0,0.22931883523185517,-0.11534636549741081,0.516512240734351,0.9739182188967468,0.04532571222679075,-0.1904047065839325,0.11478209974908736,0.5157603257102892,0.049112161552003084,31895.501802221403
1684965028896917819,88,1684965028896917819,camera_1,89,0,0.22935107538903654,-0.11476638219664868,0.5165905321271116,0.9738510994678179,0.04523775289727066,-0.19081200012165564,0.1147099053600038,0.5649073772947304,0.053777210140880334,31896.251953793
1684965028906781911,89,1684965028906781911,camera_1,90,0,0.22931479604329114,-0.11417870626327477,0.5165255347962497,0.973649992407154,0.04527549365117368,-0.19149519229223133,0.11526236718527486,0.5448353240499273,0.05185472596484225,31896.233276570456
1684965028916926383,90,1684965028916926383,camera_1,91,0,0.22937851053058672,-0.11366892230815263,0.5166862757594932,0.9736494620344431,0.04531335436431871,-0.19092602540222484,0.11619241722419793,0.59187971992651,0.05634351139644364,31896.788595757553
1684965028926791667,91,1684965028926791667,camera_1,92,0,0.22946469705840955,-0.11320774545213924,0.5169101478014605,0.9736276225904548,0.04522231200139427,-0.19062533591547834,0.11690242227267424,0.5908499372890219,0.05627299460196573,31884.14805682681
1684965028936808586,92,1684965028936808586,camera_1,93,0,0.22941012479558442,-0.11227808572080067,0.5168103140383027,0.973437758645386,0.04524577468370787,-0.19100348049382387,0.11785338500002325,0.5045398669899441,0.04801987389487016,31900.27663224854
1684965028947122573,93,1684965028947122573,camera_1,94,0,0.22938076274145225,-0.11154760082359472,0.5167873835513171,0.9733579910909468,0.04500423484291725,-0.19140228545608187,0.11795764132852396,0.5769180543720722,0.054869404124402624,31913.987036026774
1684965028957700014,94,1684965028957700014,camera_1,95,0,0.22936962034198613,-0.11125000031660995,0.5167789175452924,0.9732480512074532,0.045187308355015596,-0.1914954625575397,0.1186415854765826,0.588966338080354,0.05602146012975113,31911.36551077105
1684965028967998504,95,1684965028967998504,camera_1,96,0,0.2293459429410497,-0.11101274346020533,0.5167375804154282,0.9732800062852195,0.045119387252810055,-0.19122151179307187,0.11884697592680518,0.556971421581693,0.052952719236914296,31928.117716470486
1684965028976656913,96,1684965028976656913,camera_1,97,0,0.22942020307194444,-0.1108742798148077,0.5169321003414812,0.9733332055617737,0.04518535840563168,-0.1912301708445598,0.11837134828731584,0.5449783509247936,0.05182066168947179,31917.478770826834
1684965028987496137,97,1684965028987496137,camera_1,98,0,0.22939596124667327,-0.11069368071197694,0.5169093311461891,0.9733162351562406,0.0451727445124397,-0.1910372641541327,0.11882631543138825,0.5261080074706115,0.050019616261835424,31924.85104054038
1684965028997785568,98,1684965028997785568,camera_1,99,0,0.22938405860044794,-0.11068899065074311,0.5168906632791044,0.9732966713850831,0.04503899893631954,-0.19131342679954463,0.11859279392841295,0.5369094069465064,0.0510433738692222,31923.22386340635
1684965029007792472,99,1684965029007792472,camera_1,100,0,0.2292984789211289,-0.11070666339357094,0.5167068752597419,0.9732459802600142,0.04492529152020173,-0.19175855727007857,0.11833273343942925,0.5450916221016087,0.05179286503302696,31935.890049496535
1684965029017687559,100,1684965029017687559,camera_1,101,0,0.22941810467681867,-0.1108860518790939,0.5169924048309855,0.9734684567263177,0.04504893077612682,-0.19095905744470434,0.11774716970967647,0.5414969444973394,0.05146857023535961,31929.420791508157
1684965029027099847,101,1684965029027099847,camera_1,102,0,0.22926367281575077,-0.11099668053039186,0.516651497822115,0.9732808458835599,0.04492263200660234,-0.19191657859878553,0.11778955398810972,0.5608661937876604,0.05328458417849748,31938.515270759468
1684965029037410497,102,1684965029037410497,camera_1,103,0,0.22934388131742248,-0.1112713286658686,0.5168526265414158,0.9733567776369924,0.044962528627942824,-0.19154991479777148,0.1177437241999698,0.568983530101832,0.054098544924650806,31918.63588938511
1684965029047386646,103,1684965029047386646,camera_1,104,0,0.22933648631166792,-0.11189358171303598,0.5168468217037059,0.9734815296528537,0.04495884626501614,-0.19165819191098263,0.11653133072556832,0.5442284167511389,0.05174320272983608,31916.360553387774
1684965029058158636,104,1684965029058158636,camera_1,105,0,0.22929902310968397,-0.11226212183678722,0.5167601110892881,0.973493061427365,0.04500795778974965,-0.19203933636739887,0.1157861666000805,0.5599965219735168,0.053235364068784166,31915.727685573518
1684965029067615032,105,1684965029067615032,camera_1,106,0,0.22935684885255692,-0.11272656642809747,0.5168890227320465,0.9736858874766873,0.044821720500671784,-0.1909565756718851,0.11602754891732908,0.52536275802413,0.04997175529888609,31912.94466875447
1684965029077971220,106,1684965029077971220,camera_1,107,0,0.22931759529522458,-0.11369297032026725,0.5168044967088224,0.9737675794424681,0.0449744404379211,-0.19116711466344216,0.11493100193292838,0.5443880002712831,0.05179732182483416,31902.96838798374
1684965029087324857,107,1684965029087324857,camera_1,108,0,0.22932332561329677,-0.11424074932462326,0.5168124669198283,0.9739364326599645,0.044911025890736575,-0.19091422199608957,0.1139411459072251,0.5748349167988636,0.0546890673444153,31906.166093468666
1684965029097759485,108,1684965029097759485,camera_1,109,0,0.2292641542708562,-0.11536427379316185,0.516664369623912,0.9740513579668033,0.045122472584435476,-0.1907953219322035,0.1130710380233598,0.5625552924466319,0.05353495969873075,31901.55029723375
1684965029107421159,109,1684965029107421159,camera_1,110,0,0.2292403024389732,-0.11593935115347456,0.5165803220907058,0.9741569360489478,0.04510224849460228,-0.1907539140712077,0.1122363372307367,0.5658701969077811,0.053845173024391804,31904.175088903743
1684965029118009090,110,1684965029118009090,camera_1,111,0,0.2291921817090236,-0.11652554169862728,0.5164682075119355,0.9741634022914839,0.045013136292798094,-0.19073850350929575,0.11224217779427097,0.5388174596009776,0.051291057935665914,31896.51661144883
1684965029127667427,111,1684965029127667427,camera_1,112,0,0.22923788863094816,-0.11715522071403846,0.5165653390546137,0.974304801797514,0.04535255232694467,-0.19073090774134924,0.11088291132496213,0.5665717385127209,0.05394512461819855,31883.411682699112
1684965029138148784,112,1684965029138148784,camera_1,113,0,0.22916689477176463,-0.1177080439053248,0.516377258628529,0.9743790376699796,0.04534193622566705,-0.1905970126220942,0.11046437682875573,0.5344178674858995,0.05087058604194363,31893.838240816265
1684965029147898674,113,1684965029147898674,camera_1,114,0,0.22912346537176445,-0.11826923937009383,0.5162514186345221,0.9744426903350191,0.0451952693819898,-0.19037576243343404,0.11034446046824545,0.5093750924570486,0.04849495530073949,31894.3726155247
1684965029158343315,114,1684965029158343315,camera_1,115,0,0.229049892511566,-0.11933537955856129,0.5160560253689458,0.9745417403033724,0.04546497993438804,-0.19113824674074764,0.1080162147036883,0.5649987967917696,0.05377190738351189,31888.86848794332
1684965029167135715,115,1684965029167135715,camera_1,116,0,0.22900852065141006,-0.11981725403781618,0.5159266439952228,0.9744858715119094,0.04529139421302121,-0.19168259092041115,0.10762787822842922,0.5116220954223536,0.04870794978923231,31874.017525683623
1684965029177665948,116,1684965029177665948,camera_1,117,0,0.228925761245585,-0.12025652841459765,0.5157246930910374,0.9745676277162325,0.04527791643091828,-0.19133112530614743,0.10751860201989666,0.5133219884010032,0.04885209653240106,31890.662864831964
1684965029188102483,117,1684965029188102483,camera_1,118,0,0.2287855498870367,-0.12061536643846751,0.5153708644746396,0.9744432415913041,0.045601039389850884,-0.19230358052877322,0.10677193938207957,0.5037724733701907,0.04791234114564836,31899.20911040437
1684965029197494745,118,1684965029197494745,camera_1,119,0,0.2287734063828817,-0.12101852629757931,0.5153483820067051,-0.9746198122608551,-0.045545431376520916,0.19165988905758138,-0.10634059505089195,0.5803105995873921,0.05518209957530163,31910.32269632409
1684965029207587957,119,1684965029207587957,camera_1,120,0,0.22872778600028618,-0.12134219119643234,0.515201051943604,0.9746482621625243,0.045508458171134795,-0.1916778360184203,0.10606296468491393,0.542767621926032,0.05160188047096353,31915.887364703827
1684965029218094110,120,1684965029218094110,camera_1,121,0,0.22862531543004022,-0.12184342815770009,0.5149292775285542,0.9746510203798859,0.04573179903887441,-0.1918862786144603,0.10556347431099948,0.5626579517847858,0.05347028469205464,31926.303533909126
1684965029227994918,121,1684965029227994918,camera_1,122,0,0.22858439067426314,-0.12216060666815495,0.5148044909920009,0.9747057717056206,0.045598828818274505,-0.1916067548315871,0.10562318361543818,0.508551023027394,0.04832511299485639,31932.872713524506
1684965029238225460,122,1684965029238225460,camera_1,123,0,0.2285901897800027,-0.12224466337378308,0.5148081751201262,0.9747607215359383,0.045786156420785665,-0.19165801598199333,0.10493983295581444,0.5785689489566721,0.05496147774300362,31937.531563038236
1684965029247948646,123,1684965029247948646,camera_1,124,0,0.22856832402632754,-0.12224939831911605,0.5147373536739815,0.9747032617007491,0.045771530008516276,-0.1916428771129282,0.10550604874830431,0.5775643851957284,0.05487540174731542,31936.683553373885
1684965029257676362,124,1684965029257676362,camera_1,125,0,0.22855693713254513,-0.12219283275777829,0.5146955603294308,0.9746668591547124,0.04578548840264754,-0.19183972744427175,0.10547853663815566,0.5944228799780831,0.05647042216026287,31938.224518444167
1684965029267944812,125,1684965029267944812,camera_1,126,0,0.2286253330635609,-0.12196133182938432,0.5148140593863988,0.9746536686331477,0.04579715776717423,-0.19177294134079356,0.10571653385301494,0.556401418405585,0.05286984731137603,31931.587627025787
1684965029277270317,126,1684965029277270317,camera_1,127,0,0.22860416873647205,-0.12173272515024333,0.5147737628233859,0.9744786442050635,0.04569601022184164,-0.19222519114190795,0.10654915545664231,0.5747765728738159,0.054637226608706076,31920.85255970807
1684965029287962198,127,1684965029287962198,camera_1,128,0,0.22870796145637554,-0.12150829669907495,0.5149885590087669,0.9744844057974431,0.04575406602016684,-0.19228623887850188,0.10636122713745855,0.5190334068029188,0.04935522273996638,31906.125821881564
1684965029297668457,128,1684965029297668457,camera_1,129,0,0.22877227710484116,-0.12121290383764965,0.5151376892722549,0.9745328051605558,0.04586053557977456,-0.1915076747675298,0.10727270597579043,0.5881210811203346,0.05593820531226594,31909.943764642107
1684965029308116674,129,1684965029308116674,camera_1,130,0,0.22890323966032503,-0.12089519045555792,0.5154405262711365,-0.9746493632517993,-0.04566789083775071,0.19052004093062902,-0.1080517304955594,0.566992148233112,0.05395952461449923,31904.642382648322
1684965029318010807,130,1684965029318010807,camera_1,131,0,0.22881905030352104,-0.12042037519762336,0.5152377463672387,0.9743285948635677,0.045592259132890604,-0.19210767156196334,0.10816551051692015,0.6014356092782691,0.057217472914305095,31900.356686961248
1684965029328024148,131,1684965029328024148,camera_1,132,0,0.22895827868663812,-0.11950867395686557,0.5155533987350465,0.974223699328563,0.045728278774953494,-0.1917936727722593,0.10960061711221092,0.5128182147745974,0.048816093354729424,31887.59728300269
1684965029338069677,132,1684965029338069677,camera_1,133,0,0.2291455799487134,-0.11908227917637572,0.5159922548187051,0.9743538690319621,0.045572670556838064,-0.19046935846726087,0.11081106932898842,0.5440038419910707,0.05183550770273301,31873.416312511552
1684965029347970008,133,1684965029347970008,camera_1,134,0,0.2290912681165706,-0.11848880559331658,0.5158742200467165,0.9742632058797518,0.04548881875674209,-0.190890825752748,0.11091738222865995,0.5100711383856833,0.048557651688531996,31896.340107194967
1684965029357189416,134,1684965029357189416,camera_1,135,0,0.22928669701029886,-0.11741912686516585,0.5163444702471849,0.9742003713256034,0.04534168377039415,-0.1899333492282528,0.11315074490634318,0.6350195417762734,0.06052234594893414,31876.347588838777
1684965029367597103,135,1684965029367597103,camera_1,136,0,0.2293171695797744,-0.11683849312749855,0.5164099501465672,0.9740796974286653,0.04546211018572192,-0.19064223113012166,0.11294901196765912,0.5047712229425088,0.04809470055442332,31872.892117239764
1684965029377651453,136,1684965029377651453,camera_1,137,0,0.22937725228593453,-0.11568256445383682,0.516593855540433,0.9740097645689498,0.04537947664579853,-0.19026452712992842,0.11421510994486275,0.5735104894847609,0.05462833678667836,31885.62707776018
1684965029387960433,137,1684965029387960433,camera_1,138,0,0.22939489825856585,-0.11510645243906079,0.5166486846181619,0.9738693537678518,0.04515877101539516,-0.19048239941023365,0.11513306522057938,0.5268117361119948,0.05018970810250661,31879.23997487488
1684965029397715568,138,1684965029397715568,camera_1,139,0,0.22934385625424342,-0.11451830616015748,0.5165510459005116,0.9737436607560455,0.045310215209556345,-0.19083351111557864,0.11555448312540466,0.5242585441446863,0.04991460940105469,31894.72687376103
1684965029407724380,139,1684965029407724380,camera_1,140,0,0.2294056632149106,-0.11399664076114635,0.5167168142550925,0.9737237503669903,0.04515055371530689,-0.19063342174995568,0.11611366837004171,0.558605186524801,0.053193026456092925,31890.776663853452
1684965029418272495,140,1684965029418272495,camera_1,141,0,0.2293638917834215,-0.1134491210460244,0.5166304405875116,0.973636653877686,0.04517536976341,-0.19066926857476943,0.11677363663843235,0.5183922344585881,0.04933686230787754,31907.65172507288
1684965029427898406,141,1684965029427898406,camera_1,142,0,0.22943312624050166,-0.11298928549068801,0.5168111333443466,0.9735534810878937,0.0451090281885457,-0.19106750927553412,0.1168417816398437,0.5488437439780682,0.0522513528060879,31890.02239175082
1684965029437788009,142,1684965029437788009,camera_1,143,0,0.2293947703012066,-0.11210383009469033,0.5167602357815194,0.973440809736913,0.045270407764646026,-0.19092730181705486,0.11794212792901863,0.5719928266480565,0.0544183176297713,31911.914336302194
1684965029448048353,143,1684965029448048353,camera_1,144,0,0.22941802087678675,-0.1117526546126839,0.5168417247464889,0.9733481759750405,0.04519044526167538,-0.19116688510422758,0.11834852775873586,0.5886576953926124,0.05601862746502683,31901.118068240816
1684965029458263874,144,1684965029458263874,camera_1,145,0,0.2294350650020995,-0.11143088650830467,0.5168818209070764,0.973353988745982,0.04512172471747212,-0.19098867078713647,0.11861437594899882,0.5390527950949036,0.05128921067362636,31907.032836997423
1684965029467454671,145,1684965029467454671,camera_1,146,0,0.22936404944862876,-0.11113960788667247,0.5167424581147421,0.973333084037365,0.04528995929188244,-0.1909709128668855,0.11875031597616933,0.5487171944696456,0.052166594369759456,31931.21394597437
1684965029478444576,146,1684965029478444576,camera_1,147,0,0.22940672329848782,-0.11095223114637401,0.5168614167133251,0.9733097942790955,0.045118188527638214,-0.19130667352540115,0.11846581823047132,0.5395794173819013,0.05130708790776593,31918.450566392974
1684965029488300800,147,1684965029488300800,camera_1,148,0,0.2293598289306043,-0.11078337737291458,0.5167783886301025,0.9732679691065417,0.045096077413592985,-0.19170670698807504,0.11817081961687226,0.5473668862250634,0.052021782236583075,31927.109277756877
1684965029497486829,148,1684965029497486829,camera_1,149,0,0.22939705014755501,-0.11068576174469841,0.5168938987372667,0.973280975803227,0.04499087641966105,-0.19145151412206007,0.1185170068761431,0.5588390730554238,0.05313187601751241,31919.38937205728
1684965029507158517,149,1684965029507158517,camera_1,150,0,0.22935080874976901,-0.11079609740080341,0.5168091308388644,0.973281279619143,0.045114048204893266,-0.19152383894782202,0.11835071825797676,0.4936073796125129,0.04691699838095822,31927.1021154623
1684965029517575502,150,1684965029517575502,camera_1,151,0,0.2293974182999744,-0.11097934042054217,0.516930890749927,0.9733775391960576,0.045102753263385975,-0.1912270416433684,0.11804290059556784,0.5443650968954898,0.05175458041286629,31921.266919113943
1684965029527740955,151,1684965029527740955,camera_1,152,0,0.22936950067054998,-0.11117751951018925,0.5168758728279429,0.9734125662114111,0.045029297124169136,-0.1913078969606429,0.1176504436996082,0.5546308087650687,0.05272199072665725,31925.850927096923
1684965029538058042,152,1684965029538058042,camera_1,153,0,0.2293488170777986,-0.11143130923689039,0.5168551868928716,0.9734097466245868,0.04493139098791621,-0.19122367076696817,0.11784796569544702,0.5834747501066886,0.05548141860820896,31920.887562610224
1684965029547574758,153,1684965029547574758,camera_1,154,0,0.2293257875153972,-0.11210789049041803,0.516810307843131,0.9734670125001155,0.044933341319606086,-0.1917621155945143,0.11649146507221925,0.5751410937518813,0.05469246336470704,31911.376744197805
1684965029558142185,154,1684965029558142185,camera_1,155,0,0.2293891103611556,-0.112547120614011,0.5169526890709969,0.9736108333900398,0.04497450455798353,-0.1908953371534981,0.11669708350412411,0.5528055130271241,0.05260479737931936,31902.456280355105
1684965029567543029,155,1684965029567543029,camera_1,156,0,0.22938875907130035,-0.11299150744545763,0.5169589836291357,0.9737749885758893,0.045009696523396696,-0.19067796593898056,0.11566465384148977,0.5328991123242304,0.050696889459162224,31909.873066793414
1684965029577959060,156,1684965029577959060,camera_1,157,0,0.22933846665962226,-0.1134707819209464,0.5168538616462557,0.9737238683478985,0.04500289458694441,-0.19089981494531966,0.11573170845642816,0.5648047241265886,0.05375451235182495,31899.831887852873
1684965029588102817,157,1684965029588102817,camera_1,158,0,0.22928406583486455,-0.1139416167527331,0.5167191009626245,0.973799498426829,0.04484404862709549,-0.19137934137633936,0.11435687937656104,0.515834987454582,0.04906861524957085,31907.082631099758
1684965029597926855,158,1684965029597926855,camera_1,159,0,0.22938034120703274,-0.11453468740911345,0.516919908587791,0.9739333175793556,0.0449923890101778,-0.19095515175891434,0.11386706221184857,0.545843955478631,0.0519702644721942,31883.230239730095
1684965029607818603,159,1684965029607818603,camera_1,160,0,0.22916416154313035,-0.11557938805176919,0.5164122954260117,0.973895296437245,0.044960875452466194,-0.19175536506021018,0.11285544393862446,0.5388464626739733,0.051271820523263636,31898.53677124636
1684965029617978096,160,1684965029617978096,camera_1,161,0,0.22930010038261356,-0.11622340475290067,0.5166955972250916,0.9743084257895274,0.04492872366725626,-0.19021649196962506,0.11190257998783684,0.5553136430680752,0.05285565016545675,31900.32523639198
1684965029628171205,161,1684965029628171205,camera_1,162,0,0.22911203157617638,-0.11673749413842906,0.5162799694560345,0.9741137072884039,0.04511483410581152,-0.19156024626580206,0.1112286342046522,0.6192856574780308,0.058917463322203094,31902.86214144517
1684965029638440608,162,1684965029638440608,camera_1,163,0,0.22920226831297133,-0.11796621348465919,0.5164344231219464,0.9744091887975329,0.04524810794150823,-0.19049742710986922,0.11040865808063983,0.5147184446104802,0.049020637075954616,31880.57810418377
1684965029648087739,163,1684965029648087739,camera_1,164,0,0.22908951492198998,-0.1184859242012555,0.516164296842334,0.9744848573462295,0.04527798878115871,-0.1905384118399544,0.10965527870713815,0.5420727708842605,0.05158852015559801,31901.791026863255
1684965029657166957,164,1684965029657166957,camera_1,165,0,0.22891606740891,-0.11949937290734618,0.5157264165535712,0.9744266471402163,0.045214642674488575,-0.19167112427024532,0.10821518170698023,0.5360197022091597,0.050992226820410054,31901.20937230018
1684965029668248414,165,1684965029668248414,camera_1,166,0,0.22893311208173966,-0.12000941373429667,0.5157438371324968,0.9745707425083339,0.04526324487275062,-0.19129260577520876,0.10756507558717612,0.5430004873778671,0.05166306557639175,31898.875711116016
1684965029676926136,166,1684965029676926136,camera_1,167,0,0.228760537668467,-0.12039425700155351,0.515336841137194,0.9744852282371852,0.04558128100385484,-0.19199015657609764,0.10696105154426176,0.5786291445838287,0.05500345745477902,31918.9314698862
1684965029687553644,167,1684965029687553644,camera_1,168,0,0.22875232873574397,-0.12082001592886914,0.5153034270893789,0.9745745405532688,0.04554179762287873,-0.19213902256657603,0.10589148021357848,0.5917636505910195,0.05624449635693646,31916.815177729586
1684965029697147846,168,1684965029697147846,camera_1,169,0,0.22870323410209087,-0.12117859076497038,0.5151672329081228,0.9745966071291061,0.045568072381860156,-0.19174726383353252,0.10638604684915261,0.5917100409278646,0.05624862693881146,31920.536607098296
1684965029707509756,169,1684965029707509756,camera_1,170,0,0.22869723037970516,-0.12150992556623531,0.5151330456954215,0.9746795664752524,0.04583893736218722,-0.19176547006074318,0.10547293022146388,0.5666124051786028,0.05384838216438374,31923.1300375422
1684965029717831134,170,1684965029717831134,camera_1,171,0,0.22863834599959093,-0.12197708641222607,0.5149508966218705,0.9746705284091869,0.04558759384426731,-0.19217619394157529,0.10491636107002857,0.5598500575870277,0.053204005019453764,31919.396068776136
1684965029728018522,171,1684965029728018522,camera_1,172,0,0.22870908957157263,-0.12217702498435627,0.5150948631215182,0.9748883698693146,0.04567563294109539,-0.19092023434211672,0.10514688282460914,0.523754881345667,0.04978474936311855,31925.916294381022
1684965029736883878,172,1684965029736883878,camera_1,173,0,0.22860037568611422,-0.12222230650676269,0.5148391374409101,0.9747322438189162,0.04573085391004827,-0.19174139939763074,0.10507605634699572,0.5746241131564602,0.05459871665600061,31930.835639701225
1684965029747947216,173,1684965029747947216,camera_1,174,0,0.22862088793834667,-0.12227492693653405,0.5148682920796648,0.9747917085840616,0.04573055705101247,-0.19141997409468556,0.1051105824603783,0.6078954630065709,0.05776222357196942,31933.366154511103
1684965029757299423,174,1684965029757299423,camera_1,175,0,0.22860803622712678,-0.12225079037269841,0.5148214981740291,0.9747359211745542,0.04575466314477012,-0.19158774038199966,0.10531159721427373,0.5166689945035614,0.049096162326906376,31931.181788493413
1684965029767574787,175,1684965029767574787,camera_1,176,0,0.22853967055201632,-0.12213971048164586,0.514650030384919,0.9746120172836001,0.045850895874701085,-0.19204489897122975,0.10558346410782878,0.5284241976332851,0.050197759772942684,31937.904667175746
1684965029778433561,176,1684965029778433561,camera_1,177,0,0.22868907045949174,-0.12189379151852177,0.5149707054585608,0.974628834013035,0.04584483387022804,-0.19162189919008493,0.10619762176521706,0.5874181283288635,0.055855928974994945,31914.205616524207
1684965029788154840,177,1684965029788154840,camera_1,178,0,0.22866226940144124,-0.12132904888520898,0.5149113978950983,0.9743954141419153,0.04577510033564358,-0.1925320663344431,0.10672216508981013,0.541980981011875,0.05152924012367615,31910.888172379346
1684965029797624111,178,1684965029797624111,camera_1,179,0,0.22881963693962706,-0.1210699258668301,0.5152564827856406,0.9744932476127809,0.04578121045553148,-0.19134917727744888,0.10794666961775645,0.5536870246869512,0.05269323467394103,31896.868228300467
1684965029807691574,179,1684965029807691574,camera_1,180,0,0.228927748424377,-0.12072104854058223,0.5154976608591539,-0.9746033698249712,-0.045726443851604195,0.1905957578231545,-0.10830799120246819,0.5823908628663048,0.055434368460182036,31899.350115557205
1684965029818175554,180,1684965029818175554,camera_1,181,0,0.22886045256306808,-0.12025473255234695,0.5153476095648085,0.9742891869677042,0.045569840921671594,-0.19190348379213915,0.10888995667472642,0.6090709996060468,0.05797335664936382,31889.818996800474
1684965029827960014,181,1684965029827960014,camera_1,182,0,0.22903383138826172,-0.11935138769803429,0.5157422306264504,0.9742873629367356,0.045459740470543734,-0.1914652085416237,0.10972064680927285,0.5351807824918069,0.05096096361137938,31880.184820218954
1684965029838179349,182,1684965029838179349,camera_1,183,0,0.22910613237040825,-0.11883474072660247,0.515909735863102,0.9743219190972906,0.04562130700687237,-0.19057543082908418,0.1108895823685277,0.5357878950308076,0.051025320539489986,31888.434913356323
1684965029847878456,183,1684965029847878456,camera_1,184,0,0.22919520588652284,-0.1183169619798935,0.5161192972855128,0.974263227348755,0.045563094758240094,-0.19079094992014292,0.11105846055393076,0.5365306519670412,0.051109026760128996,31875.85154891164
1684965029858383655,184,1684965029858383655,camera_1,185,0,0.22923378050518617,-0.1177526695684339,0.5162333187481684,0.9743220845349911,0.04569425772255415,-0.19011227404244357,0.11165049779103219,0.5535087009193376,0.052704500882667295,31894.860766930506
1684965029867825508,185,1684965029867825508,camera_1,186,0,0.22925199719988712,-0.11714842219579936,0.5162755993255884,0.9741157441635709,0.045279559101086345,-0.1907389021708973,0.11254754417091663,0.5752790833357722,0.054797164802383704,31881.02518488653
1684965029878024339,186,1684965029878024339,camera_1,187,0,0.22926604030584724,-0.11654926400653995,0.5163179584554539,0.9740461631407034,0.04546158813501479,-0.19068176996336547,0.11317145699669487,0.5116000564885326,0.04871779911441851,31890.136582735468
1684965029888188600,187,1684965029888188600,camera_1,188,0,0.22938149505816707,-0.11539179001213305,0.5166097147344723,0.9739091535776127,0.04517681991326459,-0.1902847506991639,0.1151161551287203,0.4763421245152131,0.04538664531342716,31879.31019378116
1684965029897660493,188,1684965029897660493,camera_1,189,0,0.22939915654881804,-0.1148091233735955,0.5166675839161469,0.9738426437364165,0.045296387953449445,-0.19057169091261097,0.11515716695692907,0.5201252618571743,0.04953962976152546,31884.64707406424
1684965029907522916,189,1684965029907522916,camera_1,190,0,0.22939081703973146,-0.11423674609465514,0.5166773782925095,0.9737670075973303,0.04545912938489308,-0.1904635153375669,0.11590915320096572,0.5643869298510253,0.05373884440994127,31895.246887196903
1684965029918154954,190,1684965029918154954,camera_1,191,0,0.22938628213710965,-0.1131687181923275,0.516700014485855,0.9735313156839676,0.04529086091970754,-0.19105019517709443,0.11698435033195173,0.5256126681924798,0.05003663782191949,31895.333499969685
1684965029928107738,191,1684965029928107738,camera_1,192,0,0.22938035435830573,-0.11269539068102588,0.5167081122733781,0.9734649614133696,0.04512097410404367,-0.19153579395044285,0.1168079887342586,0.5289664120646193,0.050334580159847604,31899.11246611734
1684965029937403917,192,1684965029937403917,camera_1,193,0,0.22939989962309884,-0.11188787812528932,0.516791043420815,0.9733706756962305,0.04518852565559542,-0.19152299098343772,0.11758600583613571,0.5113488038186914,0.04864626786176522,31904.140865699843
1684965029947290897,193,1684965029947290897,camera_1,194,0,0.22935773641720505,-0.111531515310036,0.5167132232821702,0.9732626084730006,0.04521368012676726,-0.19194316106521375,0.11778557211313494,0.6378789261216298,0.06066317351693408,31909.975473125924
1684965029957873582,194,1684965029957873582,camera_1,195,0,0.22946893372122745,-0.11129174342497578,0.5169719533750701,0.9734524265513727,0.04498435821260557,-0.19055386295453605,0.11855802828382558,0.5555719780386426,0.052853544145794566,31914.279830415377
1684965029968244075,195,1684965029968244075,camera_1,196,0,0.22936573150939404,-0.11102184545039415,0.5167593368805671,0.9733062822077373,0.04509112509016732,-0.19143522045045616,0.11829720125235696,0.5522888695704751,0.052499217722369144,31926.98229376274
1684965029978048086,196,1684965029978048086,camera_1,197,0,0.22941364448308516,-0.11087072203288137,0.5168967147908146,0.9733765894144822,0.04523579412598436,-0.19099418889548497,0.1183763401942215,0.5580754004186019,0.05305256378808939,31927.68716747572
1684965029988110542,197,1684965029988110542,camera_1,198,0,0.2292584907913531,-0.11068547128887987,0.516560269165184,0.9731858190057557,0.0449713836038105,-0.1923059108759373,0.11792104555604818,0.5506671554758213,0.05229830475112784,31942.642193438016
1684965029997854232,198,1684965029997854232,camera_1,199,0,0.22935930414681932,-0.1106837381151826,0.5168211879422075,0.9732672916946071,0.04509530924080117,-0.191595913090453,0.11835623384070881,0.5511172653641552,0.05238082210398236,31926.74845073338
1684965030007713317,199,1684965030007713317,camera_1,200,0,0.22929358000349537,-0.11071631759449568,0.5166898987762213,0.9733109575567678,0.044946590769374406,-0.19140193750889825,0.11836757240045911,0.5655189537792467,0.05372095080372853,31947.017150100437
1684965030017339944,200,1684965030017339944,camera_1,201,0,0.22935471080548,-0.11086434764362223,0.5168314940852512,0.9734112357671675,0.04507885863306018,-0.19089665796924316,0.1183086157587444,0.5046807714388706,0.0479576393736957,31941.31821740163
1684965030028107881,201,1684965030028107881,camera_1,202,0,0.2293101808084137,-0.1110234674532143,0.5167354845518235,0.9733736724650903,0.04518759444277259,-0.1911823489080017,0.11811470918695074,0.5273866663337685,0.050109247445160564,31943.009578469224
1684965030038680553,202,1684965030038680553,camera_1,203,0,0.2293875394321642,-0.11129165899721005,0.5169407098122553,0.9734576799276691,0.04499775900883773,-0.1909495120611013,0.11787124720494636,0.5406951432232745,0.05141265690649543,31922.34426221637
1684965030048170566,203,1684965030048170566,camera_1,204,0,0.22928424666253366,-0.11153493045483082,0.516714060766261,0.9733952695623341,0.04505787219067936,-0.1916022150276569,0.11730314805585867,0.5205658540362492,0.04947261789419964,31931.96908518427
1684965030057571649,204,1684965030057571649,camera_1,205,0,0.22932316096891558,-0.11227450680751482,0.5168027798813225,0.9735548520914221,0.04497810230890743,-0.19138785663176208,0.11635552679541607,0.5681902657379396,0.05402436902424545,31919.73638044203
1684965030068113327,205,1684965030068113327,camera_1,206,0,0.22927983807872013,-0.11315966009068862,0.5167216114262535,0.9737054792946341,0.04503709529121774,-0.19150423768261657,0.11487134798955066,0.5844849261338823,0.05556592923068032,31921.336400174303
1684965030077307462,206,1684965030077307462,camera_1,207,0,0.2292268923249572,-0.11363817047156398,0.5165912603902577,0.9736326474137112,0.04513281138453986,-0.19215045108484113,0.11437089391356332,0.5521341192652471,0.05250107258763752,31910.029031834212
1684965030088030099,207,1684965030088030099,camera_1,208,0,0.2293549969401935,-0.1142453559304103,0.5168734290929138,0.9739257591635007,0.04502034898396809,-0.19098279074275706,0.11387430550949128,0.5566632100963034,0.05297135894636957,31897.676336852248
1684965030097746372,208,1684965030097746372,camera_1,209,0,0.22929090784379982,-0.11477618989588768,0.5167162880092919,0.9739657515226409,0.04508483135314116,-0.19077124526826122,0.11386134032933766,0.5565153298666701,0.05295844177493405,31903.938656123333
1684965030108012437,209,1684965030108012437,camera_1,210,0,0.22925063777238636,-0.11593245270213304,0.5165923999661687,0.9740570524569417,0.04517713992147989,-0.1914772380951343,0.11184074337587754,0.5103365833638236,0.04857084072192472,31888.188903216964
1684965030117626905,210,1684965030117626905,camera_1,211,0,0.22915175471187557,-0.11649066175834803,0.5163626972218114,0.9741031663379833,0.04528738457689969,-0.19139657303906066,0.11153217453902281,0.5205198988551274,0.0495232802621711,31901.74237092585
1684965030127760887,211,1684965030127760887,camera_1,212,0,0.22908466171514727,-0.1170780772367367,0.5161970038800392,0.9741352913306669,0.04535745261835663,-0.19170811992792428,0.11068483378399675,0.562979920883663,0.053552462227921115,31903.32293797958
1684965030137713193,212,1684965030137713193,camera_1,213,0,0.22915264771358737,-0.11770052217893985,0.5163217286935763,0.9742483499837932,0.045121147512306205,-0.19131975072815138,0.11045808065663375,0.5251007540500723,0.04999717508511121,31879.495888753907
1684965030148091316,213,1684965030148091316,camera_1,214,0,0.22902858763907746,-0.11822251095679259,0.5160228855864222,0.9743235197402188,0.04518071395295678,-0.19138282369755194,0.10965854623003207,0.5405284304288216,0.05142294109353195,31904.026082418623
1684965030157628774,214,1684965030157628774,camera_1,215,0,0.22902187471307336,-0.11878302616437114,0.5159961212061377,0.9743730504684941,0.04540428053282871,-0.19187993239973633,0.10824833196077575,0.5519925254047848,0.0525141555186115,31892.703630478474
1684965030167711257,215,1684965030167711257,camera_1,216,0,0.22890420196586395,-0.11978274742282581,0.5156868840741852,0.9744564655409297,0.045418675464727526,-0.19161872775526648,0.10795371164513871,0.5398032818338834,0.05135453261991169,31899.632267400164
1684965030178028106,216,1684965030178028106,camera_1,217,0,0.2289891852888469,-0.1203096689487973,0.5158584999029701,0.9747278158387359,0.045432474110353546,-0.19043772608742482,0.10758739614429962,0.5324452671920881,0.05067550657446616,31897.07061892794
1684965030188036680,217,1684965030188036680,camera_1,218,0,0.2288538684263823,-0.12067381412185278,0.5155308606321786,0.9745505535145791,0.045467979330673335,-0.19174074063429056,0.1068614518010436,0.5428759406786412,0.0516509146131156,31893.414584540405
1684965030197678327,218,1684965030197678327,camera_1,219,0,0.22869426994752093,-0.12133334859388635,0.5151304422006464,0.9746246382578307,0.04553993716196036,-0.19191826480898236,0.10583150880898587,0.5810416789609008,0.055224947300100406,31921.229022879037
1684965030207501649,219,1684965030207501649,camera_1,220,0,0.22870389635764687,-0.12164408085394747,0.5151153959515097,0.9746688812933174,0.045727703867388315,-0.19177301599490076,0.10560615168478202,0.548071333731059,0.05210065107541344,31916.26929586463
1684965030218271255,220,1684965030218271255,camera_1,221,0,0.22858997479308651,-0.12226616176529298,0.5147835524407437,0.9747365517441884,0.04586024205016425,-0.19187303279074713,0.10473887616654344,0.5385400803643279,0.051156303039369425,31935.477374870206
1684965030247426509,221,1684965030247426509,camera_1,222,0,0.22858997479308651,-0.12226616176529298,0.5147835524407437,0.9747365517441884,0.04586024205016425,-0.19187303279074713,0.10473887616654344,0.5385400803643279,0.051156303039369425,31935.477374870206
1684965030258312225,222,1684965030258312225,camera_1,223,0,0.22857549774192065,-0.12220836939786814,0.5147331905547594,0.9746714020447875,0.04576937763303657,-0.19199039836898069,0.10516895474070727,0.5950357299298048,0.05653067607906124,31933.52456508858
1684965030266952753,223,1684965030266952753,camera_1,224,0,0.2286709208595294,-0.12215863539148673,0.514933715188147,0.9747256129980651,0.04585246415788998,-0.19159389440333,0.10535326536734108,0.5229753042804077,0.04971053162100356,31920.602683816785
1684965030278030633,224,1684965030278030633,camera_1,225,0,0.22870717149329564,-0.1217997436866764,0.5149830634857852,0.9746317771145637,0.045690428525386184,-0.19177962506496826,0.10595215519098342,0.5518319088150747,0.0524649636811948,31914.94998263474
1684965030288120269,225,1684965030288120269,camera_1,226,0,0.22874415020575758,-0.12154713242598186,0.5150790477738797,0.9746316299231441,0.045613728192740434,-0.19150284255452327,0.10648584435150114,0.5292248799232766,0.05032388622482984,31914.713584534693
1684965030297684192,226,1684965030297684192,camera_1,227,0,0.2287523837127028,-0.12121425490176727,0.5150852259774554,0.974474875915987,0.04578235187592807,-0.1919651337533476,0.10701439103358845,0.5507509141461924,0.0523795485721475,31906.501869403975
1684965030306556463,227,1684965030306556463,camera_1,228,0,0.22886167338994534,-0.12088963412857234,0.5153391616420286,-0.9745801395760458,-0.04562614093786772,0.19088755277483896,-0.10804512484460413,0.6315660501713865,0.06009688772407952,31906.135245424826
1684965030317096948,228,1684965030317096948,camera_1,229,0,0.22892626969759408,-0.1204920336442102,0.5154731355549553,0.9744186025058211,0.045680137541806234,-0.19178030958199555,0.10789821583973552,0.5523536876426078,0.052576559670705604,31883.57118595681
1684965030327407360,229,1684965030327407360,camera_1,230,0,0.22888822348526155,-0.12000838693510832,0.5153994760984381,0.9742320505849631,0.04574068694500835,-0.19249424295348816,0.10828512178771428,0.5381913908058777,0.05121421072398516,31885.720080090585
1684965030338168859,230,1684965030338168859,camera_1,231,0,0.2290895653418373,-0.1190649848074681,0.5158636682609267,0.9743229236665965,0.04565517380431889,-0.19098083450961412,0.11016699311810471,0.55180771893356,0.052546130216187856,31884.22517906432
1684965030347794771,231,1684965030347794771,camera_1,232,0,0.22908742952440503,-0.11791987631741134,0.5158744502021737,0.9740668846220304,0.04535938810990438,-0.19163566952676356,0.11140915742458656,0.5191958460491151,0.049426163762596356,31889.63327484858
1684965030357857227,232,1684965030357857227,camera_1,233,0,0.2292314744584145,-0.11738041643450331,0.5162020593858894,0.9740825390756185,0.04541643044773982,-0.19081737849563293,0.11264671756174854,0.555529847741127,0.05292692289596592,31876.36959056917
