%time,field.header.seq,field.header.stamp,field.header.frame_id,field.image_seq,field.transforms0.fiducial_id,field.transforms0.transform.translation.x,field.transforms0.transform.translation.y,field.transforms0.transform.translation.z,field.transforms0.transform.rotation.x,field.transforms0.transform.rotation.y,field.transforms0.transform.rotation.z,field.transforms0.transform.rotation.w,field.transforms0.image_error,field.transforms0.object_error,field.transforms0.fiducial_area
1681939023544413328,0,1681939023544413328,camera_1,1,0,0.6525976141076939,0.49197504029716715,1.8132216094520959,-0.9806445322089555,-0.04431491490270373,0.15211885586827265,0.11503192363501899,0.061391497059958056,0.005758378283595398,20590.81821667555
1681939023564416885,1,1681939023564416885,camera_1,3,0,0.65232675675408,0.48823620461543005,1.8122726034275256,-0.9806302246639407,-0.04439594219581647,0.15231566314418346,0.11486209798294032,0.07720139349112287,0.007229797516363887,20635.077388405574
1681939023574499845,2,1681939023574499845,camera_1,4,0,0.6523945376149974,0.4869914388819448,1.8123445159895046,-0.9806009438527278,-0.044295519630114626,0.1528222347743643,0.11447733581109712,0.0664196395809995,0.006219704122844708,20638.091500811628
1681939023584461212,3,1681939023584461212,camera_1,5,0,0.6525308555574822,0.4863200140015779,1.812622177594319,-0.9807042258904551,-0.04444345987804257,0.1520160495846147,0.11460855493094693,0.057029056377359666,0.005340886489492393,20647.724177438067
1681939023594391822,4,1681939023594391822,camera_1,6,0,0.6522381317441729,0.4859425678266244,1.8118544928928486,-0.9806073410373547,-0.04462590323631164,0.15241514343049214,0.1148363858585557,0.06136875771335326,0.005742304366100072,20657.914932815358
1681939023604499340,5,1681939023604499340,camera_1,7,0,0.6523937558008999,0.4864911552431395,1.8123242960134056,-0.9806432100841266,-0.04429255997732193,0.15270109927428885,0.1142778978060876,0.062386451885686256,0.005841426852612704,20645.947255594372
1681939023614472866,6,1681939023614472866,camera_1,8,0,0.652305472163341,0.4874004644249824,1.8120942710126882,-0.9806003891513512,-0.044415075149489974,0.15260779679109987,0.11472156839169391,0.05799051468784455,0.005429046006407742,20641.199743196426
1681939023624531507,7,1681939023624531507,camera_1,9,0,0.6521724903678032,0.48876098117222677,1.81192080217397,-0.9805231241227629,-0.0445055375538907,0.1531077258447962,0.11468079383319167,0.0700907746941084,0.006562377454101904,20628.667334752976
1681939023634640455,8,1681939023634640455,camera_1,10,0,0.6524851427100462,0.4906595511995362,1.8128987449060103,-0.9806486442948381,-0.04448346859906055,0.1522621098830576,0.11474191630808758,0.07026359929295722,0.006587041187177629,20607.72649223247
1681939023644409894,9,1681939023644409894,camera_1,11,0,0.652370106949361,0.4924110061924924,1.8126771822045178,-0.9805356207736574,-0.044445437988502576,0.15313583763802743,0.1145596554941065,0.06038530764635652,0.005661741529254713,20588.521266642547
1681939023654446840,10,1681939023654446840,camera_1,12,0,0.6523305257606883,0.49427204924020823,1.812709318050388,-0.9805414291290814,-0.04456653275075216,0.1527775215585853,0.11494067524810749,0.06898717524018139,0.006470221625189644,20576.327491449363
1681939023664608478,11,1681939023664608478,camera_1,13,0,0.6524202059309238,0.49597937974745193,1.8130697378992868,-0.9806294387765215,-0.044374718795118256,0.1523573116300922,0.11482176505153432,0.06464414441143163,0.006066893703112344,20564.636221936853
1681939023674365282,12,1681939023674365282,camera_1,14,0,0.6522212768115084,0.49700971689787976,1.8125293803288889,-0.9806232344748143,-0.04446523124944999,0.15282075912286053,0.11422228678852192,0.06137650886375923,0.005758476970475163,20567.32681651496
1681939023684357643,13,1681939023684357643,camera_1,15,0,0.6520869326672286,0.49771486105434815,1.8123241587024541,-0.9805270219464526,-0.044371937107002705,0.153372927797717,0.11434437217873669,0.05928715197660495,0.005562017752962028,20557.2239532183
1681939023694367885,14,1681939023694367885,camera_1,16,0,0.6521811238492539,0.4979900255419633,1.812590236653345,-0.9806116658568488,-0.04435660260491306,0.15262996359811776,0.11461826557247794,0.05627147691848222,0.005280443597207838,20558.314146210265
1681939023704372882,15,1681939023704372882,camera_1,17,0,0.6522384863559333,0.497601552051835,1.8126765692286064,-0.9806211360954179,-0.04441690557268103,0.15236511610806341,0.11486599729970534,0.06870599390822463,0.0064473144271355405,20560.48059376352
1681939023714477300,16,1681939023714477300,camera_1,18,0,0.6522824654286253,0.4966900418685365,1.8127588215296984,-0.9806035215865683,-0.0444994632015608,0.152519059018159,0.11478008478394343,0.05364208744140342,0.0050332941030331365,20564.059436749903
1681939023724790334,17,1681939023724790334,camera_1,19,0,0.6523544597873934,0.49534164149524185,1.8128586452304731,-0.980615289408005,-0.04431918407629935,0.15255964301836641,0.11469533305315646,0.05236436062841676,0.004912815995301777,20571.8841871493
1681939023734668254,18,1681939023734668254,camera_1,20,0,0.6522945535961102,0.49364476818359754,1.8126183062809764,-0.9806313660222049,-0.044399772949731194,0.15198415548102154,0.11528920425676194,0.06651588820386678,0.006236599092261991,20591.48267720727
1681939023744678735,19,1681939023744678735,camera_1,21,0,0.6523964724936155,0.49185919301134184,1.8127193801171437,-0.9806509488459256,-0.044376878987893345,0.1521603974041871,0.11489831417683875,0.06003787335066591,0.005628320587071152,20603.122649911445
1681939023754739046,20,1681939023754739046,camera_1,22,0,0.6525662400728619,0.4900601001948881,1.8130502241369026,-0.9806149827905705,-0.0443505333517236,0.15257613383347426,0.11466389624679826,0.06842348079953808,0.0064151414991931496,20604.553842713354
1681939023764384984,21,1681939023764384984,camera_1,23,0,0.6522079668732742,0.4881507284024023,1.8119716026738646,-0.9805548067041508,-0.04440690062490832,0.15307916462353977,0.11448610214534378,0.06581196605111472,0.006161573753514467,20634.23012887017
1681939023774399042,22,1681939023774399042,camera_1,24,0,0.6523226882879378,0.4869758382013969,1.8121645398900652,-0.9806025099998966,-0.04443758725108647,0.1526799473676898,0.11459865572075616,0.06554608327860478,0.006136535861408892,20642.933949073762
1681939023784391164,23,1681939023784391164,camera_1,25,0,0.6525196773464155,0.4863479142353818,1.8126652087471835,-0.9806970072141593,-0.04437902402816619,0.15226031044644509,0.11437080103877367,0.06067399782477878,0.0056827274303658856,20645.688874502317
1681939023794730663,24,1681939023794730663,camera_1,26,0,0.6523634927227423,0.4860409369088254,1.8121730409589654,-0.9806217402376542,-0.04434671673680692,0.15285938170947638,0.1142295089341493,0.053708838124293834,0.005027782661113282,20650.030712721407
1681939023804812431,25,1681939023804812431,camera_1,27,0,0.652574095741856,0.48659936672150284,1.812788401339498,-0.9806831398261492,-0.044358457228989755,0.15222329356905293,0.11454682635489864,0.052212076901923865,0.004890906482806122,20640.010023101524
1681939023814746379,26,1681939023814746379,camera_1,28,0,0.652393430769876,0.48747720863216004,1.8123875453935643,-0.9806027525334265,-0.044420823335075264,0.1529955612015708,0.11418139266411975,0.05623079676297493,0.0052663488222934466,20634.44469186059
1681939023824677944,27,1681939023824677944,camera_1,29,0,0.6520846280355973,0.4886772082344222,1.8116847045172058,-0.9804991202504634,-0.044434902623885705,0.15313926071081335,0.11487115149513698,0.060632849126704975,0.005675232439369579,20631.735990708807
1681939023834783077,28,1681939023834783077,camera_1,30,0,0.6523981375040551,0.49057840976947664,1.8126064491514933,-0.9806508623853791,-0.04427351570722897,0.15280125704186584,0.11408557207710161,0.0620799941389123,0.005818542554817266,20612.826680057442
1681939023844383239,29,1681939023844383239,camera_1,31,0,0.6525338199141205,0.4925492367227125,1.8131137542833917,-0.9805894116248676,-0.0443818283460628,0.15249358870628224,0.11497984399596338,0.06120930782344658,0.005741343025201978,20583.914026916667
1681939023854449748,30,1681939023854449748,camera_1,32,0,0.6523802509975769,0.49428154221524756,1.8127733769611873,-0.9805992245186936,-0.044332641065549086,0.15271321288685152,0.11462308850866414,0.06701958483608905,0.006286343934079362,20579.014274014742
1681939023864481449,31,1681939023864481449,camera_1,33,0,0.6522149385894314,0.4958038897291721,1.8124986838565122,-0.980561277842774,-0.044452877149028916,0.15311038108894073,0.1143710335326168,0.05436545138945803,0.005099377005472982,20570.894598636078
1681939023874454498,32,1681939023874454498,camera_1,34,0,0.6522927168617436,0.49711842830696823,1.8128309260982305,-0.9806131145441626,-0.04460858164082386,0.15294195612759304,0.11409098160615805,0.05758758583397139,0.0054047960913245225,20560.321612925854
1681939023884444236,33,1681939023884444236,camera_1,35,0,0.6520497403842438,0.4976632447653736,1.8121739243081658,-0.9805783515529155,-0.044450213549654574,0.1524923245908202,0.11504940643934147,0.05606941175938118,0.005258652107301165,20566.55815865466
1681939023894532680,34,1681939023894532680,camera_1,36,0,0.6522200958802008,0.49801375939260184,1.8126842397223217,-0.9806458060766405,-0.044325291521173045,0.1523400179390696,0.11472397521958176,0.06508097054029349,0.006107668423064898,20559.43321822817
1681939023904719829,35,1681939023904719829,camera_1,37,0,0.6522648949184143,0.49762448798029046,1.8127424173141766,-0.9806061458286361,-0.04437068780246321,0.15249121150456998,0.11484450026410592,0.0724940764484927,0.006803413358249391,20557.150631818222
1681939023914790391,36,1681939023914790391,camera_1,38,0,0.6524133355435102,0.49680422105616634,1.8131006326126688,-0.9806478109561256,-0.04446462121848106,0.15223473899149945,0.11479265033548985,0.06660813158669043,0.006252304368304644,20560.247451609823
1681939023924562215,37,1681939023924562215,camera_1,39,0,0.65217062293532,0.49520248509623804,1.8123581932910278,-0.9805614962673942,-0.04424778387248598,0.15308098756584726,0.11448797712462065,0.057831928599625826,0.005423123643242839,20577.40622021556
1681939023934566259,38,1681939023934566259,camera_1,40,0,0.6522433439006811,0.4936013904736893,1.8124411729811096,-0.9805684899734933,-0.0444272450082221,0.1529878998863061,0.11448300686329087,0.07026179526292253,0.006587511323255756,20588.296759741675
1681939023944351911,39,1681939023944351911,camera_1,41,0,0.6526031807881565,0.4920084450356979,1.8133109164076442,-0.9806982617831083,-0.044397481657216895,0.15181164038842085,0.11494785252741359,0.05823500770202372,0.00546265760002725,20594.777080688167
1681939023954393863,40,1681939023954393863,camera_1,42,0,0.6524586369846496,0.4899749508334439,1.8127318739868334,-0.98062826786917,-0.04434543656566228,0.1527803600885643,0.11427967484605794,0.060156111838296056,0.005638265837789749,20612.63131918339
1681939023964331626,41,1681939023964331626,camera_1,43,0,0.6524565399787348,0.48831623465681023,1.8126570632811771,-0.9806340010345493,-0.044417504865538415,0.15258983847661728,0.11445690223910121,0.05939096691145096,0.005564358473144848,20626.73843517573
1681939023974708557,42,1681939023974708557,camera_1,44,0,0.6524958486862099,0.487092542467653,1.8126692081055602,-0.9806376962044885,-0.044365851884851246,0.15243080134743628,0.11465701360956308,0.054332884450559504,0.005089337810427382,20635.08564890507
1681939023984676361,43,1681939023984676361,camera_1,45,0,0.6524622996777145,0.4862914492964992,1.8124790537015658,-0.9807700896037422,-0.044305725266820147,0.15190740386129264,0.11424173799172853,0.06709576475259382,0.006282894113713012,20656.62391681294
1681939023994361400,44,1681939023994361400,camera_1,46,0,0.6524355401069095,0.4860930145598762,1.812393646774997,-0.9806512627075,-0.04433209820442733,0.15264293779162832,0.11427116679775305,0.055223063623998314,0.00517067598218705,20648.07218391658
1681939024004410266,45,1681939024004410266,camera_1,47,0,0.6525140361985519,0.4865727356501592,1.8126305574134038,-0.9806414717142077,-0.044415020370794,0.15234530864213494,0.11471929591131472,0.05711637205968145,0.005349388667537777,20639.769350787385
1681939024014368057,46,1681939024014368057,camera_1,48,0,0.652287773365484,0.4873954756032564,1.812097792374274,-0.9805563340002087,-0.04430066422660905,0.1533532011246207,0.11414693472005462,0.06572528841206804,0.006153882538170035,20635.828084202716
1681939024024565219,47,1681939024024565219,camera_1,49,0,0.6522668577069968,0.48880425906640496,1.8121518730189226,-0.9805815527647045,-0.04446308881406389,0.15281996060630906,0.11458146338286951,0.06585162560804747,0.006166967757490638,20628.949630745683
1681939024034886121,48,1681939024034886121,camera_1,50,0,0.6524518493044438,0.49059570600052976,1.8127611554897938,-0.9806280720199834,-0.04423605594683672,0.15287983847236716,0.1141906769806608,0.0509669451857917,0.004777657388213406,20607.251553448383
1681939024044861078,49,1681939024044861078,camera_1,51,0,0.6525843978319045,0.4926008259343444,1.8133248384033354,-0.9806368911575548,-0.04448963826007972,0.15205738703673552,0.11511086324015614,0.05998091732908506,0.005627099742090858,20584.872899316604
1681939024054707765,50,1681939024054707765,camera_1,52,0,0.6523532770408169,0.49426941171327093,1.8127357644934403,-0.9805262225587956,-0.04428994730606105,0.15331796382512716,0.11445667045097364,0.07876634437707253,0.007388387589752729,20572.363290068923
1681939024064831972,51,1681939024064831972,camera_1,53,0,0.6521859175218191,0.49576660771745684,1.8123861259782463,-0.9805801556879742,-0.044357955645604734,0.15296408483212556,0.11444177031731527,0.06542830268153921,0.006136333333874747,20574.770230291466
1681939024074813127,52,1681939024074813127,camera_1,54,0,0.652338857165446,0.4971462443302119,1.8129459853363918,-0.9806439408284512,-0.0444217405656789,0.15238828197217363,0.114638483063629,0.06266461250197608,0.005881629103550433,20560.41105310433
1681939024084821224,53,1681939024084821224,camera_1,55,0,0.6522122819940482,0.4977693450945437,1.8126168090543888,-0.980615810018428,-0.04457013114394545,0.15217932142588522,0.11509817844810125,0.05110466844053008,0.004795171681858394,20560.954376626643
1681939024094684123,54,1681939024094684123,camera_1,56,0,0.652109006914531,0.49792854012087057,1.8124220275719547,-0.9806255992898197,-0.04447567496209937,0.15261779639144668,0.11446902017037892,0.0483533783844905,0.004536506232518597,20564.260935224185
1681939024104436874,55,1681939024104436874,camera_1,57,0,0.6521634308230988,0.49753121751895757,1.8124981986001656,-0.980605363499516,-0.04440053065399735,0.1522184729206154,0.11520091343102157,0.05219152549398132,0.004896315914749864,20563.56911417178
1681939024114478111,56,1681939024114478111,camera_1,58,0,0.6524381637495121,0.4968385435619348,1.813243065466933,-0.9806692821662851,-0.044381338925748116,0.15234964033734458,0.11448861454180825,0.057454257330391556,0.00539395753526521,20558.964795296553
1681939024124384880,57,1681939024124384880,camera_1,59,0,0.6523062109776476,0.4953052653322478,1.8127853710133583,-0.9805944951266355,-0.04428127123634575,0.15300289959709373,0.11429662225942439,0.06611629705002997,0.006202980054554788,20571.223824704997
1681939024134473323,58,1681939024134473323,camera_1,60,0,0.6524358824901827,0.493768338833202,1.813032848329102,-0.9806454356900111,-0.0444298921357541,0.15227452703291958,0.11477361439832068,0.06529241648968309,0.006125024934359576,20583.176604063185
1681939024144597053,59,1681939024144597053,camera_1,61,0,0.6525409565411823,0.491961888707874,1.8131036110107173,-0.9806087200994049,-0.044380154022458033,0.15237503229765723,0.114972994769372,0.059335942729376256,0.005564935388925122,20590.20667037368
1681939024154471874,60,1681939024154471874,camera_1,62,0,0.6526453230589937,0.4900980095109006,1.8132460064384264,-0.980714140832704,-0.04441949813586964,0.15199908591329256,0.11455548890233186,0.0648068762384355,0.0060771308819412145,20610.221616239112
1681939024164386272,61,1681939024164386272,camera_1,63,0,0.6523790119281393,0.4882661458108486,1.812434855433319,-0.9806180555301386,-0.044351115982224326,0.1525887159360485,0.11462064145872385,0.07148577470798045,0.006695928754257464,20629.936155813284
1681939024174391269,62,1681939024174391269,camera_1,64,0,0.6523644849483873,0.4869650616745051,1.8122132263319526,-0.9805718535559522,-0.044382351277776115,0.15277911836634842,0.11475011067577161,0.0652044841699535,0.00610489124793574,20638.582461673363
1681939024184699535,63,1681939024184699535,camera_1,65,0,0.652559061101254,0.4863497172009754,1.8127419226275152,-0.9806894412893475,-0.04449076774248477,0.15213738285838302,0.1145556985325194,0.06709822367702145,0.006284840022815025,20643.82036800735
1681939024194709062,64,1681939024194709062,camera_1,66,0,0.6523996142773999,0.4860683866483119,1.8123140980601125,-0.980628734808444,-0.04445749842199269,0.15249675269049803,0.11461045205783874,0.05323804229556117,0.004984120110855283,20648.7120078961
1681939024204680204,65,1681939024204680204,camera_1,67,0,0.6524646162564645,0.48653895216839377,1.8125049502027262,-0.9806265071891439,-0.04427706252303826,0.15261589546003812,0.11454075076269375,0.06722211449232418,0.006295327137743177,20640.32808514638
1681939024214657306,66,1681939024214657306,camera_1,68,0,0.652405671877839,0.48748722344421097,1.8124117111637321,-0.980599263143732,-0.04452298660659151,0.15220456536055882,0.1152239518025777,0.06802739450358786,0.006370490401011333,20635.039613359782
1681939024224690914,67,1681939024224690914,camera_1,69,0,0.6522494700425603,0.48880817686138195,1.812100442739867,-0.98055911017213,-0.04444472920960943,0.152902932496711,0.1146699208067715,0.06202741457673256,0.005808492877660294,20627.75728753756
1681939024234753370,68,1681939024234753370,camera_1,70,0,0.6525060349725103,0.4906601908551576,1.8129251097931762,-0.9806290119270237,-0.044316723869867805,0.1524304549111676,0.11475070966249322,0.05757255708158482,0.005397457261874619,20604.441776937692
1681939024244807481,69,1681939024244807481,camera_1,71,0,0.6524748052288006,0.4925133753260686,1.8129925362178054,-0.9806234022424555,-0.044290983574445934,0.15242131505865508,0.11482070572954077,0.059464197445777245,0.005576909040361382,20589.77293657371
1681939024254652738,70,1681939024254652738,camera_1,72,0,0.6522221180309313,0.49418375922370217,1.8124339854816303,-0.9805259095706437,-0.04449143352715476,0.1531534319183414,0.11460139307615236,0.07114307480514981,0.006670759361615219,20580.548846920654
1681939024264695882,71,1681939024264695882,camera_1,73,0,0.6522748155637633,0.495826936777832,1.8126486859523743,-0.9805994605949901,-0.04432380746084583,0.15245524773194633,0.11496736672629865,0.056199650425696746,0.0052718236223382045,20571.326122345054
1681939024274693012,72,1681939024274693012,camera_1,74,0,0.652222408886633,0.4970453020365382,1.8126197558598722,-0.980630223206685,-0.04450347215738599,0.152676965223576,0.11433962825574964,0.05132091845734976,0.004815303410921125,20566.658029954826
1681939024284804105,73,1681939024284804105,camera_1,75,0,0.6520406896462483,0.49764545924240994,1.812115783537032,-0.9805334547613661,-0.04452017735620737,0.1527243374300714,0.11509724001233834,0.0642720730684232,0.006027739877651244,20563.54732589936
1681939024294745683,74,1681939024294745683,camera_1,76,0,0.6522346141355357,0.4980072993340978,1.8127358845873234,-0.9806389760163751,-0.0443282875701705,0.1527216449882209,0.11427292238646607,0.05321486227330752,0.004994547881035243,20557.493537354632
1681939024304713964,75,1681939024304713964,camera_1,77,0,0.6521139328711031,0.49749111478866104,1.8123079623321852,-0.9805793342005129,-0.04440306866925408,0.15277343539921065,0.11468571954674839,0.054448823095299304,0.005107488146908972,20564.462735671084
1681939024314711570,76,1681939024314711570,camera_1,78,0,0.6522729831037994,0.49670552389569916,1.8127602284692566,-0.980667439905995,-0.04446769808004174,0.15221979114503087,0.11464349662953911,0.06333847387577407,0.005943147869368324,20570.087577164937
1681939024324780702,77,1681939024324780702,camera_1,79,0,0.6523705187282962,0.49535366079322285,1.812940885005289,-0.9806224930777263,-0.04431584981702453,0.15285978738302453,0.11423448221196594,0.054885141260456294,0.005150069624020356,20570.522956637542
1681939024334669113,78,1681939024334669113,camera_1,80,0,0.6524857497455965,0.49379694448734596,1.8131816590633218,-0.9806768057750381,-0.044437462814125014,0.15220723881887685,0.11459175783905604,0.07374479285499547,0.006919195103929167,20582.859975108637
1681939024344654083,79,1681939024344654083,camera_1,81,0,0.6525680287616747,0.4919657632734742,1.813160228905372,-0.9806643570433805,-0.04432378767427056,0.152275999322633,0.11465095159305508,0.06209676562866662,0.005824379403575559,20593.859063745826
1681939024354698657,80,1681939024354698657,camera_1,82,0,0.6525393992244038,0.49002351400171307,1.8129496320453593,-0.9805861303202856,-0.0444094631158206,0.15284279809098145,0.11453261404932583,0.0640599674807163,0.006005522227909076,20604.022367995
1681939024364690065,81,1681939024364690065,camera_1,83,0,0.652383946332692,0.48826660035140135,1.8124221263799785,-0.9806074519739266,-0.04433002730544805,0.1527626421658921,0.11448776777803465,0.06780817013350315,0.006351527522813116,20628.787871793655
1681939024374804735,82,1681939024374804735,camera_1,84,0,0.6523904413143726,0.48701037568886973,1.81235130129548,-0.9806147273810373,-0.04440092366937535,0.15245005447594792,0.11481417730838245,0.06277953590324614,0.005878481351084252,20640.185980254435
1681939024384749412,83,1681939024384749412,camera_1,85,0,0.6524765566798598,0.4862854475557787,1.8124936731913637,-0.9807050988223123,-0.04432413095238341,0.1523111693406852,0.11425492660409862,0.06616775454313029,0.006196276517582702,20649.830620899615
1681939024394805669,84,1681939024394805669,camera_1,86,0,0.6523279735917127,0.48601117234872293,1.8120775069516855,-0.9806270229914871,-0.044362373258002546,0.15262191086591329,0.11449530095776218,0.05496345077699516,0.005144468305456517,20653.17162775725
1681939024404707431,85,1681939024404707431,camera_1,87,0,0.6525444627104334,0.4865634716154538,1.812697248092495,-0.9806502914604514,-0.044386862124977056,0.1526746942723504,0.11421580476481598,0.050817775656469166,0.004760100583224116,20638.59037564654
1681939024414654493,86,1681939024414654493,camera_1,88,0,0.6523139015490871,0.4874087434941176,1.8121501343079955,-0.980594693190041,-0.044388909444495334,0.15240081698806704,0.11505504503161693,0.06537094514351338,0.006120137430514715,20639.790666032233
1681939024424402713,87,1681939024424402713,camera_1,89,0,0.6522800606703701,0.4888144794751602,1.812179462262664,-0.9806185005991757,-0.04454962779828174,0.1524358493934571,0.1147431861391095,0.0583173189079389,0.005461258632035314,20632.539581196732
1681939024434413194,88,1681939024434413194,camera_1,90,0,0.6524249973337248,0.49064210327449737,1.8127499122308068,-0.9806395399146919,-0.04447592455465139,0.15210973618646753,0.1150244019684243,0.057595077756559476,0.005398228561181531,20610.516828203406
1681939024444470167,89,1681939024444470167,camera_1,91,0,0.6524695695779974,0.492512079677593,1.812949311019734,-0.9805727103210206,-0.04429327323621013,0.1526352294127151,0.11496848464617658,0.06928809820965398,0.006498100718583029,20585.564140721282
1681939024454702377,90,1681939024454702377,camera_1,92,0,0.6523689841260782,0.4942827704594669,1.812803378980622,-0.9805613743671904,-0.044423903243032574,0.15300195717920212,0.11452645554243696,0.07988447343814187,0.00749355323309473,20575.11605870614
1681939024464637517,91,1681939024464637517,camera_1,93,0,0.6523990954402401,0.49595102877190494,1.8129811570937453,-0.9806616199178844,-0.04443790861055901,0.1526718581293402,0.11410242431116588,0.06707431918766815,0.006294896734436734,20569.316096427734
1681939024474700450,92,1681939024474700450,camera_1,94,0,0.6520691290364649,0.4969331317171368,1.8121982160772312,-0.9806064407331245,-0.04447515205457316,0.15264272807342924,0.11460002970652695,0.06170376550289802,0.005786768800134911,20573.861396173997
1681939024484653234,93,1681939024484653234,camera_1,95,0,0.6520138527373065,0.4976397310784175,1.8120967193356696,-0.9805822080544336,-0.04451043609138023,0.1523659045742741,0.11516069402929859,0.07138481514994055,0.0066944690718959915,20569.105367795797
1681939024494684934,94,1681939024494684934,camera_1,96,0,0.6521744283616326,0.49797828226065566,1.8125850398885701,-0.9806077573801649,-0.04447923876879489,0.1524198784222866,0.11488343721410578,0.05847490609448869,0.005486954801892298,20558.950885214028
1681939024504666805,95,1681939024504666805,camera_1,97,0,0.6523144545221058,0.49762989437874816,1.8128746512256946,-0.9806931120291607,-0.04433989098788667,0.15197760280716124,0.11479460932783932,0.061314097096328624,0.005754733155633292,20562.925784196945
1681939024514755249,96,1681939024514755249,camera_1,98,0,0.6523202874692545,0.4967318777582891,1.8128532902699541,-0.980621641588086,-0.04434557999828296,0.15265364965498113,0.11450558427743904,0.057807230346952565,0.005424934852826319,20562.605256220788
1681939024524675846,97,1681939024524675846,camera_1,99,0,0.6523307022507826,0.49532490645061095,1.8128361795900139,-0.9805650096625164,-0.044160179675795386,0.15345128720565474,0.11399492449876096,0.05302461081009824,0.004975239530275208,20566.288636543264
1681939024534669399,98,1681939024534669399,camera_1,100,0,0.6523785737353189,0.49369666617878105,1.8128274480914524,-0.9805828726040885,-0.04443976548371857,0.15297058337101452,0.11437804781686883,0.06833115151675884,0.006409233876999075,20581.070968601325
1681939024544685125,99,1681939024544685125,camera_1,101,0,0.6525795751446513,0.49196118444728365,1.8131729983034044,-0.9806380697567326,-0.044400588060153845,0.15214781218710174,0.11501568228020327,0.0675362912734272,0.006334462654313992,20591.58916298765
1681939024554776430,100,1681939024554776430,camera_1,102,0,0.6524380986257581,0.4899534868035281,1.812650218790154,-0.9805611570375891,-0.044304307219221684,0.1529475503306968,0.1146472525565633,0.05812137680186425,0.005446978550880482,20607.864860886475
1681939024564723014,101,1681939024564723014,camera_1,103,0,0.6523372726748035,0.4882268992314272,1.812315859948222,-0.980560196308313,-0.044408332076491995,0.15308175916876476,0.1144359055007771,0.06673904033959843,0.0062507696960204875,20626.953757236668
1681939024574785232,102,1681939024574785232,camera_1,104,0,0.6522645115320156,0.48692258387087006,1.8120166170464291,-0.9805420559390055,-0.04435714115108074,0.15320423368824398,0.11444729504802442,0.07647176175669301,0.007158698189464975,20639.887901603128
1681939024584731340,103,1681939024584731340,camera_1,105,0,0.6525485971309047,0.4863307558337426,1.8126707448161552,-0.9807642249557434,-0.04443851112548918,0.15157230917456108,0.11468473685456564,0.06970654780161568,0.006528351901425212,20652.603331246304
1681939024594837665,104,1681939024594837665,camera_1,106,0,0.6523639765790638,0.4860224709427515,1.8121725258753822,-0.9806687038511561,-0.044483892210359116,0.15217625267632628,0.1146841956945317,0.05682324431836605,0.00531882181326775,20655.98135856493
1681939024604376077,105,1681939024604376077,camera_1,107,0,0.6524546909300154,0.4865010146399483,1.8124563812762229,-0.9806680944824094,-0.044346436887434774,0.15250832606266287,0.11430088574107143,0.05787505554326344,0.005419669720344536,20645.739489208732
1681939024614428758,106,1681939024614428758,camera_1,108,0,0.6524105470606684,0.4874806061456382,1.8124355803528103,-0.9805994059232005,-0.04437429416304096,0.15286521187504412,0.11440259664446473,0.06501882192969788,0.006089620285273524,20633.078328637523
1681939024624390602,107,1681939024624390602,camera_1,109,0,0.652253362418842,0.4887937211254373,1.812072884432149,-0.9805805910184071,-0.044363249898612934,0.15280253471157043,0.11465161124966432,0.0670679718896281,0.006280372959457733,20629.990395818197
1681939024634373426,108,1681939024634373426,camera_1,110,0,0.652494827992763,0.4906654615882679,1.8129012277466456,-0.9806098255634136,-0.044399693824156004,0.15260529926389876,0.11465016281448898,0.05316017442964949,0.004983727252859769,20603.308641892454
1681939024644304037,109,1681939024644304037,camera_1,111,0,0.6523744635805179,0.49239483448512755,1.8126679517398725,-0.9805790050120409,-0.044470253611516485,0.15267153723055424,0.11479814106936916,0.051148260274203494,0.004795293265976176,20593.466514754342
1681939024654371976,110,1681939024654371976,camera_1,112,0,0.6522651162966909,0.49418153240040646,1.8124825938090225,-0.9805522935506887,-0.0444079695775062,0.15307399893135432,0.11451411573099189,0.06966726845712401,0.006532793677342423,20581.43131626641
1681939024664368629,111,1681939024664368629,camera_1,113,0,0.6524794668175791,0.49597803546973734,1.813187390781567,-0.9806503741825033,-0.044419138121139394,0.15220733750600018,0.11482469330952211,0.057065058441367,0.005356165981381586,20564.324091869046
1681939024674385309,112,1681939024674385309,camera_1,114,0,0.6521760574790971,0.49700740307365116,1.8124678655711963,-0.9806759792526486,-0.04434238879665185,0.15238577709357953,0.11439821332630763,0.05872937815729529,0.005509467673151532,20573.822487744623
1681939024684534788,113,1681939024684534788,camera_1,115,0,0.6521585240892221,0.49774225611715756,1.812466823611038,-0.9806341370414999,-0.04451283527512338,0.1527368585984997,0.11422236554241307,0.057771336767473265,0.005420482716217429,20564.98370215216
1681939024694446086,114,1681939024694446086,camera_1,116,0,0.6522668414753292,0.4980567267244779,1.8128628393511024,-0.9806438522904517,-0.04429862404490322,0.15249263736149324,0.11454807908999351,0.06498039689904545,0.006099517778279278,20555.22958922805
1681939024704737186,115,1681939024704737186,camera_1,117,0,0.6523661597034166,0.4976657094335947,1.8130022428001011,-0.9806289755961102,-0.04443149871725608,0.15260768177361955,0.11447073690137491,0.050913973682327196,0.004779547047106466,20553.75118375855
1681939024714698314,116,1681939024714698314,camera_1,118,0,0.6522834130762429,0.49670429508734365,1.8127859097309962,-0.9805611241323376,-0.04440256114418653,0.15313791332776672,0.11435503445751914,0.06592250138055533,0.006186361158967002,20558.385906433512
1681939024724861383,117,1681939024724861383,camera_1,119,0,0.6524269433448624,0.4953950419667642,1.813071653420073,-0.9805951738458676,-0.04430530569491939,0.15292942974008075,0.11437978159118146,0.06675252513377927,0.006264626354514267,20564.695007044586
1681939024734663248,118,1681939024734663248,camera_1,120,0,0.6522258338341744,0.4935710821687844,1.8123744891534517,-0.9805882813028189,-0.04426894855360898,0.15305802862982476,0.11428089358021958,0.06433255436422769,0.0060312762380891095,20590.96143617377
1681939024744696855,119,1681939024744696855,camera_1,121,0,0.6525546511043145,0.4919681454563762,1.8132002631166166,-0.9806388098904552,-0.04436020511092613,0.15257464282492358,0.11445818059883471,0.05633239402959589,0.005284022867716286,20590.822005074937
1681939024754722833,120,1681939024754722833,camera_1,122,0,0.6525169117224945,0.49002640561788513,1.8129234294704542,-0.9805945717621983,-0.04441728476302645,0.15272652591453825,0.11461238557357992,0.059428719119750895,0.005571042056703139,20605.72728047585
1681939024764696598,121,1681939024764696598,camera_1,123,0,0.6523852266582079,0.48827996887082903,1.8124267663869078,-0.9805707203550533,-0.04455901702139005,0.15261199637495157,0.1149135977459201,0.06263643952843267,0.005866774552861939,20626.426215599753
1681939024774693489,122,1681939024774693489,camera_1,124,0,0.6523920044019571,0.48701047311974355,1.8123843091179843,-0.9806018343366786,-0.04436892122785649,0.1526495833556143,0.11467146997389957,0.059744527155999094,0.0055946094647210485,20638.018402377907
1681939024784737110,123,1681939024784737110,camera_1,125,0,0.6524012476830251,0.4862184084092398,1.8123220345357582,-0.9806269059680227,-0.044383137703299554,0.15284362495788847,0.11419209556236816,0.061390050599584356,0.005747948472356456,20646.45462371583
1681939024794711589,124,1681939024794711589,camera_1,126,0,0.6523729666267243,0.4860420769574917,1.8122130288880238,-0.9806706421291224,-0.04440749626562244,0.15251602366870184,0.11424503694148672,0.05707745035761036,0.005343206851825441,20654.414570153334
1681939024804711341,125,1681939024804711341,camera_1,127,0,0.6525002579060225,0.48654504859440006,1.8125835028460664,-0.9806611887712533,-0.04441180184682766,0.15245126670557987,0.11441082105436796,0.05866860743844882,0.005494674400216046,20642.515861405867
1681939024814651250,126,1681939024814651250,camera_1,128,0,0.6523679803313966,0.48743932422413977,1.8122769347531325,-0.9805975260004524,-0.044308201346122913,0.15291580149716183,0.11437671505924711,0.06674456225300673,0.0062502667714743314,20635.963865258724
1681939024824373245,127,1681939024824373245,camera_1,129,0,0.652305435355021,0.4888488953466056,1.8121928313882725,-0.9805711671107754,-0.044432783463781385,0.15264241994957253,0.11491825623725255,0.08474024351744447,0.007936236988938451,20626.514938974637
1681939024834518194,128,1681939024834518194,camera_1,130,0,0.6525505205614348,0.49069115965646015,1.8130482923697582,-0.9807065438718701,-0.04433631343451573,0.15175829424871623,0.1149712409459343,0.053766324956086464,0.005040930993776488,20609.779280878727
1681939024844440221,129,1681939024844440221,camera_1,131,0,0.6524537632320176,0.4925134746374593,1.8130046010921448,-0.9806037394876036,-0.04452645739589028,0.15249499965042737,0.1147997202797817,0.056767627596855164,0.00532398149521064,20588.93887889123
1681939024854446172,130,1681939024854446172,camera_1,132,0,0.6524848888801378,0.4943489738993128,1.8131246576403417,-0.9806055167092239,-0.04447812089860672,0.1527793640132127,0.11442457468779665,0.071276637390838,0.006688288450447629,20572.581396835907
1681939024864379167,131,1681939024864379167,camera_1,133,0,0.6523619797286505,0.4959285240716273,1.8129171670156645,-0.9806268370621459,-0.04437835731332625,0.15282746609306783,0.11421616979760202,0.06278649136947934,0.005892018705140565,20567.37035598368
1681939024874748706,132,1681939024874748706,camera_1,134,0,0.6523103512924421,0.4971327244428727,1.8128427954976623,-0.980675400449435,-0.044406597499321465,0.15217387088391424,0.11466004566578236,0.07420338780502789,0.006963891976386612,20565.537174050238
1681939024884383201,133,1681939024884383201,camera_1,135,0,0.6520973094235895,0.49771391477647065,1.8123243816832237,-0.9805658066476067,-0.044312260345991505,0.152889454359985,0.11468189552873319,0.06138652047957295,0.005758673645762376,20560.975787689677
1681939024894327402,134,1681939024894327402,camera_1,136,0,0.6521673529500911,0.4979697018498733,1.8125294974217192,-0.9806300040344897,-0.0443282725272632,0.15249193681560202,0.11465604497056381,0.06484673812519758,0.006084744681437297,20561.30129931878
1681939024904704093,135,1681939024904704093,camera_1,137,0,0.6521662549265835,0.49753937497369516,1.812452978062901,-0.9805995228555837,-0.04440965984326247,0.1525487582066418,0.11480955647340058,0.059940094666671946,0.005623393611208006,20563.22389776707
1681939024914702415,136,1681939024914702415,camera_1,138,0,0.6522903517482012,0.4967118635529729,1.8127749131671969,-0.9805819339756814,-0.044315762063039194,0.1525063778653218,0.11505211299095724,0.058447984571103,0.005484294542472669,20560.82882283785
1681939024924729347,137,1681939024924729347,camera_1,139,0,0.6523274317120143,0.49531944584614296,1.8127986368690847,-0.980551469656502,-0.04447163759241542,0.15276550787602058,0.11490773867631632,0.058969301186152734,0.005532121089724013,20567.799061808037
1681939024934776782,138,1681939024934776782,camera_1,140,0,0.6523386667817191,0.49362434869880534,1.812659067153961,-0.9806119622134685,-0.04444594976709336,0.1528385661236557,0.1143027113344959,0.06821646919706836,0.006397289809329747,20587.674135253183
1681939024944386482,139,1681939024944386482,camera_1,141,0,0.6525590117505797,0.4919644880782684,1.813142719763315,-0.9806523052016803,-0.04426906324068204,0.15245750665063898,0.11453390331379384,0.0727135756314965,0.006820319862063291,20592.64033861539
1681939024954740047,140,1681939024954740047,camera_1,142,0,0.652278344217383,0.48985194829335904,1.8122112059387159,-0.9805694043984404,-0.044359753846233155,0.15302206272542238,0.11445568450560455,0.06890063588798512,0.006454302323887657,20618.521592260568
1681939024964729547,141,1681939024964729547,camera_1,143,0,0.6525070089501553,0.48836840736123566,1.8127537474177515,-0.980589116867884,-0.0444237739209209,0.15248388191956566,0.11497903263476496,0.06687477878585923,0.006265994260769596,20620.220626090766
1681939024974789142,142,1681939024974789142,camera_1,144,0,0.6524321278743991,0.48702464549936636,1.8124894340783928,-0.9806509582055094,-0.044412949809369995,0.1523096552798482,0.11468634168191358,0.06085660339158494,0.005699233283537619,20640.85677753284
1681939024984741449,143,1681939024984741449,camera_1,145,0,0.652636935101246,0.486415242578602,1.8129377619567784,-0.9807118018373352,-0.0443376504703249,0.15197842072015047,0.11463461136649626,0.06678128850762732,0.006256448187091919,20640.85103341972
1681939024994755983,144,1681939024994755983,camera_1,146,0,0.6523674020979675,0.4860560671868261,1.812260779841277,-0.9806585434435141,-0.044467329968068334,0.152241046732903,0.1146915054676075,0.06672876479569823,0.006246664636997349,20653.137746726345
1681939025004720449,145,1681939025004720449,camera_1,147,0,0.6523883947543054,0.4864609311108227,1.8122922494312843,-0.9806477211304789,-0.04435010472254062,0.15234102272920597,0.11469667844588007,0.05332295020343736,0.004992205219363905,20648.011800360575
1681939025014389991,146,1681939025014389991,camera_1,148,0,0.6524879848488117,0.48754816561343434,1.8126430169019194,-0.9806077193920257,-0.044399733656076745,0.15234979265587845,0.11500741279478695,0.07128511916380376,0.006677511537552746,20629.841650517665
1681939025024552106,147,1681939025024552106,camera_1,149,0,0.6523310923543769,0.48887105740294584,1.8123539730040266,-0.9805805626868502,-0.04435384553748692,0.15309346166577026,0.11426674258929538,0.07353539882751647,0.006888502049032423,20623.402187328316
1681939025035079717,148,1681939025035079717,camera_1,150,0,0.6526652077655496,0.49079654177786886,1.8133919357448864,-0.9807307522310962,-0.04440023943613127,0.15173795848188343,0.11476673003093128,0.055231573001947254,0.005180336883690416,20604.495381694745
1681939025044803619,149,1681939025044803619,camera_1,151,0,0.6525429823202964,0.4925310423698942,1.8131513764634501,-0.9806222346258019,-0.04436380957400053,0.1527089493399313,0.11441967553299087,0.05703387696121353,0.005350181213236478,20585.996953099446
1681939025054834842,150,1681939025054834842,camera_1,152,0,0.6523783076744041,0.49430151208098405,1.8128575489037184,-0.9805884595201583,-0.04434824472210296,0.15291119509679915,0.11444506393908066,0.059142352096387185,0.0055480111620789495,20576.443136341404
1681939025064744234,151,1681939025064744234,camera_1,153,0,0.6524837842448041,0.49599538058548864,1.813247456613826,-0.9806758187287714,-0.044409975940731705,0.15260017947369303,0.11408715011864504,0.06471094374137465,0.006074777161351031,20564.919226352416
1681939025074692726,152,1681939025074692726,camera_1,154,0,0.6522285434660672,0.49705722712382006,1.812645070306216,-0.9805928032443577,-0.044450565238602135,0.15258756879151944,0.11479954410029075,0.06507330168096814,0.006105686934744396,20562.43726554095
1681939025084430932,153,1681939025084430932,camera_1,155,0,0.6521384455876755,0.49771138581576474,1.8123725048659862,-0.9805979232478925,-0.04455345674544383,0.1524971940660966,0.11483600574697482,0.05828537019260693,0.005467804334156796,20564.10468909359
1681939025094414949,154,1681939025094414949,camera_1,156,0,0.6521607490092439,0.49795746127208673,1.8125389396657103,-0.9806284946400341,-0.04437317166372127,0.1524786937879986,0.11466919846771566,0.051688641324290074,0.004849985121308709,20561.493848322323
1681939025104557991,155,1681939025104557991,camera_1,157,0,0.6522298332314308,0.49760665976859253,1.8127032348738954,-0.9806045278036606,-0.04432422160341222,0.15281538523665747,0.11444466551649916,0.06000845678499899,0.005631585269056992,20557.725138631347
1681939025114399909,156,1681939025114399909,camera_1,158,0,0.6522891961346645,0.4967071197141207,1.8127843839254572,-0.9806383047134282,-0.04434193180974169,0.15242037694222188,0.11467491924978551,0.06095393115538172,0.005719627458291635,20566.09751084709
1681939025124805688,157,1681939025124805688,camera_1,159,0,0.6522236866830627,0.4952337592112094,1.812535933610429,-0.9805511652385047,-0.04430823678206306,0.15344149468255697,0.11406971645558862,0.060460957553004846,0.005671091047717573,20572.443181275165
1681939025134741783,158,1681939025134741783,camera_1,160,0,0.6523744221752502,0.4936703503406918,1.812808168096559,-0.9805661094167394,-0.04449929908874382,0.1527131359807783,0.11484169775323787,0.08289931775652803,0.007775180067242191,20580.566774895357
1681939025144813299,159,1681939025144813299,camera_1,161,0,0.6524947189855425,0.4919075440779475,1.8130014381675625,-0.9806318292273356,-0.044435892219178125,0.1525264047073899,0.11455288235558574,0.057586666778661304,0.005400446455064333,20594.951792380765
1681939025154693126,160,1681939025154693126,camera_1,162,0,0.6524061220779394,0.4899523739015252,1.812604419798815,-0.98056234749228,-0.04425596492353993,0.15271622240747457,0.11496367975454948,0.06949221959803253,0.006512092309475662,20609.21296105837
1681939025164703845,161,1681939025164703845,camera_1,163,0,0.6524738997409885,0.4883374314028013,1.8126946382343307,-0.9806512168420431,-0.044339092029732144,0.15249532213110534,0.11446577022118651,0.07730614325555507,0.007243302918012248,20627.0319329779
1681939025174729108,162,1681939025174729108,camera_1,164,0,0.652324262059709,0.48694584440830413,1.8121335412224535,-0.9806080520772332,-0.04426898988167931,0.15310074431563492,0.11405378917926773,0.07050887803779915,0.006601551768453791,20642.829475017148
1681939025184736728,163,1681939025184736728,camera_1,165,0,0.6526541338717133,0.48642713085162187,1.8129942223731792,-0.9807728256774895,-0.04424789258959515,0.1518326803184525,0.11433995627639158,0.07028043149330188,0.006584808707294173,20644.989276891683
1681939025194789409,164,1681939025194789409,camera_1,166,0,0.6523234844415193,0.48600196334125695,1.8120697085812278,-0.9806268389201113,-0.04437629253679456,0.15250803160329754,0.11464313213937717,0.06845464419166092,0.006407136637549611,20653.53781911166
1681939025204432964,165,1681939025204432964,camera_1,167,0,0.6524288867593915,0.4865082288529054,1.812407154714961,-0.980657547775137,-0.04435966998832204,0.15247413145387845,0.11443178276845702,0.055828933342127136,0.005227672810926447,20646.033911615257
1681939025214359998,166,1681939025214359998,camera_1,168,0,0.6523921048640885,0.48746266346945627,1.8123850582493852,-0.9806239562187115,-0.0445015906272591,0.15279540916635775,0.11423584314606292,0.05817839807423297,0.005448616428600283,20637.113607690088
1681939025224338531,167,1681939025224338531,camera_1,169,0,0.6523621279389787,0.4888988032673523,1.8124194159461402,-0.9805780179008781,-0.04433775586463257,0.15303875984032195,0.11436805585918573,0.07418296790274326,0.006949618103819556,20621.53384917864
1681939025234362840,168,1681939025234362840,camera_1,170,0,0.652219611366261,0.490463005370803,1.8121503163037622,-0.980576215565485,-0.04445461376451759,0.15282852271918063,0.11461900115509673,0.057755578542128205,0.0054101653356736544,20617.275116415527
1681939025244389772,169,1681939025244389772,camera_1,171,0,0.6524739113225244,0.4924847915284037,1.8129333321426029,-0.9806042858767089,-0.04435582800698,0.15265927183666164,0.11464266991109866,0.06250228139106184,0.005861702072392383,20589.06347254361
1681939025254508256,170,1681939025254508256,camera_1,172,0,0.6522767204330451,0.49420745330960286,1.8125564028397259,-0.9805480354751754,-0.044275975292135394,0.15267946330982762,0.11512675458435923,0.055304769513895735,0.005185904195432859,20579.601922876776
1681939025264380693,171,1681939025264380693,camera_1,173,0,0.6523187040578541,0.49587336078448957,1.8127940813602559,-0.9805613827921086,-0.044531428749824284,0.15255881990064832,0.11507446676326158,0.05265640455763787,0.004940163482246021,20565.325020358774
1681939025274361371,172,1681939025274361371,camera_1,174,0,0.6522380160226462,0.4970436805450188,1.8126089359590978,-0.9806015056289789,-0.04434711012535281,0.15320543919060103,0.11393908189960375,0.061252083818544634,0.005747621392865953,20562.658667230342
1681939025284377574,173,1681939025284377574,camera_1,175,0,0.6522186526387739,0.4977823255946947,1.8126463337528493,-0.9805555467107786,-0.04453464488954508,0.1527689402948754,0.1148439641446999,0.052776072538108565,0.004952479332171766,20553.893516872253
1681939025294452428,174,1681939025294452428,camera_1,176,0,0.6521906842899432,0.49800147653148014,1.8126411958508415,-0.9806577869732365,-0.04436611742800911,0.15271798816168275,0.11410157126423118,0.055841634632088244,0.005240622484643473,20561.485937308178
1681939025304418087,175,1681939025304418087,camera_1,177,0,0.6522144610973406,0.4975824926351069,1.812622122362903,-0.9806116431713546,-0.04443540038678857,0.15249210740307761,0.11477132764331854,0.06134298155666329,0.005756051588185965,20560.87053746421
1681939025314304351,176,1681939025314304351,camera_1,178,0,0.6524145486185687,0.4968150705296034,1.8131546914439942,-0.9806840452232013,-0.04433478553154689,0.152153439517125,0.11464100958923207,0.06130748080613557,0.00575505757559319,20562.246156837205
1681939025324367523,177,1681939025324367523,camera_1,179,0,0.6523366751937724,0.49531992999583935,1.8128211055977999,-0.9805932290576649,-0.04426422340828996,0.15324149562893127,0.11399404225542326,0.06686645606532693,0.006273927341993648,20569.694007875856
1681939025334526062,178,1681939025334526062,camera_1,180,0,0.6521923004836573,0.4935426035702131,1.8123103050662446,-0.9805633247996871,-0.0445236643275598,0.15296911824002257,0.11451488216603216,0.0620892057340825,0.005820290807539778,20591.50030079065
1681939025344391822,179,1681939025344391822,camera_1,181,0,0.6526171347306602,0.49198981893005167,1.8133353304607291,-0.9807040440298433,-0.04439895936279263,0.1521325573540252,0.1144726841824573,0.06087269535055384,0.005710611494279601,20594.371348975572
1681939025354719161,180,1681939025354719161,camera_1,182,0,0.6525747257720863,0.49008081205923154,1.8131071632277787,-0.9806590563783599,-0.04442839922121517,0.15233968636063971,0.11457116760026126,0.056168635390349664,0.00526632367655697,20608.096696202934
1681939025364748001,181,1681939025364748001,camera_1,183,0,0.6523328319094713,0.48824731571610924,1.8123342940393177,-0.9805779689467198,-0.04442405090483839,0.15307236463642931,0.11428998950976585,0.06874747198889963,0.006439087046054515,20628.243148743633
1681939025374813556,182,1681939025374813556,camera_1,184,0,0.652329357614659,0.48694286512313256,1.812179652718888,-0.980603851967372,-0.04432036758006787,0.15305516120862125,0.11413110072072133,0.060942231182707474,0.005705956225638742,20641.984450347198
1681939025384335041,183,1681939025384335041,camera_1,185,0,0.6525092762985818,0.48632371154648174,1.8126119658349455,-0.9806805422335115,-0.04432496929816412,0.1525594835605595,0.11413402278478527,0.06005405269388575,0.005624594613708705,20644.697641831062
1681939025394395112,184,1681939025394395112,camera_1,186,0,0.6522237217399147,0.48591575714326973,1.8117595417545524,-0.980564656224203,-0.04437198587162361,0.1532401300529149,0.11419958132622374,0.06154937868996058,0.0057593823056567356,20653.71473571704
1681939025404427289,185,1681939025404427289,camera_1,187,0,0.6524328026628888,0.4865020354439986,1.8124200845483889,-0.9805841474785959,-0.0444046695255481,0.152572173154411,0.1149116487434701,0.0536402139114216,0.0050226072030761576,20639.197704713435
1681939025414737701,186,1681939025414737701,camera_1,188,0,0.652405877780633,0.4874791376799883,1.8123915408590534,-0.9806170710228138,-0.04442502657032873,0.1526045091830042,0.11457940831527222,0.05904111151176039,0.005529268557066564,20636.092361578947
1681939025424380779,187,1681939025424380779,camera_1,189,0,0.6522886914187754,0.4888385910379798,1.812213411238797,-0.9805532084953306,-0.04448481744555994,0.1528348099648998,0.1147955887189964,0.0681376917345915,0.006381419399802261,20624.893725935486
1681939025434442043,188,1681939025434442043,camera_1,190,0,0.652413159504882,0.4906018463793364,1.8126331315666286,-0.9806438471982384,-0.0443116405264852,0.15240907458605396,0.11465425177424653,0.061049774405546486,0.005721724145557471,20612.08459975296
1681939025444315433,189,1681939025444315433,camera_1,191,0,0.6524528077812439,0.49247713976466184,1.812907795809349,-0.9805849408965593,-0.044271975601649825,0.15290653975138396,0.11451094255343779,0.056420527122099884,0.0052912793198596365,20587.41481705541
1681939025454816579,190,1681939025454816579,camera_1,192,0,0.6521948238896156,0.49414559419966714,1.8123326926827867,-0.9805293379163879,-0.0444537808938778,0.15316939792700907,0.1145653280367445,0.07407719490583986,0.006945179942076829,20582.9303040207
1681939025464839458,191,1681939025464839458,camera_1,193,0,0.6522342252380227,0.4958207136422424,1.8125847584022678,-0.980591888694186,-0.04439306100016579,0.15284123848431094,0.11449174547008457,0.06291015967144631,0.005901294962595921,20571.959622549723
1681939025474739313,192,1681939025474739313,camera_1,194,0,0.6524267625184499,0.49720726804388227,1.8131654872610554,-0.9807174352916356,-0.04439490470358674,0.1524791071194485,0.11389699927308015,0.05617919293581508,0.00527451396828039,20561.900831289182
1681939025484328746,193,1681939025484328746,camera_1,195,0,0.6522378326215416,0.4977909283026692,1.8126786736774763,-0.9805701392227533,-0.04462086701272791,0.15248237032513218,0.11506653306557865,0.05500119763019029,0.005161292366878084,20555.08670143469
1681939025494477987,194,1681939025494477987,camera_1,196,0,0.6523483401016715,0.4981155211141353,1.8130633579280098,-0.9806538367955802,-0.0445069425877202,0.15248909010502126,0.11438645828306603,0.05055106834333856,0.004746090477001547,20552.367323095685
1681939025504529953,195,1681939025504529953,camera_1,197,0,0.6523168766210434,0.4976556987474137,1.8129140895228952,-0.9806840021252647,-0.044400812312215175,0.15186877446637587,0.11499274404791987,0.05950471293181181,0.0055849934394116806,20561.638642308186
1681939025514528274,196,1681939025514528274,camera_1,198,0,0.6522183345291165,0.4966600130929172,1.8125938532802335,-0.9806275199264257,-0.04421951408784651,0.15243325766132013,0.11479722860565854,0.06071703843190335,0.005696177722342018,20568.892045199864
1681939025524534940,197,1681939025524534940,camera_1,199,0,0.6524066115269882,0.4953704324093452,1.8130181527257028,-0.9806296368577879,-0.04428635203212752,0.15253970175706372,0.11461183938719238,0.05693062857608311,0.005342203953806319,20569.611549877038
1681939025534468412,198,1681939025534468412,camera_1,200,0,0.6521937700305402,0.49354507874869036,1.8123117160084012,-0.980575955566091,-0.04446298716917229,0.1526972751317725,0.11479277113552665,0.07740433329308871,0.007255819572348773,20592.582689255945
1681939025544366598,199,1681939025544366598,camera_1,201,0,0.6526790808456059,0.49205036236845834,1.8134676834569292,-0.9806584953048358,-0.04429038528470866,0.15248368742841525,0.11443776660709926,0.06859390246972907,0.006436238181584925,20585.881702815008
1681939025554374456,200,1681939025554374456,camera_1,202,0,0.6523423378383153,0.4899152060389067,1.8124560434935337,-0.9804845010433828,-0.04440228762667457,0.15316182279141854,0.11497841582852321,0.06516229473345447,0.006105442067062561,20605.59606613173
1681939025564312934,201,1681939025564312934,camera_1,203,0,0.6523002201925507,0.4881865080100682,1.8121506810637233,-0.9805922548738821,-0.04439605060773311,0.15322086915942612,0.11397888236783672,0.06102335477771703,0.0057147066452644165,20633.05463562184
1681939025574372768,202,1681939025574372768,camera_1,204,0,0.6525144356444349,0.48708719565496633,1.8126716435328512,-0.9806718115548437,-0.04428930986113551,0.15265413722306825,0.11409631651567985,0.0640794779319549,0.006002844727229913,20637.22591002361
1681939025584688425,203,1681939025584688425,camera_1,205,0,0.6524339915358036,0.4862591675925434,1.8124059102916485,-0.9806351209877575,-0.04427449043184669,0.15304170051409946,0.11389805479497572,0.06893976588617079,0.006455810439201216,20644.357933599378
1681939025594654321,204,1681939025594654321,camera_1,206,0,0.6524720354103433,0.48611435595911684,1.8124834211907346,-0.9806490351747662,-0.044549277288893775,0.15243604785901546,0.11448180212139204,0.06075228839472402,0.005688773286862051,20646.945398204152
1681939025604344367,205,1681939025604344367,camera_1,207,0,0.652479999814217,0.4865337662541079,1.812546759163967,-0.9806653691786961,-0.044462021856787784,0.1520721166661315,0.11485919048426653,0.053585363493766636,0.0050179928358793,20644.652431417846
1681939025614435434,206,1681939025614435434,camera_1,208,0,0.652477072053737,0.4875345644496697,1.812594313720875,-0.9806591458728825,-0.044304804846529454,0.15258407603218302,0.11429271028715829,0.06767161272000521,0.00633918360733178,20634.822148837615
1681939025624569892,207,1681939025624569892,camera_1,209,0,0.6522465177188569,0.4887984102413054,1.812108018361825,-0.9805313705776318,-0.04429984128435709,0.15310805773082742,0.11468948527753207,0.06052839524636511,0.005668234322624892,20624.363221495638
1681939025634614229,208,1681939025634614229,camera_1,210,0,0.6525581925783803,0.4907124833215137,1.8130833370867583,-0.9806427017417969,-0.044372493845689885,0.15254171553369586,0.11446396084576417,0.05187538122117985,0.004864294594577968,20602.183946249537
1681939025644366264,209,1681939025644366264,camera_1,211,0,0.6525709566670423,0.492593455767488,1.813271314938231,-0.9806791323035519,-0.04416506569155307,0.15216301239929506,0.11473580127573631,0.0570180369541049,0.005349076428428397,20588.405404792342
1681939025654411554,210,1681939025654411554,camera_1,212,0,0.6523164217687324,0.49424885668211616,1.8126832704798959,-0.9805542951535015,-0.04444430522418762,0.15269260041973517,0.1149910768982465,0.06906135207100307,0.00647692109192048,20577.87948896619
1681939025664367437,211,1681939025664367437,camera_1,213,0,0.6523927970439013,0.4959529996472279,1.8130075899673948,-0.9805956312391583,-0.04445767572899587,0.1530185583051861,0.11419738997741714,0.06494856417702977,0.0060956124014732984,20562.55528205435
1681939025674423694,212,1681939025674423694,camera_1,214,0,0.6523135759706729,0.4971237291811307,1.8128928953516767,-0.9806278398011123,-0.04426439632891655,0.1525082412720672,0.11467754518100623,0.062264190113637596,0.005843737400441205,20559.496750187827
1681939025684343814,213,1681939025684343814,camera_1,215,0,0.6520367315256982,0.49766025824880383,1.8121460006591277,-0.9806379076099841,-0.044501495438354514,0.15257383870953423,0.1144121269949105,0.04811306508781854,0.004512490305740103,20572.860317635117
1681939025694330930,214,1681939025694330930,camera_1,216,0,0.652303993574141,0.49808668359313213,1.8129270663640642,-0.9806824010790481,-0.04430515078678768,0.1522113521389246,0.1145896422353844,0.057531413534889,0.005400557749268843,20557.44062487566
1681939025704416513,215,1681939025704416513,camera_1,217,0,0.6522022640547018,0.49759090591933514,1.812595729857381,-0.9806188953715637,-0.04435530846867273,0.1525888769273528,0.11461161934530197,0.05964783469971735,0.0055969469438840016,20561.62576335098
1681939025714386224,216,1681939025714386224,camera_1,218,0,0.6524058013498956,0.49679747877631647,1.8131270488990914,-0.9807070762756311,-0.044367301827982646,0.1520396764746423,0.11458232782106663,0.055475847562775016,0.0052073992256408365,20565.33601815789
1681939025724531173,217,1681939025724531173,camera_1,219,0,0.6522732499129229,0.49528356356030356,1.8126003003683675,-0.9805729577185868,-0.04424176203668318,0.15311110477280665,0.11435178476159723,0.06886149507772643,0.00645937610437752,20572.53715444251
1681939025734543800,218,1681939025734543800,camera_1,220,0,0.6522542935090544,0.4935792712201463,1.8124686161130859,-0.9805696037885112,-0.04431042539553092,0.1529367482581283,0.11458703835748348,0.07452855947485659,0.006987704030720778,20587.559746761108
1681939025744523525,219,1681939025744523525,camera_1,221,0,0.6527249638525068,0.49209735035519153,1.8136109753043106,-0.9806984467835599,-0.044436264110715565,0.15188275191363806,0.11483729611644632,0.0720118433382595,0.006757487598817341,20587.696252803908
1681939025754438161,220,1681939025754438161,camera_1,222,0,0.6525323809858941,0.49007224699581864,1.8130189684561897,-0.9806817106330559,-0.044500872083307504,0.15174922923009032,0.11513134343749225,0.0651618726842571,0.006108435070207439,20613.26593835895
1681939025764395952,221,1681939025764395952,camera_1,223,0,0.6524503086009148,0.4883470454759955,1.8126651798502813,-0.980628498810638,-0.044355328625338794,0.15256958080483915,0.11455511841890197,0.06760555233631747,0.006334070283682021,20625.72221184813
1681939025774402856,222,1681939025774402856,camera_1,224,0,0.6523009853962509,0.48693509693343373,1.8121206970054813,-0.9805867533028789,-0.04440353969837119,0.15273612057269037,0.11467180290541676,0.059040920008555986,0.0055271253581913515,20642.690576533787
1681939025784447908,223,1681939025784447908,camera_1,225,0,0.6525969477229968,0.4863717512791341,1.8128212175076868,-0.9807688183931045,-0.044346267312179485,0.15196756408840723,0.11415687849755914,0.06056869502936024,0.0056738568332907685,20648.79219647409
1681939025794483661,224,1681939025794483661,camera_1,226,0,0.6524276407870692,0.4860857923062768,1.8123378200887548,-0.9806530911905643,-0.044446503692461455,0.15248308958497903,0.11442434373211863,0.06265458898269571,0.005866078812443465,20649.94527146378
1681939025804313421,225,1681939025804313421,camera_1,227,0,0.6525779142487156,0.486595941485621,1.812787790308519,-0.980656594513648,-0.04433649937333196,0.15258976325236628,0.11429471821042358,0.05789819936035201,0.005423869658249172,20636.920085856163
1681939025814359664,226,1681939025814359664,camera_1,228,0,0.6522678925048602,0.48738476735865177,1.8120438805715888,-0.9805153284609593,-0.044387990999502115,0.15327793874192766,0.11456557250392072,0.06511373960529454,0.006095982348965429,20633.78206976893
1681939025824346065,227,1681939025824346065,camera_1,229,0,0.6520593240578789,0.4886544498590656,1.8115421853550895,-0.9804898137140621,-0.04447148436840222,0.1533941205088065,0.11459605610301092,0.06781573870102875,0.006346977198846266,20633.37679219118
1681939025834311723,228,1681939025834311723,camera_1,230,0,0.6525809653445566,0.4907393315270338,1.8131562629721236,-0.9806950221942755,-0.044375912626804064,0.15235089651652758,0.11426835149120632,0.054776326345745474,0.005136741508590622,20605.614602638292
1681939025844463109,229,1681939025844463109,camera_1,231,0,0.6523727397419415,0.4924268043851187,1.8127217784255265,-0.9805847678593063,-0.044457090144911726,0.15284881218682572,0.11451777500123786,0.05545105104101822,0.005199198113658905,20592.629431493217
1681939025854361772,230,1681939025854361772,camera_1,232,0,0.6523017531654868,0.4941929825996556,1.8125932320268443,-0.9805834005410405,-0.04428451069361846,0.15297186385264852,0.1144320128523599,0.06509814094169997,0.0061050332561121004,20581.596753508325
1681939025864291906,231,1681939025864291906,camera_1,233,0,0.6523867976931805,0.4959519725700216,1.812973372577159,-0.9805932366029065,-0.04441543936709069,0.15265226368606055,0.11472340417711584,0.06790368532529102,0.0063723365026204055,20563.234675063864
