%time,field.header.seq,field.header.stamp,field.header.frame_id,field.image_seq,field.transforms0.fiducial_id,field.transforms0.transform.translation.x,field.transforms0.transform.translation.y,field.transforms0.transform.translation.z,field.transforms0.transform.rotation.x,field.transforms0.transform.rotation.y,field.transforms0.transform.rotation.z,field.transforms0.transform.rotation.w,field.transforms0.image_error,field.transforms0.object_error,field.transforms0.fiducial_area
1685667512200344562,0,1685667512200344562,camera_1,1,0,0.3131913321478033,0.44063770214074066,1.7569778781723662,-0.9855776627442406,-0.07698371835280812,0.09549109872049921,0.11658313717398135,0.08888025273336098,0.10309632036449269,1925.5676951142957
1685667512220450162,1,1685667512220450162,camera_1,3,0,0.31329986135660864,0.44155335803994245,1.756935441543496,-0.9830189462329026,-0.07413512222298653,0.11784908868161602,0.1195379742887135,0.004571585275698453,0.005298451043518785,1902.992672990542
1685667512240430355,2,1685667512240430355,camera_1,5,0,0.3151023481247701,0.445750030247992,1.76740284984833,-0.9840347817271284,-0.07405477757318936,0.10994203851615947,0.11876104764079738,0.033837607596069574,0.039713315017009185,1887.261626231717
1685667512250468015,3,1685667512250468015,camera_1,6,0,0.3141364235384715,0.4449573481399782,1.762194982625841,-0.9841410666980478,-0.07507913277976218,0.11619388085128285,0.11103362874456275,0.02819241234101355,0.03288429833626713,1899.3970637847674
1685667512260337591,4,1685667512260337591,camera_1,7,0,0.3153795394520112,0.4472804431216591,1.7694326605337938,-0.9855999905198459,-0.0758197498311466,0.10568237942326168,0.10805211197500927,0.08214650658192113,0.09663850412706983,1895.342944113072
1685667512270418643,5,1685667512270418643,camera_1,8,0,0.31397725253079806,0.4458396806455714,1.7618340389992562,-0.9850879631470237,-0.07700336404486235,0.11234825111351872,0.10511925256753017,0.08177707338472828,0.09537408662196449,1908.043699486182
1685667512280392885,6,1685667512280392885,camera_1,9,0,0.314342693131256,0.4471891571566627,1.7643791554919797,-0.9866620621072028,-0.07704153252320939,0.099160481407341,0.10358463395650037,0.1522484080051072,0.17815519315825437,1914.4433138398447
1685667512290527343,7,1685667512290527343,camera_1,10,0,0.31336183681411806,0.4460546238706032,1.7587957738934887,-0.9852675183915511,-0.07806294373116367,0.10671062665493966,0.10847550957469522,0.09899126726668328,0.11510951295849171,1916.0407590027903
1685667512300442934,8,1685667512300442934,camera_1,11,0,0.31370261946244465,0.446709504744651,1.7609105702348036,-0.9863014581130563,-0.07855194826748314,0.09957929844840797,0.10546557954121775,0.1070150775485672,0.12475855213819224,1919.8082995186555
1685667512310467004,9,1685667512310467004,camera_1,12,0,0.3136870520147458,0.44675766172268067,1.760881155411146,-0.9864958260214475,-0.07836074350214134,0.09699379506107905,0.10619690597989688,0.11781900038477033,0.1373694781637602,1921.254172533983
1685667512320490598,10,1685667512320490598,camera_1,13,0,0.3134740026485548,0.4463136913664526,1.7595491083997052,-0.9860161719540592,-0.07863911409316937,0.10087698605868507,0.10682617686419785,0.10615471180062741,0.12356703688795907,1920.6173155994607
1685667512330437660,11,1685667512330437660,camera_1,14,0,0.313688714859511,0.44643485447663983,1.7607032499651378,-0.9856547047568016,-0.0772129890239745,0.10614497855395356,0.10609524421267243,0.13585795171093196,0.15830709546780605,1914.4835048690454
1685667512340374708,12,1685667512340374708,camera_1,15,0,0.31472054280543094,0.447563003863402,1.766400889556656,-0.986711004001275,-0.07737069846523696,0.09633957196236904,0.10551709091850789,0.14528832107316703,0.17043372431789575,1910.7525250094486
1685667512350492477,13,1685667512350492477,camera_1,16,0,0.31429843198432905,0.4465643601768322,1.7638776389094168,-0.9855370667377449,-0.077289747718204,0.10507170640727792,0.10818004204233311,0.10858992009889334,0.1269747401932601,1907.2320365905766
1685667512360383033,14,1685667512360383033,camera_1,17,0,0.31488722716767426,0.44633636492173917,1.7665114537868412,-0.9843310161739679,-0.07581509307201126,0.10966988191693047,0.11539947686507311,0.04851832491112873,0.05689428231760717,1891.8960283789786
1685667512370332002,15,1685667512370332002,camera_1,18,0,0.31409780791089115,0.4447063264844471,1.7619005293653989,-0.984032292834893,-0.07432768092478752,0.1178767752576035,0.11072898609359208,0.02687395189423114,0.03133214761836686,1898.8575188913383
1685667512380283832,16,1685667512380283832,camera_1,19,0,0.31442339491394883,0.44452562769315923,1.7634425812780308,-0.9830534287814656,-0.07407758776081536,0.11468728405806075,0.12233271855038819,0.013550489558838308,0.015830482345172845,1888.267514539883
1685667512390327453,17,1685667512390327453,camera_1,20,0,0.31338381388077646,0.44255236895612293,1.7577278809475545,-0.9837419543913074,-0.07231091746058045,-0.11893418347174167,-0.11347933022489275,0.010328230331651866,0.011982142660000751,1901.3217964442447
1685667512400390863,18,1685667512400390863,camera_1,21,0,0.31305393082470256,0.441156034889417,1.7559967740583935,-0.9845357803107196,-0.07507317720519996,0.10627700987709965,0.11729668590314953,0.03293353202752769,0.03814271004672419,1917.7210692109068
1685667512410278558,19,1685667512410278558,camera_1,22,0,0.3132741329010858,0.44097789688171024,1.7570570498229994,-0.9830489377792352,-0.07601201564270797,0.10573119763223729,0.12906538364837794,0.0365944774239324,0.04246383205635558,1904.7321272189747
1685667512420362710,20,1685667512420362710,camera_1,23,0,0.31303919973492567,0.4403372677792826,1.7561581089548675,-0.9856108784551979,-0.07753744342699415,0.09450031575243151,0.11674258631823098,0.09754753991728649,0.11305552554061156,1928.041972566629
1685667512430363416,21,1685667512430363416,camera_1,24,0,0.3133252338778885,0.44042713780329346,1.7577793416714045,-0.9851340849784752,-0.07662054811421179,0.0956741626443376,0.12036021278896536,0.14237575337756425,0.16532885356645327,1920.4507827477064
1685667512440132856,22,1685667512440132856,camera_1,25,0,0.313699011692851,0.4404728452157559,1.7597407275624768,-0.9846842783035992,-0.0773008064102735,0.10035128526943395,0.11979598046184287,0.13294243899872527,0.15464945606349967,1913.3510549492203
1685667512450245618,23,1685667512450245618,camera_1,26,0,0.31400489128717063,0.44082800633136454,1.7615642586958769,-0.9859290538079158,-0.07764302964581235,0.09341771455800171,0.11484159269013525,0.1510186751256697,0.1760570098421379,1919.4009841321968
1685667512460180997,24,1685667512460180997,camera_1,27,0,0.31379057663290266,0.4405359493206396,1.7603295989838241,-0.9854352518924901,-0.07750884863770767,0.09667098879420828,0.1164665730413304,0.14982903143391013,0.1744088383722401,1918.1287228034344
1685667512470315694,25,1685667512470315694,camera_1,28,0,0.31350254775300185,0.4402219743751081,1.7585791093711876,-0.9842577321097243,-0.07745817028806545,0.10098208152012406,0.12263591582285506,0.1275386767811142,0.14819529422688976,1912.6218392315782
1685667512479594469,26,1685667512479594469,camera_1,29,0,0.3132167432676837,0.440353552715379,1.7571304665916114,-0.9851499536286974,-0.07655400768782165,0.09900517137969109,0.11754585833786937,0.11963713058503345,0.1387661123746009,1921.8353297552094
1685667512490384578,27,1685667512490384578,camera_1,30,0,0.3131505508929131,0.4405485008400462,1.7567356604961537,-0.9855938927442708,-0.07717326390105494,0.09612324965938206,0.11579847494234648,0.0879580351174809,0.10198938726038495,1926.3491840288045
1685667512500273466,28,1685667512500273466,camera_1,31,0,0.3133464175768787,0.4411554434084864,1.757370052784143,-0.9829690385773286,-0.07538431094898551,0.10847702625866146,0.1277568379194892,0.031432288815267384,0.03647701542319159,1902.9346582263242
1685667512509537458,29,1685667512509537458,camera_1,32,0,0.3131940845223807,0.4413888695256072,1.7564670693934779,-0.9833320909854039,-0.07436701505394164,0.11637963951255276,0.1182511116952757,0.006794624088797718,0.007870702752347447,1906.6490293121894
1685667512520343780,30,1685667512520343780,camera_1,33,0,0.3135048886304521,0.44283570852733634,1.7583866886485373,-0.9835866560512013,-0.07252402110856138,-0.12023315255543819,-0.11332054282803866,0.004199547925963998,0.0048756858991088605,1898.764398423024
1685667512529571294,31,1685667512529571294,camera_1,34,0,0.31477022693405315,0.4451689706955076,1.7654554117017511,-0.9835745404122074,-0.07373656196686205,0.11395894255304657,0.11898488262974281,0.022782649961300194,0.026674501748269786,1887.7032176835933
1685667512540188789,32,1685667512540188789,camera_1,35,0,0.3139243059171703,0.44457934567732765,1.7610501851192926,-0.984217185083268,-0.07506961928914883,0.11475866569007079,0.11185496634296113,0.02729729755083099,0.03179942104175423,1902.5434523099088
1685667512550369262,33,1685667512550369262,camera_1,36,0,0.31506928165227216,0.4467251542162244,1.7676096828445151,-0.9848624021029262,-0.07588084662590586,0.10878457152187475,0.11159777344639064,0.06069914548425004,0.071260207125353,1893.622108764947
1685667512560303211,34,1685667512560303211,camera_1,37,0,0.31436852013935485,0.44672821081659353,1.764209418342775,-0.9853963658598699,-0.07704692882409993,0.10383922529815426,0.11079344835510214,0.10075758898165077,0.11788159561177357,1905.2172850519416
1685667512570349216,35,1685667512570349216,camera_1,38,0,0.31455724086189557,0.4474081153341576,1.7654995071798671,-0.9867750916629063,-0.07737599652925299,0.09868159559707894,0.10271229880195647,0.1374974021455273,0.16109565410262008,1913.138777306303
1685667512590373516,36,1685667512590373516,camera_1,40,0,0.31358150440379307,0.44650135443407224,1.7601647611698235,-0.9862198634141452,-0.07835322706577838,0.10060470452977507,0.10540325536832443,0.11932927946327254,0.13899383121792563,1920.6689520298971
1685667512600371122,37,1685667512600371122,camera_1,41,0,0.3136549738834072,0.44670028580567495,1.7606772073635863,-0.9863895392926675,-0.07843814956413296,0.0976835378839923,0.10649441249859301,0.11305832688231021,0.1317846959268545,1920.9153626756738
1685667512610376596,38,1685667512610376596,camera_1,42,0,0.31365842499192903,0.44660434283463774,1.7605514346920481,-0.9859844479471628,-0.07854803747337694,0.1024722946788467,0.10566126555489176,0.10327719809720293,0.12034150397075644,1918.087405000814
1685667512620413541,39,1685667512620413541,camera_1,43,0,0.31365978441860864,0.44646090292788876,1.7605761224359777,-0.9857726574476232,-0.07798109692867786,0.10307850521450797,0.10745249235450006,0.12445991148706526,0.14502992575101178,1916.1345177311453
1685667512630356788,40,1685667512630356788,camera_1,44,0,0.31459536013654077,0.4474686794849804,1.7657556640005119,-0.9868401201461483,-0.07718835684498958,0.09971277408506861,0.10122202093302775,0.1477048505912535,0.17309237390596477,1912.972415683093
1685667512640187501,41,1685667512640187501,camera_1,45,0,0.3142699293965009,0.446132822924089,1.7633641013839356,-0.9850607932076674,-0.07617138930323461,0.1135232821523403,0.10471684461468692,0.08675546373706311,0.10134956311793361,1904.0714443693873
1685667512650409936,42,1685667512650409936,camera_1,46,0,0.3151653311920704,0.446825757893928,1.7681221448771371,-0.9847067920152895,-0.07598172182403243,0.10909566230936239,0.11259417468454697,0.057215698063373566,0.0672109323369002,1891.399418339599
1685667512660376071,43,1685667512660376071,camera_1,47,0,0.3138479546631282,0.44442565680728147,1.760540360232397,-0.9839922587228492,-0.07475704926343615,0.11673119904891595,0.11200198894453603,0.022413905535358936,0.026093945710555146,1901.701329907635
1685667512670377492,44,1685667512670377492,camera_1,48,0,0.31443066269362585,0.4446508952894902,1.7635891747734667,-0.9832583719437477,-0.07406929849745623,0.11292604220355812,0.122329154394469,0.020418576314114034,0.023860800934352864,1889.4961002320038
1685667512680312871,45,1685667512680312871,camera_1,49,0,0.313940751933317,0.4428477341431005,1.7606874109092665,-0.9830163400006431,-0.07294244261051851,-0.11538589196314852,-0.12265549842391792,0.010687306756153703,0.012446010953434996,1889.5378164425497
1685667512690358638,46,1685667512690358638,camera_1,50,0,0.31300029358330733,0.4410892569953517,1.7553715530661222,-0.9835949774343828,-0.07418063202576658,0.11345461443866194,0.11902186631324757,0.011475119565147907,0.01327791927172719,1911.0235827011065
1685667512700319528,47,1685667512700319528,camera_1,51,0,0.31341499881912044,0.44121916062325833,1.757694512682706,-0.9827144090806083,-0.07521822565356862,0.11107061337456223,0.1275849817160239,0.02548032533377409,0.029575457009827024,1900.1269736085087
1685667512710283756,48,1685667512710283756,camera_1,52,0,0.3130827640866325,0.440455623341753,1.7564061074698205,-0.9855853079109158,-0.07742623814878288,0.0960001936210092,0.11580475508804366,0.0944095000741072,0.10942887855164313,1927.1744768558997
1685667512720255136,49,1685667512720255136,camera_1,53,0,0.313522499571791,0.4404642852472435,1.7587567095523848,-0.984266077097549,-0.07737619197781737,0.09967381985488152,0.12368647470742525,0.12369799800217152,0.14379513950211398,1912.1254339111033
1685667512730268239,50,1685667512730268239,camera_1,54,0,0.31361006990736207,0.4403930646063852,1.759236780158467,-0.9843287286306626,-0.07747127995249943,0.10196809630155038,0.1212339148567878,0.12126328871818258,0.1409845653413699,1911.7377617696766
1685667512740260362,51,1685667512740260362,camera_1,55,0,0.3137899920011351,0.44052631377115464,1.7602320565173502,-0.9851571579852073,-0.07713552967357987,0.09869813096759271,0.11736338047274275,0.14391434361459687,0.1674945120799413,1915.9132671111736
1685667512750486612,52,1685667512750486612,camera_1,56,0,0.3139021649553941,0.4406853393729745,1.7609181773320135,-0.9853918161581514,-0.07758354673019968,0.09636837433772777,0.11703374877703658,0.15114467788953334,0.17606855519038084,1916.5560090132058
1685667512760376930,53,1685667512760376930,camera_1,57,0,0.3135464403784769,0.4404448060257224,1.758858530489227,-0.9839246063653493,-0.07745786699215972,0.09952487645362486,0.12644147577716758,0.11724345170659944,0.1363385263432639,1909.340676353545
1685667512770467281,54,1685667512770467281,camera_1,58,0,0.31349128777952506,0.4406746818438103,1.7587525476929735,-0.985123355245706,-0.076481921353827,0.09879257557678982,0.11799371875813547,0.13419690408045426,0.15594325642187665,1918.118605024879
1685667512780446767,55,1685667512780446767,camera_1,59,0,0.31309406238366533,0.4404107056454819,1.7564461750125224,-0.9854574587386168,-0.0775182896108035,0.0970688394418322,0.11594029584945396,0.08833491761470214,0.10238801629960495,1926.1679241592058
1685667512790474891,56,1685667512790474891,camera_1,60,0,0.31344340395737946,0.44117212710981274,1.7578151613452866,-0.9825581888856791,-0.07524630061440608,0.112366718702218,0.1276366727302045,0.020772183721419424,0.024111335168758564,1898.7109024911188
1685667512800440311,57,1685667512800440311,camera_1,61,0,0.3137179883429863,0.442452862680881,1.759419893380879,-0.9831046009936889,-0.07269268940368759,-0.11598318533485043,-0.12152784508860733,0.010014346044044942,0.011644139709385843,1892.8471642269285
1685667512810439109,58,1685667512810439109,camera_1,62,0,0.31330793135470353,0.4424538543076405,1.7572567095995228,-0.9836745849608852,-0.07212049666135341,-0.12032377464033743,-0.1127170533666091,0.006445079459808767,0.007472884030529845,1901.6983794495457
1685667512820426940,59,1685667512820426940,camera_1,63,0,0.3144386245408462,0.4446058825796536,1.7635918367504846,-0.9832240279856481,-0.07388453337522526,0.11367283671283945,0.12202488563100132,0.016294803121127188,0.019040683197282988,1889.1395425249366
1685667512830444335,60,1685667512830444335,camera_1,64,0,0.3139426740427891,0.4445319594886041,1.761097067945578,-0.9840720413053782,-0.07475571837873918,0.11685232715501785,0.11117254035597729,0.027759914111811668,0.03233709428174676,1901.1457099919212
1685667512840444326,61,1685667512840444326,camera_1,65,0,0.3142909060719676,0.44613646235051957,1.7635597436236645,-0.9853405975761856,-0.07665088828009918,0.11132467720005686,0.10409305615832488,0.09265645133564249,0.10826919558021227,1906.1735192537308
1685667512850451469,62,1685667512850451469,camera_1,66,0,0.31443070559375363,0.44677631319881944,1.764591822268034,-0.9856798113220989,-0.07721244719139946,0.1022267122609439,0.10965056703485429,0.10189457010710612,0.11926256222043259,1906.7496615492264
1685667512860416412,63,1685667512860416412,camera_1,67,0,0.31468547724795265,0.4475493728874531,1.7662091311877202,-0.986699885962635,-0.0773274025725652,0.09779563200863922,0.10430638625095917,0.14248833630699664,0.1670922357681066,1911.0217297186616
1685667512870429039,64,1685667512870429039,camera_1,68,0,0.31369580775530587,0.44646948899994976,1.7607392154107342,-0.9855597611041591,-0.0777860015750953,0.10710692934367647,0.1055907237300744,0.12005044193938375,0.1398872096026313,1913.9911265252167
1685667512880442380,65,1685667512880442380,camera_1,69,0,0.3136400492444262,0.4466427787711454,1.7605306195868995,-0.9862381279388867,-0.07827606235930118,0.09991974297265659,0.10593987929670876,0.11335790925659239,0.13209801406000848,1919.9418232133617
1685667512890298128,66,1685667512890298128,camera_1,70,0,0.3137998100692924,0.44691015902676806,1.7615484126090823,-0.9863470222235462,-0.07858354869259547,0.09865247168788097,0.1058861060550144,0.11907148879254237,0.1389205842967692,1918.7829753102262
1685667512900390386,67,1685667512900390386,camera_1,71,0,0.3135422413150389,0.4464480479680479,1.7599674605026867,-0.9860672906124948,-0.07849395789226979,0.10173518732674647,0.1056406579785094,0.11352602142142132,0.13219851186363724,1919.9927699114191
1685667512910421133,68,1685667512910421133,camera_1,72,0,0.31337756281376417,0.44606652720809176,1.758952698305526,-0.9856440103873024,-0.0781209355056889,0.10333595399631236,0.10828058383211342,0.12097474094480276,0.14071522211838852,1918.7299609929332
1685667512930455207,69,1685667512930455207,camera_1,74,0,0.31399265859901093,0.4458290255477326,1.7619181633138252,-0.9849531016572746,-0.07696843330651632,0.11311955210175946,0.10558037100878329,0.0824247362324968,0.09613634629538619,1906.8087364924138
1685667512940240383,70,1685667512940240383,camera_1,75,0,0.31534665858741984,0.44718880181132825,1.769192611813828,-0.9853573392470717,-0.0757465130489641,0.10813454764434612,0.10789021901269351,0.07961227337364107,0.09362382043182663,1893.9340526994788
1685667512950234413,71,1685667512950234413,camera_1,76,0,0.31385934785978026,0.4445283445597151,1.7606188480627345,-0.9839523268317355,-0.07520846031279023,0.11715108252121126,0.11161151322288221,0.02768958534579724,0.032239445230214284,1901.4182682489036
1685667512960213661,72,1685667512960213661,camera_1,77,0,0.31359795832979304,0.44301667454517396,1.758713608407238,-0.9829279485014707,-0.07364744529246166,0.11944435536956789,0.11900314208848764,0.0047224173322319984,0.005485349048040279,1897.376353616361
1685667512970276355,73,1685667512970276355,camera_1,78,0,0.3140669177839875,0.4431508020035438,1.7614858602395411,-0.983263135458826,-0.07319699460673766,-0.11264037201312335,-0.12307702068609216,0.013414605869911611,0.01563901787786585,1889.899072490632
1685667512980398654,74,1685667512980398654,camera_1,79,0,0.3132173047986327,0.4414163506827793,1.756459483951218,-0.9829644445825126,-0.07398727453260556,0.11949296793299014,0.11844076371078772,0.003803010389674455,0.00440486415086136,1903.5008247999945
1685667512990576744,75,1685667512990576744,camera_1,80,0,0.3135426693156779,0.44145970401655016,1.7584920447091785,-0.9831633887841289,-0.07561289757022531,0.10907890636013727,0.12559551290877763,0.02377861982677132,0.02762493606906131,1902.1326856052035
1685667513000573873,76,1685667513000573873,camera_1,81,0,0.31293112066502,0.43998921600851487,1.7555730271574201,-0.9852243689028995,-0.07656456977821552,0.09722691102271028,0.11839652590993477,0.12656559224706143,0.14657277594873108,1925.8365537005016
1685667513010354280,77,1685667513010354280,camera_1,82,0,0.31364917225243283,0.44066945486530923,1.7594332749304438,-0.9843690854561529,-0.07720605729240652,0.09989067197266761,0.12279487761477598,0.11527379637118429,0.13409189875808178,1911.3215887963306
1685667513020388841,78,1685667513020388841,camera_1,83,0,0.3138797841745502,0.44079920509610776,1.7607593046672045,-0.9844102084483238,-0.07763166625987795,0.10142887144049928,0.12092166859065942,0.11701174802146852,0.1362789093479501,1909.1533826878306
1685667513030477046,79,1685667513030477046,camera_1,84,0,0.31385268948667144,0.44063682039749386,1.7606099481286732,-0.9850889412675697,-0.0774122982919996,0.09808705880973337,0.1182626008488945,0.14436696626944467,0.16811028607775677,1914.7324205869809
1685667513040395498,80,1685667513040395498,camera_1,85,0,0.3137034718582887,0.44048931670811314,1.7597393029242545,-0.9846134612856525,-0.07754813620501265,0.09911587435196191,0.12123803808071996,0.13009747490286827,0.15137004219973502,1912.9585596914403
1685667513050329446,81,1685667513050329446,camera_1,86,0,0.3135115672346243,0.4403723353932011,1.7586007405170088,-0.9837297944010325,-0.07749794892319226,0.10070902374651895,0.1269939055877244,0.11106430069776252,0.12910849383765718,1908.3989721005785
1685667513060250043,82,1685667513060250043,camera_1,87,0,0.31353363411448076,0.4407005526006224,1.7589461317564692,-0.9853051968810659,-0.07664709006574248,0.09531340843998107,0.11922351594870581,0.13710291351890191,0.1594061884286185,1919.2673033489837
1685667513070334434,83,1685667513070334434,camera_1,88,0,0.3129188339522528,0.4401361539777103,1.755466388372588,-0.9854984993413289,-0.07753137598495136,0.0961252817154582,0.11636805295695588,0.10341426712693647,0.11974519917526875,1928.676085346844
1685667513080279111,84,1685667513080279111,camera_1,89,0,0.31326211795017106,0.4413902105125102,1.757281931668749,-0.9849461111274889,-0.0751212614971834,0.10243203249915919,0.11724177141275001,0.03977047826629132,0.04613483862619186,1918.2767735980456
1685667513090298891,85,1685667513090298891,camera_1,90,0,0.3137683448333714,0.44241941150363007,1.7596964828419093,-0.9832188105670442,-0.07302284838561966,-0.11868263696959098,-0.11774067199877049,0.005388443183619529,0.006265601088825129,1893.4257457680062
1685667513100379467,86,1685667513100379467,camera_1,91,0,0.3135602188462451,0.442699473006849,1.7586129168142333,-0.9835430471540547,-0.07213148580394473,-0.11927019720399758,-0.11495539660908388,0.010963459615595639,0.012732481434252365,1897.7186989425675
1685667513110436439,87,1685667513110436439,camera_1,92,0,0.31428237592628894,0.4442510765489136,1.7628202591463429,-0.9834040976186237,-0.07345980894354204,-0.11793998611805923,-0.11666274868762047,0.013410025101620704,0.015651510102154428,1888.2233467847109
1685667513120276927,88,1685667513120276927,camera_1,93,0,0.31451818508924245,0.4457369489042709,1.7643656483258745,-0.9836684469301371,-0.0751963624495319,0.11464074998219691,0.11661643122617935,0.04291656019631773,0.05019465902383074,1890.9862403937154
1685667513130280971,89,1685667513130280971,camera_1,94,0,0.31478516251191246,0.4467609811972038,1.7663691684328062,-0.9861274834540665,-0.07638053630308267,0.10484166851021798,0.10357038473712847,0.12088938249507919,0.14172578810429698,1906.176003001863
1685667513140355110,90,1685667513140355110,camera_1,95,0,0.31414520111299477,0.446285955166508,1.7629209882417292,-0.9855315596805919,-0.07718667865812108,0.1061324088302085,0.10726450161710313,0.10622745176078752,0.12406867407049983,1909.2041724286973
1685667513150460958,91,1685667513150460958,camera_1,96,0,0.3145096174718436,0.4472403651523218,1.7651723610221424,-0.9863891547513307,-0.07805270176843032,0.0939936283820229,0.11004275968543364,0.1438185449806042,0.1685385999009695,1911.3459998080514
1685667513160614728,92,1685667513160614728,camera_1,97,0,0.3134123547114535,0.44621695522923993,1.7591426027962982,-0.9858548327652353,-0.07837451822513422,0.10204265738083972,0.10740102271889515,0.10700097313383593,0.12449155298406511,1920.058061293793
1685667513170542240,93,1685667513170542240,camera_1,98,0,0.3136812882718311,0.4467232280816595,1.7608435777120446,-0.9862436981077486,-0.07861435535459348,0.09865672488400581,0.10681760955055795,0.11683827172964811,0.13621417277849263,1919.529272479238
1685667513180499792,94,1685667513180499792,camera_1,99,0,0.3135931218730128,0.44660905256215133,1.7603076181148594,-0.9861885208909821,-0.07841341842118514,0.09979200024577224,0.10641942379711157,0.11224536516238004,0.1307699140993548,1920.116425660206
1685667513190638065,95,1685667513190638065,camera_1,100,0,0.31381104228482204,0.44684922969120944,1.7614642612350455,-0.986302856578786,-0.07846195074381437,0.09997386724152524,0.10514572392054577,0.10359400400193408,0.12084186673506508,1918.5507830595602
1685667513200627565,96,1685667513200627565,camera_1,101,0,0.31433815193285247,0.447202791407259,1.7643906564332055,-0.9868501279347864,-0.07697534564113952,0.09817698783279644,0.10277597101755837,0.1646153893088922,0.1926329224240322,1915.8420993085003
1685667513210319757,97,1685667513210319757,camera_1,102,0,0.31440874567632143,0.4468973570588487,1.7644135561141698,-0.9853956008984857,-0.0774676139946444,0.10153841516181852,0.11262428138867542,0.10162513732211664,0.1189528768406592,1904.9510520095932
1685667513220400810,98,1685667513220400810,camera_1,103,0,0.31400700503737905,0.44592857461203617,1.7620697087319441,-0.985352634375152,-0.07725782159836803,0.11080882278346256,0.10408083265023438,0.09250392561079934,0.10791490355188554,1909.7484746745326
1685667513230679750,99,1685667513230679750,camera_1,104,0,0.31528419041249856,0.44722073093640086,1.7690104960409143,-0.9858777920006785,-0.07606476030283874,0.10348407414497686,0.10747175386256486,0.10857749066781253,0.12768031825665568,1898.5333176781423
1685667513240508317,100,1685667513240508317,camera_1,105,0,0.3148793913404726,0.44551786472286525,1.766174012121764,-0.984166170550344,-0.07416156129329037,0.11064694390749794,0.11693701456230077,0.030320742051117122,0.03553340937802931,1890.8978190713108
1685667513250444650,101,1685667513250444650,camera_1,106,0,0.31385784209521084,0.44348237181517314,1.7603662908418583,-0.9833493226067846,-0.07301454685579195,-0.11993535377240211,-0.11536245746216574,0.006746616854798049,0.007851277947840202,1892.8468080821908
1685667513260467529,102,1685667513260467529,camera_1,107,0,0.31393797349730473,0.4430620083597729,1.7607239679385533,-0.9833390705760073,-0.07283362742971894,-0.1141499242529782,-0.1212820258207389,0.012171598558779806,0.014175241427868352,1891.9236900503743
1685667513270668506,103,1685667513270668506,camera_1,108,0,0.31363914117500435,0.4420829942675732,1.7589551665075223,-0.9835769944118409,-0.073475323528005,-0.11991065274092369,-0.1131331439299313,0.0026825342793017626,0.003115833769385223,1898.2355181190642
1685667513280616998,104,1685667513280616998,camera_1,109,0,0.3135084858787828,0.4410856009927141,1.7584101715132827,-0.9839966606149319,-0.07607930523677778,0.10752097869906341,0.12000729291567108,0.048476111551281065,0.0562915473454843,1909.3587915794926
1685667513290609598,105,1685667513290609598,camera_1,110,0,0.3127176325771592,0.4397415368636324,1.7543409538359593,-0.9853427862511098,-0.07704981116614477,0.09690652230484151,0.11735436130345801,0.12161418132018298,0.1406380139960185,1929.7132849870254
1685667513300514698,106,1685667513300514698,camera_1,111,0,0.313649753900512,0.44074479742642014,1.7595368654602361,-0.984847575228344,-0.07698411833340708,0.0966584916184868,0.12167923031199027,0.13213630276732147,0.15374648433972493,1914.6892652444085
1685667513310557126,107,1685667513310557126,camera_1,112,0,0.3136716089093403,0.44051193884454515,1.7594751232448191,-0.9838966977787057,-0.07713784640927725,0.10284325675283483,0.12417852186254877,0.11314813687931746,0.1316078228398144,1907.6043496085326
1685667513320524692,108,1685667513320524692,camera_1,113,0,0.31379019153052357,0.44051463255209516,1.7602759521743891,-0.9853655101375358,-0.07746409671450634,0.0967634551144156,0.11700837109335444,0.14184900664258748,0.16511380258500424,1917.6796458181925
1685667513330435037,109,1685667513330435037,camera_1,114,0,0.3137611538354185,0.4405375577572374,1.7600663404132058,-0.9847199855617691,-0.0774940747299917,0.10003054209476164,0.11964576492797396,0.1295488906907849,0.15075810847005758,1913.0529700233596
1685667513340476512,110,1685667513340476512,camera_1,115,0,0.3137209252402582,0.4406359625327939,1.7598282516994845,-0.9838852326054988,-0.07744808901923851,0.10205848364513322,0.12472252596924059,0.11339510220568627,0.1319633663550331,1906.9293470291886
1685667513350622177,111,1685667513350622177,camera_1,116,0,0.3137530211760226,0.44095119307697683,1.7601366649414507,-0.985133600163389,-0.07642942999591117,0.09770630018267347,0.1188436408237024,0.13742509426083416,0.15996371746068375,1915.21131356596
1685667513360436201,112,1685667513360436201,camera_1,117,0,0.31330892253836523,0.44083510808705256,1.7569857083028506,-0.9825530388258639,-0.07497675839814621,0.1160712347347123,0.12448084214579211,0.026302203652448952,0.030488433485469226,1900.3433650075456
1685667513370443105,113,1685667513370443105,camera_1,118,0,0.31336901942524403,0.44143087502191264,1.7576616187673524,-0.9843165218674401,-0.07450773722190834,0.1082357293959759,0.11770560205435174,0.03578002715948969,0.04151140975948939,1912.1324748303748
1685667513380469799,114,1685667513380469799,camera_1,119,0,0.31379814404378403,0.4423885454680433,1.7597932190122203,-0.9833402770283438,-0.07252647004981319,-0.11961989861081708,-0.11607278135838532,0.0033340411609970033,0.00387676772815352,1893.9245575766536
1685667513390603542,115,1685667513390603542,camera_1,120,0,0.3136044827895424,0.44270777316700854,1.7589484358611551,-0.9836781002867664,-0.07264204075943662,-0.11532495063102355,-0.11747631545326427,0.013749433041084556,0.015977056175711823,1898.3503306626803
1685667513400645494,116,1685667513400645494,camera_1,121,0,0.3144637306775129,0.4450590610074926,1.763954624356177,-0.9842489956709436,-0.07440171893483231,0.1128408067940235,0.11395284578436332,0.03136313450522721,0.03665647171389806,1896.349304168718
1685667513410475730,117,1685667513410475730,camera_1,122,0,0.3145363158750751,0.44566325516398464,1.7644135757613115,-0.9837536733480511,-0.07498593715514078,0.11701159468320654,0.11364024864841776,0.03359654959058389,0.039289212498221204,1891.4517721768937
1685667513420499086,118,1685667513420499086,camera_1,123,0,0.3151097836565804,0.4470991913732209,1.768125593882131,-0.9860083662967144,-0.07611440132232446,0.10350124848534245,0.10621483449219266,0.11080736143048853,0.13016928668980066,1901.4064302905456
1685667513430497884,119,1685667513430497884,camera_1,124,0,0.3143695025532401,0.44651768524330976,1.7641508084904192,-0.9857887471283351,-0.07680028840075136,0.10780160458075293,0.10344600420762376,0.09168772667180747,0.10721943620977148,1908.3478385829364
1685667513440392971,120,1685667513440392971,camera_1,125,0,0.31399368327301935,0.4467861933362041,1.762456278568333,-0.9864231674514533,-0.07719148253465329,0.10197874045750809,0.10301041808401956,0.15128944226307794,0.176636614539047,1916.7653953959234
1685667513450189828,121,1685667513450189828,camera_1,126,0,0.31343396465514417,0.44621467794593334,1.7592440564752374,-0.9854986839591549,-0.07819495790604267,0.10603982015705933,0.10692730714791569,0.09909007523674518,0.11528072061723765,1916.930269283708
1685667513460413455,122,1685667513460413455,camera_1,127,0,0.31367164251278995,0.44667525630225546,1.7607157210479474,-0.9862765507848961,-0.07834956931996523,0.09982344352988949,0.10561813519021983,0.11019209388177842,0.12843391519944503,1919.8971843819593
1685667513470643997,123,1685667513470643997,camera_1,128,0,0.3137666514408141,0.4468547899738279,1.7612431108246713,-0.9860905242767383,-0.07833304526825956,0.10019044600927617,0.10701068394833571,0.1008450387744233,0.11761337341379753,1917.2512624785309
1685667513480547666,124,1685667513480547666,camera_1,129,0,0.31337025346102604,0.44613267504068516,1.7589307425208152,-0.9854830553948819,-0.07824445443621147,0.10526398515926996,0.10779817395455617,0.10568861325737089,0.12292134452137421,1917.531502059427
1685667513490492582,125,1685667513490492582,camera_1,130,0,0.31409373344903857,0.4469267612936188,1.7630305815561218,-0.986477394028535,-0.07723055996323659,0.10048538515518014,0.10392535325246952,0.1516531150555238,0.17719111205744695,1915.9786072880963
1685667513500421047,126,1685667513500421047,camera_1,131,0,0.3144365653946392,0.4470292424959672,1.7646591237008944,-0.9857066230066467,-0.07768794134236481,0.09919263074560825,0.11183854047949376,0.11653961858246475,0.13646393127804388,1906.9423763626255
1685667513510546207,127,1685667513510546207,camera_1,132,0,0.3141772483132931,0.4462310046968556,1.7630577413129842,-0.9855444925414518,-0.07696778090427508,0.10829846927187507,0.10511639014565051,0.09616261051269248,0.112316598508195,1908.916024676059
1685667513520420074,128,1685667513520420074,camera_1,133,0,0.3145260169644174,0.4456466616998066,1.764477475474931,-0.9840824322042208,-0.07522349992761819,0.11382574257529872,0.11387226182370692,0.032960963842924684,0.03855211616404944,1894.0727946099355
1685667513530225515,129,1685667513530225515,camera_1,134,0,0.31467266242433783,0.4453189425772053,1.7651007402317065,-0.9843235212784552,-0.07429349276547959,0.11268354138147535,0.11353458456530968,0.030097019218374044,0.03522205242884092,1894.420847791247
1685667513540277004,130,1685667513540277004,camera_1,135,0,0.3140248215964795,0.44377587546627756,1.7613328773897594,-0.9833097196610655,-0.07300150446529968,-0.11912520743126097,-0.11654166860114287,0.006368558737449347,0.00742011524719,1890.4195054338793
1685667513550273180,131,1685667513550273180,camera_1,136,0,0.3137025343821687,0.4428076634179704,1.7594742779917354,-0.9835867534195807,-0.07269065107140966,-0.11600816464473805,-0.117538391515722,0.01268142560729757,0.014744436345980641,1896.5274467123672
1685667513560306787,132,1685667513560306787,camera_1,137,0,0.3132942012769482,0.44133874711347537,1.7573920157169645,-0.9844206744562441,-0.07500725064670319,0.10427313015336002,0.12007065578881612,0.04943578987149522,0.05735725050956696,1913.9074020583641
1685667513570317268,133,1685667513570317268,camera_1,138,0,0.3132624382179005,0.44083459138213366,1.7570822170517357,-0.9834702159788816,-0.07636955210572355,0.10676002692370641,0.12472498725144276,0.0544443015824072,0.06315017997688883,1908.2795259281984
1685667513580370903,134,1685667513580370903,camera_1,139,0,0.3127830167057263,0.439891067714739,1.7546763286032834,-0.985341344758829,-0.07721709333249617,0.09711810914135796,0.11708128664714347,0.11031956179067492,0.12762388771964103,1929.0116679756904
1685667513590593099,135,1685667513590593099,camera_1,140,0,0.31368088987255294,0.44085503959742295,1.7597707548848565,-0.9851280876967199,-0.07666750964275741,0.09537556865366692,0.12061610464681433,0.14200072042876855,0.165270854745865,1916.1470003868462
1685667513600432395,136,1685667513600432395,camera_1,141,0,0.31373784632956486,0.44051527069694746,1.759995298070607,-0.9848667542141053,-0.07752099048156316,0.0991196588198578,0.11917745472179504,0.13968113239388913,0.16254108942583145,1914.3804977652617
1685667513610372781,137,1685667513610372781,camera_1,142,0,0.31388324246279575,0.4406636779335854,1.760837775108397,-0.9856153930563524,-0.07751948945268565,0.09569632346627481,0.11573780454287617,0.15850772301200777,0.18462043375461007,1918.4332060588054
1685667513620401144,138,1685667513620401144,camera_1,143,0,0.3138418301455268,0.44064435954850784,1.7605886387003797,-0.9850739018092419,-0.07736020601116629,0.09865552374318973,0.117948692808285,0.13777413463685662,0.16042000080878205,1914.6174471245615
1685667513630624532,139,1685667513630624532,camera_1,144,0,0.31372824727582727,0.44062392023723995,1.7599349716488981,-0.9841574975267324,-0.07747134066548124,0.09971824557715253,0.12445273374429117,0.12552976689767092,0.14612091711810304,1908.890903596068
1685667513640563726,140,1685667513640563726,camera_1,145,0,0.31284297372201064,0.4399193666695301,1.7550585731858688,-0.9853529547628568,-0.07716319542389184,0.09583917615389322,0.11806882791924815,0.12396390934009105,0.1434920190063011,1928.3000553899906
1685667513650490522,141,1685667513650490522,camera_1,146,0,0.31321954093501836,0.44072831326578904,1.7570113827204967,-0.9846874157512663,-0.07652500131412875,0.09893281069789943,0.12143688238084417,0.07800741057144478,0.09049865293349511,1918.1772536453786
1685667513660311222,142,1685667513660311222,camera_1,147,0,0.3136807393487187,0.4417354058914526,1.7592087486779713,-0.9834478211902027,-0.07449297120773395,0.11243771837417443,0.12099148616202945,0.024122038565110415,0.028034091148174702,1902.0061064038891
1685667513670255899,143,1685667513670255899,camera_1,148,0,0.3136374092089243,0.44209520503192073,1.7589818307100258,-0.9836627904218977,-0.0734696831500428,-0.11798642212531212,-0.1144068380443488,0.0053675739909522235,0.00623524484773074,1898.8355249864971
1685667513680521249,144,1685667513680521249,camera_1,149,0,0.3138083017549002,0.4434231512964418,1.7600923875966994,-0.9832160121263331,-0.07282795440588789,-0.11968281656053571,-0.11686909760745758,0.005307490995619446,0.006174994271477396,1892.248381493845
1685667513690322637,145,1685667513690322637,camera_1,150,0,0.3145855697531883,0.44514062505216206,1.7645242237108225,-0.9838152781278434,-0.07427658033726718,0.11433332182221986,0.11626856693333976,0.02894962637219578,0.033858051152933846,1891.7143427219703
1685667513700498580,146,1685667513700498580,camera_1,151,0,0.3145191460461832,0.4455795653911206,1.7643589892641849,-0.9840146995563156,-0.07467578297262484,0.1139774958603873,0.1146635466567944,0.0296738751931116,0.03470242108592218,1893.502604669658
1685667513720548152,147,1685667513720548152,camera_1,153,0,0.31440442647676164,0.4469350430537313,1.76445636651198,-0.9856815521772921,-0.07738744715787932,0.10088694672168554,0.11074693991675964,0.10102130973245949,0.11824714365787206,1907.0205214223822
1685667513730428457,148,1685667513730428457,camera_1,154,0,0.31438531892954763,0.4472977430072278,1.7646857056904226,-0.9867504583185511,-0.07708334970192585,0.1000244043956099,0.1018666222673729,0.1428044798085466,0.16714817463275802,1914.4701073830954
1685667513740442037,149,1685667513740442037,camera_1,155,0,0.31332496391431763,0.4460256218107659,1.7586138321855138,-0.985453419604279,-0.07835356268749792,0.10471222172633639,0.10852477885507851,0.11016860452946275,0.12809238623881547,1918.0736509866542
1685667513750705718,150,1685667513750705718,camera_1,156,0,0.31385283058032176,0.44691468247853566,1.7617034385327566,-0.9863844987284182,-0.07819512271177304,0.09930519718560417,0.1052122676511935,0.11135101434774697,0.12992985474495516,1918.5024906035992
1685667513760460615,151,1685667513760460615,camera_1,157,0,0.3136830732222831,0.4467120933798692,1.7607834619630085,-0.9862723465816201,-0.07824930684929328,0.09975092580213066,0.10580008103781226,0.11486813792726025,0.13389541304408137,1919.6413483445062
1685667513770400524,152,1685667513770400524,camera_1,158,0,0.31349794246299034,0.4463393850079194,1.7596451382413227,-0.9858390824087713,-0.07840966582448465,0.10361890607346926,0.1060016518968546,0.10324244119692594,0.12017463627137999,1918.8546676486721
1685667513780448198,153,1685667513780448198,camera_1,159,0,0.3137880908462399,0.4465617831592216,1.7613182381283097,-0.9860711114014076,-0.07753274918774127,0.10412345402394384,0.10397471993281394,0.1529333197977394,0.17832783995864337,1916.634804419707
1685667513790563344,154,1685667513790563344,camera_1,160,0,0.3147728368307051,0.4475813499745123,1.7665650676623517,-0.9862220616559593,-0.07751745804134336,0.09919641111628422,0.10731803587248084,0.11414242204045877,0.1339145523416689,1906.6794610405334
1685667513800421714,155,1685667513800421714,camera_1,161,0,0.314810296269312,0.4467597966674504,1.7663673621596205,-0.9855914275950858,-0.07587816046886225,0.11086820920023026,0.10276323663488042,0.09871024423046038,0.11570515801749678,1901.659693115391
1685667513810507535,156,1685667513810507535,camera_1,162,0,0.31466187744320584,0.4459362220126306,1.7652248119395193,-0.9840826388100905,-0.07560435812795471,0.11321163486442708,0.11422988556394702,0.04272854269947857,0.050022421331699464,1892.6233658569397
1685667513820388555,157,1685667513820388555,camera_1,163,0,0.3141087031164331,0.4446238964269547,1.7619025685358936,-0.9840032247575129,-0.07433261553846794,0.11762092342757749,0.11125481700164656,0.025454946269746866,0.02967786985842472,1898.687615962699
1685667513830467700,158,1685667513830467700,camera_1,164,0,0.3142682109608794,0.44421846690413924,1.7627366307404493,-0.9834361791566281,-0.07364306669363364,-0.11776942776272363,-0.11644888208226979,0.013271673524286598,0.015488531884582492,1888.7685448243278
1685667513840438127,159,1685667513840438127,camera_1,165,0,0.3138154603308178,0.4424567527669529,1.7599298528808465,-0.9831490094590961,-0.07292586640705406,-0.11867338900424673,-0.1183911734489751,0.003280592442024499,0.0038156985403893446,1892.309589830693
1685667513850516796,160,1685667513850516796,camera_1,166,0,0.3133252526712868,0.44143340527341646,1.7575573192101783,-0.9848942921290208,-0.07480675378526307,0.104154525945672,0.11635728445103231,0.043112408253364265,0.05001998348557377,1917.0736121102236
1685667513860404014,161,1685667513860404014,camera_1,167,0,0.31334698765506946,0.4409615285590408,1.757386588084946,-0.9829519471178061,-0.07569665853835042,0.11085305018548516,0.12564667448053185,0.03802814782829955,0.044116558569156354,1903.0759465661845
1685667513870454072,162,1685667513870454072,camera_1,168,0,0.31281626996854206,0.439972908223185,1.7549333853924087,-0.9855834249693332,-0.07739714764467805,0.09590176191166384,0.11592172369502328,0.12155332893598825,0.14066126032450274,1930.4535713486835
1685667513880421876,163,1685667513880421876,camera_1,169,0,0.31357473683443626,0.440435430256782,1.7590133761314917,-0.9838239332899265,-0.07763107951655662,0.1017586941309967,0.1253357568604689,0.1179209443507716,0.13711180612098217,1908.3364956902801
1685667513890367984,164,1685667513890367984,camera_1,170,0,0.3137018411114993,0.44046341835879,1.7598126264045684,-0.9847983687655006,-0.07741152439847686,0.09978094386370252,0.11926186317839382,0.14038454229012132,0.1633184583202127,1914.179448042997
1685667513900454998,165,1685667513900454998,camera_1,171,0,0.3137673499915612,0.44046592800917495,1.7601280927520597,-0.985338253700289,-0.07759797556153802,0.09777678173367015,0.11630469009211143,0.14319864305434749,0.16663687937177407,1917.864361951361
1685667513910553932,166,1685667513910553932,camera_1,172,0,0.313925483629414,0.44073093858391665,1.7610742949742724,-0.9854008218738883,-0.07755542551319418,0.09641354603790848,0.11693931915369225,0.1508816175046377,0.17579012094714877,1916.2674115693653
1685667513920563220,167,1685667513920563220,camera_1,173,0,0.3136427559429201,0.44065883329974104,1.7594222493438307,-0.9845696048909723,-0.07727099555827346,0.09784656667486336,0.12279224633587205,0.11850080225849524,0.1378660562715873,1912.973230503732
1685667513930488348,168,1685667513930488348,camera_1,174,0,0.31304831471755284,0.4401646827416859,1.756271103441164,-0.9853232247446001,-0.07662191351972866,0.09527491929893474,0.11912142922270139,0.12583912315312773,0.14587317698263436,1925.1428658366206
1685667513940584182,169,1685667513940584182,camera_1,175,0,0.31319036753092083,0.4406064615196487,1.7568115669066984,-0.9848982408882225,-0.07683873733586577,0.10040161845017555,0.11828262151516673,0.06927647173870355,0.08032507359784714,1920.4723606877965
1685667513950663328,170,1685667513950663328,camera_1,176,0,0.31350915842344024,0.4414361454034545,1.7583330124230632,-0.9832344697667151,-0.07554324063201663,0.10742463648009284,0.12650353249810734,0.027744016086217016,0.03223117655717159,1903.001175076468
1685667513960562229,171,1685667513960562229,camera_1,177,0,0.313949325440897,0.4430184384785202,1.7608671002892045,-0.9832748921803663,-0.0731172075414713,-0.1140361060612835,-0.121737943482737,0.012944186280947179,0.015077790612032158,1891.2883142589124
1685667513970399379,172,1685667513970399379,camera_1,178,0,0.3133757572674897,0.44272845052963306,1.7576483279676804,-0.9831856112518187,-0.07275848440392486,-0.12166532739618255,-0.11510779680026548,0.004921554180327803,0.005709274573151233,1897.2783350576642
1685667513980424880,173,1685667513980424880,camera_1,179,0,0.3149354929311852,0.4455369500576939,1.766477811444365,-0.9840846969791138,-0.07412913671889845,0.10947994132693327,0.11872793566759193,0.03410456533310935,0.03998574443218431,1889.657841083129
1685667513990428686,174,1685667513990428686,camera_1,180,0,0.3141927264539707,0.4450487158729425,1.7625308998002487,-0.9841882418836589,-0.07523958640758163,0.11605857172039173,0.1106477162231168,0.029487553518265486,0.0344080814931858,1899.1322538445245
1685667514000448465,175,1685667514000448465,camera_1,181,0,0.31405084146150863,0.4459649791704877,1.762251536892606,-0.9852837440482788,-0.07692361982342244,0.11139869930091979,0.10435051615363734,0.09189921600045636,0.10723115318142738,1908.6093145599598
1685667514010477542,176,1685667514010477542,camera_1,182,0,0.3143463204755566,0.44683726790589634,1.7641510540550553,-0.9857015129085118,-0.07766289254125999,0.10015773364792713,0.11103797081407023,0.10636831657029688,0.12446724315898429,1908.0285525417426
1685667514019562244,177,1685667514019562244,camera_1,183,0,0.31427878891590966,0.44713602901837557,1.7640343457614387,-0.9864878144355101,-0.07712504336935457,0.10082698676851491,0.10357334789755239,0.14481365197570994,0.16938232522046393,1913.848477210849
1685667514030385255,178,1685667514030385255,camera_1,184,0,0.3133474876747644,0.4460706540907117,1.7587602458979565,-0.9853954652489911,-0.07820297218693498,0.10619573686397525,0.10771507638102985,0.10134225722867996,0.117837777776123,1917.1967684600968
1685667514039642095,179,1685667514039642095,camera_1,185,0,0.3136069316170129,0.4466709787583548,1.7604554840708118,-0.98642573764093,-0.07838901720904715,0.09686049768947855,0.10694610833449576,0.11891211417969316,0.13858179626974154,1921.6413886849766
1685667514049725294,180,1685667514049725294,camera_1,186,0,0.3136877144494496,0.4467432533619712,1.7608683563174292,-0.9865301291293078,-0.07840063976047797,0.09656559694917666,0.1062390205673435,0.10668791271746159,0.12439152537833385,1921.585760180838
1685667514060323238,181,1685667514060323238,camera_1,187,0,0.31359753695164183,0.44649195288124754,1.7601862607242453,-0.9858171098916623,-0.07852812060340668,0.10383014042154923,0.10591157660703862,0.10171580372843891,0.11846759347077727,1917.565671314951
1685667514069568872,182,1685667514069568872,camera_1,188,0,0.31360109405356273,0.4463136880114609,1.7602130459383105,-0.9858040361786298,-0.07750415772383043,0.10609282161487751,0.10453621856197091,0.13104261044645682,0.1526057153636527,1916.8929030075667
1685667514080179214,183,1685667514080179214,camera_1,189,0,0.3142083393271274,0.44642824952432114,1.7633580552651333,-0.9855522216978605,-0.0773672210637746,0.10423383760636633,0.10879539746299022,0.11192648974247277,0.130806896796843,1908.52865425963
1685667514090352535,184,1685667514090352535,camera_1,190,0,0.314596572744058,0.44650572863592475,1.7651683775117704,-0.9852651230691377,-0.07616431430668144,0.1128787268696819,0.10348926277653153,0.08391840115655212,0.0982315540645939,1901.830280707451
1685667514099478960,185,1685667514099478960,camera_1,191,0,0.314865222733716,0.44629568696164074,1.7663676636124814,-0.9843614430311519,-0.07583646853426629,0.1098233012100659,0.1149792243198859,0.04803511482896283,0.05631749385259464,1892.4502248251815
1685667514110336542,186,1685667514110336542,camera_1,192,0,0.3140704592323275,0.4446262836197561,1.761659394644497,-0.9839926874403181,-0.07455993488009434,0.11787042747525027,0.11093137293596536,0.02298133965814486,0.026786522620428493,1899.2107631021647
1685667514120322465,187,1685667514120322465,camera_1,193,0,0.3134828608430351,0.4426743072946851,1.7582611151259766,-0.9837344028817583,-0.07217972981829635,-0.118518715340382,-0.11406149790483157,0.009834139724262059,0.011416257325044936,1900.024334181799
1685667514129451751,188,1685667514129451751,camera_1,194,0,0.31385976271314475,0.4425965819610183,1.7601901515141822,-0.9831380270229679,-0.07275482251689297,-0.11796002488301664,-0.11929705843615582,0.006483390345238149,0.007543746636721514,1891.5327501296997
1685667514140240430,189,1685667514140240430,camera_1,195,0,0.3131645172072306,0.4412092903624557,1.7563612109627424,-0.9835627557253144,-0.07423451776156363,0.11572520514748352,0.11705220551662635,0.015437849680893123,0.017879062279000348,1908.7324837970086
1685667514150287628,190,1685667514150287628,camera_1,196,0,0.3131810078276389,0.4407967787703118,1.7564528540211426,-0.9826909500714435,-0.07552524368817191,0.10892586153207086,0.1294202105662871,0.03619409439852461,0.041961844823109065,1902.9355079107916
1685667514159462451,191,1685667514159462451,camera_1,197,0,0.3136568642092916,0.44085093313408824,1.7596011686011828,-0.9852696644214524,-0.07664169795386612,0.09713441613986097,0.1180450918367868,0.1269194995984435,0.14764502542831112,1917.5414073274005
1685667514170154571,192,1685667514170154571,camera_1,198,0,0.3136644233526058,0.44058001227436017,1.7595323895894166,-0.9838200533110788,-0.07762779461686167,0.10181640187658465,0.12532138091648304,0.11407832434633747,0.1327217082133101,1907.169313032413
1685667514180136919,193,1685667514180136919,camera_1,199,0,0.31357575422483647,0.4402869694241082,1.759114063596132,-0.9849814225407854,-0.07755581366222372,0.09846720693364856,0.11874721965337692,0.15369796642335132,0.17867841796775485,1917.2216671209321
1685667514189432144,194,1685667514189432144,camera_1,200,0,0.3137320428265248,0.4404010685483753,1.7599309495120832,-0.9856150584698027,-0.07750397118894858,0.09665563497663864,0.11495120353773064,0.15955055423546582,0.18562491594150085,1920.4006899902593
1685667514200135707,195,1685667514200135707,camera_1,201,0,0.31364348216267857,0.440416628388489,1.7593905801383973,-0.9844769415165017,-0.07738381521783841,0.09919423471665213,0.12238219054921334,0.12469824199797586,0.14504282834049226,1912.5464886468833
1685667514210394382,196,1685667514210394382,camera_1,202,0,0.3137636478164524,0.4407965770737061,1.7601204273520963,-0.984338465543471,-0.07766370020841033,0.09878999704109323,0.12363927938193456,0.11216726317070425,0.13059967403181336,1909.9235537839118
1685667514220228672,197,1685667514220228672,camera_1,203,0,0.3132518100027064,0.4403769896011733,1.7573202919592792,-0.9853278729730353,-0.07650759364956473,0.09842075978274285,0.11657154412709397,0.11554289661580697,0.13404254162944532,1922.799183413851
1685667514230365991,198,1685667514230365991,camera_1,204,0,0.31297080315706993,0.44029348222205994,1.755748682789163,-0.985611633606053,-0.07728676068188917,0.09420830426596437,0.11713778097197936,0.10346216557081789,0.11986063285429599,1928.7524437718102
1685667514240255594,199,1685667514240255594,camera_1,205,0,0.31312405052093667,0.4412719636388232,1.755980912973916,-0.98321487017867,-0.07403050456816704,0.11727744040665758,0.11854959057114693,0.005706136755179614,0.006606065937718005,1906.56712266896
1685667514250167608,200,1685667514250167608,camera_1,206,0,0.3140171791473307,0.4430292276138682,1.7611292559855811,-0.9831823968619946,-0.07305130166588532,-0.11372028523273678,-0.12281522117477202,0.012061144516337663,0.014054355189767874,1889.9492388120855
1685667514260222196,201,1685667514260222196,camera_1,207,0,0.3134469719956006,0.44277635448794467,1.7579087588658562,-0.9831318914092247,-0.0730361102380021,0.11822972118254714,0.11890813144827413,0.005258824385236949,0.006102927830197292,1900.3967379333922
1685667514270593166,202,1685667514270593166,camera_1,208,0,0.31481077703981375,0.44528798920415597,1.7657709592496618,-0.9840423721453312,-0.07443705409987073,0.10985470855090611,0.11853977310893508,0.028145893826149404,0.032972349954367874,1891.0677400231361
1685667514280554533,203,1685667514280554533,camera_1,209,0,0.3152629624899664,0.44706626134002947,1.7687553195518553,-0.9853436311999427,-0.0759410869611929,0.10701228506336143,0.10899197498156411,0.07721642649266869,0.0907670457998363,1894.9044900611043
1685667514300445556,204,1685667514300445556,camera_1,211,0,0.3143018175534055,0.4466862739871978,1.7637723957317009,-0.9853933947708776,-0.07733177294653402,0.10212836630443119,0.1122027238121204,0.09612237440887839,0.11242451602489843,1906.2620180954689
1685667514310608863,205,1685667514310608863,camera_1,212,0,0.3144330560175574,0.44732438153292714,1.7649510253409315,-0.9870923418911998,-0.07708572664915278,0.09735046903027125,0.10114042468916813,0.1616552037303336,0.18928284663350445,1916.6007732725702
1685667514320442199,206,1685667514320442199,camera_1,213,0,0.3137524570165996,0.44678250799814173,1.7611508851903834,-0.9863606820628762,-0.07858310716988431,0.09851868718154293,0.10588374957475392,0.11656682111788541,0.13594189226799439,1919.7578008240093
1685667514330358266,207,1685667514330358266,camera_1,214,0,0.31359845106881495,0.4466635955272267,1.7603974586275806,-0.986335800850124,-0.07844732446401755,0.09763467415032145,0.10702885428398558,0.11191134189721197,0.1304083858789255,1921.0924501277045
1685667514340421676,208,1685667514340421676,camera_1,215,0,0.3136219875574378,0.4466844296349333,1.7605240329262246,-0.9864265015803931,-0.07844926069165777,0.09679513689376543,0.10695406467505704,0.12919589754892513,0.15058040486376614,1921.534717409174
1685667514350658893,209,1685667514350658893,camera_1,216,0,0.3136657868137552,0.44662557218293053,1.760626864760327,-0.9862450576934035,-0.07844215330183019,0.09919908187325178,0.10642864706558758,0.10709322558250278,0.1248179191382765,1919.9189904872328
1685667514360497951,210,1685667514360497951,camera_1,217,0,0.31463337846507256,0.44751363462439114,1.7659278527064357,-0.9866494616186378,-0.07737478102965195,0.09913182760833761,0.10348364075203723,0.14288989931810647,0.16749587349898196,1911.234129036311
1685667514370361566,211,1685667514370361566,camera_1,218,0,0.3142080654830433,0.44648937152352386,1.7633634397715723,-0.9856850706779664,-0.07742440741668029,0.1003582735806357,0.11116932806607395,0.1143442535540089,0.13367278963827706,1909.5710940237614
1685667514380505084,212,1685667514380505084,camera_1,219,0,0.31420842042308794,0.4460342393259897,1.7630588310106718,-0.9850844591204747,-0.07646815544098112,0.11278238015432845,0.1050778964839914,0.08782786916708574,0.1025678558802352,1905.1205562218088
1685667514390269756,213,1685667514390269756,camera_1,220,0,0.3150897199920114,0.4466679490530234,1.7675886546623556,-0.98430191442406,-0.07577658072536089,0.11166797819441905,0.11374495030846006,0.05048327235272154,0.059263328174712755,1889.2726975274259
1685667514400446176,214,1685667514400446176,camera_1,221,0,0.31441336058973396,0.44455495108866355,1.7634018868555075,-0.9831871949153564,-0.07418792923714936,0.11343433513624468,0.12235907208774904,0.01500117068644613,0.01752590340899775,1889.436974604614
1685667514410264968,215,1685667514410264968,camera_1,222,0,0.3135970564839118,0.4428868847030513,1.758953248119955,-0.983936253890708,-0.07239642966798802,-0.11907910917674905,-0.11157226809794674,0.008905737777240574,0.01034582969299988,1900.2824808878354
1685667514420509576,216,1685667514420509576,camera_1,223,0,0.31387701083479214,0.4427026712131275,1.7603351269558862,-0.9831481149839622,-0.07290333950878417,-0.11482504171762592,-0.12214784847263785,0.01029228896368295,0.01198096988371281,1891.332656026586
1685667514430514574,217,1685667514430514574,camera_1,224,0,0.31295791805538603,0.44101934604184734,1.7553252051626227,-0.9841163813166608,-0.0746553975929416,0.10989939839596966,0.11774396743207044,0.01787568611325696,0.02068434214202819,1915.584682678804
1685667514440607070,218,1685667514440607070,camera_1,225,0,0.31305112746839525,0.4403464999108733,1.7561314767038272,-0.9854158771690801,-0.07731507064732514,0.09608416463362379,0.11724232248019695,0.09495715663069859,0.11004235926698008,1926.4043037882075
1685667514450400590,219,1685667514450400590,camera_1,226,0,0.313371205374385,0.44049187513336946,1.7579778680815112,-0.9850472092181717,-0.0764505922722813,0.09960173497184921,0.11796947462503364,0.11418998369481415,0.1325708330591547,1919.1704768748018
1685667514460479021,220,1685667514460479021,camera_1,227,0,0.3135320900160003,0.44042979012159145,1.7587834395712374,-0.9837272933952222,-0.07756828066037726,0.10167174269281935,0.12620075595062183,0.1013516872189939,0.11782527861690886,1908.0128463369333
1685667514470681428,221,1685667514470681428,camera_1,228,0,0.3135636036907928,0.4402728385846839,1.7589017023814775,-0.9843960843997434,-0.07740535571173271,0.10056594608302412,0.121898525069091,0.12556821817997843,0.14595273326456523,1912.9889061821154
1685667514480497598,222,1685667514480497598,camera_1,229,0,0.31391126017449267,0.44066080142652087,1.7608883648071962,-0.9854556439320001,-0.07740406633015383,0.09796497479709872,0.11527639858673645,0.14311062049819157,0.16666700894502381,1916.9858010918829
1685667514490404129,223,1685667514490404129,camera_1,230,0,0.3137840447191786,0.4405836680877783,1.7601655133929441,-0.9846276892711039,-0.07733519786353132,0.10025904400158685,0.12031502311824098,0.13325294415699318,0.15509481252744772,1912.0010098922062
1685667514500478744,224,1685667514500478744,camera_1,231,0,0.31366684404579565,0.44061044257912235,1.7595192114039135,-0.9838801862532214,-0.07750943741973218,0.10057390374523265,0.1259244062707778,0.10461790690897033,0.12173226102605486,1907.5806711483751
1685667514510553598,225,1685667514510553598,camera_1,232,0,0.3133065467399713,0.44042210075052657,1.757689948907885,-0.9852370919766732,-0.0762915165015393,0.09695194834843825,0.11869202506776,0.13997010153252631,0.16248654965008674,1921.2162514084498
1685667514520611286,226,1685667514520611286,camera_1,233,0,0.31326361376723033,0.4409556969534869,1.7568217932784072,-0.9825293143019985,-0.07523636103223223,0.10921121006972677,0.13057008888324337,0.0285536574665457,0.03312048161234985,1900.6439408706506
1685667514530436038,227,1685667514530436038,camera_1,234,0,0.31300396105789724,0.4410599980230946,1.755450689841931,-0.9838806086715602,-0.07440266980536774,0.11372121649713153,0.1162354314498214,0.011456641717813909,0.013255967137107163,1913.2460468793297
1685667514540457248,228,1685667514540457248,camera_1,235,0,0.3138629685877438,0.4427025996501469,1.7602430325830662,-0.9831155658439203,-0.07281444642367539,-0.11505935078714967,-0.1222423264824495,0.008541147864889354,0.009941488091212241,1891.2133285843306
1685667514550575017,229,1685667514550575017,camera_1,236,0,0.3133148470694029,0.4425136740351042,1.7573447831120352,-0.9835784555578223,-0.07244011469313186,-0.11991000085235462,-0.1137868324601894,0.008878068707417697,0.010295308379565615,1900.9108476927504
1685667514560600519,230,1685667514560600519,camera_1,237,0,0.31402678749938906,0.4446675917896485,1.761511448437294,-0.984057931181004,-0.07493134370504326,0.11814315847378533,0.10980653858562849,0.0295508669805713,0.03443888901889617,1900.196299342439
1685667514570408105,231,1685667514570408105,camera_1,238,0,0.3148777792563781,0.4464301017260639,1.7665759265856693,-0.9847463243281618,-0.07595657876028344,0.1081814806905666,0.11314610952571193,0.06218129541957751,0.0729201847334061,1895.0211939432183
1685667514580386400,232,1685667514580386400,camera_1,239,0,0.31421062596130195,0.44605608685357995,1.7630843028311458,-0.9850444902031024,-0.07654219328778342,0.11328813600836743,0.10485439049918427,0.08396801026538014,0.09806249011759843,1904.7841628810847
