%time,field.header.seq,field.header.stamp,field.header.frame_id,field.image_seq,field.transforms0.fiducial_id,field.transforms0.transform.translation.x,field.transforms0.transform.translation.y,field.transforms0.transform.translation.z,field.transforms0.transform.rotation.x,field.transforms0.transform.rotation.y,field.transforms0.transform.rotation.z,field.transforms0.transform.rotation.w,field.transforms0.image_error,field.transforms0.object_error,field.transforms0.fiducial_area
1684734516334046125,23,1684734516334046125,camera_1,34,0,1.0660088124324958,0.12069502799939526,2.1908883644627326,0.9705272517030915,-0.05255904522639072,0.23453711973655153,0.017513992469361677,0.001595440728124231,0.0025945964418369453,1759.8699550400784
1684734516343969583,24,1684734516343969583,camera_1,36,0,1.0681334415197774,0.12126638625433359,2.195304850875944,-0.9711565277377542,0.05166336522683257,-0.23191052601210171,-0.020084901059704112,0.0010705307977332268,0.0017441237754274824,1756.810956333065
1684734516353960037,25,1684734516353960037,camera_1,37,0,1.068364269630389,0.12140420012640055,2.195809967576649,0.9709986554508881,-0.052391359682332175,0.23257603431688628,0.018031772088020953,0.001303824785281904,0.002127610419679293,1755.4578122461971
1684734516363773584,26,1684734516363773584,camera_1,39,0,1.067430425741537,0.12114051110303944,2.1939121870650453,0.9708257245126029,-0.051812058067311116,0.23327231516963523,0.019923610084709945,0.00039527784974779934,0.0006435884852926358,1756.6982375612715
1684734516373760700,27,1684734516373760700,camera_1,40,0,1.0660345366840958,0.12017375551266411,2.1909772548942703,0.9702437488586311,-0.052691474294518904,0.2357323345209641,0.016761348356143665,0.002496411878382787,0.004063441039282648,1757.6359771976713
1684734516383673191,28,1684734516383673191,camera_1,42,0,1.0672380133883757,0.11982474227860679,2.193407084644838,0.9707224719944365,-0.05221047936748337,0.23383099085343245,0.017176027646983828,0.004579684551572427,0.007463666030988851,1756.7950886386975
1684734516393726348,29,1684734516393726348,camera_1,43,0,1.066248758765807,0.1193800721265381,2.1911365002602614,0.9744868198147842,-0.04360617976119394,-0.21405237781071912,-0.05153172467014683,0.00787508554640226,0.012823308648972413,1758.281290318817
1684734876044113636,30,1684734876044113636,camera_1,44,0,1.066630568729255,0.11926662615905062,2.191996059320349,0.9703300313141007,-0.051974597169398916,0.2354522116404639,0.01790328496866738,0.008708893848961452,0.014180676534263114,1755.8028061727532
1684734516403731346,31,1684734516403731346,camera_1,45,0,1.066630568729255,0.11926662615905062,2.191996059320349,0.9703300313141007,-0.051974597169398916,0.2354522116404639,0.01790328496866738,0.008708893848961452,0.014180676534263114,1755.8028061727532
1684734516413679361,32,1684734516413679361,camera_1,46,0,1.0654006724236749,0.11951192882238326,2.1895499770431277,0.970185887072194,-0.052363574055128016,0.2361230638221517,0.015598056588993056,0.009071528067579493,0.014756394596297698,1759.3057478388648
1684734516423723459,33,1684734516423723459,camera_1,48,0,1.0679798240581495,0.12026646251332061,2.1948708508586003,0.9709627158786942,-0.05225976993352419,0.2328895289120793,0.016210741595472845,0.004861324137891643,0.007933163140126894,1756.4828417858807
1684734516433604955,34,1684734516433604955,camera_1,49,0,1.0656894767797733,0.12049523945507801,2.190210743352288,0.9702719111878023,-0.0526868373619478,0.23565295570159464,0.016254230153030406,0.0014775509080209304,0.0024037716792443013,1759.2625328761633
1684734516443722009,35,1684734516443722009,camera_1,51,0,1.0678485022203843,0.12109434627870001,2.1946632391584764,0.970966630588433,-0.05184434833758697,0.23260219743808924,0.020789025378037444,0.001550666187540628,0.002525041765849353,1756.3521409128457
1684734516453648328,36,1684734516453648328,camera_1,52,0,1.0692042930488708,0.12145889842958087,2.197569428334742,-0.9713658619583458,0.05216718892876816,-0.23114798728664318,-0.01724977085424626,0.0009381857380503789,0.0015329154700165716,1755.3333709050787
1684734876073275804,37,1684734876073275804,camera_1,53,0,1.0655806309018674,0.12014891788370699,2.1906070084232443,-0.9699279444572642,0.05278078513209915,-0.23696208764738794,-0.017405180250064795,0.0028801732405554503,0.004687167752471512,1755.988205609145
1684734516463655471,38,1684734516463655471,camera_1,54,0,1.0679325059042855,0.12102794741534602,2.194928607151683,0.971229507533875,-0.05213051822117181,0.23155196235420794,0.019476691079702808,0.0006331792828859761,0.0010313805538167838,1758.1179119535655
1684734516474051237,39,1684734516474051237,camera_1,55,0,1.0650694708629844,0.12032225166827698,2.1888903901611845,-0.9739603765203432,0.043785854673845104,0.21597870831360835,0.05326519927699107,0.002187893114751205,0.0035550258105299885,1758.4470614852912
1684734516483715772,40,1684734516483715772,camera_1,57,0,1.0674026359372317,0.12009216657930802,2.19364976319768,0.9747304621476788,-0.04278343216967457,-0.2124450153979084,-0.05419612094733312,0.001687708470853977,0.00274917574252456,1756.5619378015404
1684734516493792772,41,1684734516493792772,camera_1,58,0,1.0658062448890657,0.11924502909504904,2.1903545503422897,0.9700658901527864,-0.052385136478040294,0.23645636009689958,0.017786399522797425,0.008271820668596774,0.01345556873977526,1756.7074737773505
1684734516503991842,42,1684734516503991842,camera_1,60,0,1.0676638878555045,0.11940660176854553,2.1940177220545753,0.9745145400569002,-0.043705100356346616,-0.21361684094939384,-0.05271736605077539,0.008776486127317185,0.014319834363039314,1754.0680596659668
1684734516513816595,43,1684734516513816595,camera_1,61,0,1.066233856993025,0.1194332370624717,2.1910723738453397,0.9743070139498448,-0.04419592036491236,-0.21481126535390938,-0.05127068819791473,0.008332014986081049,0.013573009728919474,1757.139315168723
1684734516524089336,44,1684734516524089336,camera_1,63,0,1.067458234507929,0.11992254277847768,2.1937811361658595,0.9709484167803588,-0.051832979226391726,0.23294707097752454,0.017554951985791604,0.006219307197170565,0.010133836500579498,1757.66090314262
1684734516534160137,45,1684734516534160137,camera_1,64,0,1.0665019586416107,0.12074571390929546,2.19193427590978,0.9706713005276063,-0.05260685910514899,0.23391698219626728,0.01768021909727436,0.000602993750362657,0.0009812372627491534,1759.2351666985487
1684734516543988943,46,1684734516543988943,camera_1,66,0,1.0685955642708709,0.12133025944424529,2.196245611660436,-0.9711285647099247,0.05196941723166967,-0.23213322008988457,-0.01796270045799157,0.0012668728886637837,0.0020677179778224083,1755.5213493431809
1684734516554142236,47,1684734516554142236,camera_1,67,0,1.0668333010538078,0.12122843453637017,2.192640242212505,-0.9702655722346109,0.052178767311485984,-0.23559933051257015,-0.01884279809703702,0.001035563531331718,0.0016865323422425953,1755.003589035507
1684734516563936471,48,1684734516563936471,camera_1,69,0,1.0684688565921032,0.12127372704408201,2.196032025947728,-0.9711659885978328,0.052024883489191674,-0.23183779141434088,-0.019526201905409945,0.0009220975771313533,0.0015036100939190865,1755.9204183493862
1684734516573945522,49,1684734516573945522,camera_1,70,0,1.0686295440094387,0.12046936072125582,2.1962098434739183,0.9750000744219307,-0.044218379532967284,-0.2110423529871251,-0.053672292985913736,0.0030865235457895324,0.0050378891390271885,1755.2266961730775
1684734516584073305,50,1684734516584073305,camera_1,72,0,1.0661436871929104,0.11968240699253455,2.1911633935147794,0.9701198367314063,-0.052294314615139885,0.23635407389778998,0.016418245676088527,0.005050494422903284,0.00822541440404257,1756.1405514380322
1684734516594066619,51,1684734516594066619,camera_1,73,0,1.0665130914428427,0.11941614897238818,2.1918345043039626,0.9704254463110352,-0.052266992146184944,0.23504737092368222,0.017185694803641065,0.008182517794921296,0.013323299596647374,1757.0411322246073
1684734516603907346,52,1684734516603907346,camera_1,75,0,1.1803822818095775,0.1319218705699059,2.4256854578096543,0.9963359596294653,-0.05026323187714443,0.06919040542530114,0.000975124391673372,4.512755713400111,8.134011017354826,1755.5558771289075
1684734876153669118,53,1684734876153669118,camera_1,77,0,1.0665610651617485,0.12112495977965249,2.192681956463654,-0.970068980140383,0.05191889013464689,-0.23649251523833142,-0.018490344854306024,0.0020821084508497734,0.0033923219383728566,1753.5485990578595
1684734516623712539,54,1684734516623712539,camera_1,78,0,1.0684275779693964,0.12032553308971225,2.1957662402628877,0.9710134665331125,-0.05248328884620082,0.23255678675022773,0.017195730273631277,0.004817127060960047,0.007863507878440028,1755.3540677995204
1684734516633743047,55,1684734516633743047,camera_1,79,0,1.064678465657142,0.1203664442305169,2.188127939478996,0.9701459403223761,-0.052414337934731596,0.23619650050728916,0.01675723136400449,0.0035392367753956933,0.0057469750785684465,1761.5131959067357
1684734516643813610,56,1684734516643813610,camera_1,81,0,1.067998585481574,0.12111008869208718,2.195023977197137,0.9709026640028867,-0.051983744458303366,0.23300969335794863,0.018766729747779404,0.0009981520743167493,0.0016274371491604592,1755.6623450643383
1684734516653791904,57,1684734516653791904,camera_1,82,0,1.0680330986449749,0.12131449464276486,2.1951266703986514,-0.9708882057431024,0.051679366587702065,-0.23311857961217572,-0.019001654076286865,0.002015244641370373,0.003285701287062619,1755.340530629735
1684734516663854837,58,1684734516663854837,camera_1,84,0,1.0675292246915866,0.12098761918842382,2.1941011289078576,0.9709567105690784,-0.05226648991656448,0.23265657082460306,0.019549943345521632,0.000783143059379654,0.0012752397281987095,1757.5054363954996
1684734516673937082,59,1684734516673937082,camera_1,85,0,1.066328909241203,0.12046621649013114,2.191603630415791,0.9705706948498556,-0.05211310429744458,0.23441784865131682,0.018028391299299354,0.002504694934032159,0.0040746522548894505,1758.7233003207948
1684734516683752536,60,1684734516683752536,camera_1,87,0,1.0673242392362987,0.12006556756372475,2.1935840911045372,0.9708201900560798,-0.05188690656364357,0.23334680582767137,0.01910957133888408,0.008879422122845426,0.014459066680490724,1756.914408820739
1684734516693749904,61,1684734516693749904,camera_1,88,0,1.0663393036035451,0.11929239604213127,2.191427521820576,0.9702804814931576,-0.05208797014890952,0.23566749345816446,0.017420193062035842,0.007582646889204625,0.012343948957843132,1756.4908973022834
1684734516703933954,62,1684734516703933954,camera_1,90,0,1.067422537580489,0.11937356362853059,2.1936556383836834,0.9706853249564146,-0.052036778718960994,0.23395880986543324,0.01804020125064853,0.011136615408759099,0.018149030770915554,1755.7413979749554
1684734516713793277,63,1684734516713793277,camera_1,91,0,1.0662989901655795,0.1194399299142681,2.1913385267338206,0.9700685098560725,-0.05256294014644465,0.23657516918692892,0.015375722192997519,0.0077345683275780175,0.01260604440948821,1755.6144698893186
1684734516723733901,64,1684734516723733901,camera_1,93,0,1.066294019263293,0.11977968975781288,2.1913878147341777,0.9703559583808651,-0.051625502423394344,0.2354524035242541,0.017501063080188093,0.008544680356862955,0.013907122446425306,1757.1146275832732
1684734516733708143,65,1684734516733708143,camera_1,94,0,1.0671559378993145,0.12082724331253858,2.1932467292676905,0.9708644247298794,-0.05269322288736358,0.23310469366406208,0.017546932707649874,0.00198644123156555,0.0032354662360603186,1758.5874921296486
1684734516743713617,66,1684734516743713617,camera_1,96,0,1.068347726804008,0.12129340632691919,2.195719970989553,-0.9711872211940974,0.051719463200905084,-0.23177000752208118,-0.020078399555549062,0.0004622088781616185,0.0007532903539954624,1756.3841485164596
1684734516753727436,67,1684734516753727436,camera_1,97,0,1.0683960108833777,0.12140625051791498,2.1958673172377714,-0.9710179732428735,0.052193201413730766,-0.23251107704530913,-0.018400120019126706,0.002523675939301029,0.004117573588366461,1755.3852357720898
1684734876223416805,68,1684734876223416805,camera_1,98,0,1.0670526712286685,0.11982253205912055,2.1935215131247507,0.9706704533430799,-0.052134136490410085,0.23397900927178655,0.01829551965188284,0.00024129371740855277,0.0003930886569550812,1756.1462601109529
1684734516763850450,69,1684734516763850450,camera_1,99,0,1.066728550150958,0.12106335375802439,2.1924988671314654,-0.9704264518805881,0.051427277838349474,-0.23501049987195483,-0.01994496263531511,0.0004865989067184273,0.0007917684562829942,1755.9305895937136
1684734516773760557,70,1684734516773760557,camera_1,100,0,1.067755662572071,0.1203766138687526,2.194545150775488,0.9707242551029186,-0.05231523970080048,0.23378758548643544,0.017346501732458337,0.00041269710345659405,0.0006732028682839976,1755.202560715552
1684734516783723354,71,1684734516783723354,camera_1,102,0,1.0667102745145889,0.11975575778094368,2.1923420018138895,0.9704951443671442,-0.052168187583360635,0.23474136438635804,0.01772418714903725,0.00476954311307054,0.007766766023122116,1756.750286748138
1684734516793901920,72,1684734516793901920,camera_1,103,0,1.065803440464599,0.11933848164622016,2.1903780148681293,0.9701493336816671,-0.052480458780661536,0.23626936582804614,0.015259704269797572,0.006243528434424661,0.010165843122752453,1757.7294661113988
1684734876243793487,73,1684734876243793487,camera_1,104,0,1.0676314174584403,0.11939921206173713,2.194067802098979,0.9708449048058084,-0.05215594119527392,0.23328727353847759,0.017803837103817256,0.006885024227813119,0.011222520889532947,1756.3171774154184
1684734516803652763,74,1684734516803652763,camera_1,105,0,1.0676314174584403,0.11939921206173713,2.194067802098979,0.9708449048058084,-0.05215594119527392,0.23328727353847759,0.017803837103817256,0.006885024227813119,0.011222520889532947,1756.3171774154184
1684734516813656091,75,1684734516813656091,camera_1,106,0,1.0654040130263158,0.11951050516139577,2.189542909341181,0.9700849029466864,-0.052466545381900355,0.23650703330038098,0.01571514842627313,0.0069782075624971185,0.011352548338704175,1758.6008135160664
1684734516823785543,76,1684734516823785543,camera_1,108,0,1.0682399996454544,0.12029143378554419,2.1953938323279263,0.9712378344336392,-0.051935121620628584,0.2318712913722315,0.01534654176937605,0.005746223891037516,0.00938068850167677,1757.6472793754074
1684734516833687067,77,1684734516833687067,camera_1,109,0,1.0664806019983595,0.12058284363923928,2.191725562387689,0.9747241664642575,-0.04426341601621409,-0.21284732939135736,-0.05147391265584004,0.003442999342951225,0.00560567159887554,1759.9068972204113
1684734516844089746,78,1684734516844089746,camera_1,111,0,1.06797991427254,0.12109795677924956,2.1949854156843425,0.9711587416079693,-0.05194685460037518,0.2319616707889946,0.018601241365324764,0.0010740756151790267,0.001750524143024617,1757.587980119802
1684734516853717803,79,1684734516853717803,camera_1,112,0,1.068551943276019,0.12137368950579214,2.1961867110002133,0.970996616252046,-0.05201853146870532,0.23252225227346782,0.01982538293678456,0.00032580355764366686,0.0005314365461486406,1754.4253738133707
1684734516863685607,80,1684734516863685607,camera_1,114,0,1.0684611929795,0.1210961305104422,2.196041354936463,0.9710406513781039,-0.05234280735620557,0.23233345183829593,0.019011865930546688,0.0002827470343618188,0.0004612681717902743,1755.117529013776
1684734516873716831,81,1684734516873716831,camera_1,115,0,1.0650204775127738,0.1203154319741973,2.188816193973155,-0.9739797432812141,0.04353332320651169,0.21584678288412615,0.05365142837828931,0.0016530712600797415,0.002685193172554078,1758.695271943755
1684734516883670091,82,1684734516883670091,camera_1,117,0,1.0676541100401806,0.12011640072376946,2.194282495580276,0.9707002085545774,-0.05222845774220179,0.23384875547173123,0.018112230075105474,0.003314043820864754,0.0054032519697576635,1755.2045038755741
1684734516893734931,83,1684734516893734931,camera_1,118,0,1.0675544953313891,0.1194292913734133,2.1938358164982845,0.9745174290462506,-0.043561524609321375,-0.21363911453619372,-0.05269253077039255,0.00879440695644007,0.014346537917762709,1754.353944162052
1684734516903649806,84,1684734516903649806,camera_1,120,0,1.1806131557897055,0.1319749265653355,2.42616387366744,0.997212839068829,-0.05031665678419723,0.054948682679153336,-0.003928093452659784,4.489741411314753,8.09518557369021,1756.1440501009647
1684734516913627624,85,1684734516913627624,camera_1,121,0,1.0656325338184112,0.11937288410015565,2.1899560145794075,0.9697764677411204,-0.05293206637229969,0.2377638232944077,0.014147907885624951,0.008494013134622946,0.013840882134144711,1756.0176083004042
1684734516923597812,86,1684734516923597812,camera_1,123,0,1.0665175197320342,0.11981633606453455,2.191840115295521,0.9706396099022877,-0.05190514355765953,0.23414293919131496,0.0184847988316295,0.00705555748209008,0.011477698734259047,1758.4157613286216
1684734516933715820,87,1684734516933715820,camera_1,124,0,1.0663866303741567,0.12072477880553803,2.191677455524343,0.9706327950389659,-0.05289966323723258,0.2341300302570168,0.016022851059676723,0.002277043578942539,0.003707392738231879,1759.7111807772308
1684734516943662166,88,1684734516943662166,camera_1,126,0,1.068744826728001,0.1213214355312807,2.196549633826749,-0.9710800329808535,0.05176871197141448,-0.23230444475597087,-0.018926567394679593,0.00022925049779587425,0.0003741563330065794,1754.4595505282339
1684734516953663587,89,1684734516953663587,camera_1,127,0,1.0684945890555406,0.12141906526432042,2.19603671561189,-0.9709041579980949,0.0523320060358315,-0.2329410243812034,-0.018572998856183395,0.0015275759651558474,0.0024930831377471038,1754.3049105399405
1684734516963649988,90,1684734516963649988,camera_1,129,0,1.0681971807476471,0.12121180270003931,2.1954953765809235,0.970948365931059,-0.051847625144297776,0.23277299314308972,0.019693352327877126,0.0007794170851411764,0.0012707363228330875,1755.0939870791335
1684734516973676443,91,1684734516973676443,camera_1,130,0,1.0679539045498299,0.12039185221033008,2.1949299261940056,0.9706409243439432,-0.05315864137921793,0.23401383117377048,0.016367090603561292,0.001464769389713183,0.0023915621674209797,1754.4249721170927
1684734516983580112,92,1684734516983580112,camera_1,132,0,1.0675074062068197,0.11984577751520163,2.193994609074274,0.9708037325612738,-0.05222566218836744,0.23352051129948925,0.01675600956404291,0.004777525380632142,0.0077905306291660035,1756.5124771501291
1684734516993578672,93,1684734516993578672,camera_1,133,0,1.0663239762315502,0.11940606716420109,2.1914446658375395,0.9700673167689787,-0.05249138835724064,0.23659170833588947,0.015440810589755766,0.005220598763116868,0.008509135489269688,1755.40037106385
1684734517004413843,94,1684734517004413843,camera_1,135,0,1.0679608230971709,0.1194129552839196,2.194746989615535,0.9706867935133855,-0.05249467402302167,0.23388595277105734,0.017573252240084904,0.010624672682752134,0.01733549404449587,1754.2247976923832
1684734517013875246,95,1684734517013875246,camera_1,136,0,1.0668047774817333,0.11965732228768235,2.192415618494019,0.9706892286875733,-0.052463629710237304,0.23398674958372365,0.016130402561464634,0.008422006460023113,0.013720582315711409,1758.3188473064215
1684734517024047374,96,1684734517024047374,camera_1,138,0,1.067064850999892,0.12016871190516376,2.1930049006823205,0.9705246196479747,-0.05215618095508192,0.23473897390984264,0.0161030920350498,0.005856224091985496,0.009548235530541741,1756.2688661302661
1684734517034011363,97,1684734517034011363,camera_1,139,0,1.065880659356615,0.12051203933323726,2.190487452971968,0.974589957332571,-0.04394584027502623,-0.21329774721743378,-0.05241420819765469,0.002811877948261099,0.004571998268504853,1760.842784665059
1684734517043917894,98,1684734517043917894,camera_1,141,0,1.0686122114738925,0.12119414928466879,2.1962972440869923,0.9711601994115309,-0.05165903328879223,0.23192969211181053,0.019693381516230197,0.00035147779271937907,0.0005732502135458517,1755.250211399922
1684734517053876638,99,1684734517053876638,camera_1,142,0,1.067938236038033,0.12127826722042394,2.1949325160869915,0.970935081494515,-0.0514580859773624,0.23287294245259743,0.020182308694866834,0.00012403601795085706,0.00020208156733387186,1755.7249488275556
1684734517063686847,100,1684734517063686847,camera_1,144,0,1.0687661162441064,0.12112470713070267,2.196664129910849,0.9711842675978588,-0.052561685242516636,0.23166991720890465,0.019168648238637433,6.369221955537796e-05,0.00010393254252811983,1755.2163514050185
1684734517073619127,101,1684734517073619127,camera_1,145,0,1.0661604624074281,0.12045562312143772,2.1912647539009757,-0.9705323013885236,0.05242685032115723,-0.23448865065624006,-0.018263352384345507,0.0014873030158923939,0.002418709195669433,1759.0698713981556
1684734517083625078,102,1684734517083625078,camera_1,147,0,1.0683735287870342,0.12019588105426525,2.195761759127354,0.9709823927055586,-0.05164003345384008,0.23271391098944974,0.019254496427311158,0.003572921923478134,0.0058275734544770965,1754.5071109918358
1684734517093727350,103,1684734517093727350,camera_1,148,0,1.06747078231926,0.11943300407620534,2.1936482593304363,0.9745840932283757,-0.04323949192462251,-0.21348128539705188,-0.05236346388034097,0.009839738926530117,0.016049670997158576,1754.9971031067544
1684734517103886127,104,1684734517103886127,camera_1,150,0,1.0678433643793783,0.11941323520691725,2.194367330193795,0.9745702925725933,-0.0433078960513477,-0.21367165157150955,-0.05178413163585051,0.009813216100155842,0.01600346389856733,1755.8548517280435
1684734517113879442,105,1684734517113879442,camera_1,151,0,1.0656766577438623,0.11937626644199227,2.1899329295572274,0.9742996389650681,-0.04342264848818882,-0.2148658269979505,-0.05183978683690859,0.00888927861888078,0.014461680688315444,1758.7005200727156
1684734517123831748,106,1684734517123831748,camera_1,153,0,1.066330292551888,0.11978684166921616,2.1914737746057966,0.9704921378055968,-0.051836827990635805,0.2348425817170475,0.01751900493360113,0.006563858158187941,0.010681348396299787,1758.045799107466
1684734517133803844,107,1684734517133803844,camera_1,154,0,1.0671095077844652,0.12081508767818293,2.1931578286202926,0.9709303905163543,-0.052458008533672246,0.2328888673709897,0.017467385811808848,0.002658466954017058,0.00432939906879918,1759.1293919479645
1684734876413232803,108,1684734876413232803,camera_1,155,0,1.0666761663343922,0.11943421328402097,2.1926495675257147,-0.9702263478966582,0.05274004680304434,-0.23557916548299995,-0.019539142782088362,0.0007102157142071519,0.0011563693278674589,1754.20675678848
1684734517143782854,109,1684734517143782854,camera_1,156,0,1.0687443360603817,0.12131993597332516,2.196559369442989,-0.9712623246880577,0.05171927163462107,-0.23150758085753206,-0.019464161647177982,0.00040613887904328294,0.0006625007038859048,1755.6728098338945
1684734517153790235,110,1684734517153790235,camera_1,157,0,1.0699276728994493,0.12158362440625031,2.1988989906604073,-0.9755678576839638,0.04376593525192829,0.20879704287591738,0.05249469355770716,0.0019002470835403074,0.003107198564250608,1755.3542678798544
1684734517163675785,111,1684734517163675785,camera_1,159,0,1.0677420397426618,0.12116796763349277,2.194537743810212,-0.9707467733456486,0.052069733399482586,-0.23359082981351595,-0.01935895476909337,0.0011997652945865411,0.0019552743042090563,1755.2988409744862
1684734517173971652,112,1684734517173971652,camera_1,160,0,1.0679232837262744,0.12039277294112848,2.1948891059266726,0.9707132014720246,-0.052681119316692844,0.2337123343735593,0.0178640677656196,0.0023158629810495768,0.003778145243037476,1754.6287445064224
1684734517183751344,113,1684734517183751344,camera_1,162,0,1.0668246245556177,0.11975512573199172,2.192549670130179,0.9707576306706993,-0.05238685119569346,0.23365956721915251,0.016983726427639328,0.006227422800293425,0.010141382555387941,1758.5061046983765
1684734517193869590,114,1684734517193869590,camera_1,163,0,1.0654026024941037,0.11929525012447394,2.1895416279982745,0.9697548024598629,-0.052573980611149033,0.2377794599456683,0.01650842502109387,0.006135793693829328,0.009984335407221276,1756.0416554873232
1684734517203831911,115,1684734517203831911,camera_1,165,0,1.1799192753819572,0.13187800948819947,2.424723733967053,0.9967151310784204,-0.04994475670619076,0.0625235325145323,-0.012461004726386444,4.508703820392838,8.122492507465166,1756.1979443781315
1684734517213822364,116,1684734517213822364,camera_1,166,0,1.0658077910325254,0.11954510187128634,2.190349407243392,0.9701322692503691,-0.05303370644631377,0.23620831850520274,0.015376488826786728,0.015003386204625713,0.02442780698841424,1757.9610726941605
1684734517223830461,117,1684734517223830461,camera_1,168,0,1.0683758957428944,0.12032681943093634,2.1955443424138563,0.9751300990144117,-0.04341915369183767,-0.21101015825474154,-0.05206515343430085,0.003918157788575627,0.006395314355937471,1756.6205093128372
1684734517233811140,118,1684734517233811140,camera_1,169,0,1.06433512035026,0.12033573675246113,2.187304624790414,0.9741712275897533,-0.04416407525285591,-0.21555972057238257,-0.05073421587143692,0.0036196361215843353,0.005877963711091137,1762.4220796852314
1684734517243883848,119,1684734517243883848,camera_1,171,0,1.0680813486395921,0.12113553292737604,2.1951787274309735,-0.9711600206197579,0.051862134488928825,-0.2318269588909953,-0.020366504055346245,0.0014742777129868045,0.002401345512757929,1757.0189978349958
1684734517253835439,120,1684734517253835439,camera_1,172,0,1.0683874567757692,0.12137275975434905,2.1958302102538436,-0.9709235355554157,0.052614495678734205,-0.2327502529114346,-0.019144783067648104,0.0034369524837529752,0.005606613521312532,1754.788529690967
1684734517263968467,121,1684734517263968467,camera_1,174,0,1.0689627303441094,0.12114388284345358,2.1970542403074345,0.9712942964806266,-0.0524579364163158,0.23136504648745826,0.01748627447465131,0.00026227926719002426,0.00042836122886453414,1755.5937813157514
1684734517273816347,122,1684734517273816347,camera_1,175,0,1.0668052858629078,0.12052841697275944,2.1925849199788012,-0.9704177093709251,0.05271291186887516,-0.23488780824510158,-0.018399342363345644,0.0014579702728951816,0.0023741964055679966,1756.2011126652665
1684734517283762931,123,1684734517283762931,camera_1,177,0,1.0675904352541912,0.12009478977425664,2.194175054987399,0.9706872847452942,-0.05176011829302782,0.23401302608262683,0.018027451615574223,0.004661073417082662,0.0075991833996780596,1755.1250679412626
1684734517293765068,124,1684734517293765068,camera_1,178,0,1.067855060909865,0.11947484164131295,2.1944426590269845,0.974834030781549,-0.042975568703908694,-0.21185414105304726,-0.0544934477111639,0.008185186976334082,0.013340086784333658,1755.9697032596455
1684734517303839921,125,1684734517303839921,camera_1,180,0,1.1592230576352436,0.1295679755428937,2.3822113158529477,0.9909009417163466,-0.051370147834064,0.12200958675877978,0.02429181664914857,3.267098330958106,5.7809010339257725,1757.9824096436196
1684734517313823461,126,1684734517313823461,camera_1,181,0,1.0658632027293753,0.11939594174151735,2.1904589961375622,0.9703046226799685,-0.05288064655832139,0.23552609176690037,0.015493112097559027,0.004530081176199019,0.007373862044724589,1758.8464466195728
1684734517323828458,127,1684734517323828458,camera_1,183,0,1.0663549321270367,0.11979169734538121,2.191532157569683,0.9704539013284016,-0.05268131038385046,0.23485969984631758,0.016876798298939625,0.00881138387194369,0.014344547272633497,1758.0673838696093
1684734517333761453,128,1684734517333761453,camera_1,184,0,1.0667398716171033,0.12077180586663545,2.1923987562662615,0.9707952071094309,-0.052497530515005636,0.2335297078711286,0.016265014134900214,0.002435379341477528,0.003966284106094115,1759.5550623197346
1684734517343837976,129,1684734517343837976,camera_1,186,0,1.0684742635921256,0.12130676911846996,2.1959938877785943,-0.971202688996553,0.05169383550848131,-0.23182499779282154,-0.01871509162801254,0.0018463970081938896,0.0030115642886522644,1756.2530238542236
1684734517353802680,130,1684734517353802680,camera_1,187,0,1.0689116645833836,0.12147640512670921,2.196803280407251,-0.9751469077757622,0.044107493249194274,0.21076154516637907,0.052178619890928445,0.0016604748998361174,0.0027125702302632656,1755.4283013581296
1684734517363680362,131,1684734517363680362,camera_1,189,0,1.0680179263926957,0.12120305823279659,2.1951102998810583,-0.97079503426358,0.051673757233387956,-0.23340619082448938,-0.02020827423017226,0.00024259868951048702,0.00039539634673850624,1754.4697514926668
1684734517373837232,132,1684734517373837232,camera_1,190,0,1.0676531557005546,0.12035973976836328,2.1941751138632126,0.9747914590623087,-0.043596865018557855,-0.21231183573782744,-0.052958560265200225,0.003405491301236907,0.005552482598906945,1756.4026143245283
1684734517383844614,133,1684734517383844614,camera_1,192,0,1.0660902118481281,0.11966776819098453,2.191057758944478,0.970412219449261,-0.052604428901911915,0.23499714093899093,0.017585282311156348,0.008535537595889764,0.01388604144442332,1758.3752693219865
1684734517393830060,134,1684734517393830060,camera_1,193,0,1.0668983958003686,0.11946505306806159,2.192607870572985,0.9703071403131878,-0.052845611071897676,0.23546940061509225,0.016295895852976215,0.00885496054252144,0.014436966923451026,1755.278561367595
1684734517403790473,135,1684734517403790473,camera_1,195,0,1.067075209675781,0.11932116392332769,2.1929333070431993,0.9703883806830289,-0.05165060672160209,0.23524700703934745,0.018369843213508784,0.00725545782916015,0.011820500303586555,1754.5496323284751
1684734517413786649,136,1684734517413786649,camera_1,196,0,1.0656551834923562,0.11954268585450067,2.1900361987467645,0.970166310589028,-0.05213833292448377,0.236347711722918,0.014095502873955399,0.007092192841810174,0.01154959582741291,1758.522736647864
1684734517423861026,137,1684734517423861026,camera_1,198,0,1.067729395698467,0.12024702212812066,2.194354018394123,0.970976773011022,-0.051987895509727565,0.232827451348057,0.017109730925409097,0.0031219357224472333,0.0050901444395149605,1757.190931354941
1684734517433886289,138,1684734517433886289,camera_1,199,0,1.0645272094982174,0.12034620530372866,2.1878192299163186,0.9703417715037973,-0.052194174456311304,0.235439695049169,0.01675603243166037,0.0030667567225464154,0.004976644115750068,1763.3628424002961
1684734517443724393,139,1684734517443724393,camera_1,201,0,1.0677015165859953,0.12107804083944691,2.1944006004743417,0.9708964652548806,-0.05222438966523334,0.23299021686859017,0.018660807142244322,0.0004494152271945495,0.0007323760214366124,1756.7113065787416
1684734517453782796,140,1684734517453782796,camera_1,202,0,1.0676614178850643,0.12125898531411894,2.1943578651681293,0.9708697577116161,-0.05185599679213119,0.23311235168101122,0.01953204166059251,0.0022670937178190798,0.003693093030204127,1756.4125423735825
1684734517464018583,141,1684734517464018583,camera_1,204,0,1.0682079035805883,0.12106312895932024,2.1955178712347605,0.9710991932921881,-0.052303611207175714,0.23209588714768908,0.01903124302502127,0.0006738206429872662,0.0010986186810945434,1756.3603313792842
1684734517473956346,142,1684734517473956346,camera_1,205,0,1.06780911177274,0.1206325730853153,2.194495845177993,0.9746302231983919,-0.04376153721540248,-0.2127095994467033,-0.05418009036556817,0.0020110600635234732,0.0032787864497958535,1754.9422527235579
1684734517484015464,143,1684734517484015464,camera_1,207,0,1.0670264311441993,0.12004052340957587,2.192965557975977,0.9707383441396231,-0.051712532000564984,0.23387748197264696,0.017152395671960977,0.0034357480326434597,0.005596933687559077,1757.536752233049
1684734517493802547,144,1684734517493802547,camera_1,208,0,1.0675955383391806,0.11944819188550572,2.19403114474895,0.9706644889514539,-0.0518997355479305,0.23420427240702635,0.016285764488145935,0.002813365063047968,0.004589898594591731,1755.227599850391
1684734517503880739,145,1684734517503880739,camera_1,210,0,1.1721830270354856,0.13103739071188086,2.408823532264064,0.9937555817315242,-0.05055078669181944,0.09894045047987533,-0.010259093581682753,3.881105897413363,6.951478324946139,1754.0966455904713
1684734517513801574,146,1684734517513801574,camera_1,211,0,1.066898590882037,0.11951406006849119,2.1924549125890875,0.9746912314249055,-0.04414301115900028,-0.21318104437525717,-0.050815748231157434,0.007745650455035502,0.012627215165305704,1757.9102642916841
1684734876603764533,147,1684734876603764533,camera_1,212,0,1.067697501470756,0.11993295014158724,2.1942772314252847,0.970850136497037,-0.05189462877363496,0.2332632042513292,0.018580568089645814,0.014505524322885321,0.02364045084359452,1756.0104775732025
1684734517523822546,148,1684734517523822546,camera_1,213,0,1.067697501470756,0.11993295014158724,2.1942772314252847,0.970850136497037,-0.05189462877363496,0.2332632042513292,0.018580568089645814,0.014505524322885321,0.02364045084359452,1756.0104775732025
1684734517534025430,149,1684734517534025430,camera_1,214,0,1.0669509835905755,0.12079560621895043,2.1928609966751385,0.9708373081959173,-0.052696252201053166,0.23331202470582538,0.016233457627281078,0.0009608953696442768,0.0015654698567126302,1759.202094352164
1684734517543807744,150,1684734517543807744,camera_1,216,0,1.068126648124919,0.12125512077214819,2.195254120429217,0.9709879467838773,-0.05203532301583921,0.23263911828544112,0.01880885436277151,0.002275169041240588,0.003709709767508093,1755.9723777851616
1684734517553773880,151,1684734517553773880,camera_1,217,0,1.0676393639016333,0.12132884504725992,2.1943037470153035,-0.9705783448865418,0.05259334846826017,-0.2342919645958451,-0.01785753230478968,0.0005471216136356816,0.0008922934200579335,1754.9103659933319
1684734517564101934,152,1684734517564101934,camera_1,219,0,1.0678689650374869,0.12118848031245723,2.194816251114638,-0.9708670623818192,0.05147294282398355,-0.23322690199646587,-0.01931050295219119,0.00040548293327447027,0.0006608625196028902,1755.5268036878842
1684734517573830604,153,1684734517573830604,camera_1,220,0,1.0668599986710157,0.12027283205771515,2.192555041632111,0.9742385187696448,-0.04392620247491411,-0.21473186939771308,-0.0531038750622297,0.0055476275738328695,0.009040564751082721,1754.7366888409013
1684734517583848714,154,1684734517583848714,camera_1,222,0,1.0661273913177884,0.11969272790761898,2.1911355228698772,0.9702197999906209,-0.05278069721043205,0.23567055233152825,0.018631384057355174,0.004250521076755831,0.006914567308821031,1756.7690203139214
1684734517593712091,155,1684734517593712091,camera_1,223,0,1.1603588698228304,0.1298575100675304,2.3845719548703816,0.9914409018871655,-0.051830720073966996,0.118222268040491,0.019545072553977083,3.3101063419489947,5.866530603986579,1757.4396672783478
1684734517603812694,156,1684734517603812694,camera_1,225,0,1.0679741134917862,0.11942994225045209,2.1947787498591627,0.970902204269355,-0.052259290745493035,0.23310390359370278,0.016746534120933403,0.006629007100855233,0.01081597081124368,1755.7870599594316
1684734517613822937,157,1684734517613822937,camera_1,226,0,1.065597621180273,0.11952334561102804,2.1899616698041346,0.9700785857129918,-0.053096212077772646,0.23639222270487698,0.015717724031218933,0.009960169034457067,0.01621017868071199,1758.1110851853743
1684734517623750925,158,1684734517623750925,camera_1,228,0,1.0666325684166589,0.12011911798483778,2.1921239497196883,0.97057629098879,-0.05241893643213815,0.23448462622267915,0.015839145778023964,0.004214581469568657,0.006866229556801673,1758.1910009604474
1684734517633687496,159,1684734517633687496,camera_1,229,0,1.0668922321403218,0.12062736352908332,2.1926800452235717,0.9708215154229891,-0.052814521243126064,0.23339915880444317,0.01552559844413958,0.0020049257727805525,0.0032669855756722655,1759.450783985813
1684734517643916130,160,1684734517643916130,camera_1,231,0,1.0677151121412887,0.12107105909829836,2.194433199422639,0.9711503049733566,-0.05208586687778979,0.2318534688046913,0.019952860070115996,0.0009499669540673494,0.0015466192289659757,1758.2610985076176
1684734517653651714,161,1684734517653651714,camera_1,232,0,1.0690767987271885,0.12142438049720683,2.1973034811066974,-0.9713593936497078,0.05166610452200481,-0.23112515399887099,-0.01930557435021075,0.00022350602375809103,0.00036479265718479054,1755.226884218457
1684734517663869857,162,1684734517663869857,camera_1,234,0,1.06742633969139,0.1209671745782142,2.193930168933642,0.9707214429549758,-0.052365871022019006,0.23365510799123146,0.019052198012853464,0.0006403914485417772,0.0010432741393675547,1756.173131241231
1684734517673730134,163,1684734517673730134,camera_1,235,0,1.065522447394379,0.12037118841817279,2.189801324504881,0.9742028843575324,-0.04362922279136047,-0.21501354487490967,-0.0528621466496721,0.0012315172789385542,0.00200219706469612,1758.7843004579192
1684734517683725595,164,1684734517683725595,camera_1,237,0,1.067077930946264,0.12004381960011723,2.1930610194046505,0.9707655746580968,-0.05164766850591224,0.2336862564313503,0.0183698380978092,0.003661814291262999,0.005962315879746142,1757.3827216181376
1684734517693823337,165,1684734517693823337,camera_1,238,0,1.066251680086764,0.11929002551903035,2.191256977208334,0.9701247848664589,-0.05194205525199592,0.23636380262974876,0.017090274731865456,0.007900775297457585,0.012865169423277882,1755.6279210473294
1684734876694141149,166,1684734876694141149,camera_1,239,0,1.0677980573996042,0.11942538754341814,2.194413570826083,0.9708861302494035,-0.05188164531682788,0.23324461436683339,0.01689280430906553,0.006553074174007634,0.01068819389893483,1756.1010016610965
1684734517703960657,167,1684734517703960657,camera_1,240,0,1.0677980573996042,0.11942538754341814,2.194413570826083,0.9708861302494035,-0.05188164531682788,0.23324461436683339,0.01689280430906553,0.006553074174007634,0.01068819389893483,1756.1010016610965
1684734517713964939,168,1684734517713964939,camera_1,241,0,1.159085259058691,0.12977712554923249,2.3819105879133806,0.9899352140791735,-0.05082878169419407,0.13038844753364967,-0.021060855330911288,3.3223171293357154,5.878975797581019,1757.59857028746
1684734517723746299,169,1684734517723746299,camera_1,243,0,1.0665374132994347,0.11980964127977528,2.19191549506112,0.9705869794687143,-0.05196905484085196,0.2344030941693358,0.01775731028585019,0.00887192516529467,0.01443929588809871,1758.0408658917877
1684734517733763694,170,1684734517733763694,camera_1,244,0,1.0674136510071368,0.12086073512338272,2.1936571128051923,0.9751465359372954,-0.04431278187752038,-0.21090869304143084,-0.05141141907518209,0.0031997008809412364,0.005214485588742942,1760.2546913854897
1684734517743707180,171,1684734517743707180,camera_1,246,0,1.0672581432338162,0.1211362021323336,2.193496085131875,-0.9708482649092944,0.05168620102213769,-0.23327803524151597,-0.019066762188939303,0.00017739929899107665,0.00028882401031819527,1757.6065021702675
1684734517753828763,172,1684734517753828763,camera_1,247,0,1.0679160707220645,0.12134502293646221,2.1948536685446536,-0.971013510366872,0.051615458562017526,-0.23274732315166466,-0.01724211959626707,0.0018598478236526717,0.0030332169185973696,1756.9277586897956
1684734517764252424,173,1684734517764252424,camera_1,249,0,1.0694336698991942,0.12136391070668005,2.1980301211269264,0.9711945926054594,-0.0517556278081377,0.23180204379036337,0.019241381933526043,0.0003200757346348837,0.0005229218068567118,1752.8732277022498
1684734517773974895,174,1684734517773974895,camera_1,250,0,1.0673538847890176,0.12033946300019184,2.1936803962938973,0.9706673566249986,-0.052326628282239475,0.2340026308604895,0.017594757901703343,0.0016939624620135874,0.0027610530461372224,1756.140513953636
1684734517783643960,175,1684734517783643960,camera_1,252,0,1.0666994904977694,0.11975161569174089,2.19231735894876,0.9704513163694919,-0.05284056910192207,0.23465774860745647,0.019179620230477857,0.005677805078448728,0.009240586013787078,1756.494829838165
1684734517793677568,176,1684734517793677568,camera_1,253,0,1.0671364376120902,0.11946449428884397,2.1930959196707778,0.9700776711005518,-0.05221404817723663,0.2368300057262926,0.011599723822542601,0.017316752553597325,0.028222362285837577,1756.9779391518673
1684734517803797245,177,1684734517803797245,camera_1,255,0,1.0670815976396093,0.11932330589035382,2.1929354749196763,0.970426430826934,-0.05212648703958376,0.23507356017791245,0.017198633861190263,0.008561567276046844,0.013954566461489034,1755.1637360796742
1684734517813784599,178,1684734517813784599,camera_1,256,0,1.0661689983639544,0.11961369365896303,2.1911340060167777,0.9703018715627377,-0.05205191144158263,0.23561273049027084,0.01707389200052146,0.008312822945299558,0.013530380732384472,1757.288647277223
1684734876753501892,179,1684734876753501892,camera_1,257,0,1.0684492182699088,0.12032950640520633,2.195814387625639,0.9711034082743714,-0.05214980182723407,0.23226796413657322,0.017034125839958326,0.004250431302352808,0.006938091475404463,1755.836884777674
1684734517823853492,180,1684734517823853492,camera_1,258,0,1.0684492182699088,0.12032950640520633,2.195814387625639,0.9711034082743714,-0.05214980182723407,0.23226796413657322,0.017034125839958326,0.004250431302352808,0.006938091475404463,1755.836884777674
1684734517833738327,181,1684734517833738327,camera_1,259,0,1.066727414726679,0.1206093152086557,2.1923496164906435,0.9706634015951076,-0.05263147126869233,0.2341039551484831,0.015421647763604778,0.00202801929845009,0.0033046726266038867,1758.7818917244729
1684734876763291597,182,1684734876763291597,camera_1,260,0,1.0687725115895486,0.12120026976784432,2.1966056886602887,0.9715405674591152,-0.05175084992868842,0.23029832336668563,0.019835764854730497,0.0006461740413215011,0.0010534511222466882,1757.5173415117888
1684734517843614816,183,1684734517843614816,camera_1,261,0,1.0687725115895486,0.12120026976784432,2.1966056886602887,0.9715405674591152,-0.05175084992868842,0.23029832336668563,0.019835764854730497,0.0006461740413215011,0.0010534511222466882,1757.5173415117888
1684734517853640556,184,1684734517853640556,camera_1,262,0,1.0678566270542535,0.12127990300755234,2.1947479236172036,-0.9707760512426169,0.0522327257192219,-0.23347550010962467,-0.01883591108211609,0.0022605818667216226,0.003685459805843919,1755.342087539553
1684734517863680839,185,1684734517863680839,camera_1,264,0,1.0678104335489251,0.12100754404361634,2.194679726894288,0.9709250913937773,-0.05215314522426158,0.23290309677397086,0.018457081521652378,0.0005875984497833997,0.0009578281819735013,1756.460324916348
1684734517873887538,186,1684734517873887538,camera_1,265,0,1.0673760925648719,0.12058548935347957,2.193641010712243,0.9746249364188608,-0.044115110456601825,-0.21312503941718436,-0.052324066292259525,0.0015733199543319643,0.002565476958715285,1756.1234507600316
1684734517883650541,187,1684734517883650541,camera_1,267,0,1.068376708346097,0.12018635869535754,2.19577208991324,0.9711730930099596,-0.05267751013075266,0.23177555534431485,0.01811064009712056,0.0050939383945660666,0.008309801814709077,1756.4081753410862
1684734517893691301,188,1684734517893691301,camera_1,268,0,1.0669717034156156,0.11936319850912724,2.1927590887654196,0.970575222290832,-0.05234256713607817,0.23439515898919788,0.017404108225817803,0.007953464104502928,0.012956758570228715,1756.601536468283
1684734517903738260,189,1684734517903738260,camera_1,270,0,1.0662743068193952,0.11924890714469646,2.191263564185,0.9701846952204534,-0.05225138655859293,0.23593273960680936,0.018633092720374812,0.008069568040809827,0.013130110835011836,1755.9143842000044
1684734517913702964,190,1684734517913702964,camera_1,271,0,1.0650169745912828,0.11929157621703058,2.188704750844759,0.9700905809247724,-0.05304533649874343,0.23627503590362936,0.01686903925869573,0.011322963095153682,0.018397870657260732,1759.9500363487166
1684734517923738718,191,1684734517923738718,camera_1,273,0,1.0666211086273432,0.11982513408346818,2.192055001804437,0.9703259381681347,-0.05205046575550429,0.2355029533718195,0.017224450235494092,0.0038240227331698406,0.006228665477801038,1756.0252992464525
1684734517933713674,192,1684734517933713674,camera_1,274,0,1.0669606263833955,0.12081077619458737,2.192854705805822,0.9705971518337654,-0.05273315281522845,0.23435086540213457,0.015493719102236974,0.001467940048314631,0.002393294342207303,1757.5866170297954
1684734876813679456,193,1684734876813679456,camera_1,275,0,1.0683582646525893,0.12127501986391813,2.1957404362234936,0.9712197771651798,-0.05162124082420072,0.23174412572680436,0.019027667489933817,7.946908590383828e-05,0.0001295693680211363,1756.6934296184922
1684734517943728685,194,1684734517943728685,camera_1,276,0,1.0683582646525893,0.12127501986391813,2.1957404362234936,0.9712197771651798,-0.05162124082420072,0.23174412572680436,0.019027667489933817,7.946908590383828e-05,0.0001295693680211363,1756.6934296184922
1684734517953783273,195,1684734517953783273,camera_1,277,0,1.0672631476256438,0.12127244586945303,2.1935503162956778,-0.9706735890572553,0.05224203683298122,-0.23394149380448603,-0.0183011084575182,0.0014546776255883744,0.002369925237052636,1756.620558359661
1684734517963702440,196,1684734517963702440,camera_1,279,0,1.0676320967669928,0.12115967108854642,2.194323053625309,0.9706303698725636,-0.051824304990279145,0.2341678275292885,0.01887736855439201,0.0007871658635849599,0.0012831435046731122,1754.7744166671769
1684734517973662137,197,1684734517973662137,camera_1,280,0,1.0686406980369358,0.12048962529916374,2.1963573015440385,0.9711105932044425,-0.052254017429717324,0.23212186971718946,0.018252973115814572,0.0012238309464009942,0.0019975564262420245,1754.9580732209145
1684734517983683347,198,1684734517983683347,camera_1,282,0,1.067580034454295,0.11985238820410735,2.1941054732974767,0.9710914266837467,-0.051987145384204146,0.23229744998846216,0.017795293337987867,0.00991535333741922,0.01615539274446097,1758.1761907671753
1684734517993740797,199,1684734517993740797,camera_1,283,0,1.1831520290246758,0.13242469342535856,2.4314212066858056,0.9973379835591497,-0.050004431596137495,0.04916250638406218,-0.019988780276784787,4.785298366114148,8.64814778802723,1755.8301124801503
1684734518003661155,200,1684734518003661155,camera_1,285,0,1.1582530707258778,0.12945826867880578,2.380217387583128,0.9906840201297603,-0.05101205173845136,0.12392696695224363,0.024187800623199876,3.2201090126509366,5.690051644764729,1757.7164034042225
1684734518013759851,201,1684734518013759851,camera_1,286,0,1.0671318118235988,0.11970512278786988,2.1930796033218662,0.9706239978243005,-0.05242952766353825,0.23431828285929987,0.015334333843366556,0.008744168666453334,0.014260539192044062,1756.8888669539883
1684734876853673696,202,1684734876853673696,camera_1,287,0,1.0663021498422274,0.12008267544391212,2.1912814471091986,0.9743330408802913,-0.04329850582989708,-0.21495949590304253,-0.0509193476290981,0.004573642585455673,0.007451915542810454,1756.8364092740217
1684734518023699522,203,1684734518023699522,camera_1,288,0,1.0663021498422274,0.12008267544391212,2.1912814471091986,0.9743330408802913,-0.04329850582989708,-0.21495949590304253,-0.0509193476290981,0.004573642585455673,0.007451915542810454,1756.8364092740217
1684734876863367795,204,1684734876863367795,camera_1,290,0,1.0661437374313623,0.12098110852214383,2.1918341742871483,-0.9701443773570565,0.05194300605500515,-0.23623749663599836,-0.01771034690839086,0.0014273954475356732,0.00232430881113967,1755.5458457955388
1684734518043718576,205,1684734518043718576,camera_1,291,0,1.0681435486034532,0.12112490750254713,2.1953039973299053,0.9711500748275045,-0.05193375249726777,0.23199762474738045,0.01864187827603455,0.0001611997176951263,0.00026279638150014174,1757.0070439717379
1684734518053640842,206,1684734518053640842,camera_1,292,0,1.0686172392479234,0.12139393306651289,2.1963069909367396,-0.9711508154235914,0.05185384717532525,-0.23199238905079408,-0.01888924714530993,0.001711926845018752,0.002793053409699371,1755.4370172776398
1684734518063823699,207,1684734518063823699,camera_1,294,0,1.067800915184513,0.12101447995218505,2.1947006925866153,0.9708487319007774,-0.05232096982781146,0.2332235601839807,0.0179451067993187,8.523711585439742e-05,0.00013899200351355132,1756.0146231147519
1684734518073575496,208,1684734518073575496,camera_1,295,0,1.066424385564001,0.12046778516774548,2.191694785321334,0.9744233317029317,-0.04419930715256478,-0.21395453080444424,-0.05262176952974814,0.0010513058223295957,0.001711648469267701,1757.7161021221555
1684734518083893060,209,1684734518083893060,camera_1,297,0,1.0671949851511264,0.12006764334566422,2.193342300177416,0.970312386976412,-0.05219698040212987,0.23548392553129788,0.01779516039286112,0.00743136869641603,0.012115685273432228,1753.925681826891
1684734518093996524,210,1684734518093996524,camera_1,298,0,1.066896658227897,0.11935971403738484,2.19260033082527,0.9705463435475706,-0.05206694567008688,0.2346022754208715,0.017047010364841752,0.007212039974547224,0.011749579592584835,1756.6016771673462
1684734518104001522,211,1684734518104001522,camera_1,300,0,1.0671352822752231,0.11933972182566888,2.1929255685951166,0.974439564164432,-0.043106355648149824,-0.21404308914439144,-0.05286713424513337,0.011539051607542206,0.01880972232521397,1754.9973558064373
1684734518113961935,212,1684734518113961935,camera_1,301,0,1.065730060743797,0.11937882508338711,2.190167871767784,0.9701431462238439,-0.052279452383943846,0.23634005366895924,0.015248400738767294,0.0064555854369245935,0.010509416849947276,1757.9552485892782
1684734518123708486,213,1684734518123708486,camera_1,303,0,1.0669956155798161,0.11986507973118223,2.1928281086989037,0.970863321496939,-0.05124219320654545,0.23340189872899256,0.01794999378872955,0.003921809566236335,0.006384523492045916,1758.3023896380325
1684734518133776903,214,1684734518133776903,camera_1,304,0,1.0660584534658293,0.1206940256258062,2.1910177424909745,0.9706362193672657,-0.0525168068033388,0.23414224634021727,0.01687374097108267,0.0016853012966748793,0.002741282514598409,1760.5351859328814
1684734876913830518,215,1684734876913830518,camera_1,305,0,1.0693601070666223,0.12140948334477482,2.1978228892760625,-0.9716960443177525,0.0522157286564204,-0.22959535320938124,-0.01913867609766003,0.0013257456048449967,0.0021637500357167775,1757.0283447552952
1684734518143888473,216,1684734518143888473,camera_1,306,0,1.0693601070666223,0.12140948334477482,2.1978228892760625,-0.9716960443177525,0.0522157286564204,-0.22959535320938124,-0.01913867609766003,0.0013257456048449967,0.0021637500357167775,1757.0283447552952
1684734518153839349,217,1684734518153839349,camera_1,307,0,1.0694828234893334,0.12154148158830592,2.197958196148348,-0.9752713052344336,0.043377836921604226,0.21017500392163338,0.052827191642830555,0.0023175619571702555,0.0037878704296866214,1754.384750239551
1684734518163767814,218,1684734518163767814,camera_1,309,0,1.0678381687878225,0.12118570443742709,2.1947301670800137,-0.9707247588696587,0.052231073614513096,-0.23360272771269222,-0.019877702878052524,0.0003788543108385056,0.0006174225488241191,1754.8119315908975
1684734518173680067,219,1684734518173680067,camera_1,310,0,1.0672332788082126,0.12032145946416892,2.193433888176153,0.9707332574074168,-0.052188041160284485,0.23370878923950736,0.018263437662228713,0.002300802996614948,0.0037478612555022885,1756.8628373122779
1684734518183851480,220,1684734518183851480,camera_1,312,0,1.0664026209115165,0.1197305954616806,2.1916913115188144,0.9706040797448025,-0.05207957608001154,0.23439388039871029,0.01658152495118282,0.003148138293909142,0.005124934404982154,1758.7240664815472
1684734518193786859,221,1684734518193786859,camera_1,313,0,1.0666393020510618,0.11943452431259856,2.192096127659957,0.9703780755364283,-0.05279118488635986,0.23516732035248278,0.016607611349761367,0.008762161323829787,0.014275349798859527,1756.5477776207256
1684734518203834772,222,1684734518203834772,camera_1,315,0,1.0678513654418325,0.1194099870475698,2.194552301437551,0.970862405588413,-0.05241058714420768,0.23312778422958505,0.018186698174310203,0.010380534953583265,0.01692449670261768,1755.6997830235332
1684734518213938713,223,1684734518213938713,camera_1,316,0,1.066638199662928,0.11964338379594308,2.1920882826980788,0.9704515824668776,-0.05289259026221901,0.23496355157712517,0.0147725899269504,0.009650030202465132,0.015732156104892328,1757.4754964690655
1684734518223739624,224,1684734518223739624,camera_1,318,0,1.0675554172186184,0.12022841961433521,2.193983547860279,0.9708728743796443,-0.051493403582039805,0.23342388831844252,0.016357858773203532,0.0030488146767311264,0.004971772144330343,1756.9584132567975
1684734518233781099,225,1684734518233781099,camera_1,319,0,1.0657457864525817,0.12049611487977178,2.190323230720868,0.9703562102806006,-0.053019737457649464,0.23518702861637836,0.016875846064465558,0.004117099630093435,0.006695924013627024,1759.724598288739
1684734518243798017,226,1684734518243798017,camera_1,321,0,1.068135052638047,0.12112367293873914,2.1952876466428592,0.971276077650403,-0.052405121365072554,0.23131507978377258,0.01923065530311592,0.0005838638644490857,0.000951390677645658,1758.0319085582157
1684734518253802061,227,1684734518253802061,camera_1,322,0,1.0692304399413506,0.12143707732018733,2.1975768206031665,0.9711377883158109,-0.05229816843521423,0.23180155199738806,0.02059947026017175,0.001088243898266228,0.0017763346768175125,1753.2134757705503
1684734518263871192,228,1684734518263871192,camera_1,324,0,1.0672783612721977,0.12094997291904752,2.1936079686293946,0.9707535424427992,-0.05215730160599427,0.23371325013629626,0.01718407503088136,4.9134541768580675e-06,8.008104493441721e-06,1757.118949086085
1684734518273739337,229,1684734518273739337,camera_1,325,0,1.0650848618710347,0.12032055380394428,2.1890474458943965,0.9699973270992968,-0.05218211019691675,0.2368016275465381,0.017527178521572404,0.002451168344123289,0.003983078508470032,1758.744344268634
1684734518283782958,230,1684734518283782958,camera_1,327,0,1.0669524598955238,0.12003818313244673,2.1928757110678254,0.9707102817948959,-0.051867537028101394,0.23383389669652124,0.018788724704811164,0.0026544045394985005,0.0043208847759485585,1757.3066860396648
1684734518293790578,231,1684734518293790578,camera_1,328,0,1.0664062480852312,0.11929597200146576,2.1914611959249832,0.9744435198527224,-0.04299777372464282,-0.2141938399704449,-0.052268699911869006,0.007112184921425069,0.011581337280857168,1757.2694238623944
1684734518303726911,232,1684734518303726911,camera_1,330,0,1.0677521274603177,0.1194014669789924,2.194313663577057,0.9707925513173555,-0.05214625417693164,0.23354054209878466,0.017361039089306182,0.010127457138878526,0.016516131405740965,1755.5972119221997
1684734518313760995,233,1684734518313760995,camera_1,331,0,1.0656316407000381,0.11937426912475708,2.189993881215613,0.9702819097371673,-0.052730651321108865,0.23566186718140333,0.015361588609963043,0.004654748878238023,0.007574283331624973,1759.3970990668176
1684734518323876142,234,1684734518323876142,camera_1,333,0,1.0662767461112643,0.11979014132692907,2.19134700617867,0.970194070483354,-0.051711547141482433,0.23618175257390728,0.016357299358168254,0.006148892076453194,0.010015064271772638,1756.2086187634554
1684734518333881139,235,1684734518333881139,camera_1,334,0,1.0672726427187718,0.1208278637021915,2.1934746204983235,0.9709433983172683,-0.052659177238047694,0.2328024794305261,0.017289704674341513,0.004221536411932902,0.006877233815473893,1758.820942570222
1684734518344166994,236,1684734518344166994,camera_1,336,0,1.0691809964446266,0.1213791722074498,2.1974431230788363,-0.9713040068341063,0.05172092045614601,-0.2313954188351537,-0.018698471522643215,0.0016413348057540134,0.002680198872371686,1754.6787610334873
1684734518353883028,237,1684734518353883028,camera_1,337,0,1.068432841611978,0.12141811926203051,2.19595316731209,-0.9709968011550361,0.0526159466845793,-0.2325744090334557,-0.01749052783399546,0.0016973650053841993,0.0027707811124185505,1755.3789253487785
1684734877023643970,238,1684734877023643970,camera_1,338,0,1.0679363192436524,0.1212037507741577,2.194946092736567,-0.9706893700176144,0.05198155314905708,-0.2338470090002128,-0.019381471788108697,0.0008988106128526852,0.001465473277761127,1754.2009110325025
1684734518363704204,239,1684734518363704204,camera_1,339,0,1.0679363192436524,0.1212037507741577,2.194946092736567,-0.9706893700176144,0.05198155314905708,-0.2338470090002128,-0.019381471788108697,0.0008988106128526852,0.001465473277761127,1754.2009110325025
1684734518373967647,240,1684734518373967647,camera_1,340,0,1.065676374011656,0.12013607974845004,2.1902512942146903,0.9700521915318676,-0.05241844408398692,0.2364908374742874,0.0179759899517449,0.0008732426213100553,0.0014201620103314165,1757.1313951276834
1684734518384081125,241,1684734518384081125,camera_1,342,0,1.0672787467517466,0.11982163794403698,2.1934645576938645,0.9708174486096873,-0.05238176287403064,0.23345299732845712,0.016411289758741014,0.009719395111460472,0.01584367033318067,1757.5577562256954
1684734518393726110,242,1684734518393726110,camera_1,343,0,1.0665349371166877,0.11941998515224747,2.191864027123065,0.9703822583142436,-0.05275518914348552,0.23522461230143255,0.015637919779328092,0.009714403149700956,0.015829852723382744,1757.0796216571468
1684734518403629541,243,1684734518403629541,camera_1,345,0,1.0676503984398438,0.11938077455192929,2.1939763146854334,0.9747784153349437,-0.04349772312081738,-0.21244484772529867,-0.05274633404678785,0.009621146295103244,0.01568934685766431,1756.1495010083888
1684734518413747549,244,1684734518413747549,camera_1,346,0,1.0657646321487544,0.11953918573868916,2.190269685666841,0.9701366328860016,-0.05285378612385794,0.23626633718233306,0.01481920171362239,0.008473290410620393,0.013798236782508836,1758.071554562194
1684734518423815965,245,1684734518423815965,camera_1,348,0,1.0666743277287738,0.1201263256651526,2.1921808457398297,0.9704844602625412,-0.05212216887877577,0.23487984003116863,0.01657264756245413,0.005123515074956231,0.008346205775701257,1757.2155098946537
1684734518433780193,246,1684734518433780193,camera_1,349,0,1.066180595430009,0.12054378366449904,2.1912077841840034,0.9708013069142408,-0.052595026713644466,0.23345908626274003,0.016596406236276243,0.0035276496200822294,0.005738104122140417,1761.4335318122758
1684734518443901538,247,1684734518443901538,camera_1,351,0,1.0680641181835375,0.12112571773051098,2.1951670105100005,0.971088603185527,-0.05189854090494044,0.2322552796363374,0.01873369414096427,0.0001921248658618424,0.00031319352544972574,1756.7601277395152
1684734518453729629,248,1684734518453729629,camera_1,352,0,1.0689209929420675,0.12141840759779601,2.1969683504564577,-0.9711770407576937,0.05226366869958929,-0.23185401600363104,-0.018093637063246223,0.0015151558072830085,0.002474208401295788,1754.833045320324
1684734518463900327,249,1684734518463900327,camera_1,354,0,1.0681231516250034,0.12105042712090551,2.1953536089979524,0.9709617291767652,-0.052385882967176105,0.23272632591024292,0.018096877303426996,9.454338578507304e-05,0.00015421977852116443,1755.791135277541
1684734518473924398,250,1684734518473924398,camera_1,355,0,1.065851125892233,0.12039805688419941,2.1906186101704224,0.9702292346016204,-0.05271324409152992,0.23567431116000792,0.018280188208996927,0.0033129721305158455,0.005387409705995738,1757.9840559776635
1684734518483673095,251,1684734518483673095,camera_1,357,0,1.0668686606058764,0.12002244460186988,2.1926870777639795,0.9706435904928946,-0.052110493167228454,0.23406184370026564,0.01872351624461799,0.005632688818877796,0.00916876816787363,1757.217412096099
1684734518493674278,252,1684734518493674278,camera_1,358,0,1.0667551804485824,0.119344334070483,2.1923231034630177,0.9706067303157326,-0.05232573302413109,0.2342915243372516,0.017090182942766378,0.008187469025870087,0.01333368349854069,1757.5744818623355
