%time,field.header.seq,field.header.stamp,field.header.frame_id,field.image_seq,field.transforms0.fiducial_id,field.transforms0.transform.translation.x,field.transforms0.transform.translation.y,field.transforms0.transform.translation.z,field.transforms0.transform.rotation.x,field.transforms0.transform.rotation.y,field.transforms0.transform.rotation.z,field.transforms0.transform.rotation.w,field.transforms0.image_error,field.transforms0.object_error,field.transforms0.fiducial_area
1684722115021787881,21,1684722115021787881,camera_1,24,0,-0.392839450627527,-0.8399685618614893,6.2411097241913875,0.9966735333124727,-0.037397318850538534,0.048710953612014184,0.053577528269145275,0.01981951849302277,0.013257795634942726,4449.271964380283
1684722115028308391,22,1684722115028308391,camera_1,25,0,-0.3924191110790941,-0.8395969739538393,6.237931833761852,0.9970405133548109,-0.037309269587423505,0.03538157904972874,0.05715222651809898,0.005569150103838183,0.0037255474044587153,4455.343144074723
1684722115035169124,23,1684722115035169124,camera_1,26,0,-0.3927216856210416,-0.8399801816907102,6.241302664739229,0.9970214934210803,-0.03724173120923716,0.051642811875895304,0.0435225814318118,0.0067328147270018235,0.004500465299521102,4458.007595339788
1684722115041718006,24,1684722115041718006,camera_1,27,0,-0.39243154390278,-0.8396567418855649,6.238090269556412,0.9968277533133111,-0.03762136249255278,0.04386829313524887,0.054723268962485874,0.006657268866547383,0.004450236492738345,4454.646710248024
1684722115048533678,25,1684722115048533678,camera_1,28,0,-0.3920979499225032,-0.8387766213266324,6.233724240915089,-0.9962844795995304,0.03391098644202127,0.01105157199566462,0.07839096544913086,0.006189946871018036,0.004131966140308505,4456.46913705935
1684722115055322408,26,1684722115055322408,camera_1,29,0,-0.39252741382065326,-0.8396708361699432,6.239953222958134,0.9971018569071975,-0.03451968829472754,-0.007565118610232162,-0.06737245024983768,0.012866355362348258,0.00860218618962728,4461.623696450203
1684722115061758995,27,1684722115061758995,camera_1,30,0,-0.39170087708564716,-0.8376943919486708,6.224167596395603,0.9963866899129101,-0.03844129399927067,0.040310854843318124,0.06411603591814577,0.0005015870847273618,0.0003341496082211649,4464.34907252272
1684722115068600177,28,1684722115068600177,camera_1,31,0,-0.3921395217014649,-0.8388819943183519,6.232898810469154,0.9966313667332867,-0.03750442301186928,0.04141898534705322,0.0600316978829393,0.000887109141331166,0.000592350599304165,4456.741776279174
1684722115074981212,29,1684722115074981212,camera_1,32,0,-0.3921840277413117,-0.8389074411527553,6.233715931222751,0.9965782440026105,-0.037444381540508664,0.03852025167080264,0.06281649530927498,0.004047264883411117,0.002704397989215381,4453.177162813374
1684722115081873655,30,1684722115081873655,camera_1,33,0,-0.39265188953481756,-0.8398815776997726,6.240243877019517,0.9969003406940293,-0.0380190783855649,0.04188188543846358,0.05468242930741282,0.003452669028774835,0.0023097177454411925,4452.578076558885
1684722115088535308,31,1684722115088535308,camera_1,34,0,-0.39256429776453927,-0.8392834053380676,6.236928901905881,0.9971212127417776,-0.03597672479623569,0.04744246531482015,0.04694864064224716,0.0010985869448632002,0.0007335252039579088,4463.3509822965725
1684722115095064401,32,1684722115095064401,camera_1,35,0,-0.39280879471897073,-0.8403482276650669,6.245297658611891,0.9969542084549975,-0.03488403133303692,-0.01395876994905065,-0.06834151990799292,0.009187778108753264,0.006151207863822726,4449.729569629531
1684722115101981401,33,1684722115101981401,camera_1,36,0,-0.39299541001035543,-0.8405106711101842,6.246052760798179,0.9972727555947066,-0.03634511674862163,0.04110596902872008,0.04935972799033232,0.0029889447177993134,0.0020025586375636024,4450.743566842285
1684722115108505249,34,1684722115108505249,camera_1,37,0,-0.3923473666765208,-0.8394995496831928,6.23845903759383,0.9967112808267174,-0.034790746356486366,-0.0024914473076422462,-0.07314382633576332,0.011379674368072301,0.007610178083984069,4459.6337528298
1684722115115440607,35,1684722115115440607,camera_1,38,0,-0.39237498655485403,-0.839317920283523,6.236533749504643,0.9969447210714578,-0.03749404579660203,0.041414255542072176,0.0545919325125207,0.006133393559139222,0.004098095072410483,4458.2302843478965
1684722115122021198,36,1684722115122021198,camera_1,39,0,-0.3915782633270972,-0.8375477023826405,6.223347022970581,0.9959439177346906,-0.037049681986701694,0.044365923259263994,0.06895432289068842,0.0012776610674336553,0.000850942998957675,4457.051007528032
1684722115128504514,37,1684722115128504514,camera_1,40,0,-0.3927453697950349,-0.8400745629576485,6.242881915815418,0.9969930183082685,-0.037886377591385294,0.04419820102680851,0.0511474619464695,0.0032363046921091154,0.002165852883204576,4451.900731356349
1684722115135230779,38,1684722115135230779,camera_1,41,0,-0.3924549201217866,-0.8392727258987829,6.2365767275462565,0.9967984144050335,-0.037856925151167294,0.04080611331228024,0.0573989143978827,0.0015540487947873771,0.0010387209911763625,4455.090539190103
1684722115142026662,39,1684722115142026662,camera_1,42,0,-0.3924832232213737,-0.8393829226766449,6.237103090976574,0.9971801639204613,-0.037475369540675055,0.04090651789404167,0.05053685937151571,0.004470873347599991,0.0029870497840144127,4462.260162920924
1684722115148627519,40,1684722115148627519,camera_1,43,0,-0.39208936539449935,-0.8386432666415391,6.2312092595414095,0.9967564093798916,-0.037444714340624935,0.03814711289153592,0.060161046417888164,0.0007495208119507879,0.0005003832829867785,4460.317995948428
1684722115155213594,41,1684722115155213594,camera_1,44,0,-0.3923540526054157,-0.8392605754959622,6.235611514953171,0.9965812301000554,-0.03771059689217908,0.041659890245623984,0.06056580090297344,0.01087792964244727,0.007270444909983403,4452.041230663543
1684722115161937952,42,1684722115161937952,camera_1,45,0,-0.3921383853083896,-0.8388694353334551,6.233073599722781,0.9968192324532443,-0.03724178144195103,0.044360969264402375,0.05474095297195233,0.0022388913348549977,0.0014941523751715302,4461.659252387527
1684722115168936252,43,1684722115168936252,camera_1,46,0,-0.3922967279939523,-0.839036232560733,6.2341839712572105,0.9966912358465744,-0.03715029356601228,0.04511447248047276,0.056490003074846584,0.0038335602439474314,0.0025594954588258547,4457.621619096316
1684722115175331354,44,1684722115175331354,camera_1,47,0,-0.39275905593832316,-0.8399893391501201,6.241736497144251,0.9969617578679217,-0.037303976688168865,0.05061297882939997,0.045978180109338955,0.005888639221666381,0.003937417262013866,4455.584777230164
1684722115182028770,45,1684722115182028770,camera_1,48,0,-0.39254770252099763,-0.8397308058238391,6.239326636522596,0.9969603839171912,-0.03834947989138105,0.040277977979082016,0.05456184364245865,0.0057797579356702045,0.0038656663840684296,4454.695898886828
1684722115188835859,46,1684722115188835859,camera_1,49,0,-0.39246213543184855,-0.8392324678530712,6.236369892877884,0.9965257299954395,-0.03789636548625979,0.040068572951327534,0.062408688510753804,0.00429498242738191,0.002872131088747154,4449.328854923371
1684722115195198774,47,1684722115195198774,camera_1,50,0,-0.3928562937184109,-0.840147886674148,6.243190451982342,0.9971340641892308,-0.03698656100084308,0.051727687570397134,0.04098656703625295,0.003915095032425597,0.002618687648127599,4457.719399447087
1684722115202014684,48,1684722115202014684,camera_1,51,0,-0.395274376686094,-0.8456193948510041,6.283399683898011,0.998919585576703,-0.03679603826512493,0.020967451897970328,0.01913319315132361,0.06049658633128274,0.04073658139209576,4457.062295653857
1684722115208510160,49,1684722115208510160,camera_1,52,0,-0.39238644391802346,-0.839282028031482,6.236400614292412,0.9965784067170725,-0.03740678080008835,0.04062358099294224,0.061497452652490264,0.0034630338341230527,0.002315425913487578,4450.22876012465
1684722115215436220,50,1684722115215436220,camera_1,53,0,-0.3928428046950385,-0.8401922841758256,6.24277348995944,0.9970447752272524,-0.03704962328227993,0.047056401458916534,0.048111710512268716,0.0021602823690045625,0.0014453695748438305,4453.8534156629485
1684722115222305774,51,1684722115222305774,camera_1,54,0,-0.3926416725586263,-0.8398616006595072,6.24100159229864,0.9970556890834209,-0.03791428247771485,0.04000919833217242,0.053307823997998355,0.0014064244169276208,0.0009411185872821562,4453.944182942856
1684722115228468894,52,1684722115228468894,camera_1,55,0,-0.3925049017563762,-0.839616827182723,6.238610075151529,0.9970812103536143,-0.03773009886526519,0.04136970670168356,0.051904209528763116,0.0061816109518986195,0.004132600597257565,4458.330101046709
1684722115235556125,53,1684722115235556125,camera_1,56,0,-0.39218399655115554,-0.8389790123943615,6.235196583720638,0.9965289180613627,-0.03540183767732688,-0.004540773869536562,-0.07520775710778843,0.004056705642142333,0.0027098141706606666,4461.223052070973
1684722115241979837,54,1684722115241979837,camera_1,57,0,-0.392445145513688,-0.8395296573071365,6.237821674136083,0.9965119471270515,-0.037761518566824685,0.0496219818417348,0.05545868612470343,0.002069617170491256,0.0013827605421298916,4451.261222109953
1684722115249069213,55,1684722115249069213,camera_1,58,0,-0.39283363557904893,-0.8401893532988715,6.242933583832261,0.9974573320261978,-0.03800011812934706,0.041055739948502756,0.04415074208454465,0.0013467352400766686,0.0009012167629626971,4460.468399900595
1684722115255915403,56,1684722115255915403,camera_1,59,0,-0.39268365856037873,-0.8399566111683411,6.242568899312322,0.9972243258198875,-0.034682397399497675,-0.01774372462076052,-0.0634502603641382,0.003927876241505146,0.0026264486113890904,4456.215045226041
1684722115261986732,57,1684722115261986732,camera_1,60,0,-0.39225686550994276,-0.839078489794417,6.2341490819223955,0.9967728901257337,-0.03767447561037324,0.04546283974356548,0.05438354163096023,0.003490416638669558,0.0023299454541885665,4459.956671390219
1684722115268466234,58,1684722115268466234,camera_1,61,0,-0.39303681715541605,-0.8407063503463196,6.247298018516316,0.997288615530028,-0.037337998439723914,0.040643704092620435,0.04867628297586578,0.004675375021179207,0.003133725042746036,4449.831022920087
1684722115275206327,59,1684722115275206327,camera_1,62,0,-0.39184312558477474,-0.8382664087914347,6.227994148946221,0.9965922919711864,-0.038170673025129824,0.04372796396705889,0.05860604466880527,0.003915994107956068,0.0026101312871741685,4464.471840273009
1684722115281840801,60,1684722115281840801,camera_1,63,0,-0.39262755513009495,-0.8399349070239337,6.240874598005996,0.9968595362830419,-0.03764121962567821,0.04981949919102636,0.048705451512183355,0.01002567082468886,0.006702744138006312,4454.375239048153
1684722115288489103,61,1684722115288489103,camera_1,64,0,-0.39195235882166146,-0.8383683965856545,6.229405532908317,0.9968029571466257,-0.03664747355815595,0.03184562019614277,0.06345615635909378,0.002457288617733866,0.001641292641544295,4460.573359584027
1684722115295000314,62,1684722115295000314,camera_1,65,0,-0.392791671881621,-0.839986393912711,6.2426595235101265,-0.9968912920495426,0.03444451294145521,0.004713736853371416,0.07070437079061205,0.0030056343093747273,0.0020120043960265804,4455.54860941111
1684722115301871538,63,1684722115301871538,camera_1,66,0,-0.39188873662227336,-0.8381492743812335,6.228376301552616,0.9965958899570001,-0.03766457752126429,0.03483514843733723,0.06453312447346929,0.004955781347234733,0.003307606349824561,4459.793205921537
1684722115308571815,64,1684722115308571815,camera_1,67,0,-0.3921705174012819,-0.8388420517127909,6.232744206463496,0.9966392734311873,-0.03799844945692231,0.04407731855730682,0.05764951415426214,0.004590678145177662,0.003064118583104788,4458.736221669475
1684722115315259933,65,1684722115315259933,camera_1,68,0,-0.3923292515502683,-0.8391822890009434,6.2349045045542795,0.996935763188848,-0.037533779956581304,0.03958023746380885,0.05606874565699291,0.0026909408043138683,0.001797821319252387,4459.497825411963
1684722115321970701,66,1684722115321970701,camera_1,69,0,-0.39202996993686945,-0.8388367442334284,6.23382129021382,0.9962333204056207,-0.03438806430796614,-0.008482403721171247,-0.07914973893737282,0.009786610928131267,0.006534711041099828,4456.650362358196
1684722115328936338,67,1684722115328936338,camera_1,70,0,-0.39254439222351706,-0.8398225279927549,6.240479603908384,0.9970530131775958,-0.037817782012769495,0.04029566868815618,0.053210556866905775,0.009383795448229648,0.0062780382037533845,4454.630990984791
1684722115335488796,68,1684722115335488796,camera_1,71,0,-0.3921851435256148,-0.8389103599412486,6.23394536952533,0.9970499648971631,-0.036558584733302445,0.039660656691947085,0.054606498620834824,0.0035441946965875104,0.0023664911555290285,4462.695234573563
1684722115341992139,69,1684722115341992139,camera_1,72,0,-0.3929739845582223,-0.840590541968373,6.2457604708277055,0.9972796707908194,-0.03707212459412994,0.045411898422514155,0.044684172668802265,0.005870149238035083,0.003930936642949785,4453.917097341967
1684722115348837375,70,1684722115348837375,camera_1,73,0,-0.3919029360282638,-0.838371707912672,6.228963240569678,0.9964846361352497,-0.03794039353189791,0.04083209926272781,0.06254307439551354,0.006293582162470557,0.004198323532603976,4459.3195456735575
1684722115355304718,71,1684722115355304718,camera_1,74,0,-0.3928110336535723,-0.840335217164621,6.243862726012915,0.9970336989830401,-0.03697674760274999,0.04285825472452744,0.05215067814407321,0.019589071933296513,0.013115885560394898,4449.909417596997
1684722115361977815,72,1684722115361977815,camera_1,75,0,-0.39588668227746404,-0.8468841998248013,6.293585799484451,0.9991512202424192,-0.03478331063315782,0.0041482211486992505,-0.021673777953635887,0.07791333338536789,0.05255320620942687,4450.851179875725
1684722115368534326,73,1684722115368534326,camera_1,76,0,-0.39205672303128214,-0.8387450311540864,6.233189276660557,0.9961240498465143,-0.03385125912024842,-0.004175955118726527,-0.08107731478162898,0.009833929027081467,0.00656858182928184,4457.020785353263
1684722115375248670,74,1684722115375248670,camera_1,77,0,-0.39247477698697464,-0.8395540451486065,6.2378631528407205,0.9969683907426343,-0.03708591831100037,0.044135794571459344,0.052256044249615184,0.005329844789230265,0.003561878566984924,4457.758455214206
1684722115382105588,75,1684722115382105588,camera_1,78,0,-0.3924077612477501,-0.8392419384671368,6.236058153118544,0.9964624700083476,-0.037604380096169704,0.04264068997433252,0.06188883599615205,0.007519986073020846,0.005027245690496187,4449.3380389376525
1684722115388887405,76,1684722115388887405,camera_1,79,0,-0.39249521750840954,-0.8396146696552235,6.23880419576193,0.9969406527950905,-0.03692941493891821,0.04270162927700605,0.05405667372172811,0.004042035870952532,0.002702417662923515,4455.067074172313
1684722115395665645,77,1684722115395665645,camera_1,80,0,-0.39248755526960066,-0.839300652167762,6.237840227801674,-0.9967490377913706,0.034883693208001575,0.007469688156399201,0.07224048289562586,0.0011871672613779085,0.0007932776139408505,4459.612346313897
1684722115401927232,78,1684722115401927232,camera_1,81,0,-0.3924204054458704,-0.8394595925106367,6.236946419448689,0.9967194559921586,-0.03754456469927906,0.0432680553570051,0.057171733346647255,0.007460502907633781,0.004986441355881604,4453.662834267598
1684722115408495426,79,1684722115408495426,camera_1,82,0,-0.39225733092313214,-0.8391480296482849,6.236588882513674,0.9964865813932389,-0.03409299395584374,-0.009278553171541028,-0.07593463845562133,0.01524944738775957,0.010188764740352758,4456.2107780733495
1684722115415480136,80,1684722115415480136,camera_1,83,0,-0.3919571304192341,-0.8384483356652099,6.229955837730075,0.9964456860378649,-0.037731353312841255,0.03708925840350927,0.06554942154426739,0.000640853017102927,0.0004279204100392066,4455.339819805928
1684722115422211170,81,1684722115422211170,camera_1,84,0,-0.39253251774082687,-0.8394528231528887,6.237067943321498,0.9970046878378634,-0.03659945293590511,0.04136973598555255,0.05413573144054372,0.00012246928235981613,8.185020030296509e-05,4458.033931555985
1684722115428592681,82,1684722115428592681,camera_1,85,0,-0.3928993846650837,-0.8405109996518245,6.245436613072563,0.9973702427119757,-0.037505964921472526,0.04041492034953165,0.047037599440285474,0.001703708796412684,0.0011412846426174207,4454.253556456182
1684722115435738325,83,1684722115435738325,camera_1,86,0,-0.39293785215089144,-0.8405274785131398,6.245810148590022,0.9974100333425068,-0.036834330938227695,0.04043747116585706,0.046704050977868145,0.005453278485219926,0.003652969167500382,4454.092043537647
1684722115442347288,84,1684722115442347288,camera_1,87,0,-0.39244179601548385,-0.8393759253654741,6.23764062463026,0.9970255340171101,-0.03750314763278774,0.0388350235846144,0.05500399420689511,0.002591522192233242,0.0017326831388172123,4457.243746411985
1684722115449124574,85,1684722115449124574,camera_1,88,0,-0.39243263778800147,-0.8392121450778715,6.235701121534091,0.9967265335908179,-0.03753852498996761,0.04866024548009518,0.05252862921709289,0.010082023640279658,0.006731913127155972,4458.2420872951625
1684722115455324172,86,1684722115455324172,camera_1,89,0,-0.3925512673223492,-0.8395808791079407,6.2383507918343915,0.9969366997743562,-0.036889029482443554,0.04879968723075065,0.04873404018793925,0.0041904040408553556,0.002799345593529643,4458.579756156018
1684722115461812257,87,1684722115461812257,camera_1,90,0,-0.3922962769190913,-0.8390211405902362,6.234716148222744,0.9965059125791866,-0.03667515835614172,0.04861737981815032,0.05715985771406591,0.00013507396215572953,9.01766670180855e-05,4454.3116350111095
1684722115468716382,88,1684722115468716382,camera_1,91,0,-0.39222270688270466,-0.8388898060474955,6.233073627211486,0.9970239286357113,-0.037280766420329535,0.03759544278092076,0.05603581769753443,0.00903066161845345,0.006030286634394185,4462.919048788609
1684722115475278615,89,1684722115475278615,camera_1,92,0,-0.39324176138012035,-0.8410577281480762,6.249774586238391,0.997541755478983,-0.03681244142121282,0.04365836143187823,0.040610807793028794,0.0008498295501340182,0.0005697691048405908,4452.987877135108
1684722115482120752,90,1684722115482120752,camera_1,93,0,-0.3924813474380614,-0.8393664568570445,6.237579667925828,0.9966805416688642,-0.03753880406286217,0.04784520742341386,0.054125522397480065,0.002763291893643327,0.0018460597391213645,4454.259650985128
1684722115488836526,91,1684722115488836526,camera_1,94,0,-0.3925774879582389,-0.8397739135193824,6.239509197495641,0.9969635455417182,-0.03850497592924217,0.03693763518147524,0.05671566623760445,0.0023392888251692057,0.0015655796056001008,4453.095531591098
1684722115495771408,92,1684722115495771408,camera_1,95,0,-0.3927725857371035,-0.8401726244747912,6.2442523149369675,0.9968256306254722,-0.03432567028826482,-0.010621063469955666,-0.07104648828871192,0.013594227159046568,0.009101755185730193,4450.153306466062
1684722115502129316,93,1684722115502129316,camera_1,96,0,-0.3921420758231809,-0.8388707513183208,6.233097955065984,0.996563961593438,-0.03733900149210005,0.04818255941530355,0.05607593413360752,0.006079291240894236,0.0040560338989605055,4458.088428052724
1684722115508837699,94,1684722115508837699,camera_1,97,0,-0.3926802833202391,-0.8400831058098083,6.242094039102047,0.9970623992494616,-0.03702695185157506,0.042499318012946714,0.05185927889898568,0.006726996332872659,0.0045014756514442904,4452.953720103016
1684722115515332698,95,1684722115515332698,camera_1,98,0,-0.392694603712467,-0.8401079433377241,6.243295429572168,0.997127959223963,-0.035490186980987916,-0.01471221646323506,-0.06526737507091938,0.00898464240890462,0.0060105462836554085,4455.252877737453
1684722115522273063,96,1684722115522273063,camera_1,99,0,-0.3924942718991697,-0.8396269823100178,6.2382615522071045,0.9967422862003963,-0.03805410032587807,0.038702212367221045,0.0596560064559977,0.0016889192047528923,0.001129980216024563,4450.6102625966305
1684722115528554439,97,1684722115528554439,camera_1,100,0,-0.392627686592227,-0.8399606494687113,6.240418663008841,0.9968648037775057,-0.037356278010830364,0.040630247064149444,0.05669439572231767,0.00478208003914915,0.0032003741566523944,4450.419041900024
1684722115535497188,98,1684722115535497188,camera_1,101,0,-0.3921832791561919,-0.8390695360093301,6.23450539746419,0.9966045950838184,-0.03769250758559057,0.04524189359078078,0.05754760632771065,0.014658053885796107,0.009786999239420825,4455.778221208195
1684722115541832208,99,1684722115541832208,camera_1,102,0,-0.3925073390563022,-0.8397953866928913,6.239699065021644,0.9970666133833405,-0.03784174054388547,0.03936763969972271,0.05363170791014001,0.009876202879240736,0.0066066534158461835,4455.577061598422
1684722115548659801,100,1684722115548659801,camera_1,103,0,-0.3923032794650318,-0.8389580126619952,6.23413350337657,0.9964771707591279,-0.03744907966403893,0.04738498527175345,0.05818485850284359,0.0020260916353436187,0.001352494900017003,4454.52445449558
1684722115555745601,101,1684722115555745601,camera_1,104,0,-0.39246382774342753,-0.839508785527717,6.237359269968017,0.9967910897010629,-0.037637029191026045,0.04357757800125737,0.05560550531903875,0.0012968107766937464,0.000866719175948823,4454.844490247313
1684722115561815977,102,1684722115561815977,camera_1,105,0,-0.39225214022452415,-0.8391412950162427,6.236603351070945,-0.9965583029486239,0.03416624997076777,0.008066173859098146,0.07509429423310847,0.0019313058874104172,0.0012902966921285509,4457.788046451517
1684722115568469524,103,1684722115568469524,camera_1,106,0,-0.392158185899836,-0.8388292125757087,6.232653265646883,0.9965297023877707,-0.03741738738721878,0.039791123608558826,0.0628104916556493,0.0031361823494080454,0.002094880706654345,4454.161561551039
1684722115575396060,104,1684722115575396060,camera_1,107,0,-0.39252856683732684,-0.8396273128789844,6.2386199138606,0.9968204374505761,-0.03703990210513259,0.04755222477073649,0.05211378946342005,0.006773039611289278,0.004526578601755052,4455.135543977783
1684722115582110643,105,1684722115582110643,camera_1,108,0,-0.39212252508485346,-0.8386131486865044,6.231794455589344,0.9967749806443845,-0.03747691027876147,0.04309145328433279,0.05637593290748061,0.0011615049588726833,0.0007749368605102095,4462.202667223582
1684722115595043182,106,1684722115595043182,camera_1,110,0,-0.3937508245256546,-0.8425064569459796,6.260309053393978,0.9975066831195054,-0.0378650521278282,0.011514573055684402,0.058430039933452256,0.08119031268870458,0.05445815863150821,4457.035817558994
1684722115601979017,107,1684722115601979017,camera_1,111,0,-0.3924809475316795,-0.8395625716801833,6.23876377280611,0.9969694073635685,-0.037247875383483675,0.04485083464025152,0.051507273201211096,0.002860037566279061,0.0019115164540570574,4457.051837575855
1684722115608487844,108,1684722115608487844,camera_1,112,0,-0.3928630032488115,-0.8402658640017154,6.243513973724146,0.9972092293690075,-0.03744704948395542,0.044346540030423647,0.046955891361431024,0.0016210965695790946,0.0010849675196212387,4455.3597535711015
1684722115615101099,109,1684722115615101099,camera_1,113,0,-0.391977278266322,-0.838540786087196,6.230429576749144,0.9966744721461653,-0.03764040733404847,0.04105798975207217,0.05947636324968341,0.007388474885374308,0.004929131414014284,4461.125256803583
1684722115622456073,110,1684722115622456073,camera_1,114,0,-0.39279215626351704,-0.8403051201747653,6.243172122460118,0.9967287372689471,-0.03798739777758829,0.05264783621492369,0.04813509379054125,0.007027096929959953,0.004701330361776222,4449.967108900251
1684722115628918886,111,1684722115628918886,camera_1,115,0,-0.39199393039501507,-0.8383939162077862,6.229710076871659,0.996523419632921,-0.03756475414714413,0.0356921212842614,0.06523830046225673,0.000913460404262878,0.0006099883170045373,4456.606339584219
1684722115635561943,112,1684722115635561943,camera_1,116,0,-0.3929016705209525,-0.8404441359707562,6.245224860109074,0.9975526316636768,-0.036943007876006774,0.03920553699193352,0.04457451176536229,0.007248640657053329,0.0048542226105619994,4457.564332629961
1684722115642246246,113,1684722115642246246,camera_1,117,0,-0.3919587202155154,-0.8384293724725541,6.231312042066704,-0.9963591748921028,0.034900387151331466,0.008661672891549845,0.07730027818666015,0.007578953955089673,0.005055819604050657,4462.473583794665
1684722115649042367,114,1684722115649042367,camera_1,118,0,-0.39278749133740626,-0.8400631947792632,6.241758013965865,0.9969549820526196,-0.03712590576152248,0.05246933323739441,0.0441520095971965,0.008963043772382662,0.005992722884441146,4456.211673568818
1684722115655650854,115,1684722115655650854,camera_1,119,0,-0.39294515700986854,-0.8402778074583311,6.2442996535446404,0.997073395227408,-0.03718176903068349,0.05005695774388088,0.04423190661576255,0.005430346471257508,0.0036336054252008626,4454.046711287927
1684722115661848783,116,1684722115661848783,camera_1,120,0,-0.39262112571206664,-0.8397741993856271,6.240141847366311,0.9970518120899218,-0.03705227150991291,0.04004532011733548,0.05395540307382962,0.0036041005660081282,0.0024111352338635527,4454.411203388589
1684722115668688535,117,1684722115668688535,camera_1,121,0,-0.39274615935086565,-0.8399849533937667,6.241816311801554,0.9972575082156764,-0.035764651339007344,0.0445504674530294,0.04704899437582113,0.0034683587873587385,0.0023197797533870837,4457.67305055965
1684722115675814867,118,1684722115675814867,camera_1,122,0,-0.39236647826779536,-0.8392811418286912,6.2354652794256955,0.9967619603624558,-0.037254449509920476,0.03980877201373422,0.05910128625390385,0.005160364555194974,0.003448931414060511,4454.871623337502
1684722115682093858,119,1684722115682093858,camera_1,123,0,-0.39249912019044164,-0.8396728202411112,6.238365339558894,0.9969122747775964,-0.03719356909109147,0.041868299587823725,0.055041805072589385,0.01714829698903486,0.01146633353007826,4454.788226938108
1684722115688977241,120,1684722115688977241,camera_1,124,0,-0.3918829304282065,-0.8384351328183897,6.229491035119692,0.9962410353835136,-0.037881925158431994,0.04668572537450076,0.06236346855758182,0.0026008619606727734,0.0017343857935671453,4456.079629723681
1684722115695101499,121,1684722115695101499,camera_1,125,0,-0.39188485075366025,-0.8382905354076592,6.228337452128895,0.9967862639535161,-0.037379881242279395,0.043856074289732705,0.05564650231414417,0.006917239690665156,0.004609465909430606,4467.571211126984
1684722115701700925,122,1684722115701700925,camera_1,126,0,-0.39227165184304913,-0.8392114639370282,6.235664127221976,0.9967599675586022,-0.0377427598175311,0.03822677232201086,0.05986455572182684,0.0014442913379753008,0.000965501328673781,4454.27723449556
1684722115708573341,123,1684722115708573341,camera_1,127,0,-0.3929026820828442,-0.8403650072250135,6.244498168826111,0.9973499965996272,-0.037380735850746784,0.043461663210216744,0.0447967487769141,7.08734878571704e-05,4.7445142888764694e-05,4456.5870807514275
1684722115715341091,124,1684722115715341091,camera_1,128,0,-0.39199490747541715,-0.8384568067622316,6.229839191396493,0.9964214451694989,-0.038067901936068925,0.03881512530972825,0.06471881098802137,0.0013027987006353214,0.0008696441116340732,4455.996436000219
1684722115722415685,125,1684722115722415685,camera_1,129,0,-0.3920363284367612,-0.8386269815601959,6.232718818752431,0.9964146090009671,-0.03477860927441727,-0.006900810021911331,-0.07681636627326711,0.0027855003281729296,0.0018590278485873391,4461.999873980473
1684722115728828430,126,1684722115728828430,camera_1,130,0,-0.39262933783401816,-0.8398554210577517,6.2405391490612505,0.996968587616398,-0.03752027257454029,0.046159552593117145,0.050151372428878065,0.002447872844641097,0.0016367519668447615,4455.3256044612535
1684722115735371112,127,1684722115735371112,camera_1,131,0,-0.3919586584460476,-0.8382421167094767,6.228816483295246,0.9960583550751307,-0.03818479368181985,0.038098725806237195,0.0704142166642715,0.002289993586600758,0.0015291850836552225,4449.741923157473
1684722115742047309,128,1684722115742047309,camera_1,132,0,-0.3917416288880835,-0.8379995382019338,6.226721000623721,0.9965257252219901,-0.03699513875282124,0.04029571706229416,0.06280202119264823,0.0017476960201747715,0.0011650538494308834,4462.497993552883
1684722115748795509,129,1684722115748795509,camera_1,133,0,-0.39252203586968426,-0.8399740373434164,6.240172847197599,0.9969887599645971,-0.03810268579464612,0.04404150670037333,0.051204917020249374,0.011297075267066248,0.00755512069461531,4455.561290227166
1684722115755658149,130,1684722115755658149,camera_1,134,0,-0.392013859510035,-0.8386366856980526,6.231795742839036,0.9968071489437511,-0.0376692325772011,0.041343568944734115,0.05698461229654319,0.0039040606934577227,0.002605221750879411,4462.180201331794
1684722115761999368,131,1684722115761999368,camera_1,135,0,-0.39203654597290755,-0.8386432028957382,6.231836466584186,0.9967541197298154,-0.037675813209951954,0.04013162337789828,0.05874700592935838,0.008227294383686967,0.005491378305623733,4460.446358067857
1684722115768449306,132,1684722115768449306,camera_1,136,0,-0.3921682655275459,-0.8390642543177479,6.234015429383004,0.9966691473935242,-0.03789631289880593,0.038124035694926645,0.06132730227943896,0.004363317071693018,0.002915702791744604,4454.736532030103
1684722115775400638,133,1684722115775400638,camera_1,137,0,-0.3926236733815274,-0.8398190934664825,6.240646321873647,0.9972288606085108,-0.03654403484016815,0.03695442772537195,0.05323066182701714,0.004582355701131746,0.0030666330160681937,4455.693857458422
1684722115781877756,134,1684722115781877756,camera_1,138,0,-0.3921520550376114,-0.8390196593108697,6.234014240360036,0.9969086202237203,-0.03815772209588664,0.044062575716259024,0.05268472823637088,0.009777981118531898,0.006525965886725148,4462.7874362282455
1684722115788780689,135,1684722115788780689,camera_1,139,0,-0.3916116106979077,-0.8380017307772055,6.226763209744414,0.9963462930498768,-0.037597905884140005,0.042861463564932714,0.06358739450526636,0.007569902474642731,0.005045297933604191,4460.247827157147
1684722115795243740,136,1684722115795243740,camera_1,140,0,-0.39207777069250066,-0.838651779196879,6.23291780611011,-0.9966648315963564,0.033444087143081135,0.009365768475242689,0.07384435574260569,0.001160433457698673,0.0007742368449996627,4463.868392153352
1684722115801762580,137,1684722115801762580,camera_1,141,0,-0.39223717295985583,-0.8391276360093398,6.235698542031152,0.9968377944948613,-0.0382724785804387,0.0336098528538788,0.0609918571702093,0.006218382986844517,0.004159133433338227,4454.313299281639
1684722115808521270,138,1684722115808521270,camera_1,142,0,-0.3922240842769512,-0.8391300192109804,6.2354793096857435,0.9968770439225861,-0.03718517358697479,0.040941606358502566,0.05636671920786762,0.006699847319396213,0.004475830385200935,4457.8481972637255
1684722115815248727,139,1684722115815248727,camera_1,143,0,-0.3920362518829118,-0.838814210936164,6.232471896866764,0.9964276078896506,-0.037322374746704474,0.04606336798976015,0.060143401200924027,0.005224312422797084,0.0034864006552754955,4455.047743230476
1684722115821977853,140,1684722115821977853,camera_1,144,0,-0.3920457380916145,-0.8385691882146091,6.230862223305562,0.9964979515030264,-0.03802013359143679,0.034693817874407486,0.06589871844929074,0.002397963558905758,0.0016021448028893405,4454.329622087245
1684722115828710317,141,1684722115828710317,camera_1,145,0,-0.39271607190631125,-0.8397397328597616,6.24032997224826,0.9970879538970104,-0.037637039357123765,0.04608509515205299,0.0476993654751273,0.0005243720952421427,0.0003505695823702535,4458.36088569893
1684722115835300207,142,1684722115835300207,camera_1,146,0,-0.3915563824923507,-0.8375801368317468,6.223108926853458,0.996261083962409,-0.038237882844919566,0.049799638438179354,0.05934402167877408,0.001974272381630726,0.001313278429751964,4467.41160994029
1684722115842130661,143,1684722115842130661,camera_1,147,0,-0.3917587900235209,-0.8378577058972039,6.225766405516288,0.9963815175195755,-0.03797652050843642,0.035688544478142785,0.06714151642979176,0.000519154651556164,0.00034630025267657835,4459.615151124835
1684722115848566532,144,1684722115848566532,camera_1,148,0,-0.3921439077961123,-0.8387023457961102,6.233341027322885,-0.9961029864576438,0.03436215021694584,0.0077922825410537,0.08085396301624144,0.0009317865042248741,0.0006221508066580656,4455.612170174367
1684722115855586528,145,1684722115855586528,camera_1,149,0,-0.3923813475088126,-0.8393510257933029,6.237019064121433,0.9965555586044146,-0.037957774108227954,0.03306556471696548,0.06590064058368603,0.0023034541809465736,0.0015422761633541947,4446.040974945181
1684722115861818790,146,1684722115861818790,camera_1,150,0,-0.39265252785246724,-0.8397641617222862,6.239735112546731,0.9971103347225307,-0.03723053377590332,0.04692372718899303,0.04672292339930291,0.006462457662564702,0.004319375888605171,4459.700185386581
1684722115868460893,147,1684722115868460893,camera_1,151,0,-0.391903105974853,-0.8384250317322551,6.2298570180734245,0.9967735610125913,-0.03794970815002943,0.04089512113060786,0.05770508457075932,0.0030318334174808115,0.002022081195553468,4464.234138510945
1684722115875362396,148,1684722115875362396,camera_1,152,0,-0.39246821603441695,-0.8395271118709333,6.238097109643396,0.9970243482315142,-0.03723261373674574,0.04053116885119578,0.05397597483520406,0.005449668766232207,0.0036434595342011364,4457.070245697513
1684722115881974220,149,1684722115881974220,camera_1,153,0,-0.39220766129308954,-0.8391372947681637,6.234953573005611,0.9969448565585268,-0.03737392758545657,0.043222297713589826,0.0532538777808092,0.013455650958348997,0.008983863103620737,4461.2054567675805
1684722115888992547,150,1684722115888992547,camera_1,154,0,-0.39264431297906266,-0.8400090906181343,6.242040768734428,0.9967248021424651,-0.03761495003079273,0.048317006849924723,0.052822828183554375,0.018802078237058595,0.012577284382406151,4449.065316299501
1684722115894989967,151,1684722115894989967,camera_1,155,0,-0.39243921373823015,-0.8394530898037336,6.236899395582701,0.9967737386887969,-0.036783637017786495,0.041705061454430176,0.05787716092884973,0.016109342424897477,0.010768227228843155,4453.571732696263
1684722115901687860,152,1684722115901687860,camera_1,156,0,-0.39293049741450004,-0.8403109898990638,6.244024080891082,0.9971555079219555,-0.03764290379948361,0.04347772859088242,0.04871952309934408,0.0006913966062711552,0.000462860053979396,4453.215021015085
1684722115908363819,153,1684722115908363819,camera_1,157,0,-0.39259663397662015,-0.8396299150160624,6.23868311643258,0.9968070158793324,-0.03748971938372168,0.03849974134850434,0.05905983364663753,0.008505044985213317,0.005690605806795997,4450.876568854668
1684722115915332794,154,1684722115915332794,camera_1,158,0,-0.3924481698111024,-0.8395485508806327,6.237118977561266,0.9971469835600756,-0.03751721254026445,0.041448500560812104,0.05071857393018234,0.007720723893726245,0.005159177647625268,4461.668305254774
1684722115922095537,155,1684722115922095537,camera_1,159,0,-0.3929554638843514,-0.8403632765243795,6.244868462549963,0.9970531690447103,-0.03687491343515824,0.044364827572984544,0.05056659897075765,0.0027573403931455687,0.0018464916452119685,4449.645099739429
1684722115928507804,156,1684722115928507804,camera_1,160,0,-0.39169533162382775,-0.8377489118796494,6.22509663172167,0.9965268833740135,-0.036991448700057245,0.04093436301636313,0.06237131841151746,0.0012617352476809174,0.0008406155820335229,4465.183543418007
1684722115935687541,157,1684722115935687541,camera_1,161,0,-0.3923111532330388,-0.838935090448836,6.233533037323903,0.9969603128338689,-0.03723518985899219,0.034357551929161,0.05918812292845852,0.0006238183268578723,0.000416892321718073,4459.508061644736
1684722115941964626,158,1684722115941964626,camera_1,162,0,-0.39256064666748136,-0.8399027670597838,6.2404167526572465,0.9972896054682142,-0.03738923189724994,0.0404102904879671,0.048810824474345656,0.008195075221010484,0.0054809798518190905,4459.505865458633
1684722115948683261,159,1684722115948683261,camera_1,163,0,-0.39200823029937903,-0.8384488306407645,6.231494528855575,0.995654132684271,-0.03540388786301565,-0.0035301242234672976,-0.08606364514637954,0.0034489561658119783,0.0023034515529102534,4453.235898017068
1684722115955880165,160,1684722115955880165,camera_1,164,0,-0.39217331215141377,-0.8389871693905575,6.23393394195583,0.9966373530044994,-0.03800478657784649,0.046528380945870904,0.05572012706296816,0.00954707176424563,0.006371847055771846,4458.168436902572
1684722115962042093,161,1684722115962042093,camera_1,165,0,-0.3925829474968553,-0.8397780393114017,6.24000475758199,0.997200257267917,-0.037102126141423525,0.0438818214257305,0.0478483530431997,0.00497692463977728,0.003327115604931793,4459.674960261617
1684722115968550443,162,1684722115968550443,camera_1,166,0,-0.3919038994448957,-0.8381222314812768,6.229340111524341,-0.9958970954321659,0.03444232467127261,0.0031045904074600804,0.08362453646756983,0.0008809681166894734,0.0005878233154700183,4459.76030242874
1684722115975619792,163,1684722115975619792,camera_1,167,0,-0.39200623063691703,-0.8385550886142892,6.231592320692007,0.9961337349966982,-0.03463317512403002,-0.008166767058244331,-0.08032078870487183,0.005203018445172347,0.0034719485408434775,4458.5625021544965
1684722115982431411,164,1684722115982431411,camera_1,168,0,-0.39176603193247195,-0.8379045946128153,6.226587894140957,0.9966725940467498,-0.037656893684267646,0.041023705865029785,0.059521039904172846,0.0015779018285684288,0.00105141018376447,4466.683308237116
1684722115995339632,165,1684722115995339632,camera_1,170,0,-0.39197555855434363,-0.8384232990037273,6.229867529717398,0.9961905662049656,-0.03839414830049245,0.04067781434912579,0.06689963079336055,0.0045369529543677345,0.0030285289886657876,4452.218880498141
1684722116001782417,166,1684722116001782417,camera_1,171,0,-0.39209454154087664,-0.8385067764362386,6.230415122886611,0.9964347735619957,-0.03764443461820965,0.04453082805037169,0.06097248503938508,0.002331019873963669,0.0015549168120886033,4457.715697703185
1684722116008487939,167,1684722116008487939,camera_1,172,0,-0.3920145599817037,-0.8383478272228448,6.229878476419063,0.9963670917061935,-0.03721878538931398,0.03462894189634111,0.06832435116578726,0.0011913491325685754,0.0007959161939769798,4452.472413994022
1684722116015116214,168,1684722116015116214,camera_1,173,0,-0.3924567422621712,-0.8393052918425521,6.2363517386404554,0.9968212508010801,-0.036815430355601045,0.04427638663405937,0.05506014552953675,0.0010088656563311815,0.0006739702119636991,4456.681813819917
1684722116021942853,169,1684722116021942853,camera_1,174,0,-0.39245616777318815,-0.8393926600376233,6.237592033575885,0.9966248682306634,-0.036896550421156915,0.040564806281453675,0.061090204473221596,0.005115921783726662,0.003421452854181215,4449.147538741583
1684722116028492212,170,1684722116028492212,camera_1,175,0,-0.392223609844833,-0.8390316397048461,6.234027251538232,0.9968443809436244,-0.03657206100448504,0.04393028329041078,0.05508080196430565,0.007958707283250988,0.005312980204968181,4460.089993394388
1684722116035181045,171,1684722116035181045,camera_1,176,0,-0.3921390273291213,-0.8389018220027282,6.233078481114288,0.9966537840499347,-0.03766698374439766,0.04442264250742327,0.057350343566566556,0.010880351037485525,0.007262101502623041,4458.445263053291
1684722116042003393,172,1684722116042003393,camera_1,177,0,-0.39237151047258156,-0.8391945251362771,6.2355346614796066,0.9969498765915124,-0.03814940559504075,0.04044976919028315,0.054766619298311586,0.0017819449421949685,0.001190453342604916,4459.8316984613775
1684722116048553466,173,1684722116048553466,camera_1,178,0,-0.39142744598163803,-0.8375532085022158,6.223094000415743,0.9962097870801502,-0.0380911809983907,0.04232247370378619,0.06575659872181754,0.011093438035459258,0.007386917235421879,4462.751131472964
1684722116055151939,174,1684722116055151939,camera_1,179,0,-0.39215461808387664,-0.8389027603047744,6.232759742183619,0.9967203646332434,-0.037318358141801324,0.044287747783421476,0.0565194680375428,0.0013919028715463355,0.0009289210993898766,4459.985378368758
1684722116061686515,175,1684722116061686515,camera_1,180,0,-0.39245330734755535,-0.8394090102679834,6.237385944500132,0.9968127061667197,-0.03640730398069302,0.047677731988023414,0.05259059720060725,0.003935362939955667,0.00262899295328474,4456.349333188611
1684722116068545341,176,1684722116068545341,camera_1,181,0,-0.39232290364882716,-0.8393645993343024,6.236921930533602,0.9968572375188022,-0.037321319557254554,0.04426702411130193,0.05406660419535596,0.004436005678144284,0.002963888855751889,4456.988271187293
1684722116075611591,177,1684722116075611591,camera_1,182,0,-0.39226587102249943,-0.8390113274515619,6.235300906916421,0.9964743360068508,-0.03452127842664738,-0.008818343127178453,-0.07595667080636895,0.006084531094529666,0.004063506927499973,4458.2835323434565
1684722116082105636,178,1684722116082105636,camera_1,183,0,-0.3925706176220146,-0.8396102928030109,6.238851345053888,0.9969955449907101,-0.036195381279379595,0.048905566673744544,0.04793770114468824,0.003241367870941758,0.0021656059788805466,4458.690214960021
1684722116088732957,179,1684722116088732957,camera_1,184,0,-0.3926444728888282,-0.8399526149815842,6.24250623071908,-0.9971146125543054,0.034902638598706986,0.008648707696061924,0.06685398346182049,0.0027911185316042975,0.001867331309960676,4458.043466006289
1684722116095334053,180,1684722116095334053,camera_1,185,0,-0.39233687433285824,-0.8389407426060644,6.234337347557357,0.9968827090905742,-0.03852688585619042,0.03772939751085343,0.05759371446546852,0.0004049738054163754,0.0002705638182736454,4459.259751292644
1684722116102021217,181,1684722116102021217,camera_1,186,0,-0.3926142106655507,-0.8396996932430907,6.240816026421304,-0.9968915479139584,0.03564948065071403,0.009383806918633733,0.06962973786221119,0.0010618310916470364,0.0007100295506666999,4457.285581473144
1684722116108865261,182,1684722116108865261,camera_1,187,0,-0.39291078418874903,-0.8401909596085018,6.243495704223335,0.9970614426710467,-0.03689920552769876,0.04418315768591093,0.050544799406644365,0.0012431309587555006,0.0008321329919637805,4451.713678838976
1684722116115223646,183,1684722116115223646,camera_1,188,0,-0.39252362346557146,-0.8396869836207207,6.238928640956107,0.9967278841165133,-0.03731036346197873,0.0456271856671773,0.05531384755236805,0.0026507327711442485,0.001772240677042065,4451.98186580208
1684722116121911525,184,1684722116121911525,camera_1,189,0,-0.3924540268977347,-0.8394746092389028,6.237486325718388,0.9969273795006907,-0.037454104255264846,0.036959705085379116,0.05802560018064091,0.0024050564534263685,0.0016086184734989814,4454.4291049899775
1684722116128468036,185,1684722116128468036,camera_1,190,0,-0.39247487639726664,-0.8395546237877819,6.237812508764184,0.9969657036335546,-0.037455981957102286,0.04265773594417985,0.05326117496072669,0.0031190648587653413,0.0020846862109650107,4457.360767015081
1684722116135391235,186,1684722116135391235,camera_1,191,0,-0.3927939737944641,-0.8402519477616507,6.242866303784608,0.9970967896219579,-0.037137154364070585,0.03884081329876472,0.053946409645265175,0.002677970827789977,0.0017933638132851442,4450.929583653693
1684722116142311573,187,1684722116142311573,camera_1,192,0,-0.3923974406191231,-0.8392727584522833,6.235735219114234,0.9970802266809171,-0.03636357388068436,0.03980962389716802,0.05407315324374302,0.006109795096563175,0.004082341655189751,4460.609675227081
1684722116149006605,188,1684722116149006605,camera_1,193,0,-0.39200762085058416,-0.8383221884933731,6.228421174223854,0.996461950171572,-0.037569098233849116,0.04086898433659733,0.06310206682397734,0.014258457886171525,0.009511498413623289,4459.343532289961
1684722116155438661,189,1684722116155438661,camera_1,194,0,-0.3919994602833374,-0.8386510576783613,6.231357650190757,0.9963402135609897,-0.03704534977530601,0.04027748048066813,0.0656623595935769,0.005138907901709899,0.003431704360518063,4451.981866042479
1684722116162019014,190,1684722116162019014,camera_1,195,0,-0.3917416756355472,-0.8380874869104821,6.227361428109088,0.9964450564686875,-0.03802287652025126,0.041883477806867665,0.062428235495179916,0.01115440356079489,0.007435785541808154,4461.347584200441
1684722116168610811,191,1684722116168610811,camera_1,196,0,-0.39563311064894036,-0.8462313528851644,6.2889413064146185,0.9983141347113886,-0.0355294545021755,-0.0005938404662704108,-0.0458932854754386,0.10180898738326505,0.06864414683743444,4455.022079829011
1684722116175468683,192,1684722116175468683,camera_1,197,0,-0.39302687557139815,-0.8408602781353867,6.247053287168157,0.997304143368961,-0.03770812238795002,0.0411182149460666,0.04766377581274585,0.01809469479485415,0.012127026540870165,4450.897791056486
1684722116181944608,193,1684722116181944608,camera_1,198,0,-0.3922380789917631,-0.839049771409887,6.23485747348907,0.9967808176159082,-0.03669880901392166,0.04074907573260561,0.058486852170892036,0.0026241401792503893,0.0017531664959292942,4456.234875366325
1684722116188572883,194,1684722116188572883,camera_1,199,0,-0.3924366087606863,-0.8394270631286557,6.237162322853139,0.9965130432328112,-0.03827339668157686,0.04459635441943924,0.05922893672717535,0.0007349132938543335,0.0004912250277510014,4450.234890838328
1684722116195048809,195,1684722116195048809,camera_1,200,0,-0.3927287566437707,-0.8399767564135727,6.241929241693733,0.997127879974996,-0.03789932875440267,0.04480195919577639,0.04787918450387189,0.0013948177365818992,0.0009330200773654208,4456.477668337348
1684722116201720476,196,1684722116201720476,camera_1,201,0,-0.3915866276200664,-0.8374897834899695,6.224077807724999,-0.9953796191756468,0.03439171919801444,-2.064660844202812e-05,0.08964721386673,0.0025123244267888367,0.0016751939060810168,4460.073988408898
1684722116208437681,197,1684722116208437681,camera_1,202,0,-0.392706335609871,-0.8399408037591723,6.240967107448199,0.9970682020825259,-0.037348729743218845,0.04708303043583541,0.04736307662584278,0.0023283049958990887,0.0015568553144928697,4457.19394380378
1684722116215531587,198,1684722116215531587,camera_1,203,0,-0.39245195178410486,-0.8395478114019537,6.23787386812365,0.9968517043469989,-0.03711308496359574,0.04349103765588354,0.054934762296592915,0.0010808117222040892,0.0007224479079015384,4454.970373480523
1684722116222057580,199,1684722116222057580,camera_1,204,0,-0.39225788690448676,-0.8390103114379313,6.235645514016657,-0.9970662229223078,0.03382248639476193,0.008061367313287035,0.06819091492683871,0.001057478555594571,0.000705935094743943,4466.776284355845
1684722116228580713,200,1684722116228580713,camera_1,205,0,-0.3922111428209915,-0.8390898929246315,6.234008194712582,0.996705319362305,-0.038015643684735374,0.04217061139220123,0.05792198826809205,0.0014943453134037554,0.0009979568413523445,4457.419694374081
1684722116235101461,201,1684722116235101461,camera_1,206,0,-0.392368064434233,-0.8392033579925154,6.235897819687567,0.9967956669003067,-0.03732113182250679,0.04247665632058418,0.056579724602395035,0.0019594209152273834,0.0013090742452357708,4456.347397011123
1684722116241658449,202,1684722116241658449,camera_1,207,0,-0.3925929567206551,-0.839501765759123,6.238228086091152,0.9970112731349382,-0.03662791040654461,0.04077034080096325,0.054449028752339375,0.0013653438218170777,0.0009129438038523385,4456.306545962931
1684722116248480558,203,1684722116248480558,camera_1,208,0,-0.3921849297522651,-0.8389174007911413,6.233084665186125,0.9965757426589121,-0.03715654863899911,0.038600076548854605,0.06297788601960305,0.007541439670603722,0.005038886807942662,4453.756137173914
1684722116255244255,204,1684722116255244255,camera_1,209,0,-0.3925954977986935,-0.8398190732085485,6.240480531542049,0.9970415529205919,-0.03709473032409078,0.04017707071563379,0.05401782780331292,0.0038573529600398615,0.0025808642275076867,4453.790123036713
1684722116261680841,205,1684722116261680841,camera_1,210,0,-0.39234942247059135,-0.8396145832607618,6.2395329861356,0.9967785532006691,-0.03552666945647376,-0.009106053415242357,-0.07132637259604788,0.009504025147180073,0.006353912141442146,4457.315275994157
1684722116268561363,206,1684722116268561363,camera_1,211,0,-0.3929922612947133,-0.8404512353498257,6.244910842386156,0.9972536528875392,-0.03754785968846123,0.03772046038059439,0.051502202903868026,0.0029586662421934307,0.001982442028102048,4451.245268253262
1684722116275240182,207,1684722116275240182,camera_1,212,0,-0.3918191991077614,-0.8381886354820063,6.229187477208896,-0.996635539393679,0.03490038690824016,0.013739954177884666,0.0728750867602606,0.004263827780960128,0.0028405560472868183,4467.990346751934
1684722116281734228,208,1684722116281734228,camera_1,213,0,-0.39275698693526356,-0.8400370575741002,6.2420645811518165,0.9971673537824594,-0.036683451662046784,0.04085823553762461,0.051402310389689315,0.0038281976303551346,0.002562126539105539,4454.236711329665
1684722116288990736,209,1684722116288990736,camera_1,214,0,-0.3917641801569212,-0.8377417474548479,6.2246748013246656,0.9962472223520774,-0.03696106548027579,0.04692200946282246,0.06263925783647283,0.0033063604059861973,0.0022015148493055464,4462.568933647125
1684722116295292139,210,1684722116295292139,camera_1,215,0,-0.3926708718837822,-0.8398982548371288,6.241190152614622,0.9968835845809846,-0.037049064670617755,0.053081469648359955,0.04508706222376521,0.0012148341193096712,0.0008120272332564456,4455.785801117483
1684722116301860809,211,1684722116301860809,camera_1,216,0,-0.39271880429530115,-0.8399229809792242,6.240744273594152,0.9971710424632427,-0.036930346433706816,0.040517496060382546,0.05142367254536749,0.0009317128133261576,0.0006233594838304467,4456.20700459194
1684722116308677911,212,1684722116308677911,camera_1,217,0,-0.39223996350562823,-0.8390275270181802,6.234310534959118,0.9968363693249898,-0.03747047305845389,0.03555982986396203,0.06040459369778581,0.0007039175397949293,0.00047052458829903,4456.450392799568
1684722116315423727,213,1684722116315423727,camera_1,218,0,-0.39232229673729063,-0.8392720679466108,6.236252859739901,0.9966075878953328,-0.03649717333481809,0.04466333754672433,0.05870654450061071,0.013979910989291968,0.009341790846084833,4452.172352726336
1684722116321966648,214,1684722116321966648,camera_1,219,0,-0.39254617787665835,-0.8396123439743503,6.2388278559127786,0.9968749370456165,-0.0370727171553045,0.04114578494678489,0.05632936990712826,0.001491619972512126,0.0009976776608084646,4453.020798187468
1684722116328465461,215,1684722116328465461,camera_1,220,0,-0.39549188102080335,-0.8461054953306504,6.287587379589922,0.9987284869322276,-0.036960759482042624,0.03329613663268087,0.008165716987009618,0.0649716650514165,0.04377343894890003,4454.29042287497
1684722116335136175,216,1684722116335136175,camera_1,221,0,-0.3917411342186188,-0.8380244773040985,6.227184163927477,0.996389664387606,-0.03785357707613827,0.037347872091164906,0.06618066072771382,0.008601676061516628,0.0057381012455174595,4458.3646897337185
1684722116341813802,217,1684722116341813802,camera_1,222,0,-0.392666422761346,-0.8399207867241072,6.242381940482839,-0.9972024083352805,0.034199608762024,0.015322986877258539,0.06467572685328225,0.006195869544171728,0.004143531967979279,4456.781891704073
1684722116348704814,218,1684722116348704814,camera_1,223,0,-0.39198229342553126,-0.838255257963375,6.228360181041952,0.9963226302862856,-0.03685054775152547,0.0430658097405717,0.06425410135718017,0.0038874443562235683,0.0025928055266818436,4457.026412141684
1684722116355653285,219,1684722116355653285,camera_1,224,0,-0.39279584805343715,-0.8401899398184272,6.242526225334801,0.9972165624923465,-0.03741110548636184,0.03942619216745547,0.051040298279018015,0.0024979358568089083,0.001672178084125658,4454.48827130691
1684722116362025737,220,1684722116362025737,camera_1,225,0,-0.3920234688137132,-0.8385322338789564,6.230053194474601,0.9962959729049641,-0.0383052247018838,0.043838829227352244,0.0632866588299958,0.013265798741485924,0.008851175002336347,4455.421730446747
1684722116369038820,221,1684722116369038820,camera_1,226,0,-0.3923028963348447,-0.8391457768798014,6.235241669108234,0.9966300022483982,-0.03647008751276614,0.040531420398497164,0.061284380519422685,0.008251471401308661,0.005514450576378642,4452.218453329813
1684722116375025510,222,1684722116375025510,camera_1,227,0,-0.39239569722013246,-0.8393606508785793,6.2373341777307365,0.9968341982401955,-0.03714914843283867,0.04467589669725163,0.05427325532744478,0.006541736496728845,0.004370895499270846,4456.026220866593
1684722116381888628,223,1684722116381888628,camera_1,228,0,-0.39270838161762434,-0.8399874419574609,6.2424810301785785,-0.9969661107463423,0.034720170438646454,0.0043750707188408245,0.06952655999133192,0.0016694746009306982,0.0011174015496970937,4457.184545045837
1684722116389037609,224,1684722116389037609,camera_1,229,0,-0.3927099735161287,-0.8400556595333684,6.242309522113272,0.9967155471406038,-0.03754324043982654,0.04525733186186466,0.055681209561480094,0.006722786522004753,0.004499395451092068,4446.955524204357
1684722116395184993,225,1684722116395184993,camera_1,230,0,-0.3922917366251366,-0.8391379394174229,6.234963142352213,0.9968312359865574,-0.037265568366170156,0.04101926876716737,0.05706298244628865,0.004207530713756569,0.0028107949099717023,4457.661010454176
1684722116401770353,226,1684722116401770353,camera_1,231,0,-0.39253814719670244,-0.8396492800768507,6.2392100903009124,0.9968827126270491,-0.03673222170158531,0.03901074688460761,0.057911680874475645,0.007849391040508635,0.00525154517682915,4451.421963216736
1684722116408491611,227,1684722116408491611,camera_1,232,0,-0.3925483074334407,-0.8395299521744073,6.23936967078867,0.9969799613108025,-0.037046688023569016,0.04411842823467188,0.05207748017423081,0.00164749201212544,0.0011014095839584138,4455.981666576816
1684722116415127515,228,1684722116415127515,camera_1,233,0,-0.39234723315556574,-0.8392111174713403,6.235570990327215,0.9968513855276604,-0.03709230252399293,0.04141505120323453,0.0565355622496656,0.003791244060266763,0.0025329924236266494,4457.280092294677
1684722116421808958,229,1684722116421808958,camera_1,234,0,-0.39230283069250027,-0.8391949386959635,6.235850835195346,0.9971122037651412,-0.03698664272147618,0.04081602841813589,0.05228090652415579,0.002582861023256555,0.0017252315803312072,4462.1501502567535
1684722116428444623,230,1684722116428444623,camera_1,235,0,-0.392431938663114,-0.8393527985792647,6.236995172466405,0.9967934056684714,-0.036952236943916285,0.044933687074963424,0.05493998877447977,0.0057141770666930825,0.0038177070503043827,4455.593478972326
1684722116435209751,231,1684722116435209751,camera_1,236,0,-0.39193442749128554,-0.8383346395851023,6.228749555033766,0.9964788519163891,-0.037711840656494515,0.042009640992802036,0.06199116728494619,0.005122197471791878,0.0034162747464324913,4459.870692225348
1684722116441983461,232,1684722116441983461,camera_1,237,0,-0.39237526270229217,-0.8393875294758086,6.237004461813333,0.9967048921660933,-0.0378733130799257,0.04400900388276751,0.056640777411448046,0.0038938868965487927,0.0026021774556614003,4453.9312832322885
1684722116448738336,233,1684722116448738336,camera_1,238,0,-0.3919861437526891,-0.8386463156057828,6.23028475158672,0.9970594015196221,-0.03728437948198292,0.0350889256118175,0.05701922647129678,0.0020807117834920064,0.001388671105942317,4466.482771401993
1684722116455542087,234,1684722116455542087,camera_1,239,0,-0.39219958533442767,-0.8390114815372637,6.234449345650623,0.9967052884950255,-0.037327032984809765,0.04645900258266409,0.05501655726799772,0.0006160133925732225,0.00041120953756190645,4458.365400585753
1684722116462068080,235,1684722116462068080,camera_1,240,0,-0.3922384869786887,-0.8390025689810751,6.2340495628274795,0.9965225678846037,-0.037375906738685113,0.04104082516826129,0.062140678799355746,0.010459401411935687,0.006987569699681134,4452.551988033465
1684722116468574047,236,1684722116468574047,camera_1,241,0,-0.3924748130005219,-0.8396087723125831,6.238607144280628,0.9967735359134029,-0.03707718482626985,0.04228913303982435,0.05726630505620956,0.014012628482305445,0.009370840216479243,4451.66026393493
1684722116475459098,237,1684722116475459098,camera_1,242,0,-0.3919542279776603,-0.8385426452249237,6.230086336422089,0.99647961610314,-0.03796815602942132,0.048267460143638065,0.057070536268258795,0.02230102612520568,0.014867649899854816,4461.035369610879
1684722116482119321,238,1684722116482119321,camera_1,243,0,-0.3918693813159283,-0.8386205282301453,6.230719024447426,0.996603119212668,-0.037739314325218966,0.030270314048457238,0.06664589272604124,0.01835356246738229,0.012268227802284582,4454.584885042976
1684722116489035844,239,1684722116489035844,camera_1,244,0,-0.3929899447481144,-0.8407489587929238,6.24642271842493,0.9972238025330288,-0.03816956640858709,0.04092291877010191,0.0491231776362529,0.00424164482683409,0.002842431601364494,4450.365374973742
1684722116495590686,240,1684722116495590686,camera_1,245,0,-0.39223039553630507,-0.8392001910892758,6.2354301069323075,0.9966407267103399,-0.037184346869190636,0.052367596511300414,0.05081555909194525,0.018641279384610243,0.012441632210185573,4458.324091887217
1684722116502000331,241,1684722116502000331,camera_1,246,0,-0.39261700551665746,-0.8396661058850989,6.239671915076264,0.9969517351247974,-0.03642522724695471,0.044376530512110476,0.05283146970671497,0.0012814806250389665,0.000856865668893506,4454.530278460823
1684722116509067058,242,1684722116509067058,camera_1,247,0,-0.39274026490713043,-0.8401531083626563,6.242394809914337,0.9968127535413631,-0.03740902211639882,0.042933845972186344,0.05587114023910013,0.010246591846225783,0.006859388451237834,4447.644710931403
1684722116515269041,243,1684722116515269041,camera_1,248,0,-0.39215268598251196,-0.8387495391350583,6.232325199163073,0.9965106921041328,-0.03678284803988782,0.049528773274414926,0.056217107984566236,0.006507125741336495,0.004340081762840966,4458.30511473387
1684722116521811485,244,1684722116521811485,camera_1,249,0,-0.3923601715980902,-0.8393178974737301,6.2370339517489475,0.9968819234290854,-0.03647603145068078,0.0513334773104714,0.04754791243736475,0.0035208584886277094,0.0023506091908367306,4460.301790350932
1684722116528377771,245,1684722116528377771,camera_1,250,0,-0.3925647211413297,-0.8395454319938662,6.237441767446119,-0.99693913766627,0.03739301463691197,-0.04998158899958612,-0.04707397377186487,0.0022198087099241093,0.0014822958373335979,4460.938355706748
1684722116535167217,246,1684722116535167217,camera_1,251,0,-0.3918231360811826,-0.8381072403990069,6.229177165600168,-0.9959334551827996,0.03419153976510405,0.007863999794475001,0.08297981057687838,0.0012626774550881237,0.0008421159511906096,4458.789877177887
1684722116541794061,247,1684722116541794061,camera_1,252,0,-0.3921584111163142,-0.8386938135899267,6.231932388121961,0.9968857235111851,-0.037854536210121456,0.03753402850579749,0.05811269269293723,0.0038042011728975926,0.002539833069325111,4462.067889439641
1684722116548570632,248,1684722116548570632,camera_1,253,0,-0.3922429906618469,-0.8389752502817097,6.233977488606988,0.9967439690439674,-0.03740899243788434,0.04299201617966248,0.05704133592464743,0.00013416925503406674,8.958755058529754e-05,4458.276972890654
1684722116555613040,249,1684722116555613040,camera_1,254,0,-0.3922979380327899,-0.8390572678639977,6.234277821088379,0.9963633749375883,-0.03792882293598777,0.045129695999589846,0.0615202406745447,0.005375298438593745,0.0035902098474281953,4451.1485413000355
1684722116561935663,250,1684722116561935663,camera_1,255,0,-0.3922836670802731,-0.8392231729528726,6.235431580950622,0.9968819471259556,-0.03741123814083028,0.046205713051863946,0.05188270267153005,0.008721857404452749,0.005823149767993791,4460.621908813134
