%time,field.header.seq,field.header.stamp,field.header.frame_id,field.image_seq,field.transforms0.fiducial_id,field.transforms0.transform.translation.x,field.transforms0.transform.translation.y,field.transforms0.transform.translation.z,field.transforms0.transform.rotation.x,field.transforms0.transform.rotation.y,field.transforms0.transform.rotation.z,field.transforms0.transform.rotation.w,field.transforms0.image_error,field.transforms0.object_error,field.transforms0.fiducial_area
1682302680778154134,0,1682302680778154134,camera_2,1,0,-1.241016579943586,0.3147481876136038,1.7438357478484066,0.9567650948377859,-0.002803824385177783,0.282247546923382,-0.07020693786651815,0.3040818097651936,0.04256243944282569,12990.793582678536
1682302680797971487,1,1682302680797971487,camera_2,3,0,-1.2420253201671054,0.3113363657547224,1.7452535038441421,0.9569391953488805,-0.002674124617317396,0.2817349935470783,-0.06989720218718327,0.2726422441774048,0.03814354147556044,12990.822425552182
1682302680808264017,2,1682302680808264017,camera_2,4,0,-1.2411496731672294,0.3092377267157713,1.7440136537668602,0.9568593255664162,-0.002765699529426443,0.2818430034876411,-0.07054858870141789,0.31432044465327635,0.043911098455866174,13009.078667568509
1682302680818067550,3,1682302680818067550,camera_2,5,0,-1.24082194228008,0.3075791680335313,1.7435426512268528,0.9568197047796497,-0.0027779758773906807,0.28197885914613835,-0.07054259982486362,0.3237750881817192,0.04518598596693565,13017.494742061479
1682302680828147411,4,1682302680828147411,camera_2,6,0,-1.2406598783042204,0.30643918279237,1.7433357919625767,0.9568391464523751,-0.0026104290440555214,0.2820254279818604,-0.07009772783867191,0.33371598325902596,0.04652407846237395,13024.872569167985
1682302680837982654,5,1682302680837982654,camera_2,7,0,-1.2405617366251804,0.3060889502917374,1.7431810110556718,0.9568649312505658,-0.002736104393995659,0.28187348769782666,-0.07035164538700171,0.3019538845401257,0.04208972443368171,13029.408337362107
1682302680848194122,6,1682302680848194122,camera_2,8,0,-1.2407658350371897,0.3065478418087346,1.7434702254834713,0.9568630985707739,-0.002409675618790118,0.2820265686224573,-0.06977262104860275,0.33652378764236346,0.04690958596125731,13023.931724103164
1682302680857784748,7,1682302680857784748,camera_2,9,0,-1.240887561662434,0.30768251606448505,1.7436460915408363,0.9568747836606281,-0.0027843356328887195,0.281776677937598,-0.07060311352880255,0.3084212153335102,0.043044667934491264,13019.43463090714
1682302680868214368,8,1682302680868214368,camera_2,10,0,-1.241596850547499,0.3094801368948241,1.7446503273724039,0.9569468129409532,-0.002680508243990429,0.281582424277023,-0.070405613526058,0.3054459316190332,0.04268919945346166,13005.026193653935
1682302680878252267,9,1682302680878252267,camera_2,11,0,-1.241730329111288,0.3114722855748572,1.7448422308524811,0.9569168052641362,-0.0026484992408784334,0.2817262712547715,-0.07023903003126801,0.28449430369073525,0.03979739931305904,12995.001854812726
1682302680888066768,10,1682302680888066768,camera_2,12,0,-1.2414780504436467,0.31336029358888734,1.7445082865771007,0.9568831660672326,-0.0026915879165930736,0.28180131950531906,-0.07039444705868082,0.2710828853887506,0.03794199797721927,12992.73570622108
1682302680898040771,11,1682302680898040771,camera_2,13,0,-1.240789900024929,0.31483011613564743,1.743516553037303,0.9567289988510357,-0.0026889152971111335,0.28231805271556687,-0.0704195257219948,0.2985430491389707,0.04178315299779298,12992.741533833325
1682302680908157110,12,1682302680908157110,camera_2,14,0,-1.2409792461504485,0.31605783422688083,1.7438099479541656,0.9567217187676319,-0.0027041357860646737,0.28239738354106486,-0.07019941778333767,0.2835686598555185,0.03971300961417235,12984.844191542132
1682302680918081045,13,1682302680918081045,camera_2,15,0,-1.2416111226016189,0.3168104657952486,1.7447052515152868,0.9568890380255181,-0.0025735345251362007,0.28196837270394015,-0.06964612423774001,0.3091902603628114,0.04331850134060143,12980.903637374053
1682302680927985668,14,1682302680927985668,camera_2,16,0,-1.241005982308108,0.31651231744029895,1.7438570239096902,0.9568237298698388,-0.0025653524946217536,0.282151799646483,-0.06980065100555322,0.2907729399157688,0.04070726430472316,12989.681273709983
1682302680938239812,15,1682302680938239812,camera_2,17,0,-1.2409704985014633,0.31564327463396513,1.74378612015347,0.9567690041690706,-0.0027630564853794045,0.2822480859501947,-0.07015309086302145,0.2879802400711924,0.04031759535508487,12989.395462226348
1682302680947995424,16,1682302680947995424,camera_2,18,0,-1.241468007608372,0.31435978648605684,1.7444701695610796,0.9568659714956945,-0.002630975491534114,0.281865054199036,-0.07037529241813567,0.30276138597400865,0.04239200059085461,12989.265280929623
1682302680958092689,17,1682302680958092689,camera_2,19,0,-1.2413489284363437,0.3125223176857884,1.744303167249845,0.956812710470408,-0.0025461864989203393,0.2821246983810697,-0.07006146287349806,0.2746091758017428,0.03841262953597082,12993.109864398837
1682302680968346357,18,1682302680968346357,camera_2,20,0,-1.2419099808814547,0.3106932616446708,1.7450842942042275,0.9569139426231975,-0.00256412680702963,0.2816886993003086,-0.07043158633415514,0.29482681496301666,0.04124641119706229,12993.364362773484
1682302680978086471,19,1682302680978086471,camera_2,21,0,-1.2414914136444855,0.3086943982141876,1.744482788887715,0.9570165085455248,-0.002724363275384026,0.2813293481118604,-0.0704682773099584,0.30929739912971854,0.04320186618680852,13013.834785773655
1682302680988317012,20,1682302680988317012,camera_2,22,0,-1.2418949409398217,0.30737291785767434,1.7450659204695975,0.9570322916133336,-0.0027521671183463234,0.28130621861144367,-0.07034507627414048,0.32565051648998633,0.04548657338657625,13010.00853074971
1682302680998146772,21,1682302680998146772,camera_2,23,0,-1.2409412564341742,0.3063281030648595,1.7437089768487208,0.9569688339509298,-0.0025503376215130387,0.2815086661336672,-0.07040609005091515,0.31836018414469436,0.044393212392087156,13027.997337388799
1682302681008138179,22,1682302681008138179,camera_2,24,0,-1.240706457821026,0.306166832145009,1.7433789170048533,0.9568501973569684,-0.002689194006600861,0.28188692166166834,-0.07049986843699854,0.3062365194782614,0.04270285293437495,13025.314586139746
1682302681018151283,23,1682302681018151283,camera_2,25,0,-1.2412093453397377,0.3069636912276746,1.7440875224605388,0.9569070358320729,-0.0025757887637858205,0.28176108347587814,-0.07023519008174826,0.31197237788001075,0.043533218750528284,13016.781550608803
1682302681027926445,24,1682302681027926445,camera_2,26,0,-1.2409809007870252,0.3082472464637207,1.7437814121480872,0.9568727563792604,-0.0026397436807248046,0.2818519910021277,-0.07033501987341291,0.3242618921212852,0.04526208840596252,13015.931954015738
1682302681038001298,25,1682302681038001298,camera_2,27,0,-1.241117309202061,0.31002326730786334,1.7439797709776446,0.9568264021587548,-0.0027494841942111866,0.2820321191207634,-0.07023930703566379,0.30376838124357164,0.042442124528372996,13005.454901736228
1682302681048220872,26,1682302681048220872,camera_2,28,0,-1.2419041642942492,0.3121298152011255,1.7450711079406702,0.9569657852306686,-0.0026730223441918137,0.28156124304145513,-0.07023252285336236,0.2839599286671728,0.03973759506467682,12992.995232343445
1682302681058133602,27,1682302681058133602,camera_2,29,0,-1.2414533016508555,0.3138811025794125,1.744469189068322,0.95684543010166,-0.002559809186426026,0.28200818220210444,-0.07008320370504766,0.30437618982978165,0.04260299263049882,12989.411883756286
1682302681068038940,28,1682302681068038940,camera_2,30,0,-1.2415373612291205,0.31544835691986217,1.7445752170521858,0.9568435336667125,-0.0025341912687384905,0.28206619238733327,-0.06987626969811733,0.3010816278983839,0.04216629771082044,12983.339262160247
1682302681078214168,29,1682302681078214168,camera_2,31,0,-1.2404446007052967,0.3162141172070839,1.7430455381546883,0.9566888715400499,-0.0026248726129194256,0.2825713396668517,-0.06994963269433718,0.2940413456526585,0.041144516205393236,12993.1491381689
1682302681088058710,30,1682302681088058710,camera_2,32,0,-1.2415387974162488,0.316827138285048,1.7446120979857456,0.9568469469301457,-0.0025087443814104894,0.28213222582393127,-0.06956316197328744,0.293404744064901,0.04110429012507729,12979.515001649037
1682302681098174571,31,1682302681098174571,camera_2,33,0,-1.2401388865295369,0.31608579709174334,1.7426458454017175,0.9566673155299573,-0.002677019679368202,0.2826182156301034,-0.07005301675443883,0.2968638716847635,0.04152451757544632,12998.170038864248
1682302681108104705,32,1682302681108104705,camera_2,34,0,-1.241530079953641,0.31539492157001303,1.7445618035090633,0.95688017498831,-0.0025488208600696212,0.2818418404990558,-0.07027809879805715,0.27950769825838506,0.03915042887611604,12985.983223559804
1682302681118129968,33,1682302681118129968,camera_2,35,0,-1.2416360831383038,0.3138266830919685,1.7447107687117511,0.9568742023109085,-0.002647997916088653,0.28185024946899323,-0.0703220159919032,0.31607773090945557,0.044256728439798235,12987.837002603803
1682302681128090858,34,1682302681128090858,camera_2,36,0,-1.2417031021538878,0.31188613376137875,1.7447977777341075,0.9568596447974643,-0.0025718007050560066,0.2819665325369892,-0.07005626687364248,0.27814201620640233,0.038913653910592476,12990.69325826178
1682302681138198614,35,1682302681138198614,camera_2,37,0,-1.2414834233200633,0.30987730203596764,1.7444905496724428,0.95691880028325,-0.002543533739119057,0.28178655832383365,-0.06997339243306541,0.3131061916355975,0.043747826227136716,13004.449267943386
1682302681148111820,36,1682302681148111820,camera_2,38,0,-1.2416808780483521,0.308236516729821,1.7447755318225193,0.9570067444513263,-0.0027537208888960578,0.2814061984042982,-0.07029267099478165,0.33861574495676905,0.04729904561802042,13010.500022702845
1682302681157791137,37,1682302681157791137,camera_2,39,0,-1.241099261072334,0.3068524678121071,1.7439161464970145,0.9569436102238158,-0.0025757463999368014,0.28166715771223777,-0.07011351259637681,0.3202231308678165,0.044667044449946056,13021.74700851017
1682302681168134927,38,1682302681168134927,camera_2,40,0,-1.2410293014881784,0.3062532922706126,1.7438559974276502,0.9569466590417282,-0.0026087575224323033,0.28161143715953035,-0.07029427141672098,0.3097650891286321,0.043199812376380244,13024.75090512936
1682302681178357839,39,1682302681178357839,camera_2,41,0,-1.2411081672458593,0.3064331819090278,1.7439369067306714,0.9570003540810985,-0.002709644533933754,0.2813814771318393,-0.07048009961865759,0.30906010075705126,0.043108961560004815,13026.43421135447
1682302681188304901,40,1682302681188304901,camera_2,42,0,-1.2415066685198022,0.3074200255209891,1.7444965749510457,0.9569695051285866,-0.0026903920063239017,0.2814671900938143,-0.07055741594965778,0.3347869775025174,0.046749227317768115,13013.856926914768
1682302681198320865,41,1682302681198320865,camera_2,43,0,-1.2416138125323055,0.30890515706083266,1.7446618521379298,0.9569588385180157,-0.002796603553254764,0.2814986299422995,-0.07057252816376083,0.3187976764747873,0.044551487186192014,13007.072678724075
1682302681207949638,42,1682302681207949638,camera_2,44,0,-1.2416269798198636,0.3107170764980289,1.7446954984326564,0.9569360738748832,-0.0027759240657067234,0.2816527579676755,-0.07026641225868574,0.3128221371443942,0.04374065507381677,13000.486701935994
1682302681218306779,43,1682302681218306779,camera_2,45,0,-1.2415836325843221,0.31267426610891214,1.744653954130684,0.9568516716186168,-0.002653678811727866,0.28197643055171095,-0.07012224413650153,0.28634751291247085,0.04007019740713992,12990.422467574008
1682302681228043556,44,1682302681228043556,camera_2,46,0,-1.2417513604445833,0.3145564472812973,1.7448576390241701,0.9568863986602215,-0.0026415653742943076,0.2818105640552681,-0.07031534809909239,0.30128872254863376,0.0422029797994914,12984.3741811479
1682302681238289594,45,1682302681238289594,camera_2,47,0,-1.241136908721001,0.31581459063903883,1.7440339877286208,0.9567651671195937,-0.0026654048600517426,0.2822049626417038,-0.07038231073176578,0.27654842322226614,0.038735326470062746,12985.149678623537
1682302681248033285,46,1682302681248033285,camera_2,48,0,-1.2409733470630535,0.316547134660825,1.7438124755320739,0.9567701686661376,-0.0025576854816167192,0.28231463693510683,-0.06987666540230952,0.286784534342587,0.04015536966965846,12986.697923050258
1682302681258450031,47,1682302681258450031,camera_2,49,0,-1.2415060612318738,0.3167873813320517,1.744561143225231,0.9568784632448302,-0.0026043850694206765,0.2819984333444674,-0.06966855350793862,0.2955174919916317,0.041397857035859485,12982.395671379756
1682302681268158435,48,1682302681268158435,camera_2,50,0,-1.2412641183886717,0.3160774916276592,1.744167984897562,0.956823997908811,-0.002825596858604318,0.2819675065454891,-0.07052785464418995,0.2837524900678545,0.039754415893552275,12985.951400573358
1682302681278123855,49,1682302681278123855,camera_2,51,0,-1.2408160893709188,0.3147019346736141,1.7435411603133553,0.9567154597800436,-0.002533477765558617,0.28238799518928,-0.0703287329706032,0.28648263623472303,0.040092258699264915,12991.632406301793
1682302681288036346,50,1682302681288036346,camera_2,52,0,-1.2417406129128634,0.31318292321694313,1.7448495891481564,0.9569466475243491,-0.002451765015608514,0.2816536539063604,-0.07013074847321685,0.30085577565478155,0.04210585421984355,12992.164128473261
1682302681298217535,51,1682302681298217535,camera_2,53,0,-1.2422130139074945,0.31138847404793174,1.7455123172590923,0.9570271362945458,-0.0026198922544273364,0.281384068854834,-0.07010850415701513,0.28150038328021765,0.039390539041637515,12992.691653890766
1682302681308203697,52,1682302681308203697,camera_2,54,0,-1.2408893942558425,0.30916932815328396,1.7436469993334598,0.9568149424240048,-0.0027042457775057938,0.28210282532473185,-0.0701131154116484,0.31353548337938264,0.043774646533862614,13011.599387187041
1682302681318082809,53,1682302681318082809,camera_2,55,0,-1.2406972863830215,0.30753982385455514,1.74336684327958,0.9568535947970651,-0.002810093565249577,0.2818497250443692,-0.07059769111310919,0.3175532275927253,0.044306530580186194,13022.346115736993
1682302681328254461,54,1682302681328254461,camera_2,56,0,-1.2411086073540243,0.3065646692313666,1.7439734204502917,0.9569502706955902,-0.002603305149916501,0.28165442308607497,-0.07007273488299968,0.34001674415776506,0.04742245309199392,13022.642616223544
1682302681338099479,55,1682302681338099479,camera_2,57,0,-1.240648776032411,0.3061263363864044,1.743299541598115,0.9568635029807993,-0.002654844652463918,0.2818385169121138,-0.07051410389393895,0.30354316474404186,0.04232129414359481,13027.495763187988
1682302681348239183,56,1682302681348239183,camera_2,58,0,-1.240894320716288,0.30658068732755356,1.743665084222436,0.9569116030797801,-0.0024311764655099506,0.281848363081482,-0.0698267391517634,0.3394279250642285,0.04731991969704905,13024.455302172344
1682302681358137845,57,1682302681358137845,camera_2,59,0,-1.2409336715798567,0.30768742121632253,1.7437181458185698,0.9569322955389445,-0.0028708268553165723,0.28161720355830255,-0.0704563039602174,0.32037490990478545,0.04470610184616305,13022.222640493655
1682302681367962121,58,1682302681367962121,camera_2,60,0,-1.2413325324335243,0.3093909527274818,1.7442516956383056,0.9569302823475823,-0.002824010138028986,0.281636159025976,-0.07040975516227935,0.2995395861216821,0.04184850310992271,13009.647819360245
1682302681377830982,59,1682302681377830982,camera_2,61,0,-1.2416326229606123,0.3114357884016531,1.7447125211670778,0.9568430941982751,-0.002538006060991249,0.2820001129364262,-0.07014832794976728,0.2885040492983535,0.04035658085491811,12992.169904629929
1682302681388238191,60,1682302681388238191,camera_2,62,0,-1.2412539118392998,0.3132890615897226,1.7441737447823293,0.9568271678800466,-0.002578388476124389,0.28204795601590643,-0.07017174094152619,0.28017305536195636,0.03919882210689435,12993.836688421194
1682302681397779464,61,1682302681397779464,camera_2,63,0,-1.2409965563861907,0.3148928412822769,1.7438314915450375,0.9568294195565854,-0.0027072670626554153,0.28198445857108295,-0.07039103423329263,0.29145398252876475,0.0407934795809638,12994.822010910142
1682302681408360719,62,1682302681408360719,camera_2,64,0,-1.2408580416257533,0.31600975003578063,1.7436395957715183,0.9567537705644277,-0.0028085355494157217,0.2822415479492375,-0.07038496465891453,0.2979307227069512,0.041718804723019365,12989.555007127808
1682302681418287515,63,1682302681418287515,camera_2,65,0,-1.2417084521218709,0.3168352616167164,1.744840650401628,0.9569188993633222,-0.002592879627411293,0.2818279851963242,-0.06980317884384954,0.2950861303252168,0.04134989057750799,12980.841425113613
1682302681428092956,64,1682302681428092956,camera_2,66,0,-1.2410471373926462,0.31653203124424817,1.7439071647188396,0.9567962944930121,-0.0026231615809387304,0.2821832991526523,-0.07004680968528354,0.2955164595041424,0.04138453018553657,12987.08667269046
1682302681438440084,65,1682302681438440084,camera_2,67,0,-1.2412527491770564,0.315722116039403,1.7441710012075593,0.9568072114268072,-0.00270114130794848,0.2820245136703673,-0.07053252927752203,0.28889189154142514,0.040468997743703286,12986.05895335158
1682302681448060512,66,1682302681448060512,camera_2,68,0,-1.241748813566451,0.3144322265340661,1.7448577833396575,0.9569385292225835,-0.0025807927826785267,0.28160547147036014,-0.0704297468111862,0.29665181576274335,0.04154824726593708,12988.110645368924
1682302681458244085,67,1682302681458244085,camera_2,69,0,-1.2414874055243428,0.31256676968220787,1.7445067537261854,0.956868210084026,-0.002563663615836238,0.2818922240464039,-0.07023838111480935,0.2874098751344718,0.04021152814026749,12993.819012670308
1682302681468210458,68,1682302681468210458,camera_2,70,0,-1.2418482182588786,0.3106471762331312,1.7449855116768744,0.9569815995957581,-0.002612350789341519,0.2815681410931276,-0.06999125359541668,0.28499390539946035,0.03984754964587552,12999.142985608662
1682302681478082656,69,1682302681478082656,camera_2,71,0,-1.2414315736874708,0.30866271397513345,1.7443915053024268,0.9569529013639224,-0.002668274107521591,0.2815748224151515,-0.07035370826284837,0.3178312372183427,0.0443929983973961,13010.952842208093
1682302681487797021,70,1682302681487797021,camera_2,72,0,-1.241607061633242,0.3073138081428723,1.7446559827671189,0.9569513813248589,-0.002673221454293393,0.2815682789246018,-0.07040036911081168,0.310903909150511,0.043416736577613635,13010.725998230742
1682302681498159885,71,1682302681498159885,camera_2,73,0,-1.2408347431438158,0.30630173571987956,1.7435709437159292,0.9568986884469127,-0.0026917424912009376,0.2817671904243485,-0.07032001828290703,0.3295820400235243,0.045958026234257286,13025.602170590777
1682302681508344411,72,1682302681508344411,camera_2,74,0,-1.2407520244411738,0.30619744102640173,1.7434389360958749,0.9568652374091633,-0.0027054960213679737,0.2818475388300561,-0.07045255555779484,0.2981517105945386,0.04157553107056335,13025.372353104645
1682302681518036365,73,1682302681518036365,camera_2,75,0,-1.241110525099771,0.30693503189571186,1.7439357129686655,0.9569606892061601,-0.0025284339419117847,0.2816267536026124,-0.07004440014109768,0.31814069050597027,0.0443741692546138,13022.388168825302
1682302681528062820,74,1682302681528062820,camera_2,76,0,-1.2409686928730637,0.3082507043453362,1.7437592951717265,0.9568500021958838,-0.0026536568294515134,0.2819374469465638,-0.07030154630178764,0.319083324924577,0.04454021704404687,13014.687082025925
1682302681538579702,75,1682302681538579702,camera_2,77,0,-1.241343213259014,0.310083928165707,1.744279130597683,0.9568872211000432,-0.002703500115552941,0.28182884731175023,-0.07022847004949326,0.28374897182220593,0.03965193612395769,13004.712630308928
1682302681548203468,76,1682302681548203468,camera_2,78,0,-1.2417260993683872,0.3120847483155918,1.7448483246139395,0.9568721027893974,-0.002506259246485026,0.2818961894712233,-0.07017147518465422,0.27702005772152916,0.03876240788569344,12990.4130118303
1682302681558300971,77,1682302681558300971,camera_2,79,0,-1.2415132882955624,0.31387580252176633,1.7445434190250027,0.9569101947496392,-0.002600544091289709,0.2816995509266542,-0.07043776943059864,0.32531762873986736,0.045541638415510885,12992.53691420471
1682302681568308830,78,1682302681568308830,camera_2,80,0,-1.2414756053297298,0.3154473213665686,1.744505519996068,0.9568397585970964,-0.002590154794415569,0.2820349401684934,-0.07005183787842935,0.30294511799002066,0.042429596803371834,12984.292784379792
1682302681578240156,79,1682302681578240156,camera_2,81,0,-1.2402823036964519,0.31615784822367726,1.7428245621904177,0.9566055746901173,-0.002644995561386357,0.2828647554628409,-0.06990213578438048,0.30258732504444197,0.042337491816709094,12991.14155731979
1682302681587760925,80,1682302681587760925,camera_2,82,0,-1.2418709801654482,0.316926706750661,1.7450716488939393,0.9568911773245345,-0.002460222150860977,0.281991049575415,-0.06952891502670445,0.2844573175534606,0.03986599331426356,12975.44189550728
1682302681598230123,81,1682302681598230123,camera_2,83,0,-1.2403307258113634,0.3161401324278009,1.7428925620718494,0.9567163581723707,-0.0027095753887819802,0.28245902248428684,-0.07002405889285285,0.29613079654518515,0.041428340650414876,12997.490240312181
1682302681608253240,82,1682302681608253240,camera_2,84,0,-1.241299166011308,0.31534942033774227,1.744238551743279,0.9568265702165648,-0.0025406586479132425,0.28206699065768903,-0.07010472425275775,0.29542131564812735,0.04136540061636112,12987.307376597075
1682302681618104934,83,1682302681618104934,camera_2,85,0,-1.24157134395033,0.31380128112512395,1.7446195101145756,0.956875752312106,-0.002632135808823072,0.2818822850202733,-0.0701729569704362,0.29866305069299415,0.041809106602507466,12989.285290560221
1682302681629122972,84,1682302681629122972,camera_2,86,0,-1.2417330845783277,0.3118725249593599,1.7448453585637806,0.956866141018543,-0.0026655634349284723,0.28191027158594706,-0.07019032496144911,0.2914001986500807,0.04077406366353353,12990.623903446827
1682302681639322042,85,1682302681639322042,camera_2,87,0,-1.2416318760803393,0.30989860643359696,1.7446921779300935,0.9569834712320536,-0.0026881713485052616,0.2815175538875835,-0.0701660628552143,0.3116948833921924,0.04356038564968105,13005.648652638778
1682302681648164272,86,1682302681648164272,camera_2,88,0,-1.2414738155643243,0.3081820199402052,1.744481804946724,0.9569473258398271,-0.0026776286994100334,0.28158970154585755,-0.07036963731515679,0.32803449901985005,0.045814435507856,13010.936039414722
1682302681658367156,87,1682302681658367156,camera_2,89,0,-1.2410347293802322,0.30683288931225144,1.7438590939347083,0.9569382532569352,-0.0025202273658813793,0.28171173323215015,-0.07000947983614855,0.3276049952255562,0.04568956655455602,13022.584261758951
1682302681668607950,88,1682302681668607950,camera_2,90,0,-1.2409910513924094,0.3062319500490448,1.743783535023924,0.956979914842359,-0.002758541238188676,0.2814681940735821,-0.07040943660834686,0.30843928130343556,0.043012712373700294,13027.885671925735
1682302681678137779,89,1682302681678137779,camera_2,91,0,-1.2409142331571126,0.30639121439953243,1.743688200739349,0.9568920856225387,-0.002688047165761107,0.2818075312420343,-0.07024831820515472,0.32740096654742956,0.045659768067492806,13023.24618491391
1682302681688380718,90,1682302681688380718,camera_2,92,0,-1.2414436920186778,0.3074213605455391,1.7444263072564943,0.9570158772292209,-0.002742958758614023,0.2813398235013198,-0.07043430002974074,0.32617678155656904,0.04553381571687344,13018.0968064738
1682302681698238134,91,1682302681698238134,camera_2,93,0,-1.2417338865140644,0.30894762184958735,1.744851083264306,0.9570178836834146,-0.0027369804511227936,0.2813097766948498,-0.07052722016372433,0.3129446327802725,0.043733681596580636,13008.261734778062
1682302681708290100,92,1682302681708290100,camera_2,94,0,-1.2415766387419953,0.31070759080365445,1.7446159225474185,0.9568893265332663,-0.002705418797101177,0.2818034928257924,-0.07030141468724456,0.2955817971378565,0.04133195347291799,12998.458181948163
1682302681718141794,93,1682302681718141794,camera_2,95,0,-1.2414337405925924,0.31264927248625507,1.744431646038116,0.9567931164280097,-0.002575049534341419,0.282133359687483,-0.07029273666124045,0.2797622988582589,0.03914925395703738,12989.700865993513
1682302681728250741,94,1682302681728250741,camera_2,96,0,-1.2415499652833404,0.31452153189665283,1.7446075531491607,0.9568572476620825,-0.0026703115765317163,0.2819045302177857,-0.0703342937358304,0.2989106585737318,0.041861275625348665,12986.47365874936
1682302681738102197,95,1682302681738102197,camera_2,97,0,-1.241420430271662,0.3158842866677003,1.7444155957286567,0.9568260735466818,-0.0027262772850929194,0.28199527079019837,-0.07039246866936535,0.2762031623860821,0.03869867340403942,12983.32407702412
1682302681748359680,96,1682302681748359680,camera_2,98,0,-1.2412033322080576,0.31659897669432663,1.7441268150923028,0.9568194779751114,-0.002542890226705377,0.28214198420178477,-0.06989936356942214,0.2878519469522871,0.04031445453760542,12985.213340801662
1682302681758183240,97,1682302681758183240,camera_2,99,0,-1.2419418816038463,0.31689134280752385,1.7451580716439152,0.9569456860189994,-0.002539170300786132,0.28164341528892156,-0.07018185839803802,0.2852882150327787,0.03999871410805959,12977.690943562893
1682302681768139123,98,1682302681768139123,camera_2,100,0,-1.2412218134428255,0.3160683964726453,1.7441425872488159,0.9568066995977048,-0.00265500318188945,0.2820441582645497,-0.07046263798562656,0.29560571815818554,0.0414115440745079,12985.512785195138
1682302681777946472,99,1682302681777946472,camera_2,101,0,-1.2408782486928984,0.3146964500903213,1.7436350433105385,0.9567010117229378,-0.002694754828463372,0.2825136980327099,-0.07001373357138585,0.29910230298992246,0.04185633101815124,12989.547395543668
1682302681788070201,100,1682302681788070201,camera_2,102,0,-1.2409265087119448,0.31298309772495553,1.7437142197468152,0.9567264650909322,-0.0026372883316677313,0.2823748327488376,-0.07022798256344041,0.2874029633821919,0.04019865937841316,12994.758368988754
1682302681798417806,101,1682302681798417806,camera_2,103,0,-1.241796463464246,0.31130440886428273,1.7449208287446114,0.9569302593995924,-0.002606193853827884,0.2816976932402991,-0.07017190336679797,0.2874426397611387,0.04020738996983312,12995.054575441867
1682302681808076143,102,1682302681808076143,camera_2,104,0,-1.2412127373220854,0.3092357748633629,1.7440991232019571,0.9568827817839635,-0.0026755605444027473,0.28183142224393115,-0.07027967513527737,0.31758585158968344,0.044359661441621935,13009.324693794362
1682302681818534851,103,1682302681818534851,camera_2,105,0,-1.2408120598198957,0.30755092533339384,1.74353865830298,0.9568552425284578,-0.002878559522741076,0.2818504206250268,-0.07056981744609876,0.3270324133918621,0.04563715906010319,13020.084772069938
1682302681828030109,104,1682302681828030109,camera_2,106,0,-1.2408733891035852,0.30649720859475094,1.7436342653626302,0.9569183676834329,-0.00256290195576538,0.28174825616011057,-0.07013265483621758,0.3283064575516618,0.045776795150731756,13025.515931273114
1682302681838279485,105,1682302681838279485,camera_2,107,0,-1.2406302647524123,0.30610637814876435,1.7432758329911966,0.9568636472940196,-0.002689348517901975,0.2818278411480796,-0.07055349633822645,0.31875544507056475,0.04444234803334697,13027.968684201587
1682302681848218679,106,1682302681848218679,camera_2,108,0,-1.241041713598414,0.30661506355407336,1.743877338279724,0.9569096448842853,-0.0025144775295032544,0.2818432127962343,-0.06987139851814364,0.3490675127832219,0.04867845845259878,13021.200242028572
1682302681858103275,107,1682302681858103275,camera_2,109,0,-1.2405841527489951,0.30760469865677353,1.743225393118574,0.9568557356113556,-0.002780003730800068,0.2818445309999077,-0.0705906024365184,0.31153002503560856,0.04345919643093463,13024.531773018187
1682302681868348598,108,1682302681868348598,camera_2,110,0,-1.2413880423720556,0.30942264295331484,1.7443457430582603,0.9568612582457016,-0.002721857340444154,0.28192899078773603,-0.07017954199394545,0.3082934595295228,0.04307623681056481,13003.839991213761
1682302681878205776,109,1682302681878205776,camera_2,111,0,-1.2420678247630008,0.31153782417845416,1.7452994434929532,0.9569996362533316,-0.002634474198725185,0.281480392901824,-0.07009667730015597,0.31807564513292164,0.04450414188786679,12993.628587994726
1682302681888353347,110,1682302681888353347,camera_2,112,0,-1.2408911843575423,0.31318904510369727,1.7436663522283689,0.9567274578588456,-0.002638455123259161,0.2823451845528974,-0.07033353889364406,0.28891843190649524,0.04041444400957176,12994.986594121903
1682302681898191928,111,1682302681898191928,camera_2,113,0,-1.240981001247523,0.314858757305402,1.743797538912297,0.9567758789623096,-0.0027413207411468993,0.2821843736546178,-0.07031629869130791,0.2900265377247706,0.040596018749386675,12991.810085723642
1682302681908291578,112,1682302681908291578,camera_2,114,0,-1.2412576391410166,0.3161293846742954,1.7441836910490143,0.956801720912894,-0.0027131917363426346,0.282045726413588,-0.0705217247417985,0.2922083761659451,0.040941443263828564,12984.318205292107
1682302681918093681,113,1682302681918093681,camera_2,115,0,-1.2416722838892331,0.31681199690026923,1.7448017528770448,0.9568549881969697,-0.0024721964544708406,0.28203998430414323,-0.06982740909547132,0.29732157342368737,0.04166774753025257,12977.313033845974
1682302681928201436,114,1682302681928201436,camera_2,116,0,-1.2409826306940412,0.3165096202654323,1.7438203920052922,0.9568315014621194,-0.002468637692264683,0.2821097605560281,-0.0698674934194084,0.29174815776059404,0.04084223517645293,12990.687347666364
1682302681938188791,115,1682302681938188791,camera_2,117,0,-1.2412379404891065,0.3157273200954732,1.7441580232097103,0.9568236480068593,-0.002626478396618595,0.28204724295252365,-0.07022080154027098,0.28861441067419946,0.04041850278018071,12987.342123520555
1682302681948106527,116,1682302681948106527,camera_2,118,0,-1.2413461107548356,0.31434029597270813,1.74429913629444,0.9568192339355842,-0.00265421752347614,0.28203784031166473,-0.0703176032910086,0.2884094690089114,0.04037822570630964,12988.72765453812
1682302681958183050,117,1682302681958183050,camera_2,119,0,-1.2414249596484983,0.3125270072743896,1.744411915272503,0.9567871800075002,-0.0026259751229298304,0.2821707397646273,-0.07022157822658263,0.28321917523862794,0.039629408955208285,12989.94256937923
1682302681968056201,118,1682302681968056201,camera_2,120,0,-1.2418312511243401,0.31064726833108175,1.7449647419619116,0.9569084431845202,-0.0027712475290052447,0.2816966380576655,-0.07046669891743067,0.2972288281307556,0.041580313943469255,12994.789695324838
1682302681978023529,119,1682302681978023529,camera_2,121,0,-1.2414052875808539,0.30865554242937626,1.7443796928199378,0.9569274604454668,-0.002704534912785865,0.2816299049618409,-0.07047778066511123,0.3169990447931923,0.04428226135670991,13009.787221766539
1682302681988152980,120,1682302681988152980,camera_2,122,0,-1.2421074272079469,0.30743385975657134,1.7453637343583626,0.95710674807525,-0.002767511181822199,0.28099426769866986,-0.07057786615622956,0.30806364410091197,0.04304316876732841,13010.37787257717
1682302681998098134,121,1682302681998098134,camera_2,123,0,-1.2408123880677546,0.3063122312472091,1.7435426083095684,0.956897295603063,-0.0026404765013223162,0.28171967719782137,-0.07053096505043323,0.3105405260575935,0.043307223117515004,13025.901560012717
1682302682008124113,122,1682302682008124113,camera_2,124,0,-1.2405381313278903,0.3061273270797899,1.7431318068376276,0.9568318701573044,-0.002780547092417453,0.28194729079618286,-0.07050365963434009,0.30627427576109767,0.04269915403869564,13027.78383529419
1682302682018148899,123,1682302682018148899,camera_2,125,0,-1.241013700766381,0.30691800351378634,1.7438115502022273,0.956896588700059,-0.002602774630090257,0.28182096123926426,-0.07013622391170055,0.31311561970505863,0.043677702107218865,13020.16442944203
1682302682028292179,124,1682302682028292179,camera_2,126,0,-1.2416081406318935,0.30839463872041845,1.7446559285254069,0.9569851481976606,-0.002602941734686323,0.2814750708824528,-0.0703166786413135,0.32530567003414035,0.04543903669589481,13010.142436019616
1682302682038233518,125,1682302682038233518,camera_2,127,0,-1.2411998630347187,0.31003320957939573,1.744063522115722,0.9568931181801098,-0.0027182561944219833,0.28183650956484824,-0.07011671226684339,0.30348738725297153,0.04239640052952436,13008.236146342242
1682302682048252344,126,1682302682048252344,camera_2,128,0,-1.2417207808069142,0.31207128295532965,1.7448307984661435,0.956907248163386,-0.0026406370774794048,0.28175410095124453,-0.07025789667615168,0.28092497994657606,0.039307776617620936,12992.98228557641
1682302682058183431,127,1682302682058183431,camera_2,129,0,-1.2414130446929599,0.313860063390104,1.744414461191195,0.956872705126714,-0.002566405232244287,0.2818627279216185,-0.07029539356353483,0.31053214333951473,0.043464666254362225,12992.111044116788
1682302682068249940,128,1682302682068249940,camera_2,130,0,-1.2415896521346779,0.31547049499637175,1.7446557179955469,0.9569191873704463,-0.002614778583306798,0.2817535180598858,-0.0700984082281645,0.30278381053358316,0.04240718938341275,12987.126340935001
1682302682078381538,129,1682302682078381538,camera_2,131,0,-1.2402945594901085,0.31617166887989034,1.7428628281829255,0.9566515322032891,-0.0026504764923821265,0.2826977687747823,-0.06994849846295687,0.30914910935098305,0.04325335734998466,12993.732551316263
1682302682088055133,130,1682302682088055133,camera_2,132,0,-1.2417551633998807,0.3168882188714621,1.744927599363728,0.9568556199128686,-0.002590109870588037,0.2820938121573558,-0.06959666022553695,0.2993092148681171,0.041947360186675525,12975.488339964762
1682302682098434925,131,1682302682098434925,camera_2,133,0,-1.2402997303385461,0.316133616928958,1.7428720933262645,0.9567073165262598,-0.002644041420119844,0.28250250197837756,-0.06997468060697476,0.29466230218531564,0.041220302952555174,12997.408235123848
1682302682108193874,132,1682302682108193874,camera_2,134,0,-1.2415234749476096,0.31538447594321883,1.744525092829545,0.9568228565779011,-0.0027203815753547114,0.28206310086629355,-0.0701642913730408,0.2876061113202013,0.04028840745983383,12982.606433428125
1682302682118251323,133,1682302682118251323,camera_2,135,0,-1.2417756740500332,0.31386020348681926,1.7448780223815143,0.9568374950482537,-0.002602399507837171,0.2820005542820255,-0.07022053098072781,0.2944019358837977,0.041230943165482994,12982.635867269712
1682302682128297328,134,1682302682128297328,camera_2,136,0,-1.24162900148184,0.31184266855075726,1.7446922492127788,0.9568877569957014,-0.0027536043110563237,0.281844296803595,-0.07015718448114112,0.28888806147733703,0.04041331053985623,12994.227179014357
1682302682138247013,135,1682302682138247013,camera_2,137,0,-1.2416039254468691,0.30990339602144623,1.744650110342229,0.9569196337988676,-0.0026111814257615377,0.28171291193095044,-0.07025547262091059,0.30718120909295976,0.042936975738534895,13002.015286305916
1682302682148193359,136,1682302682148193359,camera_2,138,0,-1.2411722212413754,0.308124964653192,1.7440436359512257,0.9569195085975432,-0.0024895432483725173,0.28180033915278885,-0.06991012153632913,0.32249288266757503,0.045005635135586204,13015.438514904126
1682302682158233165,137,1682302682158233165,camera_2,139,0,-1.240977519955027,0.3068308225181124,1.7437690698936072,0.9569033767000725,-0.002629809253837526,0.28179700530011564,-0.07013885918072801,0.28822060697712004,0.04020105947576918,13021.475009186652
1682302682168286800,138,1682302682168286800,camera_2,140,0,-1.2408350577196572,0.3061927449315489,1.7435677460789574,0.9568998567772103,-0.002698815287653917,0.2817308685485878,-0.07044925977365439,0.3205836034030654,0.04470522828402947,13025.946168618286
1682302682178025484,139,1682302682178025484,camera_2,141,0,-1.2410067357151133,0.3064054906905407,1.743815233172446,0.9568966908814722,-0.002656467813968116,0.2817652927507596,-0.07035613661877976,0.328182524535805,0.04577766694231725,13021.684862072576
1682302682188360691,140,1682302682188360691,camera_2,142,0,-1.2416392932460296,0.3074764938634329,1.744707707384259,0.9570168087903509,-0.002746901667611461,0.28135351589668967,-0.07036676286808156,0.32649064977886155,0.04559014112623982,13013.998609167293
1682302682198340654,141,1682302682198340654,camera_2,143,0,-1.241683245918838,0.30889825843688273,1.7447468302947073,0.9569970963485624,-0.0028113074383487387,0.2813925801986124,-0.0704760238668092,0.3138354304828681,0.043855134927985616,13008.204483109996
1682302682208368539,142,1682302682208368539,camera_2,144,0,-1.2417740277282674,0.31074459925908704,1.7448873031931085,0.9569332186638274,-0.0026762061895249543,0.28164858720001573,-0.0703258577363544,0.30508523352909833,0.04266966845132044,12997.250408699507
1682302682218327283,143,1682302682218327283,camera_2,145,0,-1.2415175587844538,0.31267838355957733,1.7445704398436093,0.9568283313622944,-0.0026053149691196553,0.2820157774131567,-0.070284122861512,0.2845748088438995,0.03982470885711698,12990.18672290397
1682302682228291034,144,1682302682228291034,camera_2,146,0,-1.241596295762694,0.31452807959015894,1.7446624562787967,0.9568652537764482,-0.0026255588866599252,0.2818560407314913,-0.07042133809460197,0.2878921967931092,0.040322052666545864,12986.031086025294
1682302682238255023,145,1682302682238255023,camera_2,147,0,-1.2413784564535475,0.3158671084788156,1.7443612295454471,0.9567937963542607,-0.0027201027394621762,0.28208518089091,-0.07047115027322085,0.27622439921833575,0.03870430359636137,12982.109679426994
1682302682248190402,146,1682302682248190402,camera_2,148,0,-1.2411572872772143,0.3165836618167337,1.7440899905241745,0.9567883390679718,-0.0025553658631082945,0.2822202982380375,-0.0700089107992026,0.3067498533637263,0.04296586277813691,12983.987858274955
1682302682258138179,147,1682302682258138179,camera_2,149,0,-1.2416679208178616,0.3168144887093376,1.7447808739079507,0.9568534597743458,-0.0024382971567761765,0.28210405243609277,-0.06959033570815763,0.28366718103643507,0.039746798691068896,12977.388239990687
1682302682268228054,148,1682302682268228054,camera_2,150,0,-1.241254217911028,0.31606738956332087,1.7441882673670166,0.9568188422609731,-0.0028229481644033265,0.2820657087752964,-0.07020448697285601,0.3073854931280948,0.04305676028790759,12985.7022689397
1682302682278208732,149,1682302682278208732,camera_2,151,0,-1.2405867166245264,0.3146241815664384,1.7432384490613242,0.9566491101312861,-0.0025982196947077723,0.2826601094101603,-0.07013552514719522,0.29099960305029526,0.040711811061739524,12992.112400928741
1682302682288154125,150,1682302682288154125,camera_2,152,0,-1.2414530349663109,0.31310080733236223,1.7444167151024772,0.9568832950402685,-0.002682964051457199,0.28188910890007846,-0.07004064291750313,0.30331274901982397,0.04243636360174359,12994.230070088062
1682302682298505306,151,1682302682298505306,camera_2,153,0,-1.2420236874347192,0.31136928074308284,1.7452580043967378,0.9569819184768069,-0.002619604061925917,0.28151891593035416,-0.07018436689468119,0.28479686548234895,0.039847146601887505,12993.590630418617
1682302682308090448,152,1682302682308090448,camera_2,154,0,-1.2410353403754208,0.30920076134958746,1.7438608450961914,0.9568698693778569,-0.002690190718643216,0.2819203835283459,-0.07009788371934467,0.29957015661057085,0.04182807406009033,13012.04635590547
1682302682318210840,153,1682302682318210840,camera_2,155,0,-1.2407024827424322,0.3075283688138144,1.7433975940822763,0.9567950311249412,-0.002851679407809138,0.28206077811040775,-0.07054681984986545,0.3193937556934543,0.04457001218307595,13018.300522579819
1682302682328409910,154,1682302682328409910,camera_2,156,0,-1.2408465324673719,0.3064893088311689,1.7435800687293097,0.9568954427012352,-0.0025221052284003973,0.28184412036691575,-0.07006170521350177,0.3251535852905363,0.0453348292687513,13024.676551632583
1682302682338263750,155,1682302682338263750,camera_2,157,0,-1.2404231161773374,0.306053025582686,1.7429728882659554,0.9568214679173939,-0.002624276544144818,0.28199848807309086,-0.07044603913290322,0.32247863186057657,0.04494744922952044,13029.567373125348
1682302682348189592,156,1682302682348189592,camera_2,158,0,-1.240976174280726,0.3066010049482259,1.743767886512102,0.9569002196678955,-0.0025640169125180443,0.28188404989844784,-0.06983393036092803,0.3280377374612726,0.04574094819631016,13022.007138188932
1682302682358380794,157,1682302682358380794,camera_2,159,0,-1.2409801340693059,0.30768967549651094,1.7437680841461738,0.9568915090194998,-0.0028785662180859533,0.2817250929211069,-0.07057850835421696,0.3245185137493536,0.045296045414380065,13018.696348644095
1682302682368068695,158,1682302682368068695,camera_2,160,0,-1.2419163741950499,0.30957083660148005,1.7450822160374924,0.9570194153091938,-0.0028423020169295295,0.28130340302497264,-0.07052769305076922,0.3030897082062438,0.0423785336345374,13003.13263789285
1682302682378399372,159,1682302682378399372,camera_2,161,0,-1.2420192097772453,0.3115536602663662,1.7452553379257758,0.9569902026261279,-0.0026059791786970012,0.2815107438798701,-0.0701046505613235,0.2884497230988927,0.040357690230886985,12993.711345013924
1682302682388070344,160,1682302682388070344,camera_2,162,0,-1.2412986204295005,0.3132819487691659,1.7442461141076355,0.9567868090966449,-0.002660732401169158,0.28219496195804533,-0.0701279251600043,0.2947997020673938,0.041252063545527885,12990.35852079303
1682302682398207902,161,1682302682398207902,camera_2,163,0,-1.2406041837279704,0.31475412372703526,1.743273139506798,0.9566859330967333,-0.002704176578588299,0.28254846716148524,-0.07007907354239029,0.3032105451566167,0.042418846397736874,12993.821064518994
1682302682408218622,162,1682302682408218622,camera_2,164,0,-1.2407601305176799,0.31599089714028794,1.7434991817521184,0.956692117066074,-0.002716386454903386,0.2824728556281372,-0.07029865021141259,0.28775784105528146,0.040291557023202286,12987.489991918672
1682302682418313980,163,1682302682418313980,camera_2,165,0,-1.2413772666141352,0.31674701213611683,1.7443786023196075,0.9568196361885037,-0.0024314125984066,0.2821895782186732,-0.06970877980314306,0.294368302274961,0.04123425736091607,12981.213219814006
1682302682428251504,164,1682302682428251504,camera_2,166,0,-1.2407615721923198,0.31643760794731957,1.743491683546028,0.956724362577734,-0.0025305835019772205,0.2825114374407801,-0.06970923835843015,0.2903490607859567,0.04063914748016384,12988.475385102443
1682302682438328742,165,1682302682438328742,camera_2,167,0,-1.24107590718206,0.31568723575869967,1.7439275330092143,0.9567824773493907,-0.0027013136798140834,0.2822113245964311,-0.07011962785906622,0.2796484951977618,0.03915478789843022,12988.072401769925
1682302682448260068,166,1682302682448260068,camera_2,168,0,-1.2417407726111525,0.31444706739407224,1.744842105761504,0.9569024653767346,-0.002582723469681571,0.28180152190172725,-0.07013489537510409,0.295269456342794,0.041349819264528,12985.94707317464
1682302682458255529,167,1682302682458255529,camera_2,169,0,-1.241355357344792,0.31251570489368974,1.744301060351489,0.9567996187225981,-0.0025312345854364734,0.282151554716005,-0.07013260750254174,0.2719052141183056,0.03803767406172742,12992.14500298654
1682302682468451023,168,1682302682468451023,camera_2,170,0,-1.2418062810261925,0.3106229991172285,1.7449524467249196,0.956935560658408,-0.0025685390213912988,0.2816520506409745,-0.07028412142445833,0.286690829670988,0.040095022222326214,12996.897981850889
1682302682478271961,169,1682302682478271961,camera_2,171,0,-1.2414624484717154,0.3086660740599444,1.7444360198794164,0.9569626914168382,-0.002702113073194282,0.2815408757101192,-0.0703551073168132,0.3058798287529499,0.04272475865179065,13010.974674277237
1682302682488356828,170,1682302682488356828,camera_2,172,0,-1.2414208934935527,0.30725466795844547,1.7444036701425727,0.9569512881343074,-0.0027356803967368494,0.28154761405106365,-0.07048183605021997,0.33782671444350854,0.047165918875203744,13014.648732600734
1682302682497948169,171,1682302682497948169,camera_2,173,0,-1.241037446721644,0.30636547671932257,1.7438527976020517,0.9569228118149771,-0.0026322067200054856,0.28166036853995324,-0.07042187522239708,0.32576491200597957,0.045440227441786725,13022.91854287987
1682302682508261442,172,1682302682508261442,camera_2,174,0,-1.2406016933694055,0.30615830858742277,1.7432390749308666,0.9568902361935333,-0.002638884916934057,0.28178278527627565,-0.0703745272511558,0.30778350692708045,0.04290279495197606,13030.091679291103
1682302682518254995,173,1682302682518254995,camera_2,175,0,-1.2412711578610693,0.3069788849898107,1.7441837107049554,0.9569408589735403,-0.00257335905852815,0.2816899091652278,-0.07005972683806651,0.3069999421713874,0.042835045393146386,13017.563866439737
1682302682528345346,174,1682302682528345346,camera_2,176,0,-1.241289220540883,0.30832958689382833,1.744213767157491,0.9569272171362494,-0.002640925600864601,0.281703591736627,-0.07018841085626558,0.31503078364767134,0.043984468159402254,13013.034390015531
1682302682538129329,175,1682302682538129329,camera_2,177,0,-1.2412493901174373,0.3100409011548775,1.7441659203977118,0.9569389173380304,-0.00269418041799444,0.28167622079279736,-0.07013669877945998,0.29750756395515054,0.04156021105588891,13010.001238583824
1682302682547851800,176,1682302682547851800,camera_2,178,0,-1.2414299275004201,0.31198431417319494,1.7444312825692347,0.956846908955224,-0.0025588670948799353,0.282035897725709,-0.06995139323900153,0.2939372055698186,0.041106668005798486,12995.103575187735
1682302682557909965,177,1682302682557909965,camera_2,179,0,-1.241370408549992,0.31385742112192405,1.7443465922838393,0.9567932489841124,-0.0026081748316195024,0.28217007204032246,-0.07014218821246836,0.31103951047407463,0.043537978170735556,12987.815507960968
1682302682568380594,178,1682302682568380594,camera_2,180,0,-1.2414404227032714,0.31544029002508756,1.7444519510401102,0.9568261492845528,-0.0025767305373943974,0.2820727988977789,-0.07008578049080595,0.2819176128250547,0.039484536006010026,12984.059345175978
1682302682578331708,179,1682302682578331708,camera_2,181,0,-1.2403651488425416,0.3161853402675313,1.742949941002773,0.9566481963438501,-0.0025766776251850716,0.28270788018637266,-0.06995601221483316,0.2983851289609447,0.04175147958650346,12992.095783616418
1682302682588439464,180,1682302682588439464,camera_2,182,0,-1.241739744192791,0.31688671733300083,1.7449103920589464,0.956896383198458,-0.0023341673979193913,0.28191167582769733,-0.06978302455674625,0.29307420761324465,0.04107069841349485,12978.404986129135
1682302682598314046,181,1682302682598314046,camera_2,183,0,-1.2401834267817387,0.3160961387084517,1.7426963624891192,0.9566086921323037,-0.0026799510435263868,0.2827887801090505,-0.07016504716568724,0.30462008935865015,0.04262235052158895,12993.475147288762
1682302682608248233,182,1682302682608248233,camera_2,184,0,-1.2414506634290734,0.315376235252668,1.7444528960658419,0.9568069360438642,-0.0026141729997322494,0.28217108210470687,-0.06995093753295205,0.28856735402951017,0.040414019731596564,12982.871413944289
1682302682618284225,183,1682302682618284225,camera_2,185,0,-1.241583663549123,0.31379629963759725,1.744628191687422,0.9568217138039462,-0.002555217265918807,0.28207175666305717,-0.0701512861679693,0.2932923446642235,0.04106233934100817,12985.547410026653
1682302682629493713,184,1682302682629493713,camera_2,186,0,-1.2415465754582802,0.3118220552286383,1.744577278720481,0.9568695474523781,-0.002691112370088539,0.28190490466612494,-0.0701644624983044,0.2885690306429751,0.04036501299339485,12994.721807415131
1682302682639307022,185,1682302682639307022,camera_2,187,0,-1.241529675790647,0.30987943739556595,1.7445318175711977,0.956906058781723,-0.0026775352752038315,0.2818069684438165,-0.07006038829599662,0.31228124938206747,0.043640707187346146,13002.794427853074
1682302682648143529,186,1682302682648143529,camera_2,188,0,-1.2415230749267474,0.30819589011285015,1.7445334679468014,0.9570172990381237,-0.0027817170785649934,0.2813726554883614,-0.07028214663267758,0.3365685601020232,0.04699945614001758,13014.564982963959
1682302682658271789,187,1682302682658271789,camera_2,189,0,-1.240909499464905,0.3068083608992088,1.74365338620749,0.9569048458237529,-0.0025669502040699213,0.2817810654765757,-0.07018516897860537,0.31123124045552686,0.04340605226052943,13023.155330487058
1682302682668370962,188,1682302682668370962,camera_2,190,0,-1.2409962356925834,0.3062414761942571,1.7437999076698687,0.9569674041042081,-0.0027306167389565296,0.2815282378076315,-0.07034047576756897,0.3149175246944651,0.04391597724272237,13026.899697544053
1682302682679369211,189,1682302682679369211,camera_2,191,0,-1.241075150767044,0.30641774082037043,1.74392849365694,0.9569328071669032,-0.0025719375925251724,0.2816696391274296,-0.07025099357670617,0.3231117784162052,0.04506696101765996,13022.540502961725
1682302682688246488,190,1682302682688246488,camera_2,192,0,-1.2415972941337543,0.30744981474042354,1.7446372547367566,0.9570231797958824,-0.0026867264179309363,0.28136429446756805,-0.07023922432160902,0.3148731447872706,0.04395938681192528,13015.303876002326
1682302682698359727,191,1682302682698359727,camera_2,193,0,-1.2417614686709753,0.3089274908995457,1.744882660844157,0.9569531848673523,-0.002784160743572353,0.28150178150535043,-0.07063708254521209,0.3186065068584867,0.04453789810065085,13003.584912264017
1682302682708503246,192,1682302682708503246,camera_2,194,0,-1.2414571667158552,0.3106738524185506,1.7444567412713954,0.956884176304278,-0.002580601079785678,0.28185230013940343,-0.07018044273640728,0.30583345639752224,0.042753206396900154,13000.595320212658
1682302682718525409,193,1682302682718525409,camera_2,195,0,-1.2413593946016006,0.3126201439044627,1.7443101275401212,0.9568468235837395,-0.00262862460873104,0.2819910148555965,-0.07013069278914308,0.2786189393373206,0.03897447307612404,12994.931677512826
1682302682728330850,194,1682302682728330850,camera_2,196,0,-1.2413079433413299,0.314461406342014,1.7442260360964728,0.9567668562977042,-0.002607421533473615,0.2822370434550123,-0.07023272275035845,0.29371375124901533,0.04112316123452463,12985.811889534813
1682302682738208293,195,1682302682738208293,camera_2,197,0,-1.2413946837728949,0.315879134657883,1.7443794145780656,0.9568640944667169,-0.002743088849079306,0.2818391992411194,-0.07049997131262323,0.28636369470041245,0.04011976828876828,12986.3407571225
1682302682748008251,196,1682302682748008251,camera_2,198,0,-1.241335229779288,0.31663048843401986,1.7443278793590835,0.956842642460175,-0.002600492611658827,0.2821244385756612,-0.06965052883054254,0.289945644850377,0.04060786836261254,12983.889500324389
1682302682758325576,197,1682302682758325576,camera_2,199,0,-1.241757146896661,0.3168441036144598,1.7449375172805994,0.9569617216481873,-0.0024672962404671634,0.28171875997861184,-0.06966143858342692,0.29643357440363616,0.04153249887877265,12982.461825691626
1682302682768235921,198,1682302682768235921,camera_2,200,0,-1.2411068424042575,0.3160430595344458,1.7439823133840264,0.95679898102064,-0.002735985351195968,0.2820619541003338,-0.07049310853639927,0.3039537699078209,0.04257595694318597,12987.408283839708
1682302682778390169,199,1682302682778390169,camera_2,201,0,-1.240685167664094,0.31463810783422064,1.743373847956731,0.9566794333181258,-0.002699045422103062,0.28251917076297745,-0.07028581059729619,0.3012153842137195,0.04214949833588319,12992.107132982695
1682302682788536787,200,1682302682788536787,camera_2,202,0,-1.2413063663429398,0.3130798890746396,1.7442245333727757,0.9568129881371291,-0.002587719997748542,0.28208163705170275,-0.07022933486473358,0.29736987297656015,0.04160758944874471,12992.618318762166
1682302682798449516,201,1682302682798449516,camera_2,203,0,-1.2419716023206515,0.31133586786053047,1.7451424737014267,0.9569405438889327,-0.002648731527476487,0.2816452966594854,-0.07024034846467829,0.2835047986009158,0.03966807787975079,12992.255654128043
1682302682808321237,202,1682302682808321237,camera_2,204,0,-1.2414584104317752,0.3093120677478132,1.7444196030357701,0.9569143641557989,-0.0026800051244304083,0.2817294885973476,-0.07025818457313743,0.2895451078657061,0.04045464996026813,13006.253387533134
1682302682818630695,203,1682302682818630695,camera_2,205,0,-1.2407107858861939,0.3075367313546739,1.7434099457111898,0.9567870637017846,-0.0028920598422779026,0.28210116432771304,-0.070491728647655,0.31486536079319194,0.043938418374999504,13017.591960461812
1682302682828361272,204,1682302682828361272,camera_2,206,0,-1.2412730191557313,0.30660035407527153,1.7442003132492219,0.9569874837128798,-0.00261428758744712,0.28157098942057296,-0.06989920910868991,0.33749589906074107,0.04707293799048205,13021.66980559006
1682302682838369607,205,1682302682838369607,camera_2,207,0,-1.2406712596910656,0.30612017705567723,1.7433420379337674,0.9568977071693383,-0.0026821517260402594,0.28172301027076285,-0.07051049255367224,0.3000534626771696,0.04183278411931877,13029.192513771115
1682302682848289728,206,1682302682848289728,camera_2,208,0,-1.2411108234905641,0.30662103734880175,1.7439522935870955,0.9569661642187164,-0.0024811231579033276,0.28163169979951075,-0.06995134192015415,0.3355783532024361,0.04679683407970504,13023.574067956304
1682302682858376502,207,1682302682858376502,camera_2,209,0,-1.2408626640341005,0.3076763456773138,1.7436115148802165,0.9568464157364294,-0.0028464344832293425,0.2819107692870395,-0.07044964629485505,0.3114829217665829,0.043469751494971794,13018.087624416454
1682302682868243455,208,1682302682868243455,camera_2,210,0,-1.2413525112711195,0.3094145877448805,1.7442806150032446,0.9569046936755513,-0.00264299116680711,0.28176441679682607,-0.0702512295019512,0.3157289871596731,0.04410851514764918,13007.518947140312
1682302682878268718,209,1682302682878268718,camera_2,211,0,-1.2415218395912464,0.3114302869212104,1.7445296931376917,0.9568536630467548,-0.002666582283678621,0.2819372571157056,-0.07025197437086385,0.28805660584475845,0.04028937009731535,12995.315224682217
1682302682888369083,210,1682302682888369083,camera_2,212,0,-1.2413156905368832,0.3132907048162513,1.7442457825811335,0.9568233144825031,-0.002712704886631894,0.28203813562286023,-0.070258637542269,0.2634286035900004,0.036862794008360525,12992.428655218098
1682302682898329257,211,1682302682898329257,camera_2,213,0,-1.2409884924677808,0.314858409517244,1.7437989378124406,0.9567384373896375,-0.002843774180840945,0.28230387825723485,-0.07034199094827662,0.28896534425439313,0.04045346675541059,12989.286899223458
1682302682907767534,212,1682302682907767534,camera_2,214,0,-1.2408447441669959,0.3160055081934968,1.7436128549208245,0.9567309453093541,-0.002886700271239676,0.2823351682984564,-0.07031655559607497,0.27679286390775815,0.03875911400167509,12988.338811310236
1682302682918071746,213,1682302682918071746,camera_2,215,0,-1.241635939030071,0.3168135641063797,1.744754957043463,0.9569001196509029,-0.002456013136394893,0.2819283313337498,-0.06966021104568135,0.2867490323842503,0.040174105787371336,12980.98723647487
1682302682927923440,214,1682302682927923440,camera_2,216,0,-1.241161220158802,0.31655434954021283,1.7441071734968978,0.9568064595545364,-0.002618628004424856,0.28220015340063404,-0.06983992527735641,0.306319055845961,0.042898844774526865,12985.191837228836
1682302682938435554,215,1682302682938435554,camera_2,217,0,-1.2408236063111238,0.31562730595518457,1.7435721033960265,0.9567292765161105,-0.00274631718150505,0.2823706488057927,-0.07020232112896316,0.28394311160082,0.03974858981906651,12989.832431479119
1682302682948336362,216,1682302682948336362,camera_2,218,0,-1.241618427951558,0.3144110805787226,1.7446628688851227,0.9569249021320578,-0.0026306117746569043,0.2816519480876943,-0.07042720851808074,0.29796590126352385,0.041725316143728285,12990.013580691073
1682302682958155155,217,1682302682958155155,camera_2,219,0,-1.241561656653349,0.3125534493374246,1.7445965524936673,0.956834967655366,-0.002579129497302291,0.2820302075173365,-0.07013668662489714,0.2880455432459712,0.04030562673062545,12990.223827970218
1682302682968340873,218,1682302682968340873,camera_2,220,0,-1.241994437233138,0.310674212508506,1.7452027932562244,0.9569994266935283,-0.0027567878681935437,0.28136929943326544,-0.0705394553802453,0.3054835614748299,0.04273775329860717,12997.35459355125
1682302682978220462,219,1682302682978220462,camera_2,221,0,-1.2411482779639973,0.30858480842899116,1.7440127495809863,0.9568799046919849,-0.0025429621412866132,0.28185493537009104,-0.07022945783449984,0.30255519138881937,0.04224349599572893,13012.011550665364
1682302682988310098,220,1682302682988310098,camera_2,222,0,-1.241733192892916,0.30734081631803195,1.7448315315982448,0.9570115076171178,-0.0026801955405649927,0.2814018775185208,-0.07024794779441608,0.31878769025206566,0.04451520306773976,13011.995678304695
1682302682998334169,221,1682302682998334169,camera_2,223,0,-1.2409046620323667,0.3063355930890195,1.7436913060055947,0.9569218594812363,-0.0026219074328897737,0.2817083318267945,-0.07024312228076963,0.3113846276537515,0.04342053976571251,13025.397658423059
1682302683008200883,222,1682302683008200883,camera_2,224,0,-1.2409468760773659,0.3062346935370627,1.7437302632903078,0.9569235443687644,-0.002707505722436544,0.28164726124228284,-0.07046147798766203,0.3118036349769682,0.04348675312490119,13025.0541069177
1682302683018276929,223,1682302683018276929,camera_2,225,0,-1.2412554969919696,0.3069729041583021,1.7441563227049741,0.9569353066532763,-0.00253641553149613,0.28173326537764526,-0.06996250893371941,0.32272489462047815,0.04502522356867052,13017.590795821976
1682302683028223752,224,1682302683028223752,camera_2,226,0,-1.241480829962812,0.3083759568232935,1.7445000851995263,0.9569576751099232,-0.0026636977120409275,0.2816228416097878,-0.07009627555254207,0.3362799340975471,0.04695991983721071,13010.946909338465
1682302683038244724,225,1682302683038244724,camera_2,227,0,-1.2415511748062307,0.31011064500322766,1.7445834214917924,0.9569494308326381,-0.0025544120612819104,0.2815993532958309,-0.07030694155971393,0.2853201607358642,0.039878936601372636,13004.380139366258
1682302683048223495,226,1682302683048223495,camera_2,228,0,-1.2416553861553807,0.3120485400578031,1.7447640655615901,0.9569177164968293,-0.002668629576847569,0.2817194992398626,-0.07025301430341972,0.27906565979355946,0.03904290915517743,12994.9194669188
1682302683058230876,227,1682302683058230876,camera_2,229,0,-1.2414477180332475,0.3138538895337605,1.7444414372042096,0.956867318509649,-0.0025000018210649317,0.28187447559808876,-0.0703239985022978,0.30541274417191744,0.04275107619081465,12991.046822218686
1682302683068278789,228,1682302683068278789,camera_2,230,0,-1.2413719724908305,0.315424634425983,1.7443578735787961,0.9567916898866188,-0.002556410912935189,0.28220691224005406,-0.07001703800566803,0.2875502522219904,0.040270640212572574,12983.261362114692
1682302683078489780,229,1682302683078489780,camera_2,231,0,-1.2404367869657635,0.3162183982930545,1.7430798541251884,0.9566718846618353,-0.0026743014410286876,0.28261325210815813,-0.07001073447854558,0.2828221680247225,0.03957894288730261,12991.93654413219
1682302683088406562,230,1682302683088406562,camera_2,232,0,-1.241899681232179,0.31693922883024306,1.7451137688385598,0.9569560674695851,-0.0025532424481949103,0.2816975250821525,-0.06982170327869361,0.27706721809227014,0.03883408888306284,12979.004539766582
1682302683098406314,231,1682302683098406314,camera_2,233,0,-1.2402804485532484,0.31612982340309737,1.7428367128998405,0.9566091857694183,-0.002642428303216934,0.2828118310354034,-0.07006676459374608,0.2905931662535295,0.04066294598089457,12991.41777882725
