%time,field.header.seq,field.header.stamp,field.header.frame_id,field.image_seq,field.transforms0.fiducial_id,field.transforms0.transform.translation.x,field.transforms0.transform.translation.y,field.transforms0.transform.translation.z,field.transforms0.transform.rotation.x,field.transforms0.transform.rotation.y,field.transforms0.transform.rotation.z,field.transforms0.transform.rotation.w,field.transforms0.image_error,field.transforms0.object_error,field.transforms0.fiducial_area
1683160072965268373,20,1683160072965268373,camera_1,25,1,-0.08489732326701432,-0.1385208878104299,1.0809695978654912,0.9951879335237328,-0.03085261916919644,0.05629313990604289,0.07402820583184189,0.4069213201473758,0.011532638484014602,73486.9174375719
1683160072972045660,21,1683160072972045660,camera_1,26,1,-0.08489469606288855,-0.1385271811994109,1.0810618425328693,0.9952358810463219,-0.030851221808673376,0.05599440011680417,0.07360958053421321,0.39882313783164136,0.011305022127493321,73485.57820889947
1683160072978734016,22,1683160072978734016,camera_1,27,1,-0.08489813267621844,-0.13849752917238986,1.080770864551722,0.995046500786193,-0.031088420939044212,0.05790558787166534,0.07458494653686089,0.3797321648198704,0.010758247852605426,73485.71565765818
1683160072985384464,23,1683160072985384464,camera_1,28,1,-0.0849134269318543,-0.1385170137708297,1.0808444880946948,0.9950614491570543,-0.030927875126376236,0.057580795845503616,0.07470362033682658,0.38251394214239554,0.010838836862009565,73476.92417104132
1683160072991825103,24,1683160072991825103,camera_1,29,1,-0.08490977911254732,-0.13851136914886744,1.0807970726684428,0.9950941540442314,-0.030928276716410477,0.058036446859664234,0.07391100812635554,0.43526870091227465,0.012330777874404876,73493.38424479049
1683160072998695850,25,1683160072998695850,camera_1,30,1,-0.08489714795106637,-0.1385454540946258,1.080818974132036,0.9950862782365393,-0.030870312397799905,0.05673203357227308,0.07504531327517677,0.4680943466119061,0.013262506414828101,73482.48738100173
1683160073005268573,26,1683160073005268573,camera_1,31,1,-0.08490396646145976,-0.13855092522380538,1.0808899394937266,0.9951564477343956,-0.030886382183789064,0.05695449178055801,0.07393146687490039,0.42989781363939983,0.012181348363603062,73491.52693341428
1683160073011839151,27,1683160073011839151,camera_1,32,1,-0.08492842159825542,-0.13859767633558687,1.0810551081087802,0.9951424100293412,-0.030755824124525575,0.05717086574805581,0.07400780467649157,0.4009476025821641,0.011365129246645166,73464.91041482237
1683160073018555164,28,1683160073018555164,camera_1,33,1,-0.08492475729402595,-0.1385893053215071,1.0808993256424486,0.9951584942441661,-0.030808233707262777,0.05764162157706808,0.07340209487125568,0.38753133118734695,0.010981316825456108,73491.76696471698
1683160073025190830,29,1683160073025190830,camera_1,34,1,-0.08492096940962104,-0.1386076932643777,1.0809410885525788,0.9951138768842323,-0.030964948219262396,0.056595744544501086,0.0747426632765065,0.36306382980546914,0.01029065462746478,73471.83281600462
1683160073031892299,30,1683160073031892299,camera_1,35,1,-0.08491019775177622,-0.13859855561501455,1.0809653853745418,0.9952149139080657,-0.03096323917047372,0.05583766007394266,0.07396423914636198,0.44479881117877085,0.012605846087577095,73491.58822947372
1683160073038488626,31,1683160073038488626,camera_1,36,1,-0.08492358504708433,-0.13859346561345498,1.080804168003405,0.9951125636640166,-0.030829644904012774,0.05793883615647334,0.07378082337541729,0.37883732812770177,0.010733618476662415,73493.94961835067
1683160073045067548,32,1683160073045067548,camera_1,37,1,-0.0849218572129647,-0.13863283013147845,1.0812786038896731,0.9952909142088957,-0.03080070496345652,0.056804355574830045,0.07225356638051297,0.4477705854260421,0.012695366944377805,73471.10999573232
1683160073051815509,33,1683160073051815509,camera_1,38,1,-0.08488502472101693,-0.13859160988381325,1.080762678438912,0.9951068464109387,-0.030867532253217447,0.05645064804102685,0.07498589210258932,0.4182715073839063,0.011850488323777672,73492.64366076456
1683160073058360099,34,1683160073058360099,camera_1,39,1,-0.08491741107928835,-0.1386269807846608,1.081078790877137,0.9952181635842581,-0.03079473575118582,0.05696681277217935,0.07312505292012629,0.42415425768194837,0.012022394530517226,73479.70663227483
1683160073064907789,35,1683160073064907789,camera_1,40,1,-0.08491508517584376,-0.13861633965479936,1.0809266172493033,0.9951668221367651,-0.03085933716406347,0.057347006464569764,0.07349842363996319,0.39310257997203735,0.011139998810919085,73488.9980149616
1683160073071630001,36,1683160073071630001,camera_1,41,1,-0.0849140816815697,-0.1386588408962936,1.0810440393986795,0.9952601280072707,-0.030748397260544538,0.05550539500371463,0.07369507982450696,0.45518638103749254,0.012902328659132442,73488.4437093283
1683160073078242778,37,1683160073078242778,camera_1,42,1,-0.08489787141326521,-0.13864207202075027,1.0806304244797267,0.9950689217040682,-0.030731381119177767,0.057118798119436306,0.07503909763984466,0.42488437892461667,0.012034821124093008,73500.78550912869
1683160073084883213,38,1683160073084883213,camera_1,43,1,-0.08492890401833184,-0.13869660124913477,1.0810790716691856,0.9952390996654821,-0.030835630076801072,0.0570709769530614,0.07274064891400472,0.41665512696272344,0.011809970962836319,73483.97714526442
1683160073091541290,39,1683160073091541290,camera_1,44,1,-0.08492281255228351,-0.1386491723400579,1.0806371012536626,0.9949967094720864,-0.030976161072744153,0.057806635357379635,0.07536855109112109,0.43048257115879096,0.012193405296530055,73485.8798465268
1683160073098245620,40,1683160073098245620,camera_1,45,1,-0.0849405463707899,-0.138711219113028,1.0810727855895044,0.9951552192022899,-0.030804118945845074,0.057658758521366926,0.07343475686748908,0.4395512554219749,0.012458820168116103,73465.36369465181
1683160073104885339,41,1683160073104885339,camera_1,46,1,-0.08493091938587902,-0.13868456433248916,1.0808398282314322,0.9951639021755208,-0.03076987422652448,0.057543501669882965,0.0734218500341872,0.4026815552788321,0.011409624802717193,73498.09368757483
1683160073111589431,42,1683160073111589431,camera_1,47,1,-0.08492106380467673,-0.13869488737461252,1.08086300769108,0.9951859203781307,-0.03093214283227819,0.05674220762201189,0.07367841132324217,0.44425970431257156,0.012588030599629079,73498.65883672796
1683160073118275880,43,1683160073118275880,camera_1,48,1,-0.0849449352102368,-0.1386945189984581,1.08105274549386,0.9951728103523724,-0.030780153404831364,0.05736255779400271,0.07343838679509448,0.4119384518417064,0.011676261094652524,73471.45282867813
1683160073125055313,44,1683160073125055313,camera_1,49,1,-0.0849305196211591,-0.13868396875550332,1.0807568424965956,0.9950403110243605,-0.030794811997567322,0.05917650768171837,0.07378753234235395,0.38240055076312274,0.010833138017860488,73483.97215421536
1683160073131604194,45,1683160073131604194,camera_1,50,1,-0.08492867677981819,-0.1387032895618347,1.080951540320472,0.9951769234817845,-0.030782033299890255,0.05719871879635853,0.07350961816871249,0.4109195581113454,0.01164545295943903,73485.03556907244
1683160073138269186,46,1683160073138269186,camera_1,51,1,-0.08492113672807598,-0.13868218699608545,1.0807729679583744,0.9951233696774041,-0.0307957215714706,0.05730258776961097,0.074145236459849,0.408517982068588,0.011574168637688889,73496.05845810537
1683160073145025730,47,1683160073145025730,camera_1,52,1,-0.08494193547669644,-0.13869329639533112,1.080764420725876,0.9950972886416066,-0.03070820012076492,0.0575806409863785,0.0743159630702861,0.3550890969490865,0.0100611310661535,73490.52676207847
1683160073151787519,48,1683160073151787519,camera_1,53,1,-0.0849110051010526,-0.13869543224779407,1.0807867019640551,0.9951304133145705,-0.030825671939553816,0.05792816072435934,0.07354975622624352,0.41686446691528545,0.011809776990685864,73498.1769452407
1683160073158506870,49,1683160073158506870,camera_1,54,1,-0.08494301354841172,-0.1386908395315972,1.080676346597633,0.9950748635064685,-0.030808232523118918,0.05813918872027194,0.07413975695491083,0.42488954473810736,0.012034901497684497,73499.34246564549
1683160073165431261,50,1683160073165431261,camera_1,55,1,-0.08493815080469796,-0.1387104428255616,1.0808148842698675,0.9952294959548974,-0.03071941111628259,0.05786428870036551,0.07229309963772788,0.41293293159469613,0.011698419040169801,73518.04616024703
1683160073171953439,51,1683160073171953439,camera_1,56,1,-0.08492656598087153,-0.1386935923895349,1.080576256755302,0.9950323029734076,-0.03074516839439913,0.057864452575813734,0.0749476870085938,0.38405254331883043,0.010877609223761582,73500.12419096063
1683160073178840160,52,1683160073178840160,camera_1,57,1,-0.0849229227784405,-0.13870989007409154,1.0807048306808076,0.995079905036979,-0.03075334536809279,0.05773696232388187,0.07440871939415782,0.3674054285256716,0.010408527649672695,73494.39634575277
1683160073185446739,53,1683160073185446739,camera_1,58,1,-0.08496011289397784,-0.13873402843468374,1.0811559061563423,0.9952474640517642,-0.030762665451887754,0.05749381010397235,0.07232292522123147,0.4232564260746585,0.011998495130145016,73476.15400230416
1683160073192021608,54,1683160073192021608,camera_1,59,1,-0.08493405219187472,-0.13869167286702838,1.0806293252838062,0.9950327091779019,-0.030571286374957332,0.05840882554304188,0.07459030241356969,0.43469257549440954,0.012311701773330262,73494.20150513193
1683160073198754310,55,1683160073198754310,camera_1,60,1,-0.08493838779922828,-0.13871845978217023,1.0808258253329794,0.9950434396575173,-0.0308331623085597,0.05803706735583964,0.0746295391204095,0.3924413876411563,0.011120124689465702,73470.98722463674
1683160073205369949,56,1683160073205369949,camera_1,61,1,-0.08493742870433285,-0.13868948819182741,1.0806358829656544,0.9950358466972945,-0.030864857533540728,0.058931405418843244,0.07401428113676772,0.407984736670187,0.011555168434595843,73498.24561089644
1683160073212081670,57,1683160073212081670,camera_1,62,1,-0.08493450102186517,-0.13871028467929705,1.080634269748987,0.9950997465375079,-0.030880092887494513,0.05774533614115877,0.07408367200802149,0.3796823507582303,0.010754590196930564,73509.70922627239
1683160073218745708,58,1683160073218745708,camera_1,63,1,-0.08495484551887433,-0.138703969994064,1.080656144690419,0.9951044131494534,-0.03083873473075415,0.058781444889216314,0.0732183112849787,0.4081139402114785,0.01155879365004848,73511.71947234547
1683160073225340366,59,1683160073225340366,camera_1,64,1,-0.08493485934148108,-0.13870253320507894,1.080693867872442,0.9950676886484716,-0.030899671361094883,0.05735533023564743,0.07480555735454837,0.4093654807693383,0.011596834549707077,73492.73812943269
1683160073232139110,60,1683160073232139110,camera_1,65,1,-0.08493848848374014,-0.13872098811600514,1.0806950700310867,0.9951101353354768,-0.030845065317982402,0.057733910937539684,0.07396753359410373,0.3768870714266086,0.010676690329838241,73503.82015406022
1683160073238663434,61,1683160073238663434,camera_1,66,1,-0.0849363918412264,-0.1387022923425045,1.0806603010386704,0.9950704582456597,-0.030819697195811332,0.058118767263395626,0.0742100955619565,0.3946465465305664,0.011178691231480594,73500.10331619663
1683160073245344161,62,1683160073245344161,camera_1,67,1,-0.08494508541140425,-0.13872133560165456,1.0806972913737702,0.9950403373408224,-0.030860935490043703,0.057753425864312063,0.07487904597600932,0.39647395685096853,0.01123175295826639,73486.00418699767
1683160073252017259,63,1683160073252017259,camera_1,68,1,-0.08494231724038742,-0.13869877228031555,1.0807355317857419,0.9951060475910367,-0.030834867280425504,0.05838232553855678,0.07351645443201073,0.4357102275971556,0.012342110272573929,73500.46273148616
1683160073258427619,64,1683160073258427619,camera_1,69,1,-0.08494258344199396,-0.13873486831773532,1.0809037226656923,0.9951934566689776,-0.030894728606073348,0.05712936889988059,0.07329211933564393,0.40895013702174765,0.0115887940166353,73495.3385062789
1683160073265091180,65,1683160073265091180,camera_1,70,1,-0.08494615989943109,-0.13872172972496688,1.0808128612925045,0.995113246767462,-0.03085762577554611,0.05809627604953257,0.07363596776435545,0.4687833526113536,0.013280576916702605,73490.76214282156
1683160073272164821,66,1683160073272164821,camera_1,71,1,-0.08494159241960578,-0.13872020638718002,1.0807518484257648,0.9951300941112046,-0.030886817857233143,0.057732261330493466,0.07368233355796341,0.42158536963688675,0.011943169394296953,73501.84398084733
1683160073278944015,67,1683160073278944015,camera_1,72,1,-0.0849579165636685,-0.1387193926300688,1.0808331132716196,0.9951511911727368,-0.030789943657578957,0.0577613367951155,0.07341467188980355,0.38393346064549405,0.010878508659500368,73495.72074714146
1683160073285398721,68,1683160073285398721,camera_1,73,1,-0.08495859222298552,-0.1387374807246237,1.0808621960845515,0.9951699248136953,-0.030695164981919553,0.05829627971960181,0.0727747989615294,0.3565218890180404,0.010102195674404655,73497.33906816429
1683160073291979551,69,1683160073291979551,camera_1,74,1,-0.0849738716999934,-0.1387498999176905,1.0809623410101685,0.995102779137779,-0.03075080048857559,0.05919920451307465,0.07294039626023138,0.3875662334939989,0.010982990910785593,73470.66814532342
1683160073298930168,70,1683160073298930168,camera_1,75,1,-0.0849263012534742,-0.13869576492849164,1.0804779597445833,0.9950069404719807,-0.030905002153256388,0.058112970020774986,0.0750263418397828,0.4422357947914861,0.012522361090840966,73508.95201495918
1683160073305579185,71,1683160073305579185,camera_1,76,1,-0.08493339387198492,-0.13871955145446024,1.0805090894931113,0.9949735659947324,-0.030910123418936338,0.058421283751145824,0.07522712839674414,0.34981832503399346,0.009907229486829481,73496.52874366331
1683160073312152862,72,1683160073312152862,camera_1,77,1,-0.08492716652268448,-0.13870866025332607,1.0805484244553607,0.9950328022329227,-0.030818417355027456,0.05758781714291076,0.07512383742157629,0.3945975831738906,0.011175793522793747,73503.03829977059
1683160073318793296,73,1683160073318793296,camera_1,78,1,-0.08495575209024239,-0.13873994133373826,1.0808736584971905,0.99511341094709,-0.030886732441017434,0.058172215907155364,0.07356155523652537,0.39993078590487124,0.011332254978372067,73482.63797388197
1683160073325410366,74,1683160073325410366,camera_1,79,1,-0.0849513383641628,-0.13874830261596255,1.0811653493710203,0.9953545076246255,-0.030831378703720973,0.05642029411371973,0.07166296568443462,0.43785072333776043,0.012412097509714667,73498.01448972919
1683160073332014560,75,1683160073332014560,camera_1,80,1,-0.08493930864556602,-0.13873055917059143,1.0807748599644353,0.9950606008767304,-0.03079359198580264,0.05784489183194935,0.07456623742956442,0.4250499001973367,0.012042459641460545,73480.76608351148
1683160073337904691,76,1683160073337904691,camera_1,81,1,-0.08494016204031238,-0.13872443127034575,1.0806559043490054,0.9951109505419966,-0.030906352153381635,0.05743280315758956,0.0741651308192513,0.4412239825069264,0.012497502202580594,73508.57727416804
1683160073344827890,77,1683160073344827890,camera_1,82,1,-0.08495173000651945,-0.1387327103904804,1.0808187113623178,0.9951344494954809,-0.030795505733626417,0.057697417083151875,0.07368902439216732,0.41015165545104537,0.011620826340912122,73492.92481639137
1683160073351490497,78,1683160073351490497,camera_1,83,1,-0.08494943567402528,-0.13872736201998812,1.0807967379028813,0.9951123207802685,-0.030892731709982246,0.057042800045366604,0.07445285166994965,0.4166894817026332,0.011806323691163469,73488.6270253845
1683160073358248472,79,1683160073358248472,camera_1,84,1,-0.08494136557714771,-0.13874223488580692,1.0809095755486815,0.9953026060081357,-0.030652719845904654,0.05663790910366157,0.07228610165050885,0.4384389175247634,0.012423350727365199,73518.23145252187
1683160073365191936,80,1683160073365191936,camera_1,85,1,-0.0849782129336761,-0.13877692504872183,1.0809648492566617,0.9952294370572233,-0.030885099469832443,0.058111054464145405,0.07202488177405109,0.40960257345068385,0.01160710497418938,73498.68406663035
1683160073371673107,81,1683160073371673107,camera_1,86,1,-0.08496624942937843,-0.1387606060689999,1.0808440822224592,0.9951468975406709,-0.030866192420901106,0.057761446656489086,0.07344076361778293,0.40675573075714055,0.0115252255914182,73492.8544631913
1683160073378531217,82,1683160073378531217,camera_1,87,1,-0.08497476367953248,-0.13874529439236144,1.080900688898919,0.9951554585824708,-0.03070360510616042,0.05911512522397507,0.07230701111753345,0.3812084137935017,0.010801527900906445,73491.58731389277
1683160073385118007,83,1683160073385118007,camera_1,88,1,-0.08496262090471293,-0.13878537566822288,1.0810949520151156,0.9951715325496362,-0.030909901608163606,0.05785160892511573,0.07301636891928748,0.4146804281626828,0.011754440797641676,73466.06306036183
1683160073391962289,84,1683160073391962289,camera_1,89,1,-0.08494582450243898,-0.13873769007623465,1.0807187408668473,0.9951739439966488,-0.030794830754052337,0.05645167382035092,0.07411955283098406,0.3951958044926869,0.011196325392176881,73511.25311062719
1683160073398564338,85,1683160073398564338,camera_1,90,1,-0.08497154727535455,-0.1387645806311127,1.0808527709312283,0.9951235228578172,-0.0309290084982983,0.05867120571356916,0.07300863173951173,0.3386417482543038,0.009595848039848644,73489.3674094497
1683160073405367374,86,1683160073405367374,camera_1,91,1,-0.08495675668024477,-0.1387503810209589,1.0807196439077886,0.9950084974922975,-0.030859017524192178,0.057689435019408174,0.07535077997409091,0.4023811514634872,0.01139990014046232,73474.00435192336
1683160073412046432,87,1683160073412046432,camera_1,92,1,-0.08496062105114618,-0.13876809761239275,1.0808333059379793,0.9951633761168234,-0.030897058276420853,0.057453955850331404,0.07344569138334672,0.3890495454143092,0.011023627349952343,73497.21959435701
1683160073418950557,88,1683160073418950557,camera_1,93,1,-0.08494367937666325,-0.13875000112392855,1.0807541582154525,0.995170672024123,-0.030791094188866677,0.057578541514440314,0.07329361240092837,0.45077498970204033,0.012769285750657972,73509.7381241709
1683160073425404787,89,1683160073425404787,camera_1,94,1,-0.08496112713882151,-0.13876966662067572,1.0808500699850334,0.9951372216689743,-0.030794479210178537,0.05777582325187534,0.0735905180488389,0.43350860483769793,0.012283125246701998,73489.03177039433
1683160073432127237,90,1683160073432127237,camera_1,95,1,-0.08493522119074426,-0.13872914139436388,1.0805189754108995,0.9950915845437253,-0.03078190954354644,0.05704304153515411,0.07477502141443784,0.4107989872318285,0.011633875570398,73519.0027012976
1683160073438689470,91,1683160073438689470,camera_1,96,1,-0.08495321821847009,-0.13876276840553345,1.080793102241665,0.9951640047210679,-0.03084277414672959,0.05814572281278547,0.07291366064763777,0.4429731805284973,0.0125488346778278,73505.1087568124
1683160073445204496,92,1683160073445204496,camera_1,97,1,-0.0849618135465322,-0.1387537016013752,1.0807140940812996,0.9951066951578089,-0.030794448037600407,0.057525323592983305,0.07419706441420602,0.4138235439895652,0.011723213565802753,73498.537421499
1683160073451840400,93,1683160073451840400,camera_1,98,1,-0.08494524251496743,-0.13874451610888514,1.0806459852787298,0.9950472380240633,-0.030843209042607955,0.05721715689001818,0.07520563485577532,0.43871055939234793,0.012427026316764218,73491.89308344119
1683160073458602905,94,1683160073458602905,camera_1,99,1,-0.08496661904729139,-0.13877397894572133,1.0807923731390598,0.9950934438601396,-0.030922552614436234,0.05792040396188175,0.07401392119910402,0.3470606103364844,0.009834067484455504,73486.66841405537
1683160073465219497,95,1683160073465219497,camera_1,100,1,-0.08496555865831715,-0.13878226012700784,1.0810330563005357,0.9951976924842646,-0.030700689132141978,0.0579437460586329,0.07267422413414068,0.38738857572025154,0.010980051982128633,73479.7089681355
1683160073471821308,96,1683160073471821308,camera_1,101,1,-0.08496694544673764,-0.13875116458599873,1.080857822918933,0.9951588618259914,-0.030855749796155185,0.05803992573476946,0.07306250375135447,0.41508856281870976,0.011761035436375996,73495.26250756119
1683160073478631734,97,1683160073478631734,camera_1,102,1,-0.08494381320266825,-0.13874682891201431,1.0806523250749083,0.9951179469472717,-0.030736288608523083,0.058106565657846415,0.07361507490637376,0.4040282474597916,0.011443817582286462,73511.3882712358
1683160073485230445,98,1683160073485230445,camera_1,103,1,-0.08496115356566819,-0.13877549226236005,1.0809142831471332,0.9952255735143168,-0.030775278343507902,0.0581205670102891,0.07211754125302232,0.4221073092521692,0.011960273249518179,73503.73919267266
1683160073491903543,99,1683160073491903543,camera_1,104,1,-0.08491709306599068,-0.1387412010147901,1.080530847650541,0.9950787069756805,-0.03082798142925025,0.05689639527066423,0.07503867462722273,0.40527124854634167,0.011478032580862198,73513.7504680181
1683160073498306989,100,1683160073498306989,camera_1,105,1,-0.08496953112405181,-0.138750281690095,1.0806697183195153,0.9950514729459934,-0.03085463418910322,0.05893312556612022,0.07380680489002107,0.406512698289589,0.011514419888459335,73496.18271603576
1683160073505318880,101,1683160073505318880,camera_1,106,1,-0.084953892751803,-0.13875321711535898,1.0808250746224501,0.9951041432216468,-0.030815276014647102,0.0577091996259451,0.07407976232269199,0.4144004897243576,0.011741540909846583,73484.09222443443
1683160073511883258,102,1683160073511883258,camera_1,107,1,-0.08494690511599029,-0.13876715035317938,1.0808400947969907,0.9951969605773473,-0.030750571991565397,0.05666686469974973,0.07366327731577958,0.3957339306107315,0.011213614674625364,73500.84913046143
1683160073518607854,103,1683160073518607854,camera_1,108,1,-0.08496166600809713,-0.13877808577154932,1.080936550609064,0.9952078130782356,-0.03081673724003649,0.05688749653171495,0.07331814394996947,0.3929987555347907,0.011137832419719156,73491.95413949125
1683160073525366067,104,1683160073525366067,camera_1,109,1,-0.08495742214485291,-0.1387785964137809,1.0808492887046304,0.9951610150258433,-0.030876015279101134,0.05702980986335068,0.07381616787783109,0.360292868444958,0.010210166541767447,73492.54778689882
1683160073531985998,105,1683160073531985998,camera_1,110,1,-0.08492955763246213,-0.13872849182757221,1.0806669263872208,0.9951200612233588,-0.03099677218481786,0.05720047497531501,0.07418469874266165,0.42108787085453514,0.011927805876202319,73509.08458956392
1683160073538697242,106,1683160073538697242,camera_1,111,1,-0.08495802048424964,-0.13875524350171764,1.0806251883964266,0.995060267932739,-0.030882159777751658,0.057294879943967675,0.074957668862454,0.32859057604218833,0.009308937438812344,73498.0166247339
1683160073545122861,107,1683160073545122861,camera_1,112,1,-0.08492946876597615,-0.1387171590621235,1.0804200987053914,0.9949827375062883,-0.03097267040327309,0.0574695024769608,0.07581096251620645,0.3846105611337407,0.01089126544621137,73507.77873028869
1683160073551776885,108,1683160073551776885,camera_1,113,1,-0.08495872365244596,-0.13875361975593392,1.0808550414676859,0.9950938856352163,-0.030896158272575143,0.0578529093329334,0.074071769636741,0.3975645133323269,0.011265392203132888,73478.6805852679
1683160073558393716,109,1683160073558393716,camera_1,114,1,-0.08495454385404451,-0.13877391438332515,1.0809817859087814,0.9951396508850069,-0.030743037893340208,0.058540648307242205,0.07297214093969889,0.37133184145204723,0.01052400502804453,73474.44644321868
1683160073565203189,110,1683160073565203189,camera_1,115,1,-0.08496223674406997,-0.13874136222321146,1.0808628565086837,0.9952124169059031,-0.0309097653566195,0.05748019930424245,0.07275203316646266,0.4180097508979088,0.011843848339454356,73506.67881273
1683160073571987628,111,1683160073571987628,camera_1,116,1,-0.08494517560186356,-0.13874388460117687,1.0807912142197995,0.9951448742193406,-0.030840766355807476,0.0578897982642186,0.0733777738997802,0.42630024121899623,0.012077184346337762,73500.01832338094
1683160073578574895,112,1683160073578574895,camera_1,117,1,-0.08494071386585503,-0.1387329403929933,1.0807216684862018,0.995129598584647,-0.030805843129773556,0.05759516104731625,0.07383007160877382,0.3878821682774287,0.010988332979034274,73504.02393979716
1683160073585210084,113,1683160073585210084,camera_1,118,1,-0.0849593128752648,-0.13874372692170145,1.0807944350605565,0.9950792880595557,-0.030854933103710402,0.058872547930822,0.07347929421399067,0.3848641642398434,0.010903856132037175,73486.73949137829
1683160073591864585,114,1683160073591864585,camera_1,119,1,-0.08495214563944375,-0.1387213143148929,1.0807317725329884,0.9951231823882994,-0.030857459170646213,0.058656253273865144,0.07305554762499189,0.3904483596161299,0.011060183633004499,73505.65654615214
1683160073598485469,115,1683160073598485469,camera_1,120,1,-0.0849291110665003,-0.13871628218627455,1.0806639832485176,0.9950642520413058,-0.030759537428028373,0.057734709171448274,0.07461694528442488,0.4314407191850478,0.012220721182181114,73495.84110795724
1683160073605180740,116,1683160073605180740,camera_1,121,1,-0.08494277143698759,-0.13875872596377356,1.0809461285195343,0.9951916834288072,-0.03076269907902259,0.05756377443935821,0.07303137306531453,0.406611026803148,0.011522786586894243,73489.17781275936
1683160073611841201,117,1683160073611841201,camera_1,122,1,-0.08496880648152827,-0.1387537249355843,1.0811068751915023,0.9952744178625484,-0.03090725139151628,0.05751215800857888,0.07187438097808711,0.43555181537522003,0.01234540622731419,73490.04347279262
1683160073618595838,118,1683160073618595838,camera_1,123,1,-0.0849467781879133,-0.13872420474543984,1.0807699468936962,0.9950720973834147,-0.03075050623764625,0.05738283984316782,0.07478727877543037,0.4049328022665577,0.011473109138783,73482.33458003434
1683160073625161170,119,1683160073625161170,camera_1,124,1,-0.084920458895754,-0.13870229313730006,1.0804641974384666,0.9950509824516336,-0.030832873952229715,0.058575583423575064,0.07410652624750672,0.3962334930693032,0.011219311198961582,73522.79107483776
1683160073631848812,120,1683160073631848812,camera_1,125,1,-0.08493472694120108,-0.13871753705970982,1.0807119446005231,0.9951137132454889,-0.030944510194632187,0.05750539478658169,0.07405582063571085,0.38652824629753013,0.010950089583733722,73502.49330801598
1683160073638355970,121,1683160073638355970,camera_1,126,1,-0.08494438881466167,-0.13873936598540265,1.0809830443354402,0.9951830056622489,-0.030940852718128416,0.056015687553027,0.07426770241557923,0.41952158832282294,0.0118911260555787,73478.27874536211
1683160073644658088,122,1683160073644658088,camera_1,127,1,-0.08495981987388776,-0.1386956640249235,1.0806066129517666,0.9950404069812001,-0.030623141658286765,0.05935609994670021,0.07371339816330202,0.3195932571288722,0.009052183542742608,73502.49043460912
1683160073651349782,123,1683160073651349782,camera_1,128,1,-0.08494981948343147,-0.13873897459860138,1.0810047328594177,0.9952316926394612,-0.0306891746606993,0.05699729567283747,0.07296136519159395,0.4028425429460185,0.011417578315514163,73489.44635201454
1683160073658032417,124,1683160073658032417,camera_1,129,1,-0.084956665678121,-0.13875985152597337,1.0810586301258462,0.9952006354174421,-0.03076097549746106,0.0568579759523311,0.07346174665612237,0.40931117367290426,0.011602347213326049,73473.99896985364
1683160073664713144,125,1683160073664713144,camera_1,130,1,-0.08496694303821964,-0.1387566571560549,1.081117448715522,0.9952543193754841,-0.030793338782321687,0.05719304446449163,0.07245388682439081,0.39029572637809906,0.011064069245085758,73481.34207871543
1683160073671474456,126,1683160073671474456,camera_1,131,1,-0.08494332207369744,-0.1387312361294081,1.0807385719670173,0.9950697927670085,-0.030820765180015072,0.05822425702256296,0.07413584727047975,0.3486624450197269,0.00987813568186019,73489.0926820032
1683160073678250074,127,1683160073678250074,camera_1,132,1,-0.08494886920019598,-0.13874561559356668,1.0808100394664417,0.9951157601405856,-0.03077229249076553,0.05706177472376628,0.07444221786098074,0.4038157501963724,0.011442099417302797,73486.43747175083
1683160073684870243,128,1683160073684870243,camera_1,133,1,-0.08494674163893234,-0.13870927660510154,1.0807304052900948,0.9951791724530735,-0.030819137116524075,0.057712896265047435,0.07306036618925955,0.43512842457857914,0.012325573061967769,73516.7253462933
1683160073691463708,129,1683160073691463708,camera_1,134,1,-0.08496093225845244,-0.13872844992848735,1.0807911952325984,0.9951209591709799,-0.030680137160026398,0.05807379108149807,0.07362364152833997,0.34843210800681845,0.009872510182116177,73493.66397874059
1683160073698325157,130,1683160073698325157,camera_1,135,1,-0.08497531810008083,-0.13872867289049726,1.0809027956947979,0.99513388431252,-0.0308708659413162,0.05825225245404642,0.07322716035146747,0.36417835881366045,0.010320104344688554,73484.3085104424
1683160073705086708,131,1683160073705086708,camera_1,136,1,-0.08495754527758437,-0.13871989285708744,1.080904727156204,0.9951743465086049,-0.0307301288448954,0.05843117171006836,0.07259116616321705,0.37491490245156456,0.010623597267400793,73494.05078420386
1683160073711934089,132,1683160073711934089,camera_1,137,1,-0.08492468518354701,-0.1387233270877353,1.080764656142042,0.9951702523556014,-0.03076960886450548,0.05655728691998414,0.0740990775453027,0.4140639838442439,0.011731256479980617,73504.87167613699
1683160073718482971,133,1683160073718482971,camera_1,138,1,-0.08492981892495038,-0.13870429000003645,1.080609101958974,0.9950243305756378,-0.030804844531095197,0.057496117832280244,0.07531161630276963,0.3947711938089924,0.011182139251722931,73492.59673766486
1683160073725078105,134,1683160073725078105,camera_1,139,1,-0.08495362892877309,-0.13870368729641455,1.0807578294107976,0.9951065193858962,-0.03084725423306287,0.05828784029570051,0.07357981826309946,0.4089928657922428,0.011586695997928633,73497.32294720405
1683160073731827735,135,1683160073731827735,camera_1,140,1,-0.08497196085541084,-0.13872921884601588,1.080875018040896,0.9951277786210551,-0.03074415115121375,0.058126928424753865,0.07346265431237474,0.41429939860245213,0.011739106276121998,73485.09565031737
1683160073738558292,136,1683160073738558292,camera_1,141,1,-0.08495403161981836,-0.13874533886216336,1.0809547150908254,0.9951986201759001,-0.030733595097828522,0.05747385711108636,0.07301991701667228,0.39311881814865046,0.01114093538916851,73489.57556441371
1683160073745349884,137,1683160073745349884,camera_1,142,1,-0.0849484226537282,-0.13871019178518415,1.080734561770212,0.9951078186713063,-0.030755785027525448,0.05729077318202496,0.0743792861943492,0.4214985772159707,0.011940947056174853,73496.0123228347
1683160073751775741,138,1683160073751775741,camera_1,143,1,-0.0849435716342584,-0.13870445598711428,1.081048243207752,0.9952101169566393,-0.030744674606863694,0.057119909140089374,0.07313620218673153,0.5105922984948847,0.014470182349236051,73480.20252726154
1683160073758548974,139,1683160073758548974,camera_1,144,1,-0.08494566093765811,-0.13870514118874533,1.0806932467212604,0.9950581610152549,-0.03083027288672421,0.058011221146077985,0.07445433964390476,0.3673507313251321,0.010406728314571491,73492.13415663545
1683160073765051603,140,1683160073765051603,camera_1,145,1,-0.08494231162696458,-0.13872077953823936,1.0808378070018319,0.9950424478105794,-0.030825059183531112,0.05741525792013907,0.07512543470374224,0.3845054814737523,0.010895958586743667,73466.49220611897
1683160073771890640,141,1683160073771890640,camera_1,146,1,-0.08495350072310978,-0.13872957236636785,1.0809552083050114,0.9951682980564628,-0.030741991379509222,0.05724984416098719,0.07360328697122213,0.3767213822284248,0.010676993728529519,73481.45780215204
1683160073778501033,142,1683160073778501033,camera_1,147,1,-0.08494724363750569,-0.13870376849665547,1.0807980896769558,0.9950752998345551,-0.030894787833647793,0.05843451441761203,0.07386519659936094,0.39659249760734383,0.01123613234802971,73484.85511145476
1683160073785094261,143,1683160073785094261,camera_1,148,1,-0.08496690952572085,-0.1387244161214914,1.081049995408958,0.9951838103249999,-0.030877430133950747,0.05825761524877583,0.07253839149624924,0.3770877530478174,0.01068811622847181,73477.78070426476
1683160073791751861,144,1683160073791751861,camera_1,149,1,-0.08494096662626627,-0.13868842699187411,1.0807289067111172,0.9950751722487429,-0.03084089540996015,0.05787813212145469,0.07432605577170168,0.36209631894962513,0.010258567446566468,73491.74696163065
1683160073798630952,145,1683160073798630952,camera_1,150,1,-0.0849453451707046,-0.13867581545543767,1.0806978447402307,0.9950536618319297,-0.030894061616058295,0.05818752925117753,0.07435037640371711,0.41656891419916064,0.011800158564951299,73492.4545672832
1683160073805132389,146,1683160073805132389,camera_1,151,1,-0.0849590858508733,-0.13870852898475317,1.0808849479887044,0.9951803434090538,-0.030683703508008697,0.05764458573961814,0.07315528802607835,0.3574641555205744,0.010129788621794379,73495.23897196152
1683160073811873197,147,1683160073811873197,camera_1,152,1,-0.0849077752876494,-0.13865040165928189,1.0806350254637198,0.9951554822151681,-0.030816608619865515,0.05782051291749612,0.07329864348147079,0.44879248230790836,0.012710015110229164,73525.19894127213
1683160073818462371,148,1683160073818462371,camera_1,153,1,-0.08492363059681368,-0.13869265327435013,1.0807445934850612,0.9950526899872872,-0.030781145512018195,0.05693245055774988,0.07537480549574269,0.3976909559132764,0.011267840954042334,73479.95540118474
1683160073825029850,149,1683160073825029850,camera_1,154,1,-0.08493419995209658,-0.13867802149812322,1.0807568147514244,0.9951019105163817,-0.030737284205472462,0.05821860024670971,0.07374280732134397,0.36946826918574516,0.010467327334051176,73495.64491983483
1683160073831809043,150,1683160073831809043,camera_1,155,1,-0.08493449133206905,-0.13869976738772669,1.0808749009113263,0.9951111713705376,-0.030764918530463908,0.057454812370943416,0.07420391456513621,0.42994947207625955,0.012182995908805472,73479.39556710259
1683160073838642597,151,1683160073838642597,camera_1,156,1,-0.08494928107661665,-0.13869352038332272,1.081005625361311,0.9952108958927721,-0.03074575254612534,0.05830347657075883,0.07218501240868004,0.4039695705869234,0.011448220003401566,73490.41828798948
1683160073845093011,152,1683160073845093011,camera_1,157,1,-0.08493301983244952,-0.13869508131747266,1.0809726038063763,0.9951978714411942,-0.030678176415409573,0.05685101474457501,0.07353916163006924,0.45330570022633765,0.01284650236834974,73485.72803820844
1683160073851776838,153,1683160073851776838,camera_1,158,1,-0.08493416756306181,-0.13866845519680263,1.0807431417860471,0.9951300014774237,-0.030800366425259747,0.05761081072260285,0.0738147144917395,0.4157213116559433,0.011776914572130183,73503.09743419162
1683160073858596086,154,1683160073858596086,camera_1,159,1,-0.08493643341868984,-0.1387073316791132,1.0810659130332216,0.995222476318708,-0.03070607549805259,0.05669647222808298,0.07331350212925959,0.44496555195655674,0.012612125789950574,73478.83988703892
1683160073865114688,155,1683160073865114688,camera_1,160,1,-0.08494599358390255,-0.13869005660086003,1.0810544883901483,0.9952425414635102,-0.030822227799622303,0.05792987442898066,0.0720166896168114,0.43774834179566824,0.012405946090736484,73491.31072569176
1683160073871722459,156,1683160073871722459,camera_1,161,1,-0.0849490375171322,-0.1386879839916013,1.0807220570955467,0.99504990868919,-0.03072929991933737,0.05917628583379282,0.07368552462335645,0.4066806298251322,0.011519645318530924,73490.30377672962
1683160073878513097,157,1683160073878513097,camera_1,162,1,-0.08493327038569835,-0.13867057673296868,1.0806766681509383,0.9950767787868975,-0.03077936433865053,0.05794253316771283,0.0742798620092219,0.41551203313065344,0.01176965480193554,73499.37105176211
1683160073885137557,158,1683160073885137557,camera_1,163,1,-0.08493675201035389,-0.13869084851343083,1.080779452325599,0.9950972684219369,-0.030784688149429515,0.05760424300236827,0.07426628133188198,0.40352807703311555,0.01143286341117479,73489.34349144998
1683160073891852378,159,1683160073891852378,camera_1,164,1,-0.0849455332078535,-0.13869796426522688,1.080822378344955,0.9951474003146031,-0.030741854996022517,0.0574497006455214,0.07373006099434956,0.41234125483970274,0.011682912449160969,73495.22778229235
1683160073898530483,160,1683160073898530483,camera_1,165,1,-0.08492639953069828,-0.1386869441646351,1.0808666141041658,0.9951078091363044,-0.03089956756152932,0.057215178454347246,0.07437800935015747,0.424199736709852,0.012020344235396288,73480.13342703524
1683160073905095100,161,1683160073905095100,camera_1,166,1,-0.08494476219876776,-0.13871479430447328,1.081013402080671,0.9952050413865406,-0.030710595157874134,0.05739861409046037,0.07300126056690733,0.38568445878627244,0.010931409144909986,73483.73456369148
1683160073911808490,162,1683160073911808490,camera_1,167,1,-0.08493571849811005,-0.13872804514892967,1.0810751499084068,0.995165647821746,-0.03067170336668338,0.05761532146417024,0.07338293221649832,0.383880361521733,0.010881819014733347,73465.98420740126
1683160073918554544,163,1683160073918554544,camera_1,168,1,-0.08494803764787079,-0.1387114340065819,1.0809612050723791,0.9951619274936491,-0.030824575055561108,0.057605633439920804,0.0733769353118182,0.3865800222265534,0.010956084652353369,73481.54472070688
1683160073925075769,164,1683160073925075769,camera_1,169,1,-0.08492684158441242,-0.13868797465578864,1.0807864656391029,0.9951213177733252,-0.030532550214826714,0.057772387701910226,0.07391669303803985,0.4016719017090509,0.011380004541974726,73493.27151482148
1683160073931828498,165,1683160073931828498,camera_1,170,1,-0.08492505363780306,-0.1386602064999223,1.0804490239651963,0.9949834497173838,-0.030750490860291135,0.05810113462091408,0.07540955016513573,0.41477071003828314,0.011744524003742346,73506.31068237948
1683160073938466548,166,1683160073938466548,camera_1,171,1,-0.08493937032254478,-0.13868090863623506,1.080705789362248,0.9951201558580259,-0.03078622137754599,0.05737546769311761,0.07413595406674756,0.43250003179491614,0.012251592292485626,73504.28671335144
1683160073945100545,167,1683160073945100545,camera_1,172,1,-0.0849600220883134,-0.13871872986400569,1.0809059901996496,0.9951364073698578,-0.03081691267131644,0.05751233266110965,0.07379823989973572,0.35415079858285026,0.01003664274612058,73481.51047744487
1683160073951802253,168,1683160073951802253,camera_1,173,1,-0.08493866668996244,-0.13870827868652388,1.0808683841034796,0.9951269807596143,-0.030942786576583132,0.057574308634287204,0.07382435308497017,0.40821953627528274,0.011567172860221233,73485.75219226835
1683160073958375453,169,1683160073958375453,camera_1,174,1,-0.0849423551900925,-0.13871691620558513,1.0809600326944442,0.9952022705210131,-0.03082942986753681,0.0568987578004788,0.0733792774877596,0.46004673741481383,0.013036979537601431,73489.24279354347
1683160073965153694,170,1683160073965153694,camera_1,175,1,-0.08493281273012095,-0.13869500494855933,1.0807508778678918,0.99511446267038,-0.030690209768511098,0.058212115752588806,0.07359800804514421,0.3466305337205995,0.009820424733294936,73498.64745049212
1683160073971889734,171,1683160073971889734,camera_1,176,1,-0.08492336322766131,-0.13868041043230875,1.0806885556894978,0.9950285782469961,-0.030884893445357504,0.0570194258555393,0.07558463404512351,0.41121668435516767,0.011649891132972752,73482.74853844054
1683160073978483438,172,1683160073978483438,camera_1,177,1,-0.08492696559114804,-0.13867588465054503,1.080628870194066,0.9950579012747746,-0.03074087574280597,0.058056401449019905,0.07445955895650239,0.3991249237442389,0.011304908252491593,73500.89101843312
1683160073985174894,173,1683160073985174894,camera_1,178,1,-0.08495584237072676,-0.1387257555251465,1.080952852292143,0.9951905544058521,-0.030904679549465502,0.05642130539932875,0.07387352367630323,0.4619740377565904,0.013092066011105288,73485.72779498939
1683160073991785287,174,1683160073991785287,camera_1,179,1,-0.08494802698098226,-0.13869610876529825,1.0806819683658047,0.9950828147977735,-0.030792980294813147,0.05835028031582131,0.07387305899831347,0.3432390035886783,0.009723324273569714,73500.9520050339
1683160073998504877,175,1683160073998504877,camera_1,180,1,-0.08493642858227127,-0.13869947768535054,1.0808092939793394,0.9951008339103937,-0.03081168505714716,0.05720040860423162,0.07451901549461724,0.4529508556042856,0.012833329180260346,73484.90410017487
1683160074005049705,176,1683160074005049705,camera_1,181,1,-0.0849221144930126,-0.13869201564915032,1.0805840576657935,0.9950882205565317,-0.030816477542229444,0.057144793848081944,0.07472784325527436,0.4357249964377843,0.012340468536669322,73511.18692445802
1683160074011730670,177,1683160074011730670,camera_1,182,1,-0.08491090962266427,-0.13870476356395425,1.0804977508422997,0.9949998643690092,-0.03088793302409518,0.05762193962980402,0.07550442088018232,0.33308917051544995,0.009434104348597627,73502.06505913485
1683160074018390178,178,1683160074018390178,camera_1,183,1,-0.08495443458037594,-0.1387234792292609,1.080826722702722,0.9950888669187536,-0.03083956125523955,0.057474896006882076,0.07445605902096669,0.39037845337588806,0.011061680046157771,73480.01367653284
1683160074025242090,179,1683160074025242090,camera_1,184,1,-0.08494507802205067,-0.1387036974300892,1.0806743364651754,0.9950770975087238,-0.03085057561800129,0.05772041309547055,0.07441885453122955,0.36445350185385905,0.010324525248372797,73498.55164960021
1683160074032010793,180,1683160074032010793,camera_1,185,1,-0.0849262544871526,-0.13871702149161533,1.080771793210343,0.9951117250561735,-0.03087752568143961,0.05775696821947108,0.07391458371399759,0.3960495007377176,0.011220533569453031,73494.54400149053
1683160074038269758,181,1683160074038269758,camera_1,186,1,-0.08495314819110195,-0.13875133826186536,1.0810398339307616,0.9951968722368839,-0.030767639445157573,0.05756032553318916,0.07296126902274556,0.40963284401004785,0.011610269069295935,73478.35891161943
1683160074045101404,182,1683160074045101404,camera_1,187,1,-0.0849473087084257,-0.13870435038905587,1.0806536813299754,0.9949863064123207,-0.030954165787029773,0.05899274614809949,0.07459185997347498,0.3487345345383801,0.00987864733324853,73483.74582378006
1683160074051319599,183,1683160074051319599,camera_1,188,1,-0.08495429539073157,-0.1387585240916115,1.0812166350083612,0.9952331247380584,-0.030806374326715867,0.05647535821866736,0.0732975350133668,0.48060208426613826,0.013625882019093184,73460.60818365756
1683160074058313131,184,1683160074058313131,camera_1,189,1,-0.08494908162788004,-0.13873202327054218,1.0810584898473672,0.99520847749077,-0.030906047094343244,0.057269272573121366,0.07297350890872198,0.4505632876243908,0.012770085858647548,73479.35871569571
1683160074064904928,185,1683160074064904928,camera_1,190,1,-0.08494262769838162,-0.1387312997076813,1.0808559233208397,0.9951953782119467,-0.030764203473873472,0.058138381338997396,0.0725234554160224,0.3736800492188195,0.010587946505335772,73504.8190997823
1683160074071707725,186,1683160074071707725,camera_1,191,1,-0.08497416842441438,-0.13874444625467355,1.0810028452320615,0.9951753955317324,-0.03081365006886602,0.0577925920101374,0.0730511287143693,0.429851546377904,0.012182349924851631,73479.31591901142
1683160074078487634,187,1683160074078487634,camera_1,192,1,-0.08492961574172064,-0.1387085473503245,1.080643451441095,0.9950476792336758,-0.030908178900810598,0.058159060417732215,0.07444678784231074,0.4409056619188049,0.012488141312550478,73497.42833005873
1683160074085083484,188,1683160074085083484,camera_1,193,1,-0.08494252261017016,-0.13871675892217433,1.080675076992271,0.9950806032817295,-0.030808365020955807,0.05810342122040323,0.07409068807676951,0.4092514949879842,0.011592475447218758,73500.28170953982
1683160074091829299,189,1683160074091829299,camera_1,194,1,-0.084944757634343,-0.13873407173785118,1.080810331661248,0.995179096316597,-0.030781828271234095,0.05660693840793564,0.07393713428881182,0.37100098724476993,0.010512642796090488,73500.93376158265
1683160074098464727,190,1683160074098464727,camera_1,195,1,-0.08492282890683436,-0.13871605979308804,1.0806464073469864,0.995159156709208,-0.030790379689457838,0.056716177448890744,0.07411801772837198,0.3886879187193699,0.011010385115016225,73518.5497002746
1683160074104850530,191,1683160074104850530,camera_1,196,1,-0.08494786611742317,-0.13872610992144246,1.0807788713245785,0.9950828716649274,-0.030727102343053158,0.057757582534691536,0.07436387133837116,0.3780764637958782,0.01071220245670367,73484.93480168004
1683160074111802339,192,1683160074111802339,camera_1,197,1,-0.08493162851670319,-0.13871152702157077,1.080650616814819,0.9950889642854102,-0.03064711887973326,0.058112476330059205,0.07403814798162915,0.38510642400433426,0.010908273661240678,73504.45340140117
1683160074118487119,193,1683160074118487119,camera_1,198,1,-0.08492973686861013,-0.13871428852826237,1.0806541131671479,0.9950503032631656,-0.030748826914512,0.058933706526315494,0.07386624299593154,0.4024257203891466,0.011398221690230538,73498.07487492917
1683160074124935150,194,1683160074124935150,camera_1,199,1,-0.08493577566361406,-0.13871705676933352,1.0807272159421493,0.9951386974163091,-0.03093294870700599,0.05786904415102907,0.07343908576437785,0.384348389274237,0.010888167778852063,73508.11260688397
1683160074131730794,195,1683160074131730794,camera_1,200,1,-0.08493066602310712,-0.13870354167131488,1.0805438683382182,0.9950368884076473,-0.030855191975521775,0.05759670929411176,0.07504776422166518,0.43937537519741454,0.012443051349014893,73505.25754000977
1683160074138365268,196,1683160074138365268,camera_1,201,1,-0.0849513929524886,-0.13872347749014516,1.080792923031835,0.9951054896610317,-0.030942902956492838,0.057228580713946875,0.07438071492376687,0.3832335794722894,0.010858970685678981,73488.61794005986
1683160074144390583,197,1683160074144390583,camera_1,202,1,-0.08495989418045241,-0.1387466370138638,1.0809405283857705,0.9952004426798682,-0.030822404355184806,0.057258448451818204,0.07312679645964676,0.43033815699163824,0.012194904740945782,73491.80109399404
1683160074151077270,198,1683160074151077270,camera_1,203,1,-0.0849463018486264,-0.1387220883172588,1.0807127552554916,0.9951168406255831,-0.030953218765657126,0.057285322716234204,0.07418061439958606,0.35605237195341033,0.010087343203174474,73502.12645348604
1683160074157858848,199,1683160074157858848,camera_1,204,1,-0.08492865933580326,-0.13871134655681724,1.080720786757089,0.9951491911835454,-0.030796555705067067,0.05731694511720186,0.0737863621943248,0.39763085969389067,0.011264444489875812,73508.63621549291
1683160074164609909,200,1683160074164609909,camera_1,205,1,-0.08496204193832946,-0.13872888960030724,1.0808101280808862,0.9951146289159574,-0.030825490230783122,0.05735698543293184,0.07420809047223162,0.36077845325417,0.010223072081761807,73487.96040250546
1683160074171019792,201,1683160074171019792,camera_1,206,1,-0.08493939330212258,-0.138724276635234,1.08069022130054,0.9951606741649194,-0.03069935475168972,0.05712314675157498,0.07382227521995881,0.3679507201341039,0.010423728909494884,73513.69646733247
1683160074177790164,202,1683160074177790164,camera_1,207,1,-0.08495081224303222,-0.1387362232065025,1.0808071395280396,0.9951327546023033,-0.030919762455734145,0.0568941221308432,0.07428208313095307,0.4386029593006242,0.012427272690982727,73492.01104752491
1683160074184436559,203,1683160074184436559,camera_1,208,1,-0.08493990231116358,-0.13873561683816732,1.0808631215220732,0.9951722010421098,-0.030881531692523972,0.05709384767178093,0.07361327211419072,0.37514983349319664,0.0106306614215372,73494.78294465487
1683160074191079854,204,1683160074191079854,camera_1,209,1,-0.08494526835662569,-0.13874396205639752,1.0809319092457332,0.995230760655243,-0.030750807957822143,0.05845024360957472,0.07178920446354733,0.3720321756700287,0.010542070079892262,73504.35223705132
1683160074197861194,205,1683160074197861194,camera_1,210,1,-0.08493285535275051,-0.13872088825332216,1.0807604540666378,0.9950715774244184,-0.03086417467328155,0.057370363794527354,0.0747569386873235,0.44278422985007637,0.0125444891783414,73484.41390835575
1683160074204472064,206,1683160074204472064,camera_1,211,1,-0.08491241496061508,-0.1387162308433767,1.080608049238258,0.9951231675133431,-0.030801992730654464,0.05828774364411704,0.07337341250691234,0.411732659140398,0.011660495172753742,73520.4710000864
1683160074211393833,207,1683160074211393833,camera_1,212,1,-0.08495541323086073,-0.13874956069612956,1.0808349962837522,0.9951198200845321,-0.030739074158720157,0.058246172833305535,0.07347813514962016,0.3682105575717287,0.010433066441374154,73488.07012748414
1683160074218177795,208,1683160074218177795,camera_1,213,1,-0.08497331761922738,-0.1387599717389282,1.080945727482912,0.9951133889126316,-0.030908768020707647,0.05732669101049505,0.07421348775018727,0.3933241243539669,0.011147580686538098,73469.65147509577
1683160074224992990,209,1683160074224992990,camera_1,214,1,-0.08495046566239911,-0.13874252886420807,1.0808524735568141,0.9951953114808323,-0.030719673281529882,0.057715788444100344,0.07287991111630923,0.4144628080575785,0.011743020496621874,73503.09081942463
1683160074231806278,210,1683160074231806278,camera_1,215,1,-0.08495764732276781,-0.13871989290849632,1.0807509143972152,0.9950895260982355,-0.03099372828510471,0.058981730319721974,0.07319412097340655,0.420256109937327,0.01190454148932852,73497.10019940908
1683160074238429069,211,1683160074238429069,camera_1,216,1,-0.08495910079747956,-0.13874803946468833,1.0808922344158642,0.9951194674132581,-0.03071295737305103,0.05888242966047668,0.07298506218284503,0.3571567968647287,0.01012058002070061,73482.63300239143
1683160074245293617,212,1683160074245293617,camera_1,217,1,-0.08495244679979255,-0.13875435602437786,1.0809041691091588,0.9951460654061585,-0.03077705319376679,0.05810474794632193,0.07321830214805544,0.41815474565737526,0.011848660877098861,73485.39947197828
1683160074251814603,213,1683160074251814603,camera_1,218,1,-0.08497953922462076,-0.13874339845490155,1.0810618217744814,0.9952633446690795,-0.030872645647930835,0.05718693671745291,0.07230082141779771,0.4274223366264778,0.012114453987297198,73491.85762957728
1683160074258559465,214,1683160074258559465,camera_1,219,1,-0.08494418617268559,-0.13872194758946169,1.080682065274062,0.9950914615361491,-0.03073581554119196,0.0581005170582307,0.07397717714562148,0.3729349242930766,0.010564430779836534,73501.32638050149
1683160074265146732,215,1683160074265146732,camera_1,220,1,-0.0849475987606404,-0.13874363640602225,1.0808092432516923,0.9951445851036013,-0.030858041145372005,0.05664026215156026,0.07434323600068929,0.4207115332392277,0.011920613688623554,73492.94239425962
1683160074271864891,216,1683160074271864891,camera_1,221,1,-0.08496431275119387,-0.1387414694653064,1.0808891141745098,0.9951678181634153,-0.030713550977404906,0.0587632788323937,0.07241939339080564,0.40494634899368975,0.011473646797514232,73495.17751060116
1683160074278625011,217,1683160074278625011,camera_1,222,1,-0.0849565514394223,-0.13874588984839456,1.0809393657196367,0.9951216453528586,-0.030875176400061797,0.05732121571928377,0.07412093267726663,0.4243712438910734,0.012026584044956063,73472.70251798895
1683160074285139799,218,1683160074285139799,camera_1,223,1,-0.08495988235067337,-0.13874006722580381,1.080856375145511,0.9951030180679221,-0.030825919562959065,0.0580219661602608,0.07384576872176458,0.383487302417052,0.010866587268963874,73481.2559218332
1683160074291961431,219,1683160074291961431,camera_1,224,1,-0.08494100649733811,-0.1387096851500265,1.0805978224689732,0.9951082779365659,-0.030790204890950676,0.058592118156158716,0.07333786303725007,0.3572071612579748,0.010116912017182775,73519.08792812447
1683160074298821210,220,1683160074298821210,camera_1,225,1,-0.0849401104988788,-0.13869187005794423,1.080558276346369,0.9950686272510977,-0.030869791849840008,0.05816699662013488,0.07417603060259406,0.3165534313338867,0.008966094064769267,73513.67233558217
1683160074305426120,221,1683160074305426120,camera_1,226,1,-0.08494073927756017,-0.13872482259347593,1.0807539929593437,0.9950443315268425,-0.030745027162997117,0.05850270140227684,0.0742896731025367,0.40605839022100554,0.011503522856976063,73481.4583947437
1683160074312153339,222,1683160074312153339,camera_1,227,1,-0.084960631093109,-0.13874127364796118,1.081028553801854,0.9951998489256694,-0.030736934175462215,0.05836675045565743,0.07228986109452001,0.42070575298930635,0.011922970290606464,73483.69306717644
1683160074318599224,223,1683160074318599224,camera_1,228,1,-0.08495547809087901,-0.13873462490461783,1.0809732704823742,0.9951791186719384,-0.030765078805977494,0.05715866549712087,0.07351815179936334,0.39204552298178896,0.011111396682886337,73481.55262452381
1683160074325264692,224,1683160074325264692,camera_1,229,1,-0.08495541573479733,-0.13874874781559401,1.0809309470117017,0.9951897902579303,-0.030751093225300112,0.057363305791285825,0.07321955190057584,0.37102464436611626,0.01051492862484319,73490.07610276295
1683160074332013130,225,1683160074332013130,camera_1,230,1,-0.08496685023380551,-0.13874528260848912,1.080919532226244,0.9951447401302365,-0.030695358463106337,0.05810625179262481,0.07326939785857305,0.34292543788978946,0.009718578736857315,73482.54445922317
1683160074338529586,226,1683160074338529586,camera_1,231,1,-0.08494964252735104,-0.13875204019270326,1.0809957962432701,0.9952316540624754,-0.03051223737132964,0.057584513499352154,0.07257397555396834,0.40404677734841243,0.011450949697300037,73491.13265778066
1683160074345337152,227,1683160074345337152,camera_1,232,1,-0.08498439898416876,-0.13876827180589207,1.0810721675294883,0.9951266282811787,-0.030891383894605755,0.05831149359172727,0.0732699515620909,0.342094623556477,0.009697684513507143,73459.53533832997
1683160074351861715,228,1683160074351861715,camera_1,233,1,-0.08495091501584044,-0.13874530211979272,1.0808374348601582,0.9951085082853348,-0.030912617954899253,0.057368292182681274,0.07424517385899915,0.37002744606070337,0.010485425149792862,73483.0612574447
1683160074358023643,229,1683160074358023643,camera_1,234,1,-0.08492324558501992,-0.13872227481208757,1.0807051582372647,0.9951273686998585,-0.03096222311105593,0.05763562403972759,0.07376310491070912,0.3927505414503685,0.011125762747988165,73507.31722021758
1683160074364499092,230,1683160074364499092,camera_1,235,1,-0.0849370148736312,-0.13874787421998308,1.0808475225348555,0.9951628777535018,-0.030885138135999284,0.05760815970867196,0.07333658649452625,0.3900255546795961,0.011051291209421056,73496.23595326056
1683160074371167182,231,1683160074371167182,camera_1,236,1,-0.08495132121550901,-0.13875329504985195,1.0809585048067425,0.9951690330682021,-0.030806198245416527,0.057421154979053,0.07343285867127386,0.3894728671439225,0.011037930153660227,73481.64618429521
1683160074378336668,232,1683160074378336668,camera_1,237,1,-0.08493045445780704,-0.13871441416920977,1.0807927600323477,0.9951434420663504,-0.03073671557701919,0.05717651843280146,0.0739974983886435,0.41993140546037466,0.01189765104961513,73496.7587379932
1683160074385102272,233,1683160074385102272,camera_1,238,1,-0.08496438756001941,-0.13874277344021055,1.0809618729044081,0.9951987624265842,-0.03072965321176329,0.05779365762215494,0.072766783745973,0.3618896643165499,0.010256311765539919,73489.81692131574
1683160074391990900,234,1683160074391990900,camera_1,239,1,-0.08492458688855706,-0.13868776382481074,1.0804965532495032,0.9950216195365879,-0.030840938864451085,0.05755119133154452,0.07529059384189346,0.4049739520123694,0.01146865773948351,73507.70301683087
1683160074398431777,235,1683160074398431777,camera_1,240,1,-0.08492355839524234,-0.13871458101927245,1.0807483018938107,0.9951444852256376,-0.030801478788472073,0.0575040934681097,0.0737021143784556,0.4000395129151002,0.011333097640344073,73504.53518466876
1683160074405354022,236,1683160074405354022,camera_1,241,1,-0.08495781756040166,-0.13872505774826954,1.0808454096278513,0.9951721049005127,-0.030813643924021528,0.05733072038249476,0.07345876037907847,0.39358363415885833,0.01115231998199881,73497.86931241408
1683160074412099599,237,1683160074412099599,camera_1,242,1,-0.08495520029461945,-0.1387433842179477,1.0808453909540259,0.995158675318542,-0.030681554841374997,0.05693699944473864,0.07400021097936595,0.34085126255013165,0.009659471415317845,73491.43322953908
1683160074418540954,238,1683160074418540954,camera_1,243,1,-0.08495221880477413,-0.1387365776384947,1.0807601760284682,0.9950952736284482,-0.030895369243006926,0.05798484644743041,0.07395018691071722,0.40521161793731153,0.011479701303468818,73492.38397446625
1683160074425400972,239,1683160074425400972,camera_1,244,1,-0.08498604806039187,-0.13874928185474056,1.081020184173928,0.9951704167524965,-0.030774924285426542,0.0587756563341091,0.07234754922167921,0.3525829505852016,0.009993264815847438,73478.78313563077
1683160074431975364,240,1683160074431975364,camera_1,245,1,-0.08494748474598929,-0.1386883024041065,1.0805919697181086,0.9950057173455268,-0.03084523483799636,0.058154911200911125,0.07503466026255266,0.4013038332486758,0.011366199321765039,73493.3180001775
1683160074438701391,241,1683160074438701391,camera_1,246,1,-0.08497899077218726,-0.13873197853670835,1.0810592173549058,0.9951533175912116,-0.030795685845887787,0.058436521774873594,0.07284691581214159,0.3992852037517878,0.01131727347311397,73468.79507013931
1683160074445369958,242,1683160074445369958,camera_1,247,1,-0.08494095042282875,-0.13871971016948464,1.0808467982420837,0.9951705219361257,-0.03078649944066942,0.05728525775157166,0.07352702201167248,0.39792072872296563,0.011275107662020683,73497.04245814466
1683160074451930522,243,1683160074451930522,camera_1,248,1,-0.08493754037931642,-0.13870297030800186,1.0807475832816154,0.9950963869080612,-0.030875409618573907,0.05712143514790698,0.0746125424446244,0.44520152648328803,0.012612613034568393,73491.95785865627
1683160074458720207,244,1683160074458720207,camera_1,249,1,-0.08493517930419646,-0.13868380230247293,1.0806252448223943,0.9950613321143853,-0.03080475308657855,0.058103432678759316,0.07435054558619464,0.3611941371636931,0.010231080755706974,73502.61686558269
1683160074465394496,245,1683160074465394496,camera_1,250,1,-0.08491413047871152,-0.13869338790678784,1.0805502238024136,0.9950271456119584,-0.03096763589232717,0.056971953160651144,0.07560543350593005,0.3836564396515314,0.010866775432888304,73500.57230103653
1683160074472035884,246,1683160074472035884,camera_1,251,1,-0.08492284292978315,-0.13871090808909672,1.0807189162388642,0.9950508185067737,-0.030701044386695787,0.05886426341975791,0.07393451801841455,0.399514825145161,0.011317199033039413,73489.15968589188
1683160074478609085,247,1683160074478609085,camera_1,252,1,-0.08496549060762024,-0.13875533046336366,1.0811279812650403,0.9952496060451558,-0.03068258780150232,0.05644642903263252,0.07314780326318272,0.3640944696526276,0.010322705322859282,73475.1196413626
1683160074485406160,248,1683160074485406160,camera_1,253,1,-0.08495219261305133,-0.13871593612401,1.080790535709573,0.9950716742356518,-0.0307707857657232,0.05776970055697059,0.07448613008322316,0.3596054672525497,0.01018937858201772,73481.10502944341
1683160074491973638,249,1683160074491973638,camera_1,254,1,-0.08496183450831771,-0.1387088309043531,1.0807888166314445,0.9950619726945882,-0.030718649422280357,0.05814445177112318,0.07434552981223023,0.37636096756978077,0.010663679008579209,73480.15743771693
1683160074498473644,250,1683160074498473644,camera_1,255,1,-0.08490937501396228,-0.13867385991388897,1.0804770675773108,0.9950522704180369,-0.03081507010733058,0.05723981355783952,0.07513331041591273,0.4033314643893391,0.01142168923793271,73516.98851537172
