%time,field.header.seq,field.header.stamp,field.header.frame_id,field.image_seq,field.transforms0.fiducial_id,field.transforms0.transform.translation.x,field.transforms0.transform.translation.y,field.transforms0.transform.translation.z,field.transforms0.transform.rotation.x,field.transforms0.transform.rotation.y,field.transforms0.transform.rotation.z,field.transforms0.transform.rotation.w,field.transforms0.image_error,field.transforms0.object_error,field.transforms0.fiducial_area
1684378466709429979,0,1684378466709429979,camera_2,1,0,-0.4181717319987264,-1.9279161038365122,6.670464853502493,0.9899157421049278,-0.03564474763059691,0.028514149154901205,0.13410152421644303,0.010160180449020118,0.006824328930701217,5268.160842942541
1684378466716013669,1,1684378466716013669,camera_2,2,0,-0.4176448847693965,-1.9287928585819474,6.666515077811328,0.9897207813369759,-0.03509696099466678,0.02973927798736537,0.13541253141218224,0.01158514793496579,0.007774351421828865,5267.747375179082
1684378466722908496,2,1684378466722908496,camera_2,3,0,-0.41767048976417703,-1.9339529729666647,6.6724280227825075,0.9901519182852767,-0.035840574674547834,0.028729127959019073,0.13224700045634064,0.009421491020475514,0.006333611150573496,5265.529926430492
1684378466729845046,3,1684378466729845046,camera_2,4,0,-0.4175935676577917,-1.9357049330911527,6.673059277816075,0.9903191794191829,-0.03499118706824098,0.030207705904420512,0.13088557676865592,0.0017745747463777661,0.0011927637683879263,5266.383508363854
1684378466736109733,4,1684378466736109733,camera_2,5,0,-0.41689053042243096,-1.9346793629764876,6.665031540738113,0.9897484064264298,-0.03523957688953611,0.02861134299987613,0.1354165988670984,0.0034367743210168555,0.0023077736655123717,5264.778143284378
1684378466742953538,5,1684378466742953538,camera_2,6,0,-0.4168593465731708,-1.9375593648372043,6.667792420058048,0.9900717144121021,-0.03510481908724534,0.02736669364671499,0.133329351895146,0.005993760423734784,0.004028547767541505,5265.62869391317
1684378466749417066,6,1684378466749417066,camera_2,7,0,-0.4163990398958411,-1.9364617422384924,6.661675949479733,0.989713224627215,-0.03470987571670427,0.028414996360576348,0.13585118883381,0.0050748710200423375,0.0034060339372569888,5266.218791697581
1684378466756191492,7,1684378466756191492,camera_2,8,0,-0.41677596071218614,-1.938969103901071,6.668833676120553,0.9900249210242632,-0.03543026539442144,0.028108517659342497,0.13343636415901428,0.007908634739578702,0.005317159522929077,5262.199077422264
1684378466762744903,8,1684378466762744903,camera_2,9,0,-0.4164508291014706,-1.9369440911227278,6.662602824657993,0.9897562335798126,-0.03513840791751661,0.028178008927078415,0.1354765300405624,0.005539362158742733,0.003718729405641989,5265.857752949231
1684378466769467830,9,1684378466769467830,camera_2,10,0,-0.4163845562785705,-1.9360363287487976,6.661032326630177,0.9895628549829815,-0.035075588015447204,0.028708409214711562,0.13678774215426615,0.008787703947746195,0.005897216829482408,5264.331306814681
1684378466775934934,10,1684378466775934934,camera_2,11,0,-0.41664116619957714,-1.9360221150406585,6.663659051428047,0.9895971772220473,-0.0356261179390467,0.026129126923823652,0.13691411644146773,0.009688068297691643,0.00650992816390924,5261.873748575862
1684378466782966375,11,1684378466782966375,camera_2,12,0,-0.41716423082154697,-1.935104087922356,6.66849873843793,0.9899187500242368,-0.03581019675164325,0.027447450513614725,0.13425772089292953,0.006506244317279197,0.004373031092038978,5264.108110574889
1684378466789423465,12,1684378466789423465,camera_2,13,0,-0.41744731067613167,-1.9343196444258464,6.670930426725011,0.9899892596850451,-0.03590447343314167,0.028199415934443955,0.13355496035977577,0.012904803865239955,0.008675376302947945,5263.450454466976
1684378466796060562,13,1684378466796060562,camera_2,14,0,-0.4178818331872223,-1.9340409370504603,6.675260013142123,0.9901529914943172,-0.035145594977838396,0.029798196212429195,0.1321889106203477,0.01190289879741613,0.008005932718365857,5261.336949449384
1684378466802916049,14,1684378466802916049,camera_2,15,0,-0.4174572957301108,-1.9263373813052729,6.6615188970935675,0.9892516666846926,-0.03544919405972167,0.02789834643987463,0.13909053478937797,0.007041362929157913,0.004723224163493439,5265.955805525766
1684378466809492588,15,1684378466809492588,camera_2,16,0,-0.418258333541772,-1.927188675052739,6.67024732030883,0.989773458724679,-0.03530532378623357,0.03044522246031137,0.13481514360737581,0.001249444845598191,0.0008389003115489212,5265.766280495331
1684378466816093921,16,1684378466816093921,camera_2,17,0,-0.41851303049323757,-1.9254634584111765,6.671065893511254,0.9898970118019247,-0.03534616955281796,0.02840764886344504,0.134341206670236,0.010648366995155811,0.007151817759928685,5268.939054356539
1684378466822831869,17,1684378466822831869,camera_2,18,0,-0.4190308373060214,-1.922910669405708,6.673564768142991,0.9902109812964104,-0.035424864391057936,0.028320850362714065,0.1320046246826534,0.015455259592272341,0.01037904589725955,5275.183483732048
1684378466829316854,18,1684378466829316854,camera_2,19,0,-0.4191390762803018,-1.9209209978394133,6.672369566116489,0.9899390659378676,-0.03547948687623367,0.029492337498801802,0.1337611818500357,0.004581403161864728,0.003075288126281101,5272.547806530959
1684378466836207866,19,1684378466836207866,camera_2,20,0,-0.4190553921860095,-1.9189399227952153,6.669940167577317,0.9897864511863547,-0.03568623896890046,0.029540748059919356,0.134820686840844,0.01045819278806448,0.007015164476273383,5274.259309595802
1684378466842984676,20,1684378466842984676,camera_2,21,0,-0.41930196688239463,-1.9167420700749294,6.669180022198777,0.9897700547400576,-0.035466303299119165,0.028990645972341765,0.1351181798140601,0.005824200517963618,0.003905811033517179,5276.6254498013295
1684378466849311828,21,1684378466849311828,camera_2,22,0,-0.41907644184648557,-1.9146520606839739,6.66455155832113,0.9893338792319344,-0.03508623208784997,0.029525733404095884,0.13825940397933112,0.0037436913698911667,0.0025082176804130133,5274.4944448859915
1684378466856029510,22,1684378466856029510,camera_2,23,0,-0.41926851155607403,-1.9149288299798177,6.666946853189318,0.9894257175818539,-0.03568684225682423,0.0269296031138549,0.1379782415944634,0.0035209034685976803,0.0023617639934192503,5273.407547825716
1684378466863018035,23,1684378466863018035,camera_2,24,0,-0.4195312758894969,-1.9162925799872466,6.67105926212371,0.9897359594552976,-0.035202356703967985,0.028373324238412087,0.13556724941979997,0.006020963715855033,0.004040481025068988,5273.520065487362
1684378466869342327,24,1684378466869342327,camera_2,25,0,-0.41921675520523216,-1.915257908408818,6.665846016644966,0.9894070394039695,-0.0349390049600295,0.028784704462054722,0.1379290292117912,0.003906500991433859,0.0026186717209062196,5273.696130214725
1684378466876090288,25,1684378466876090288,camera_2,26,0,-0.41935420726669653,-1.917484337886643,6.67081536241952,0.989715657302968,-0.03515508118877519,0.029215512000107836,0.13554885397721528,0.004183824174106121,0.002807333259994345,5272.348415181507
1684378466882686376,26,1684378466882686376,camera_2,27,0,-0.4191700530909804,-1.9183940024698907,6.670255697658011,0.9899384933927609,-0.03611677397604125,0.02901493025117947,0.13369925863427015,0.007117479632142931,0.004773746065464722,5278.111170017977
1684378466889362335,27,1684378466889362335,camera_2,28,0,-0.4189018154836637,-1.9210984420300847,6.6704657633655975,0.9897712377577493,-0.03572523672358604,0.02803615856876984,0.13524266405703253,0.01329108770005405,0.008922745750204611,5271.141356431184
1684378466896022319,28,1684378466896022319,camera_2,29,0,-0.41866624717554995,-1.9222008133339024,6.668723588290938,0.9896403025642788,-0.03534035096853824,0.02703768327949329,0.13649943156211763,0.005200444546062499,0.00349199162741187,5269.0199955129065
1684378466902673006,29,1684378466902673006,camera_2,30,0,-0.41879109930918645,-1.9252411982044975,6.673646306131565,0.9900400708219884,-0.034894282934485404,0.02866749308149068,0.13334624863753347,0.002785026328638196,0.00187133495785697,5268.681819126243
1684378466909312486,30,1684378466909312486,camera_2,31,0,-0.41783451618647927,-1.9266591608019958,6.665834452470405,0.9896570879766491,-0.03560843726807952,0.029040299640636084,0.13589535830809865,0.00861872429959476,0.005782575647707836,5269.491926323857
1684378466916090965,31,1684378466916090965,camera_2,32,0,-0.41753221845180144,-1.9279924635931556,6.663609750597881,0.9893929334179219,-0.0354178547744914,0.028971941683657784,0.1378688705289614,0.002099257311783731,0.0014085307201751006,5264.95564691874
1684378466922871351,32,1684378466922871351,camera_2,33,0,-0.41761846255641555,-1.9338856550279122,6.672154003545496,0.9900632808364405,-0.03576347130132294,0.02891419174984934,0.1328895916741267,0.008940225467085838,0.006010103748752991,5263.8958331846525
1684378466929291963,33,1684378466929291963,camera_2,34,0,-0.4173666351620389,-1.9350655108556782,6.670876230256822,0.990027665676304,-0.03540569802124821,0.02824468562177049,0.13339376101334022,0.006358070240821689,0.0042745908140223035,5263.309185797174
1684378466936192750,34,1684378466936192750,camera_2,35,0,-0.4170821324390901,-1.935498054431829,6.6680693876287656,0.9899885030441541,-0.03510624923573333,0.027741281100883003,0.13386835484114812,0.004475460576941259,0.0030075802393131003,5265.350174370919
1684378466942694664,35,1684378466942694664,camera_2,36,0,-0.4166433649973276,-1.935289454806878,6.66292301377235,0.9896942390383214,-0.03488941618355274,0.0300429752252871,0.13559299942232236,0.003755149256903678,0.002519668917228862,5265.577738161141
1684378466949407339,36,1684378466949407339,camera_2,37,0,-0.41666729652156603,-1.937755044835819,6.665941174657614,0.989851720931563,-0.03506301116981262,0.029487436070705267,0.13451634447346875,0.00542820684495382,0.0036459611448031366,5262.987185031872
1684378466956216096,37,1684378466956216096,camera_2,38,0,-0.41669281434699385,-1.938525453067105,6.667407226160465,0.9899176293706399,-0.03519932913395005,0.028541603485711935,0.13419937093815604,0.009999136615078896,0.006720220404130257,5261.870685718137
1684378466962693452,38,1684378466962693452,camera_2,39,0,-0.4168215394191155,-1.93932124196774,6.66987670452303,0.9900567143084301,-0.03569126418685717,0.0294889742876154,0.13283160960029106,0.008303721566335298,0.005582030640379187,5261.602196548075
1684378466969342708,39,1684378466969342708,camera_2,40,0,-0.4168520839266287,-1.9381949822481739,6.668625195960976,0.989845467706858,-0.034951995492555,0.027557067421760787,0.13499968928257844,0.008949749244493432,0.006018960239555599,5258.660863366559
1684378466976207017,40,1684378466976207017,camera_2,41,0,-0.4165963114289748,-1.9357885754747632,6.662954932002493,0.9897544836022665,-0.03533785559010987,0.02773989294940604,0.13552784396816422,0.009435414351173677,0.006334565815029142,5266.556745073174
1684378466982902288,41,1684378466982902288,camera_2,42,0,-0.41686953293760975,-1.9353602356950113,6.665410330434972,0.9899710289292494,-0.03540543563214824,0.028511777992100324,0.13375685225135328,0.0031105320231290534,0.0020883858039838954,5268.875264197353
1684378466989246368,42,1684378466989246368,camera_2,43,0,-0.41731502803489123,-1.9336756891940086,6.66908383280797,0.9898411299500924,-0.03604115492727623,0.027887342939059756,0.1346769049036686,0.015538392181042582,0.010442982349231213,5263.159592251759
1684378466996132373,43,1684378466996132373,camera_2,44,0,-0.41778242051246345,-1.933444441520834,6.673546984108118,0.9901252154606005,-0.03540995968460942,0.02957973511341958,0.13237534413497837,0.0066388183622621,0.004463319297690347,5263.692063031485
1684378467002637147,44,1684378467002637147,camera_2,45,0,-0.41765095640424027,-1.930323459495599,6.668477029425057,0.9898877322587052,-0.035677681815464095,0.02825206003129549,0.13435476042173009,0.01454281312180683,0.009767066408244568,5267.861065468167
1684378467009397268,45,1684378467009397268,camera_2,46,0,-0.4179571750756753,-1.9258549491605554,6.665722047743317,0.9894282858512766,-0.03571420024075588,0.027775442131313336,0.13778493340339387,0.0028752049547620118,0.0019301837514846066,5265.117846279989
1684378467015942096,46,1684378467015942096,camera_2,47,0,-0.4185899301801887,-1.9257443286701237,6.671862054042611,0.9899695941385045,-0.035254988686180315,0.028263724074838136,0.13385981605920236,0.00597540702437982,0.004014104188176861,5269.186704083929
1684378467022531747,47,1684378467022531747,camera_2,48,0,-0.4181126200774555,-1.9208550317359472,6.660993600514392,0.9891620767585799,-0.035244802501418704,0.02701012726819446,0.1399522876706386,0.006913319695740938,0.004635401179634717,5269.444633512059
1684378467029264450,48,1684378467029264450,camera_2,49,0,-0.4191137404964308,-1.9208069740303255,6.672077270689005,0.989995587703671,-0.03548382537144527,0.029818503170532126,0.13326849339938152,0.00909623404731974,0.006104162790341375,5274.369025070221
1684378467035973310,49,1684378467035973310,camera_2,50,0,-0.4190199162528565,-1.9187139679508811,6.6690950037237355,0.9897421917038615,-0.03548516313829287,0.029920325417818448,0.1351146597715345,0.009307868429459631,0.006241854926667611,5274.458673308372
1684378467042594671,50,1684378467042594671,camera_2,51,0,-0.41898774729721255,-1.9165814660854334,6.665901569101614,0.9895296451133578,-0.03560734481324951,0.03010389820326003,0.13659045995292038,0.007702427101321518,0.005160897194810996,5275.88091133535
1684378467049404382,51,1684378467049404382,camera_2,52,0,-0.4191114332929394,-1.9146781331105263,6.664736025584492,0.9894295450542357,-0.03498355523518,0.029605460506151177,0.1375821316345041,0.0029156195232644677,0.001953223285247043,5276.328729488769
1684378467056130886,52,1684378467056130886,camera_2,53,0,-0.4193961613744693,-1.9153765367516242,6.6684102871905795,0.9895607750222593,-0.035396702321078055,0.02731428197190818,0.13700538676452756,0.00766002869931981,0.005139000546842,5273.915647572025
1684378467062693119,53,1684378467062693119,camera_2,54,0,-0.4191078123509622,-1.9140342067813134,6.663977067984215,0.9894490526856728,-0.03533297264742383,0.028552964658804084,0.13757500278943885,0.002358105208259076,0.0015796696819582476,5278.523110717069
1684378467069442272,54,1684378467069442272,camera_2,55,0,-0.41958170389802524,-1.9174188953877573,6.673128745046293,0.9900508654661353,-0.035202189208248615,0.030018883439869467,0.13288700576703005,0.008313464757520705,0.005577534776570732,5277.094456062887
1684378467076097965,55,1684378467076097965,camera_2,56,0,-0.41916489854834893,-1.9165343643048642,6.667487119093813,0.9896904396493501,-0.03512846605280668,0.029062452314095513,0.13577259813726753,0.001184040040243417,0.0007937730118903308,5276.992879907017
1684378467082768440,56,1684378467082768440,camera_2,57,0,-0.4196587042953185,-1.9203780122587375,6.676986189647057,0.9900762599568491,-0.03553079872410289,0.027835396999524153,0.13308550817336987,0.005924084922298789,0.003982092793160785,5269.944725956184
1684378467089584827,57,1684378467089584827,camera_2,58,0,-0.4192358440180616,-1.9226161685563017,6.675498675827664,0.9900469290135305,-0.035831777689868026,0.028313357942082135,0.1331221838030938,0.011084928002674133,0.0074492222965180325,5269.519241520785
1684378467096441030,58,1684378467096441030,camera_2,59,0,-0.41896742749545896,-1.9236675579988742,6.673811164807029,0.9901379109995394,-0.03545868040059136,0.02799572072913242,0.13261160886805276,0.005408735363744199,0.0036335924716889216,5272.530652086251
1684378467102736711,59,1684378467102736711,camera_2,60,0,-0.41840810787342675,-1.9236445638953608,6.667878081993087,0.989577350213763,-0.03517002676014015,0.02680213859289315,0.13704518425849832,0.007882885809522122,0.005293876169534283,5267.211309915176
1684378467109496116,60,1684378467109496116,camera_2,61,0,-0.4179896188460909,-1.9271545568728077,6.6674302783391175,0.9896528430002611,-0.03576255405624216,0.02829964768736392,0.13604197885081576,0.0073122596950270236,0.004909347042654264,5266.890630863374
1684378467116263151,61,1684378467116263151,camera_2,62,0,-0.41766093246702823,-1.928807382940746,6.666493138709479,0.9896801901781522,-0.03566604462340771,0.027697029653544487,0.13599238573621825,0.0040634346078149974,0.0027284323881866536,5267.070387876594
1684378467122771263,62,1684378467122771263,camera_2,63,0,-0.417319185605716,-1.9297442169285868,6.663408634979397,0.9895336525136869,-0.035121415014014536,0.029770418616206377,0.13676022420920267,0.004143715545069426,0.0027795808012699816,5266.6500345407985
1684378467129389524,63,1684378467129389524,camera_2,64,0,-0.41716470975244857,-1.9342164292852244,6.667505196303825,0.9900046054614172,-0.03566045154983488,0.028948499411746757,0.1333461575833885,0.01052451558643952,0.0070675209787212255,5268.218633011563
1684378467136171340,64,1684378467136171340,camera_2,65,0,-0.4169322320172878,-1.9349717256226016,6.6659506541896505,0.9899813479308833,-0.03525716040722625,0.02934441938891931,0.13353938909437124,0.006919549661688507,0.004645102743530627,5268.730080137961
1684378467142771482,65,1684378467142771482,camera_2,66,0,-0.41692618976372453,-1.9367585643379588,6.667912312990631,0.9899415555742171,-0.03504678662125392,0.029275607060189283,0.1339043618635364,0.002524438896216452,0.0016961096973395788,5263.403621437959
1684378467149410963,66,1684378467149410963,camera_2,67,0,-0.4167913463269554,-1.9384890627038218,6.668703022021725,0.9899295085649547,-0.03497011964146102,0.027749835281860986,0.1343376546112031,0.01356168593338225,0.009119411979471534,5260.239399516954
1684378467156347751,67,1684378467156347751,camera_2,68,0,-0.4167200672638619,-1.9387117468434427,6.667960301300109,0.9900332397848696,-0.035317558205359825,0.02949262459979915,0.13310536915429597,0.008204166748328134,0.005512266725289339,5263.837858622603
1684378467162633180,68,1684378467162633180,camera_2,69,0,-0.41635211317795456,-1.936962031512391,6.661749225656861,0.9895325306866788,-0.03511106628301869,0.029442595685715875,0.13684194275357928,0.00861975115549285,0.005785477347123277,5261.90802635334
1684378467169325828,69,1684378467169325828,camera_2,70,0,-0.4166621323877468,-1.9373561901839906,6.665828252146654,0.9896375219303525,-0.03452469922410993,0.028462374818724632,0.13643868055179426,0.008911031880415976,0.00598857338007083,5258.088929158171
1684378467176141262,70,1684378467176141262,camera_2,71,0,-0.41676701374574104,-1.9367305186324344,6.666136695746251,0.9899684473883954,-0.03541549156510381,0.027916474718887505,0.13389879227193047,0.013277271194965579,0.00891884792662015,5266.504425573803
1684378467182663202,71,1684378467182663202,camera_2,72,0,-0.4166582553229657,-1.9344968348790732,6.662429010014527,0.9897015433645538,-0.0352838135943156,0.026956307887236207,0.13608550630081956,0.011857637626235373,0.007960754800119714,5267.127328861853
1684378467189371824,72,1684378467189371824,camera_2,73,0,-0.4173655040423308,-1.9339431772026798,6.669912082047297,0.989885339585176,-0.03610899940228039,0.02818220952088309,0.13427180531678254,0.010173630740609951,0.006838240019945849,5262.912853233981
1684378467196010828,73,1684378467196010828,camera_2,74,0,-0.41755072377162117,-1.9321965168078163,6.669439780376103,0.9898393265976102,-0.03540220854033022,0.030041122283298617,0.13439613879578782,0.006312329394859262,0.004239902890588913,5263.7192442960795
1684378467202744245,74,1684378467202744245,camera_2,75,0,-0.4173131461986121,-1.928727138076757,6.663243634391245,0.9895849746115876,-0.03606342152544677,0.028102905477048138,0.13649627963651498,0.014307464938610792,0.009598221803803588,5269.598985418095
1684378467209275960,75,1684378467209275960,camera_2,76,0,-0.41791462236391885,-1.925774466555716,6.665654341198294,0.989313575784046,-0.0358647692594025,0.027453496713952724,0.13863142722172153,0.0047583781415596604,0.0031951017444450834,5262.756761868717
1684378467216135025,76,1684378467216135025,camera_2,77,0,-0.4187988206666982,-1.9267953709576933,6.675871235989754,0.9900930268729218,-0.03552124732880908,0.02869615691801607,0.13278015553522285,0.00894602230982855,0.006014730741503126,5266.049508156837
1684378467222813606,77,1684378467222813606,camera_2,78,0,-0.41854959920155044,-1.923082028493452,6.669049984644537,0.989706077783305,-0.035067887831400024,0.028693026388149485,0.1357528381969234,0.011459021014161408,0.0076917361551492825,5269.244934844319
1684378467229332447,78,1684378467229332447,camera_2,79,0,-0.4190316726669279,-1.920469030544776,6.671036270567871,0.9897156564030682,-0.03577345944404257,0.02876989302109696,0.13548236905813246,0.004747177299577743,0.003186864326651609,5269.810759359971
1684378467236056804,79,1684378467236056804,camera_2,80,0,-0.419025085611395,-1.9186356367537833,6.669097768818846,0.9896508673663361,-0.035218626899311364,0.029905247610059138,0.1358546473469605,0.007689890218898654,0.005157691192453529,5272.22832443053
1684378467242697954,80,1684378467242697954,camera_2,81,0,-0.41923144832423653,-1.917759799297258,6.670164715750082,0.9897588749432376,-0.035416640552908045,0.030407660438180644,0.1349014648909311,0.006103933381382376,0.004093419464821059,5274.274340402917
1684378467249303340,81,1684378467249303340,camera_2,82,0,-0.41952326512992605,-1.9168457837864223,6.6719347432635905,0.9901227921963007,-0.035449645068880445,0.028024479043858137,0.13272078816904265,0.010278451372869313,0.006895919779462789,5280.831470488687
1684378467255928039,82,1684378467255928039,camera_2,83,0,-0.4191662381043399,-1.9145377777631483,6.665450269470823,0.9895468993721518,-0.03553369065933414,0.027910352366656944,0.13695000183226091,0.004483524011448026,0.003004812820886777,5278.450362918084
1684378467262697696,83,1684378467262697696,camera_2,84,0,-0.41975264361579384,-1.9171601723109746,6.674990193873477,0.9901288079307261,-0.03494326508676514,0.028611301975052586,0.13268498532256018,0.007219114631880075,0.004846917180280539,5276.3202885304345
1684378467269432306,84,1684378467269432306,camera_2,85,0,-0.4192773732007672,-1.9159690480774707,6.668076491582544,0.9894546128929262,-0.035491095522574685,0.027983944894194653,0.13761122770935424,0.009949670056812465,0.006674716940320853,5271.548608916812
1684378467275957345,85,1684378467275957345,camera_2,86,0,-0.41926416553430645,-1.916886853129893,6.668893827612404,0.9896992942335716,-0.03516239787446475,0.029547224050060925,0.1355945217190716,0.0019280881388112903,0.001292913752842512,5275.108058593936
1684378467282583475,86,1684378467282583475,camera_2,87,0,-0.41910625407349816,-1.9181989311271432,6.669560164904302,0.9895528096987051,-0.035980245860069274,0.028555119454328516,0.1366574691635859,0.0073233621078543365,0.0049143816563157324,5270.269181253041
1684378467289234638,87,1684378467289234638,camera_2,88,0,-0.418734960480314,-1.9203405153652253,6.667591790321384,0.9896465761480459,-0.03554185474054754,0.027607493678264945,0.13628740650865964,0.004432416462805122,0.0029741436564384516,5272.58674817835
1684378467295943498,88,1684378467295943498,camera_2,89,0,-0.41851087477510207,-1.9217735496900283,6.667218267970754,0.989509943437511,-0.03545606594956364,0.027636760481034476,0.13729220187537297,0.010847176366951317,0.007280392473873638,5268.595504855504
1684378467302791595,89,1684378467302791595,camera_2,90,0,-0.4187104299446217,-1.9252667553038934,6.673435141897366,0.9900235253553673,-0.03540623714007634,0.027208634048486776,0.13363946964773077,0.006561944668646902,0.004410487120208984,5268.829468878916
1684378467309445381,90,1684378467309445381,camera_2,91,0,-0.41816138666888886,-1.928249896132713,6.671029379855827,0.9899401382469099,-0.03574457752569288,0.028648122303741627,0.13386610083837064,0.006223430158570409,0.004180680361768018,5267.734106839285
1684378467316209316,91,1684378467316209316,camera_2,92,0,-0.4180183341754322,-1.930601512554678,6.672543888331897,0.9900387030185891,-0.035391524683462204,0.028971653878640473,0.13315949000122546,0.009541576262563467,0.006412827060105546,5265.567492760952
1684378467322980880,92,1684378467322980880,camera_2,93,0,-0.41748041912785566,-1.9309192161972526,6.667570875160314,0.989709497042608,-0.035170478608125604,0.029548346656542258,0.13551768928080216,0.006625573674682528,0.004448943558449579,5264.164523977319
1684378467329380273,93,1684378467329380273,camera_2,94,0,-0.41735809632565357,-1.9350799744580256,6.670549298786445,0.9900304499541527,-0.03551254393071106,0.029929055788206718,0.1329767611531198,0.008540988666936755,0.005739038655425468,5264.021821569419
1684378467336048126,94,1684378467336048126,camera_2,95,0,-0.4168183965216858,-1.9345404908814579,6.664485351173471,0.9898697081465493,-0.03530566868951663,0.028073778311858536,0.13462293126933417,0.004134856935706921,0.002775941411155598,5268.408152818098
1684378467342579126,95,1684378467342579126,camera_2,96,0,-0.416961297265656,-1.9368465262233951,6.668238329032132,0.9900399410632137,-0.03524656374330696,0.028437683867537207,0.13330376206276906,0.007026233084616251,0.004721396688078196,5265.218894197955
1684378467349342107,96,1684378467349342107,camera_2,97,0,-0.4165207525462947,-1.9372529881680094,6.66437933155259,0.9899244582435662,-0.035160316538079044,0.029666603616142977,0.13391494219095548,0.009069865758647211,0.006087837164208996,5267.289204791713
1684378467355929374,97,1684378467355929374,camera_2,98,0,-0.4164761549168004,-1.937246468812898,6.663127971415873,0.9897127021687486,-0.035230849776164086,0.0289422915284402,0.13560935864078927,0.006314436512184329,0.004239158588866491,5264.037008463987
1684378467362843751,98,1684378467362843751,camera_2,99,0,-0.4166998168928081,-1.9386025196162247,6.667453738254931,0.9901485436670988,-0.03501619123185086,0.028570373490158445,0.13252721073112028,0.005683111332473345,0.003818267221055989,5266.90516059578
1684378467369427442,99,1684378467369427442,camera_2,100,0,-0.4166968974492679,-1.9373457391585687,6.66584812572857,0.9900375728311185,-0.03503724256520493,0.03010154765368491,0.13301087491234573,0.0040859563305275515,0.002742978289981996,5267.812328696948
1684378467376154661,100,1684378467376154661,camera_2,101,0,-0.41701505486375934,-1.9378350771061401,6.670028361873855,0.9902654154266036,-0.035185022959952794,0.02971678308015271,0.13135194696939564,0.013564589840825647,0.009114084546539093,5267.204513813603
1684378467382730245,101,1684378467382730245,camera_2,102,0,-0.41687741070894635,-1.9354326166566072,6.665784463819602,0.9898463879225845,-0.035376378919730625,0.027531954891163946,0.1348874775174136,0.005977735519991256,0.00401572531446385,5265.318479878071
1684378467389285802,102,1684378467389285802,camera_2,103,0,-0.4176851056642497,-1.9351391654492036,6.67417025427714,0.9901795754931783,-0.035471775853045236,0.028964868605258053,0.1320878411537607,0.0067903325107181445,0.004567251709470198,5262.523255694656
1684378467396211385,103,1684378467396211385,camera_2,104,0,-0.4177478538373236,-1.9332407240150071,6.673090754710963,0.9899643043571241,-0.035688395505611765,0.027995961326223145,0.13384035517873902,0.011465594172477722,0.0077122142616613855,5260.850558922626
1684378467402657032,104,1684378467402657032,camera_2,105,0,-0.4177429143548676,-1.9305734610438379,6.6696495946523315,0.9899401510310551,-0.03561098893864558,0.028862688332768463,0.1338555193693153,0.010482665325980633,0.007040955403410089,5267.30856243812
1684378467409280300,105,1684378467409280300,camera_2,106,0,-0.4177415231417787,-1.924817179308272,6.662453969298052,0.9893699434600658,-0.03501502916248143,0.028294913310131897,0.13827675361878083,0.003391896840184927,0.002274811631173668,5268.537726383659
1684378467416018962,106,1684378467416018962,camera_2,107,0,-0.4185471570857768,-1.925592659902995,6.671661248834658,0.9898618458896323,-0.035242620532086134,0.028289759716305936,0.134652045083596,0.004783346259500831,0.0032135908095820456,5267.141325991484
1684378467422599315,107,1684378467422599315,camera_2,108,0,-0.41844094173565727,-1.9223686845031176,6.66652652500991,0.9897581158155696,-0.03535135510723778,0.028520876294493295,0.13533555883318305,0.012959047104232013,0.008691526117706037,5274.596197669978
1684378467429332017,108,1684378467429332017,camera_2,109,0,-0.41902473936912304,-1.9202950697432573,6.670609324320214,0.9897353271486206,-0.03586521771217395,0.029552463180581353,0.13514555217406124,0.0038412116118706763,0.0025776897934263313,5271.124267631676
1684378467435978412,109,1684378467435978412,camera_2,110,0,-0.4191248733002765,-1.9189169617872348,6.670286180165706,0.9896440187221209,-0.03529409279189844,0.029739625658627287,0.13592129298683164,0.004815743712242693,0.003231286837217827,5270.288850975689
1684378467442544937,110,1684378467442544937,camera_2,111,0,-0.4189734264454969,-1.916555853877175,6.665853319031546,0.9895314572159976,-0.03542923788671957,0.029309735847541436,0.13679621218183668,0.002841161098331213,0.0019041272639154624,5275.7885202781745
1684378467449404716,111,1684378467449404716,camera_2,112,0,-0.4192108221406531,-1.9150532266081561,6.665899171726333,0.9894578231085597,-0.03538382376069003,0.028936055988784813,0.1374187249582695,0.002981119672767818,0.0019980238680098903,5275.332035716041
1684378467455891609,112,1684378467455891609,camera_2,113,0,-0.41917507830963624,-1.9146205497086397,6.665690517300333,0.9895870107820931,-0.03524149290586913,0.027453096133010405,0.136828040919392,0.005131434998475015,0.003439604893851206,5278.6936750024315
1684378467462603330,113,1684378467462603330,camera_2,114,0,-0.4191699257984117,-1.914502421312361,6.665500801844559,0.9893941665793581,-0.03535071628256544,0.027632598614070893,0.13815190730091526,0.006061222811695188,0.004063516264253975,5274.7740254706005
1684378467469168663,114,1684378467469168663,camera_2,115,0,-0.4194873644044775,-1.9170157486153445,6.671693641811788,0.9900024659013156,-0.035554422195769486,0.02675250450241401,0.1338480633946108,0.011714219057466835,0.007862878347882952,5278.225810889735
1684378467475879907,115,1684378467475879907,camera_2,116,0,-0.4191563364735955,-1.916815451473974,6.668515302131216,0.989506720160524,-0.03575370191642312,0.028442143902407173,0.1370735861012936,0.005531073547899723,0.0037104782814518554,5271.667513211257
1684378467482670783,116,1684378467482670783,camera_2,117,0,-0.41960707223787996,-1.920467725240919,6.677162213993937,0.9901439747433908,-0.03543505411743852,0.03081485381315183,0.1319458639121646,0.009450812707655132,0.00634738535542386,5271.39311965881
1684378467489182233,117,1684378467489182233,camera_2,118,0,-0.41888942876330654,-1.9212431580309381,6.6707515822020005,0.9897451537415738,-0.035678853101456964,0.02860121155408543,0.1353274576132708,0.011807722388766706,0.007926790786552881,5270.069218814256
1684378467496064186,118,1684378467496064186,camera_2,119,0,-0.41845601315445946,-1.9216751820094369,6.666451061985275,0.9896065324713106,-0.035427732540585906,0.026578986754778437,0.13681134499825348,0.005913800559937954,0.003969021040986302,5271.759381603799
1684378467502830743,119,1684378467502830743,camera_2,120,0,-0.41828725389133004,-1.9232546655620975,6.666390577771172,0.9897108010313023,-0.034817110931835475,0.028732209082743508,0.13577466357742848,0.005552350950893015,0.00372450990254357,5272.498070853414
1684378467509380102,120,1684378467509380102,camera_2,121,0,-0.4176802911405466,-1.9261274173276923,6.663551331207383,0.9895189928305126,-0.03564778843783607,0.02799816615453525,0.13710397769270702,0.011558427009731531,0.007753534029652147,5269.750246778712
1684378467516184806,121,1684378467516184806,camera_2,122,0,-0.4178421822488609,-1.9297317000500018,6.6694773097647495,0.9899594570062443,-0.03540243957945097,0.030117345346222103,0.133491146766449,0.004377063305582851,0.0029386025785793413,5268.703413132576
1684378467522633790,122,1684378467522633790,camera_2,123,0,-0.4176668148881555,-1.9316255728492067,6.66970955701413,0.9897193164122767,-0.03516543046344475,0.030000400729611073,0.13534785988998557,0.006505476834718138,0.004370595195271363,5260.952175494633
1684378467529401063,123,1684378467529401063,camera_2,124,0,-0.4174993504965146,-1.936073057629803,6.674022165213978,0.9902626665233357,-0.035836388266745574,0.030088453891665812,0.13111174435761652,0.010148352666874416,0.006823210827812195,5264.175183058484
1684378467536039590,124,1684378467536039590,camera_2,125,0,-0.41710605112099336,-1.935754338643598,6.66840144111912,0.9899521949420907,-0.03535026813847406,0.028450321369895414,0.1339238197104023,0.0069694248522864655,0.004683375507659535,5264.099399258676
1684378467542764186,125,1684378467542764186,camera_2,126,0,-0.4165478703319853,-1.9350525264506377,6.661980539578271,0.9894936429055299,-0.03467725363389083,0.02973074520379138,0.13717106662697554,0.004064276654389687,0.002727479500363852,5262.228088304517
1684378467549403429,126,1684378467549403429,camera_2,127,0,-0.41632069339709266,-1.9362846363540167,6.661160305350565,0.9897004420037133,-0.03525693087920803,0.02936638485988817,0.13560088260366968,0.004444143385626376,0.002981358344306154,5267.313272735102
1684378467556151151,127,1684378467556151151,camera_2,128,0,-0.41655858411517377,-1.9381135985988773,6.665982021916597,0.9901331362547531,-0.035188638489348584,0.02883469365449046,0.1325394003813377,0.012848992555518635,0.008628096047768343,5269.113454589446
1684378467562745571,128,1684378467562745571,camera_2,129,0,-0.4168104605697158,-1.9390690739031853,6.668998639376597,0.990104302537782,-0.035105653582258874,0.028257128469650998,0.13290070682048472,0.009746043142513372,0.006552082127168176,5263.4496140744295
1684378467569326877,129,1684378467569326877,camera_2,130,0,-0.4165279367927127,-1.9365845965738349,6.663494951637068,0.9897361024859209,-0.03536165549185663,0.027623102125293147,0.13567964101452204,0.004308792878873646,0.0028936479457037766,5264.699706911053
1684378467575958013,130,1684378467575958013,camera_2,131,0,-0.4167344676568714,-1.9364117915117591,6.665375981004467,0.9898276417538039,-0.03521625917293925,0.028349054925659055,0.13489768639524483,0.013372869172599167,0.008981944829143183,5264.4559444728075
1684378467582642793,131,1684378467582642793,camera_2,132,0,-0.4166387334410008,-1.9344533325065794,6.662672386558783,0.9895368988661151,-0.03512477957292038,0.02769824449838167,0.1371706342264757,0.011876096788910218,0.007974025236444002,5263.050941098249
1684378467589249849,132,1684378467589249849,camera_2,133,0,-0.4173751860816169,-1.933828275527593,6.669832136311011,0.9898925632015279,-0.035824957935160384,0.028395285066353696,0.13424974299138828,0.006850461781141348,0.004604234270555515,5263.08635926922
1684378467595961570,133,1684378467595961570,camera_2,134,0,-0.41758301472725046,-1.9323261903342777,6.670235118891149,0.990010387500704,-0.03563078825167073,0.02906009073933922,0.13328687368038838,0.00894787629658822,0.006011320315436833,5266.570290094704
1684378467602589607,134,1684378467602589607,camera_2,135,0,-0.4173194207457621,-1.9286005432452986,6.662957592797485,0.9894999537758021,-0.0359390737423175,0.028400665067983586,0.13708255425080942,0.013007436646148562,0.008725825084082922,5268.078012026846
1684378467609222650,135,1684378467609222650,camera_2,136,0,-0.41781785717680786,-1.9251450104756074,6.6637813766648675,0.9894106529340705,-0.03498700027525009,0.02984686994755056,0.1376649339034829,0.0029288012883625925,0.001964050059955027,5267.545387401711
1684378467616001605,136,1684378467616001605,camera_2,137,0,-0.41858679862292675,-1.9255542580350835,6.6715791571137695,0.9898026532062517,-0.03534769231413883,0.0267070163763299,0.13538088354787797,0.006388654408510774,0.004294193054833587,5265.843947947142
1684378467622797966,137,1684378467622797966,camera_2,138,0,-0.4185837526472983,-1.9230999988662059,6.669399887259636,0.9898973176043451,-0.03542965317258806,0.029830119089446282,0.13400822463902065,0.007385557109955698,0.004954850304559873,5273.528268375434
1684378467629410505,138,1684378467629410505,camera_2,139,0,-0.41904632245065876,-1.9203761546900877,6.671024637798966,0.9897670761588735,-0.0354624833916952,0.029694749273585962,0.13498803313326446,0.00884058780502528,0.005932894381231154,5270.92303020868
1684378467636219739,139,1684378467636219739,camera_2,140,0,-0.4192384361841826,-1.9194821201319492,6.672159007469231,0.9899315672444311,-0.035597643880654894,0.03108000645104243,0.1334253840996297,0.0041613110806792974,0.0027914672192608575,5274.222456722984
1684378467642821550,140,1684378467642821550,camera_2,141,0,-0.4191310422225473,-1.9172246399238848,6.668296779630159,0.9896895415278818,-0.035321087378799944,0.02857428060368784,0.13583277463370885,0.005569536238908768,0.0037352457415106744,5275.391496913624
1684378467649395465,141,1684378467649395465,camera_2,142,0,-0.4191007176663246,-1.914847071516118,6.665327785971221,0.989417096954924,-0.0358596554140221,0.028488949765691985,0.13768178204877426,0.00525682553416118,0.003523088420193383,5275.705620737279
1684378467656225204,142,1684378467656225204,camera_2,143,0,-0.4194904967122727,-1.916000356520297,6.670643612350895,0.9896474663027254,-0.03557608235430181,0.027830930573124812,0.13622655434367298,0.0031032655388116837,0.0020827273607289592,5272.586546948647
1684378467662817001,143,1684378467662817001,camera_2,144,0,-0.4190201123804116,-1.91376463049163,6.662930591123253,0.9893733534208854,-0.035457558485517425,0.026832735450010737,0.13843096978359984,0.008405978267546743,0.0056324827231013464,5278.373517190104
1684378467669287204,144,1684378467669287204,camera_2,145,0,-0.4196703458900116,-1.917858750486004,6.674479442231653,0.9900961384843051,-0.035409187692485,0.02875407915723041,0.13277435338666135,0.006706033193040639,0.004502133414044424,5275.9733766417485
1684378467676013708,145,1684378467676013708,camera_2,146,0,-0.41911489644487143,-1.9164220067083126,6.666960977304406,0.9896892246208807,-0.03481462325262941,0.02971048220379345,0.13572202446292753,0.002107442880515009,0.0014123868010666152,5277.579453507439
1684378467682665824,146,1684378467682665824,camera_2,147,0,-0.41913518920141996,-1.9181659777160343,6.669169649588724,0.989734458816611,-0.035585244764217594,0.028223202022621987,0.13550956517401677,0.004428170912433416,0.0029708201770962794,5274.584941670881
1684378467689387321,147,1684378467689387321,camera_2,148,0,-0.418905301531463,-1.9213687251655953,6.6708741449578755,0.9898640139281385,-0.03553739442475865,0.028168574468646908,0.13458402185986792,0.004560374247375876,0.003061582553605705,5272.31474373245
1684378467696032762,148,1684378467696032762,camera_2,149,0,-0.41864972077196544,-1.9225674178108445,6.6694002357202065,0.989782181632207,-0.03510931185543435,0.028516564315265287,0.13522342513070756,0.009157691965810955,0.0061467816731818874,5270.996736867819
1684378467702645063,149,1684378467702645063,camera_2,150,0,-0.4185137182759933,-1.924295420274387,6.669693255750147,0.9898887927421063,-0.0351998661903947,0.028454247870385228,0.13443029123632944,0.0058837381075136355,0.003949843387828727,5271.511621481739
1684378467709248781,150,1684378467709248781,camera_2,151,0,-0.4178316255175377,-1.9268781530406924,6.665963342991116,0.9895161319412409,-0.035733287721737755,0.028202822176815502,0.13706041586797915,0.005790437455289066,0.003886931831377733,5265.92347380775
1684378467716007471,151,1684378467716007471,camera_2,152,0,-0.41767798924555344,-1.929088955100764,6.667016187940065,0.9896756782264322,-0.03542789848733228,0.02778884061594159,0.13606871893658914,0.006993204180616886,0.004696509668872593,5265.8221167827705
1684378467722589969,152,1684378467722589969,camera_2,153,0,-0.4178187864031795,-1.9325592639063132,6.6727678907623975,0.9899034870368947,-0.03507300125133867,0.029801835336786136,0.13406275226914932,0.01018746307818219,0.0068489875290478385,5260.2152602780825
1684378467729259252,153,1684378467729259252,camera_2,154,0,-0.41728596452189226,-1.9347952718294592,6.66935089651311,0.9900811584148724,-0.03559187090661454,0.029626368582632505,0.13264537972291973,0.006862061520223506,0.004609264187225308,5267.0524820236615
1684378467736199617,154,1684378467736199617,camera_2,155,0,-0.41685160900932755,-1.9348403709958324,6.665014987713486,0.9897863916060998,-0.03585384123925382,0.02807386189432287,0.13508981952058877,0.01107768778456375,0.007438811544623846,5265.951773755834
1684378467742561817,155,1684378467742561817,camera_2,156,0,-0.41661603551442106,-1.9353774379651483,6.663083883314143,0.9896753430568163,-0.034797955844819636,0.028693630275784587,0.1360459231141883,0.0030753823957638815,0.002064522555779166,5264.637921406771
1684378467749274015,156,1684378467749274015,camera_2,157,0,-0.41650196101483183,-1.937061155029655,6.663606282233646,0.9899044883193101,-0.035133936802624326,0.028500540738797854,0.1343221116109711,0.0054995171376504,0.003691882541179392,5267.864235067627
1684378467755970716,157,1684378467755970716,camera_2,158,0,-0.41643571751827557,-1.9373863544686816,6.663423318561317,0.9898723149594899,-0.035077173143179444,0.029231362241324547,0.13441696121598776,0.006628170332987793,0.004448873504559454,5267.0894442840945
1684378467762638807,158,1684378467762638807,camera_2,159,0,-0.4167988568535863,-1.9391060956439805,6.669274066319202,0.9901615588708016,-0.035412298184462204,0.02888036014184021,0.13225725412965622,0.011180056797456928,0.007514404569614432,5264.699347141373
1684378467769230365,159,1684378467769230365,camera_2,160,0,-0.4163974569097374,-1.9359753535763198,6.661417040576085,0.9896715267304917,-0.03528179205879198,0.028623609886722676,0.1359637940229328,0.010761726880446076,0.007221331671047968,5266.552238287986
1684378467776109218,160,1684378467776109218,camera_2,161,0,-0.41690507414351874,-1.937167128447981,6.667942394126899,0.9899306725638282,-0.03512919360524794,0.02858985140836542,0.1341112361825798,0.00781211064895615,0.005250011975563388,5262.71593342419
1684378467782707929,161,1684378467782707929,camera_2,162,0,-0.4170998978912053,-1.9364932061254956,6.669580519853537,0.9901114445108483,-0.03546518181333715,0.028302383601755708,0.132742319589675,0.014459568439633586,0.009718248648423218,5265.602052631903
1684378467789426088,162,1684378467789426088,camera_2,163,0,-0.41730826959296385,-1.9335682610079168,6.668772626035748,0.9899941224114867,-0.03554971321860777,0.027997760133553626,0.1336562041518808,0.011556241908692755,0.007764371078715721,5266.765522598928
1684378467796121358,163,1684378467796121358,camera_2,164,0,-0.4175437666622747,-1.9321538046600835,6.669810371840407,0.9899370138257716,-0.03551969247816754,0.03094074062933391,0.13343811551906376,0.009523764776531607,0.0063949395999251145,5265.706596268341
1684378467802764892,164,1684378467802764892,camera_2,165,0,-0.4175784820754707,-1.9298778284484959,6.667476338540196,0.9899095512930514,-0.03573858210193387,0.028644112758290714,0.1340945517626405,0.02733765047742054,0.018350920561001006,5270.1994006913155
1684378467809339284,165,1684378467809339284,camera_2,166,0,-0.417948870985688,-1.9255176856119232,6.665226042719501,0.9894915696035959,-0.03524024094628965,0.03008872196737895,0.1369643308012322,0.0019094452145509422,0.001280747505258092,5267.375639723612
1684378467816236495,166,1684378467816236495,camera_2,167,0,-0.41850590853903985,-1.9252928938012155,6.670917360939577,0.9897503729405409,-0.03541242298134562,0.028150737712132105,0.13545366561637692,0.008329205913469195,0.005595489032005376,5265.984704223114
1684378467822926759,167,1684378467822926759,camera_2,168,0,-0.4184480866535862,-1.922239466983983,6.666547886746848,0.9895775715264897,-0.03490663865158181,0.028363807779669722,0.13679638488652018,0.009163335897028446,0.006148015206472494,5270.1994596258755
1684378467829311847,168,1684378467829311847,camera_2,169,0,-0.4190152789719554,-1.9201600030192092,6.670412376695167,0.9896101602953677,-0.03548561654121134,0.029196281465122296,0.13623538016050005,0.003631876257713884,0.002437835304968394,5268.3249574779775
1684378467836091995,169,1684378467836091995,camera_2,170,0,-0.41910536014982475,-1.9188598095828227,6.6699837297249855,0.9896680319524725,-0.03491803514837676,0.030696827843960012,0.13563046159699807,0.00622190855210647,0.004173358240358799,5271.069123368593
1684378467842788934,170,1684378467842788934,camera_2,171,0,-0.4193294602759051,-1.9180856829849526,6.671460003757809,0.9897466468748786,-0.0356291168288606,0.029907656491314487,0.1350469293139517,0.0047219800762832165,0.003168317841172592,5272.104014956742
1684378467849295616,171,1684378467849295616,camera_2,172,0,-0.41908278938348986,-1.914726964031777,6.664781430904708,0.9895324936211615,-0.035326564594572625,0.02679492059617701,0.13732993166850493,0.01234722143271938,0.008276357768907523,5278.582618533052
1684378467856116771,172,1684378467856116771,camera_2,173,0,-0.4194207123861963,-1.9156069995506475,6.669252181584837,0.9897007513890876,-0.035713999907789166,0.02804807204340857,0.13575801473618276,0.003682355280034244,0.002469959749758111,5276.120068421238
1684378467862731695,173,1684378467862731695,camera_2,174,0,-0.4193745144163833,-1.9151749461670147,6.667872892744538,0.9894220768755582,-0.035210337784392344,0.028094887698292256,0.1378943914362969,0.006845398631412535,0.004591832570052043,5271.57052459335
1684378467869327068,174,1684378467869327068,camera_2,175,0,-0.4193388926492132,-1.9162414579368447,6.668757953740271,0.9895197818686646,-0.03575033024969199,0.02809628465497266,0.13705150114542822,0.007240258331876248,0.004857451173720236,5272.09265228559
1684378467876076221,175,1684378467876076221,camera_2,176,0,-0.4191321545306266,-1.916649589059042,6.66756163683305,0.9895673863570628,-0.0354400134835049,0.028452624534236706,0.1367144522713472,0.008121087274048477,0.005446123973134861,5274.183053540301
1684378467882829904,176,1684378467882829904,camera_2,177,0,-0.4267695801121483,-1.9535537298859877,6.792527437536723,0.9902590271336685,-0.03438511359013662,-0.0601819611107277,-0.12075949114061618,1.0092980836052448,0.689764312607767,5273.868385768264
1684378467889397144,177,1684378467889397144,camera_2,178,0,-0.4190209341865187,-1.921731310829481,6.6721154192958725,0.989933804913361,-0.03580343056325314,0.029915802229594446,0.13361968802020843,0.008712436247151345,0.005847568242764755,5272.330183192505
1684378467896074771,178,1684378467896074771,camera_2,179,0,-0.4184585197552588,-1.9216837581458266,6.666128123299007,0.989484376875136,-0.03528092601412887,0.025866454421172143,0.1378653354374719,0.005326139507815242,0.0035757816226609633,5269.196069739528
1684378467902783155,179,1684378467902783155,camera_2,180,0,-0.4185765428482682,-1.924365799850862,6.670154011440716,0.9897794573164668,-0.03538962945516977,0.02779197761544226,0.1353211217126476,0.0031907695229165256,0.0021430171058368893,5268.435658766655
1684378467909335851,180,1684378467909335851,camera_2,181,0,-0.4176755144536411,-1.926381050938708,6.663901380596427,0.9894081404052039,-0.03563724955506032,0.027896558409759062,0.13792498023548083,0.0077490617404691875,0.005199944223182208,5266.49777848064
1684378467915876626,181,1684378467915876626,camera_2,182,0,-0.41780256054410947,-1.9297376274182059,6.669033908522306,0.9897791363923869,-0.035149046364350824,0.02792186268713769,0.1353594299858648,0.004320401232689619,0.0029028197579192066,5264.731452844806
1684378467922930955,182,1684378467922930955,camera_2,183,0,-0.41798282054798286,-1.9333398205557537,6.675107509700621,0.9900370154571707,-0.03502794471511972,0.029560447903842137,0.13313876608042,0.010025544499512762,0.006744147894406432,5259.40206259582
1684378467929316043,183,1684378467929316043,camera_2,184,0,-0.4173573568692157,-1.9353245813537494,6.671129283575169,0.9901444961133282,-0.03574733376077663,0.029968488128331444,0.13205262081754018,0.0027487463230499998,0.0018469925702336745,5265.847082623515
1684378467935949087,184,1684378467935949087,camera_2,185,0,-0.41670330742693096,-1.9341776460228775,6.662785124042976,0.9899059495635182,-0.03532479341250146,0.02864013578029743,0.13423156339549872,0.006051232747267932,0.004059609580732989,5271.876814380172
1684378467942628622,185,1684378467942628622,camera_2,186,0,-0.416582230613084,-1.935330400812488,6.662638924502948,0.9896669633854346,-0.03474960181668999,0.031246235344598035,0.13555603835249974,0.0076795296190539375,0.00515111395053248,5265.296343218299
1684378467949273824,186,1684378467949273824,camera_2,187,0,-0.41625793386586296,-1.9359152802552735,6.659592939728863,0.9894911684172089,-0.03515310793923682,0.028805889043279742,0.13726509892534808,0.004950721413479187,0.003321314562136615,5264.74429736717
1684378467956115484,187,1684378467956115484,camera_2,188,0,-0.41692906841075167,-1.9396862780773374,6.671336802590092,0.9903284019249048,-0.03523514693390203,0.02830204522622262,0.13117596958827238,0.0062575134506914765,0.0042081292222806085,5265.091139273836
1684378467962618112,188,1684378467962618112,camera_2,189,0,-0.41666710318848404,-1.9384837092867089,6.66696283384751,0.9899052519455749,-0.03521652010807689,0.028437370641559663,0.13430824558842216,0.0052225685940356925,0.003509725212083144,5262.217627865086
1684378467969210386,189,1684378467969210386,camera_2,190,0,-0.41682108919000616,-1.9379302904628848,6.668258479410312,0.9901627019216067,-0.03521302247344532,0.027175617068253936,0.1326625516434374,0.006740575554431416,0.004530781585237963,5266.83628465631
1684378467975969076,190,1684378467975969076,camera_2,191,0,-0.41653677694884295,-1.9353515590483512,6.66197161570326,0.9895097357959444,-0.03521442640061116,0.02828727980464436,0.1372233826269063,0.00800936076848302,0.005376747813019924,5262.6096239436865
1684378467982774496,191,1684378467982774496,camera_2,192,0,-0.4168587309094146,-1.9353795894584234,6.66566543162954,0.9899837954111947,-0.03531587794339825,0.026921475246249053,0.13401532658206877,0.009211320953909308,0.006187493674846896,5268.556698251983
1684378467989243030,192,1684378467989243030,camera_2,193,0,-0.41748696601841173,-1.9342041017840392,6.6710645602352,0.9901035497337244,-0.03574045914690534,0.029631681761656384,0.1324369428091072,0.00565744967025239,0.0038013779275863765,5266.003684328174
1684378467996109962,193,1684378467996109962,camera_2,194,0,-0.4174747661428777,-1.9316334289370203,6.668150062282763,0.9897273491335676,-0.035855726599924274,0.029205321142558742,0.1352818925946592,0.013409540129941888,0.009006279939915568,5263.657410851622
1684378468002973794,194,1684378468002973794,camera_2,195,0,-0.4173924065808773,-1.9287773229949177,6.663830921239152,0.9894664515170893,-0.03516589223597009,0.029465754014381083,0.13729992966419027,0.006766622071154416,0.004539755262633975,5265.480217315721
1684378468009620904,195,1684378468009620904,camera_2,196,0,-0.4180405038986105,-1.9260010377422716,6.667299842506525,0.9896584917053921,-0.035211221308876946,0.028120001411682707,0.1361818828256996,0.007330327585805208,0.004921044392623961,5267.830096912223
1684378468016203165,196,1684378468016203165,camera_2,197,0,-0.41817097593189384,-1.923916197480868,6.666141424835537,0.9895773000608247,-0.03523282411342832,0.028861462573133805,0.1366105094326942,0.014786289306357503,0.00991989657606282,5269.490406536266
1684378468022798061,197,1684378468022798061,camera_2,198,0,-0.41831281097391976,-1.9217308442500365,6.664841810724213,0.9896857989745187,-0.03520297708804027,0.02991682107359839,0.1356014510584534,0.008220602700021118,0.00550925370433984,5275.778041831452
1684378468029493570,198,1684378468029493570,camera_2,199,0,-0.41904707159584165,-1.9204172292248016,6.671393082701806,0.9896870863811098,-0.03554032427027833,0.029713728774345968,0.13554870240455175,0.007755879778414965,0.005206065218706458,5268.648625605039
1684378468035934686,199,1684378468035934686,camera_2,200,0,-0.4193706707417763,-1.9200499978514722,6.6743419398028605,0.9899062826599198,-0.03486139526042154,0.029853573266853527,0.1340857890833946,0.0035542449331842363,0.002386823426835469,5269.556805729984
1684378468042643308,200,1684378468042643308,camera_2,201,0,-0.4192540004129784,-1.9179608753522626,6.670985369350323,0.9897508089238525,-0.03569531315483976,0.02994915963366806,0.1349897355008688,0.013205197581555694,0.008858582876109904,5273.015161682271
1684378468049203634,201,1684378468049203634,camera_2,202,0,-0.4192223267979829,-1.915237399544452,6.666615668574266,0.989599782146889,-0.035746417523949525,0.02849627406850603,0.13639071512843456,0.004270876117516309,0.0028626692764589464,5277.703192243704
1684378468056021928,202,1684378468056021928,camera_2,203,0,-0.4192356685353799,-1.9148086948797125,6.666273151753752,0.9895377693361416,-0.03529350614477404,0.028009047598283467,0.13705788825857118,0.001680456567555666,0.001126544310587035,5276.715029925108
1684378468062595844,203,1684378468062595844,camera_2,204,0,-0.41958988598736924,-1.9161562840080026,6.67130028317682,0.9898544825526653,-0.03574834961076882,0.02724893023106422,0.1347874425596253,0.0045657866285182536,0.003064325657154811,5276.352805766395
1684378468069473266,204,1684378468069473266,camera_2,205,0,-0.41935451374716276,-1.9165944598865927,6.669809974476323,0.9897592583645495,-0.0357351235328711,0.028021513940441334,0.13533072889862485,0.005841476435307413,0.00391890434255102,5275.828692120266
1684378468076276063,205,1684378468076276063,camera_2,206,0,-0.41922497107278595,-1.9168727560244296,6.668393997722167,0.9896794807743301,-0.035535244688012536,0.030181767008883517,0.13550215001776517,0.0026279365993104875,0.0017616476917079707,5275.678128995698
1684378468082779407,206,1684378468082779407,camera_2,207,0,-0.4194606260069521,-1.9198224184323776,6.674770903170857,0.9898795961523812,-0.03585627370806353,0.028887149966004704,0.13423205773515104,0.0068338222918100655,0.0045904658904758235,5269.287739484803
1684378468089508295,207,1684378468089508295,camera_2,208,0,-0.41884060267480683,-1.9211612010547063,6.669921559368554,0.9896117561169299,-0.03587738944417662,0.02727157657588443,0.1365197648434196,0.010903444257564843,0.007322226317327504,5268.196680408435
1684378468096060752,208,1684378468096060752,camera_2,209,0,-0.4185791610161908,-1.922316972941455,6.668085942217326,0.9895157926341343,-0.035275148852909624,0.027911364560293767,0.13724108615654693,0.004314469289965928,0.0028965243668445137,5266.944058014431
1684378468102740287,209,1684378468102740287,camera_2,210,0,-0.41858682061417324,-1.9246881059301866,6.670652457171927,0.9898966389923182,-0.03489009231885184,0.030253689507106194,0.13405983679276154,0.0010829849634319544,0.0007269201118082085,5269.9974860413895
1684378468109206676,210,1684378468109206676,camera_2,211,0,-0.41797121370558094,-1.9277590293831475,6.668491261977989,0.9898913849262811,-0.03562725412372002,0.027879537264141514,0.13441903218767112,0.005182726716157049,0.0034800482727884298,5270.240627512801
1684378468115951061,211,1684378468115951061,camera_2,212,0,-0.41768911606149994,-1.9292198553095559,6.667246126472526,0.9897021115021954,-0.03542173665456272,0.029267816959096287,0.13556705333863184,0.008637665770947933,0.005798710874400947,5266.149530813681
1684378468122813463,212,1684378468122813463,camera_2,213,0,-0.4179500823016653,-1.9332999064544705,6.6747840597645,0.9903059423342945,-0.03518274749565667,0.03062591771291027,0.13083718133727903,0.014260699856095016,0.009585390033935163,5266.247106476805
1684378468129684209,213,1684378468129684209,camera_2,214,0,-0.41740528525887355,-1.9354330353373999,6.671315119982109,0.9901653354248017,-0.035631473104025015,0.029985304119602083,0.1319237968843465,0.0030893603106960654,0.002075932999186189,5265.884717373179
1684378468136080741,214,1684378468136080741,camera_2,215,0,-0.41694192660593815,-1.935428604706785,6.667031603634443,0.9897779287431726,-0.03540476823569515,0.02832063958596768,0.1352186952033407,0.013767990109045058,0.009250723265551167,5262.252333441864
1684378468142830848,215,1684378468142830848,camera_2,216,0,-0.41659391345380137,-1.935279621948118,6.662558666237874,0.9896990950843854,-0.03503793497371684,0.029399189756090075,0.13566035509172142,0.005553434966714121,0.0037264809711236237,5266.22760952369
1684378468149358749,216,1684378468149358749,camera_2,217,0,-0.41637003867149824,-1.9364729802146328,6.661540035371405,0.9896799450273165,-0.0349297339491693,0.029991005172763728,0.13569841452904138,0.008263469455414452,0.0055436707991622855,5265.951593528851
1684378468155915975,217,1684378468155915975,camera_2,218,0,-0.4168015737673771,-1.9392763127873027,6.669931999307325,0.9900327576787006,-0.035608094644782755,0.02994436655361367,0.13293057297167785,0.009582093232893385,0.006440898809070722,5261.013029979483
1684378468162590026,218,1684378468162590026,camera_2,219,0,-0.4168183627946392,-1.9393245842483016,6.6698413647052455,0.9899748969763872,-0.03549814263135817,0.02935356368344191,0.13352135980957308,0.01283529747161083,0.008629942413185352,5259.574779784309
1684378468169215440,219,1684378468169215440,camera_2,220,0,-0.416720098439024,-1.93733249216687,6.6660495084053455,0.9897282002739836,-0.03490964461221212,0.02902739128412264,0.1355611185064097,0.0038158086827024817,0.0025637356389600005,5260.249598242807
1684378468176024436,220,1684378468176024436,camera_2,221,0,-0.4169003710639955,-1.93706648143881,6.667878358821573,0.9899466079222677,-0.03489863683118019,0.029113946731725026,0.1339409448832717,0.010167897737119347,0.006831933669307235,5263.135248829726
1684378468182603120,221,1684378468182603120,camera_2,222,0,-0.41670638567368656,-1.9346829526758156,6.66341011615997,0.9897915522418442,-0.03545377828458547,0.027648475576677236,0.13524523841641936,0.010997971519827843,0.007383103343023284,5267.949627408409
1684378468189347028,222,1684378468189347028,camera_2,223,0,-0.41730152174807733,-1.9333395054952904,6.6681068739631435,0.9897927374690682,-0.03546028973836343,0.02885684555575463,0.13498217352573286,0.007232770163682289,0.0048590058096348015,5263.251726143411
1684378468195997953,223,1684378468195997953,camera_2,224,0,-0.41776518329672163,-1.932863777309303,6.672408703122506,0.9897303611733488,-0.0351846284711184,0.02931188054062719,0.13541295266773384,0.00657164806034416,0.004419631317627397,5256.471478932301
1684378468202760219,224,1684378468202760219,camera_2,225,0,-0.4173955101877426,-1.9288791544892867,6.664089635365715,0.9897938826712094,-0.03579456092170662,0.027781438865117827,0.13511110572287663,0.01882584614213556,0.012629865473911931,5272.858288976366
1684378468209329128,225,1684378468209329128,camera_2,226,0,-0.4181216295562014,-1.9263940056680957,6.668410130132956,0.9897397467257449,-0.035258561591107664,0.02867047082747372,0.1354624364475824,0.004276174178812653,0.002870927991804711,5267.934449679569
1684378468216143846,226,1684378468216143846,camera_2,227,0,-0.4184125822292139,-1.924737261719947,6.669016745588363,0.9897649280935215,-0.03563486306135072,0.02701741550830386,0.1355197509954794,0.00778547883965075,0.0052286593633909285,5269.376528494642
1684378468222761631,227,1684378468222761631,camera_2,228,0,-0.4185290252556627,-1.9223255295272172,6.667165935333769,0.9896057554816406,-0.035187800335829696,0.02769849794953705,0.13665672554424954,0.005672205414157361,0.0038068024286279957,5270.119701105868
1684378468229478120,228,1684378468229478120,camera_2,229,0,-0.4190648223602816,-1.920248283979434,6.67069514666753,0.9897322759056891,-0.03609905694206967,0.029418974165423686,0.13513476265377555,0.002620223502162844,0.0017584026882656106,5271.157500059344
1684378468236101627,229,1684378468236101627,camera_2,230,0,-0.41908292915783274,-1.9187992010110964,6.670100080974109,0.9898083003855982,-0.035603891146032615,0.030450150761417775,0.13447929112559337,0.006842184753622859,0.004588562966609059,5274.68828057195
1684378468242657423,230,1684378468242657423,camera_2,231,0,-0.41883177547661876,-1.9158038015124172,6.663428435476973,0.9892186310425742,-0.035564997451632906,0.028617590526268395,0.13914979147304452,0.005104341660626233,0.0034205913065912135,5272.59868550417
