%time,field.header.seq,field.header.stamp,field.header.frame_id,field.image_seq,field.transforms0.fiducial_id,field.transforms0.transform.translation.x,field.transforms0.transform.translation.y,field.transforms0.transform.translation.z,field.transforms0.transform.rotation.x,field.transforms0.transform.rotation.y,field.transforms0.transform.rotation.z,field.transforms0.transform.rotation.w,field.transforms0.image_error,field.transforms0.object_error,field.transforms0.fiducial_area
1683662780235072374,18,1683662780235072374,camera_2,20,0,-0.15968603027564118,0.9141838368025724,4.62359174341157,-0.7187625938455318,0.6852617537927871,-0.0895447424036938,0.0760157982601845,0.0028533875884022564,0.0008826574303034337,11612.26386517321
1683662780241807460,19,1683662780241807460,camera_2,21,0,-0.15975837077683103,0.9145931808426403,4.625633244082169,-0.7188055050624867,0.6855122586736764,-0.08818694809734526,0.0749309768070194,0.0062982469535199925,0.0019491377577049221,11610.099938184314
1683662780248319149,20,1683662780248319149,camera_2,22,0,-0.15966024403063125,0.9140465446939764,4.622702492914726,-0.7187045408998595,0.6855330216062419,-0.08962835366254411,0.07399336049322396,0.00893674859253224,0.0027634199796757585,11621.857875945976
1683662780255123853,21,1683662780255123853,camera_2,23,0,-0.15967004517294411,0.9141882115325624,4.623729536847993,-0.718903061171225,0.6854179826399887,-0.08881139740992121,0.07411554089708244,0.0018757084471872076,0.0005801249102142466,11619.524538832775
1683662780261736869,22,1683662780261736869,camera_2,24,0,-0.15968214093326105,0.9143249967267089,4.624205118669968,-0.7186982254790356,0.685618566629507,-0.08739529417301727,0.07590852615218865,0.010320295230485499,0.0031909687008863006,11617.558676525048
1683662780268313169,23,1683662780268313169,camera_2,25,0,-0.15969245016658024,0.9141931099597953,4.623795157569333,-0.7188199455599648,0.6854853826227235,-0.08803251958677653,0.07521935635826435,0.0034535251616034657,0.0010678493415342616,11619.107768754764
1683662780274980545,24,1683662780274980545,camera_2,26,0,-0.1596439351220221,0.9138734229124429,4.62207168335622,-0.7183080814015346,0.6856552558539699,-0.09140115435376212,0.07453991746623431,0.0012835777160944417,0.00039702971469883703,11616.698800041424
1683662780281635522,25,1683662780281635522,camera_2,27,0,-0.15966747544297727,0.9140487488572744,4.623108570001126,-0.718767634648289,0.6853017757280664,-0.08903337057469997,0.07620775872685873,0.005182205437449738,0.0016025000650152052,11616.135290240025
1683662780288414001,26,1683662780288414001,camera_2,28,0,-0.15978542740303717,0.9145802951084816,4.625647450478539,-0.7189863549241932,0.6854808155644585,-0.08796626798353666,0.07373336166861941,0.008062678971327841,0.0024948695451242195,11613.978911895012
1683662780295170307,27,1683662780295170307,camera_2,29,0,-0.15964378523210507,0.9140818838846644,4.623187714799932,-0.7187968171390657,0.6853902770257214,-0.08739733124732052,0.07702603663826695,0.003393787264940329,0.0010489218256736442,11619.596056876646
1683662780301831722,28,1683662780301831722,camera_2,30,0,-0.15968180676131255,0.9141584495807066,4.623525277250922,-0.7187496494068848,0.6853686768328994,-0.08936877974368157,0.0753786408800682,0.008184488615370356,0.002531503779532312,11615.010894246807
1683662780308442831,29,1683662780308442831,camera_2,31,0,-0.15962560965360453,0.9138802285410464,4.62220392275691,-0.7187073107524946,0.6852580166051078,-0.08911837021956026,0.07706599923935542,0.004923359549138695,0.001521872912973447,11617.966242111113
1683662780315029621,30,1683662780315029621,camera_2,32,0,-0.15970987867957584,0.9143427930382976,4.624477529302774,-0.718678169368412,0.6855042830601532,-0.08896342749062694,0.0753065425349839,0.006479719813796692,0.002004817012831567,11611.979765704338
1683662780321857929,31,1683662780321857929,camera_2,33,0,-0.15966683084546976,0.9142215948880108,4.624008834200913,-0.7186551238271175,0.6853853334087995,-0.08879043375762549,0.07679854567810639,0.002361808408750221,0.0007305755185296578,11610.926654674815
1683662780328270435,32,1683662780328270435,camera_2,34,0,-0.15966565510153027,0.9140480722041453,4.6231654740851145,-0.7186599711491423,0.6854398375314678,-0.08759184700123887,0.07763854282288338,0.004875834652921185,0.0015070918911347625,11617.25111015278
1683662780335118532,33,1683662780335118532,camera_2,35,0,-0.15970622821254687,0.9141624109408111,4.623532776447811,-0.7188426894157388,0.6852726123982236,-0.08852671875496548,0.07635217506359007,0.005337227848940529,0.0016503383597967734,11615.423204213816
1683662780341785907,34,1683662780341785907,camera_2,36,0,-0.15968336702455974,0.9141737553620861,4.623648374803849,-0.7187915328940994,0.6854316504705152,-0.08774351400588418,0.07631029106821463,0.006351699150400236,0.001963685559244992,11617.946750224448
1683662780348285913,35,1683662780348285913,camera_2,37,0,-0.15970698227976532,0.9144134406752065,4.624685972252106,-0.7186285417877549,0.6855274054600679,-0.08879688722263414,0.07576482106336523,0.0047266445035347715,0.0014624989592855625,11610.328088044891
1683662780355168819,36,1683662780355168819,camera_2,38,0,-0.15961227866669123,0.9137285966442268,4.621387337371731,-0.7186472588898772,0.6853739637290084,-0.08933798550777204,0.07633722209948966,0.005849906578077935,0.0018076815202751157,11623.205350679264
1683662780361795186,37,1683662780361795186,camera_2,39,0,-0.1597951927033211,0.9147323688561458,4.626400307351608,-0.7191954929106592,0.6852672906630206,-0.08665246164042627,0.0752192409959824,0.0059693865332519636,0.0018470510749538501,11611.145078581612
1683662780368446826,38,1683662780368446826,camera_2,40,0,-0.1596406745925369,0.9140369133711888,4.622951875485435,-0.7186605386824727,0.6854847932207536,-0.0892815722272341,0.07527568840171463,0.006865598348667845,0.002122960798180994,11618.516724749796
1683662780374953269,39,1683662780374953269,camera_2,41,0,-0.15971603132972356,0.9143005335259783,4.624266235642119,-0.7188956824617033,0.6851888600101482,-0.08940328198737414,0.07557960720856705,0.00761263225285802,0.0023554533905795626,11610.624227483699
1683662780381592512,40,1683662780381592512,camera_2,42,0,-0.15962237523467582,0.9138844811716276,4.622215271101766,-0.7186248431980282,0.685219545262882,-0.08995399004498478,0.07720614744517086,0.005409913457697257,0.0016727212823952216,11614.331069816686
1683662780388371944,41,1683662780388371944,camera_2,43,0,-0.15965966416225133,0.9141438145305871,4.623391908374092,-0.7186774316743969,0.6854259148721342,-0.08798836292386307,0.07714993463101068,0.012842531024944037,0.003970509127661593,11616.047563968872
1683662780395037412,42,1683662780395037412,camera_2,44,0,-0.15968803483969546,0.9142935964098028,4.6242932298662485,-0.718823069134775,0.6855612823982108,-0.08784530462278871,0.07471496377508877,0.0036192686966387555,0.0011192835108987877,11618.702057534072
1683662780401615858,43,1683662780401615858,camera_2,45,0,-0.15961452067841625,0.9138897998770359,4.622141833054044,-0.7185397776366036,0.6852203355923842,-0.08955021443957505,0.07845023096477656,0.00486773657030426,0.0015048602491726515,11612.72052611813
1683662780408510446,44,1683662780408510446,camera_2,46,0,-0.1597195774359488,0.9144269860411649,4.624691237984454,-0.7187687530299955,0.6855270387047692,-0.08810279135428266,0.07524664130683137,0.00938818919530604,0.0029041350429900117,11614.295236370843
1683662780415134429,45,1683662780415134429,camera_2,47,0,-0.15974050048518545,0.9143686554486165,4.624491715682031,-0.7188864302558118,0.6854056661295672,-0.08841925083557022,0.07485592370158042,0.009735787898534909,0.0030116614825079994,11615.130684406726
1683662780421876668,46,1683662780421876668,camera_2,48,0,-0.1596755022850796,0.9143532586263008,4.6244895600274525,-0.7188753625634383,0.6853862188119254,-0.08698387123095339,0.07679681183261296,0.008655662561068311,0.002676391764441006,11615.259610415556
1683662780428371191,47,1683662780428371191,camera_2,49,0,-0.15969303308220145,0.9143150042859958,4.6244551240408125,-0.7187713768640726,0.6855180207998209,-0.08805187550156442,0.07536324157226018,0.005335984140401706,0.0016504704111291854,11615.393524796411
1683662780435104370,48,1683662780435104370,camera_2,50,0,-0.1597302574376564,0.9143884211026418,4.624832002201325,-0.7186524937958627,0.6854647347613979,-0.0895266411998343,0.07524407667683998,0.0021251086436677724,0.0006577092250106419,11608.200863190985
1683662780441838264,49,1683662780441838264,camera_2,51,0,-0.1596015700162505,0.9136356470895225,4.620817943601494,-0.7184149871577444,0.6852184298118891,-0.09090822077497049,0.07804681331608958,0.007234012911794707,0.0022361357161052916,11615.26855332917
1683662780448554992,50,1683662780448554992,camera_2,52,0,-0.15967993826175556,0.9140501559030568,4.623069907792706,-0.7186548018806391,0.6854851014897397,-0.08813834625849412,0.07666213725378604,0.006219073984539136,0.0019224254153234791,11618.369727615616
1683662780455188751,51,1683662780455188751,camera_2,53,0,-0.15972029433106943,0.9144326584023194,4.624929890265958,-0.7187588356363058,0.6856056277701411,-0.08690060064598211,0.07601937234692469,0.006066035901312716,0.0018758997321517733,11615.436921390763
1683662780461880683,52,1683662780461880683,camera_2,54,0,-0.1597320428159068,0.9144677922152371,4.625181961329417,-0.7189850286906297,0.6855420989902347,-0.08741407014335426,0.07383318611417532,0.0040262190595967695,0.0012454234244543747,11618.171832464634
1683662780468418121,53,1683662780468418121,camera_2,55,0,-0.1596758051126375,0.9141790062824273,4.623645215955953,-0.7186121377418271,0.6855461839125324,-0.08860075173108681,0.07597981314646712,0.003900496434653178,0.0012062015995834155,11615.663396251333
1683662780475143432,54,1683662780475143432,camera_2,56,0,-0.15962852986627057,0.913700834085202,4.6213350605090735,-0.718707554696347,0.6851074599121881,-0.09107071418322159,0.07611402113425038,0.0027123008330818266,0.000838609430493754,11617.428602272557
1683662780481871366,55,1683662780481871366,camera_2,57,0,-0.15968034124140768,0.9141189380362671,4.6233666823410635,-0.7187925287897803,0.6854433490201438,-0.08859027864418452,0.07520956302085602,0.003570704036974348,0.0011040975638994149,11619.205883574114
1683662780488591670,56,1683662780488591670,camera_2,58,0,-0.15980647732114794,0.914848941866232,4.6267832694389845,-0.7187989251915752,0.6860509506803129,-0.08696386985854396,0.07141066834375323,0.01849244232289493,0.00572315090479298,11618.013922509886
1683662780495153427,57,1683662780495153427,camera_2,59,0,-0.15961338770305347,0.9138459228277537,4.621787984722405,-0.7184624449946027,0.685281934480723,-0.09130755296552123,0.07657229380255219,0.0081905402475968,0.0025331787826209894,11613.017106497744
1683662780501728534,58,1683662780501728534,camera_2,60,0,-0.15980664824853916,0.9148728704095221,4.62718178953835,-0.7190557073508588,0.6856273090060424,-0.08630563285911576,0.0736574545316124,0.005932890315307304,0.001836147951082387,11612.669440302034
1683662780508747577,59,1683662780508747577,camera_2,61,0,-0.15965513566162803,0.9140434362999821,4.62317719713212,-0.7185505042884672,0.6854111315035772,-0.08882026102986386,0.07750944992942634,0.00582309378660284,0.00180049516257587,11612.930558099704
1683662780515051603,60,1683662780515051603,camera_2,62,0,-0.1596920869088963,0.9142514732150313,4.624082651547247,-0.7186904055334344,0.6856079433844263,-0.08779903408681991,0.07561202666101799,0.002679765995708294,0.0008286344692694043,11617.466450692735
1683662780521711111,61,1683662780521711111,camera_2,63,0,-0.15969473876229573,0.9141309127180555,4.623334582200312,-0.718784790927945,0.6852200869192766,-0.09003567365351428,0.07560049128654807,0.006769140367396176,0.0020940144010771124,11612.794022621532
1683662780528379678,62,1683662780528379678,camera_2,64,0,-0.15962202788713242,0.913880640357557,4.622182516037541,-0.7186860022428331,0.6854858931679898,-0.08950126655072209,0.07475990726127521,0.0067150377726648,0.002075806106565855,11622.909842741414
1683662780534994840,63,1683662780534994840,camera_2,65,0,-0.15969670453650414,0.9143064370447752,4.624401865288882,-0.7189138838170318,0.6853693342519507,-0.08752352938948472,0.07596930383620507,0.0015664930106140673,0.00048442046688771664,11615.934876300395
1683662780541629076,64,1683662780541629076,camera_2,66,0,-0.15970552964983986,0.9142268145392141,4.62388557636628,-0.7188440701231912,0.6852986886435112,-0.08862717919667114,0.07598771808555527,0.011189171127625741,0.0034605843751412493,11614.335050221533
1683662780548350095,65,1683662780548350095,camera_2,67,0,-0.15974461037571686,0.9144194037500758,4.624848401687463,-0.7190030378434134,0.6852342614393452,-0.08760156270849362,0.07625355554102332,0.004330852287239395,0.001339561640455407,11612.58948507984
1683662780555032014,66,1683662780555032014,camera_2,68,0,-0.15971538693734577,0.9143507019378677,4.624572544706016,-0.7187580675709017,0.6856550273056373,-0.0876577768359347,0.07470032123378416,0.004945109729305841,0.0015293637270910093,11617.99500000209
1683662780561900377,67,1683662780561900377,camera_2,69,0,-0.15961207778289405,0.9137674414757238,4.621447285064919,-0.7186683058468877,0.6851841402032653,-0.0901731943048432,0.07685932093075916,0.009032292946358211,0.0027920166438668115,11618.299639453911
1683662780568776845,68,1683662780568776845,camera_2,70,0,-0.15973050248329193,0.9143769378779771,4.624625166762336,-0.7185765361886249,0.6854553589110985,-0.08841353837960077,0.07734183092230129,0.010111925323144533,0.003128137676220603,11607.634235160891
1683662780575177431,69,1683662780575177431,camera_2,71,0,-0.15968456160853156,0.9145014845112589,4.625124615613161,-0.7187913900208557,0.6856135273182452,-0.08694568442630568,0.07558754361507745,0.012208764237584546,0.0037761013118863033,11615.572943865263
1683662780582045555,70,1683662780582045555,camera_2,72,0,-0.15970133502505826,0.914121799187449,4.623472548031979,-0.7187442497464561,0.6854583673802231,-0.08869766697467076,0.07540725374984276,0.006217059548362158,0.0019224476784285686,11617.682788659355
1683662780588638067,71,1683662780588638067,camera_2,73,0,-0.1597094401069417,0.9141465394596688,4.623383783951067,-0.7187443069107841,0.6854459494242459,-0.089348428511177,0.07474844495916984,0.007668813879718072,0.0023717515836164252,11617.426113543594
1683662780595212697,72,1683662780595212697,camera_2,74,0,-0.15965860800282244,0.9140581789184603,4.62318149589502,-0.7186219890987774,0.6852884041802517,-0.0898477102454711,0.07674391730584668,0.00044345368223730475,0.00013716571592454314,11611.161387444761
1683662780601621866,73,1683662780601621866,camera_2,75,0,-0.15970882136197906,0.9143062948858605,4.624303321050647,-0.718827517709568,0.6853967703677666,-0.08764479496485623,0.07639801612937458,0.01223655759531539,0.003784080556573058,11614.805635494884
1683662780608317375,74,1683662780608317375,camera_2,76,0,-0.15974007649346786,0.9143672962479396,4.624636095901151,-0.7188184385825274,0.6855773905986695,-0.08821448346800825,0.07417478520474,0.007839207333745435,0.0024249381791990386,11616.993538125036
1683662780615232467,75,1683662780615232467,camera_2,77,0,-0.1597227299777915,0.9142821426874357,4.624118217448303,-0.7189395799219597,0.6851704426812166,-0.08905078586163717,0.07574498290373302,0.004830997102544643,0.0014945033360907014,11612.226746920813
1683662780621709585,76,1683662780621709585,camera_2,78,0,-0.15970104417007028,0.9143031910385739,4.624129165433117,-0.718857155279837,0.6854196478792284,-0.08793643252305525,0.07557433717349553,0.004449334446690045,0.0013759530522054035,11616.84467126543
1683662780628545045,77,1683662780628545045,camera_2,79,0,-0.15972276042586694,0.9145507172384453,4.625607875887151,-0.7190297184769823,0.6855628378326473,-0.08555156692015987,0.07537100720611631,0.0057279455504613,0.0017711238009069875,11618.763188075685
1683662780635028839,78,1683662780635028839,camera_2,80,0,-0.15972734806987257,0.9144930549941696,4.625315647220143,-0.7187796150412075,0.6855107458628014,-0.08720600786327057,0.07632820252299036,0.007440781657351181,0.0023017593902081887,11611.573305091617
1683662780641760587,79,1683662780641760587,camera_2,81,0,-0.15967758280743555,0.9142432475103502,4.624132011411894,-0.718875572214,0.6853557789653845,-0.08766982598812997,0.07628479221939563,0.0022288448526524007,0.0006892100589822562,11615.905637043641
1683662780648375272,80,1683662780648375272,camera_2,82,0,-0.1596413151304835,0.9141398697851921,4.62360035211381,-0.7187746754949824,0.6856099333019847,-0.08718612433252505,0.07550208572353649,0.005185343936318532,0.0016028042597112432,11622.534185359142
1683662780654996395,81,1683662780654996395,camera_2,83,0,-0.15972325112897462,0.9143549197594028,4.624652390590554,-0.7187594775378034,0.6856426674196489,-0.08870537147207079,0.07355476283188403,0.005571785353822634,0.001723824656538565,11616.727138293441
1683662780661746501,82,1683662780661746501,camera_2,84,0,-0.15966801044799678,0.9140581851142421,4.623005171275736,-0.7185190018166562,0.6856116800006985,-0.08919133492660816,0.07557760282666717,0.004487990488996729,0.001387801748499885,11617.748191872553
1683662780668350934,83,1683662780668350934,camera_2,85,0,-0.1597211591922028,0.9144415301084066,4.624877643376347,-0.7187169190894316,0.6855841311273135,-0.08754901996112634,0.0758653970189851,0.01032426925667096,0.0031933884111163156,11613.740241194611
1683662780675088167,84,1683662780675088167,camera_2,86,0,-0.1596841546479752,0.9141432711958172,4.623410579709507,-0.7186981673682943,0.6854514973801558,-0.08773655751141449,0.07701613750899171,0.012103903878596611,0.0037416274862114096,11617.191564762295
1683662780681739091,85,1683662780681739091,camera_2,87,0,-0.15965514505430026,0.9140313337563324,4.622909545226821,-0.7187012497539997,0.6852715985175959,-0.08886197763092506,0.0772974695491318,0.007338748502661474,0.0022689849765356704,11614.732332741061
1683662780688488960,86,1683662780688488960,camera_2,88,0,-0.1596567756655901,0.9140516888794403,4.622874172851001,-0.7187390283993778,0.68535432468141,-0.08969006872291606,0.07522865324120469,0.006830992002505809,0.0021124875068963024,11617.462129064897
1683662780694966077,87,1683662780694966077,camera_2,89,0,-0.15972840397921917,0.9143395947607809,4.624423875250596,-0.7189653661669214,0.6853056565812187,-0.08897869803370269,0.07434884401573973,0.005199407431064174,0.0016086229022692217,11614.736515696626
1683662780701870441,88,1683662780701870441,camera_2,90,0,-0.15968268932967972,0.9142850421977002,4.624097114690285,-0.7185420834309904,0.6854425624239209,-0.08960663175390712,0.07639646262819257,0.00721126857388299,0.00223124552690881,11608.469386423702
1683662780708444833,89,1683662780708444833,camera_2,91,0,-0.15971091484564315,0.9142275520152469,4.62400836645244,-0.7187290369429624,0.6852704350501311,-0.08976319202298444,0.07599718191545513,0.004089764042873867,0.0012654483963295189,11609.39600778843
1683662780715073585,90,1683662780715073585,camera_2,92,0,-0.1597033069284175,0.91440435121539,4.624810065034672,-0.7190184491609801,0.685383515803667,-0.0876893454252194,0.07464907721894742,0.0076701232173945755,0.0023725348464134666,11616.906198873823
1683662780721688747,91,1683662780721688747,camera_2,93,0,-0.1596623250023529,0.9141087560946275,4.623252307047728,-0.7186183496010503,0.6853962418535026,-0.08933901346224749,0.07640811438159002,0.0042597632855176926,0.0013174243927897037,11613.682619786385
1683662780728367090,92,1683662780728367090,camera_2,94,0,-0.1597285543028965,0.9143213277219085,4.62450958828653,-0.7187351275179618,0.6855533155689563,-0.08856674441908118,0.07478234930219563,0.007190194504801184,0.0022242829393048663,11614.68185135664
1683662780735123634,93,1683662780735123634,camera_2,95,0,-0.15967407130654448,0.9142102598253491,4.623810936810443,-0.7186676514079094,0.6854041656284316,-0.08902058289081392,0.07624481871453853,0.0030691196297993883,0.0009493050434160806,11612.532781275428
1683662780741937875,94,1683662780741937875,camera_2,96,0,-0.15962069180023092,0.9138745190223818,4.622109655045238,-0.7185604644687771,0.6853138540748043,-0.09033870676049986,0.0765160007867227,0.004899878564174287,0.001515147488528924,11615.307066363432
1683662780748709201,95,1683662780748709201,camera_2,97,0,-0.15966300766697147,0.9141013986275464,4.6233168259194795,-0.7189108234356308,0.6853374714719558,-0.08837802719188957,0.07529344229877766,0.004649033158784732,0.0014373955083584063,11620.052399620763
1683662780755157947,96,1683662780755157947,camera_2,98,0,-0.15973732644820243,0.9144878651472894,4.625169946894072,-0.7186608149229387,0.6857199851758184,-0.08872960003842499,0.07376851023163138,0.008099315906292759,0.002506356199337758,11613.467667437828
1683662780761807680,97,1683662780761807680,camera_2,99,0,-0.1596871721246656,0.9142855924267018,4.624109265824688,-0.7186520226520343,0.685474284655621,-0.0878653422902462,0.07709706244872636,0.00787686460535042,0.002435924535493047,11613.038694290917
1683662780768488407,98,1683662780768488407,camera_2,100,0,-0.15962475921573988,0.9138360944976586,4.621943393833798,-0.7187361264353537,0.6852019838251147,-0.08871616089497399,0.0777564448447059,0.004003021735115908,0.001237048859386722,11618.813653328889
1683662780775103569,99,1683662780775103569,camera_2,101,0,-0.15964597790333054,0.9140555694861547,4.623062605395064,-0.7189213625798025,0.6852215232558037,-0.08773487447723426,0.07698136328917755,0.001079802546883002,0.0003337590567411504,11619.097372325898
1683662780781705141,100,1683662780781705141,camera_2,102,0,-0.1596478950988755,0.9139014326484998,4.6222456466956485,-0.7184280141374425,0.6853546278551532,-0.08911741266577598,0.07879282543362155,0.0066463293333072215,0.0020544899029266727,11612.810666880363
1683662780788450479,101,1683662780788450479,camera_2,103,0,-0.1596947583517005,0.9144007095139187,4.62480833267093,-0.7187335360000158,0.6854620997094291,-0.08858099840176718,0.07561230596272572,0.00510934050544165,0.001580881959831649,11610.973642309404
1683662780795125246,102,1683662780795125246,camera_2,104,0,-0.15962473998756482,0.9138569338421686,4.622129091245082,-0.718741376785886,0.6853555200746533,-0.08897958085174734,0.07603471963897686,0.0038345033390214667,0.0011851726796359568,11621.711558036215
1683662780801943778,103,1683662780801943778,camera_2,105,0,-0.15974181122043934,0.9146269746570289,4.625921565283055,-0.7191369451203145,0.6855194609563342,-0.0859759451998716,0.07425132766589046,0.004325079076807015,0.0013377207114019804,11618.661625229808
1683662780808368444,104,1683662780808368444,camera_2,106,0,-0.15963998850024982,0.9138344599644086,4.622039855115019,-0.7186996636136548,0.6852729953787884,-0.08732024945473013,0.07903726564960506,0.010398493977845646,0.0032120900428313386,11619.859347541005
1683662780815299272,105,1683662780815299272,camera_2,107,0,-0.15966199141219858,0.9140569081691025,4.6230158381886985,-0.7186931469033571,0.6852834463651262,-0.08918868592483353,0.07689042225847252,0.006499410766991787,0.0020098277331366725,11614.112467471508
1683662780821866989,106,1683662780821866989,camera_2,108,0,-0.15962515440606703,0.9138348658821036,4.622012949398035,-0.7187214358190267,0.6853981058219885,-0.08898858757602753,0.07582852702704243,0.007743401059997268,0.0023932827768255753,11622.844669375892
1683662780828415393,107,1683662780828415393,camera_2,109,0,-0.15969606635678726,0.9141373073601557,4.623426701965422,-0.7186904477559358,0.6853750147754556,-0.08891703453032894,0.07641263243894261,0.00835966199520044,0.0025852051865308473,11614.355284960444
1683662780835135221,108,1683662780835135221,camera_2,110,0,-0.1597257873204514,0.9142655884987336,4.624105604397561,-0.7186913590360426,0.6855581467513234,-0.08866726534965232,0.07503914928376684,0.00833056824922096,0.0025767193623277896,11615.629509287184
1683662780841775655,109,1683662780841775655,camera_2,111,0,-0.15957880271848746,0.9136769459668864,4.621121264858634,-0.7185503782221987,0.6853197937512322,-0.09041993551096907,0.07646155577606305,0.0036061107966816057,0.0011146431516406733,11620.118843278906
1683662780848474264,110,1683662780848474264,camera_2,112,0,-0.15977565835491975,0.9146547713021279,4.625929399738722,-0.7188106612416069,0.6857570988486791,-0.08821954860435281,0.07256545946999403,0.003913164284313098,0.0012111403931027243,11614.695186953471
1683662780855085611,111,1683662780855085611,camera_2,113,0,-0.15966928915525208,0.9140795316768238,4.623094465226634,-0.7186583480197302,0.6854289466987441,-0.0884155859469659,0.07681160075572938,0.007472653131117113,0.002310237271052208,11616.830417595515
1683662780861829042,112,1683662780861829042,camera_2,114,0,-0.15973362387137485,0.9144157294144128,4.6247155144337295,-0.7188472293920585,0.6856202702659024,-0.08825545617841409,0.07344712554356651,0.020726905291667208,0.006411585447835227,11618.358617927122
1683662780868403434,113,1683662780868403434,camera_2,115,0,-0.15971365465334197,0.9143181248120338,4.624323742614223,-0.7188967955593119,0.6854687223182167,-0.08774400677860285,0.07497344418139827,0.003703134920215234,0.0011451706219863858,11618.180113450937
1683662780875117301,114,1683662780875117301,camera_2,116,0,-0.1597199557359805,0.9144166139418991,4.624960559365417,-0.7188223462237963,0.6855689700984007,-0.08794734473191211,0.07453111002890962,0.0020664272451540455,0.0006392622953461569,11615.452207015041
1683662780881660223,115,1683662780881660223,camera_2,117,0,-0.1597606787322547,0.9146876069720256,4.626059842601329,-0.7187188347816161,0.6857557709971354,-0.08866455281348871,0.07294419886916638,0.007850503345252946,0.0024302813435398874,11611.429712226234
1683662780888983488,116,1683662780888983488,camera_2,118,0,-0.15973338610681048,0.9144585505018543,4.625058388018088,-0.7189560158801479,0.6852555335116904,-0.08839746038825946,0.07558432389232075,0.006557572836754844,0.002029021820203374,11610.438927812967
1683662780894962787,117,1683662780894962787,camera_2,119,0,-0.15973921731662594,0.9145131235652331,4.6253782350310795,-0.7188761979282154,0.6855036563396321,-0.08721402663005821,0.07546828973973475,0.0021478666603798047,0.0006644174941634449,11613.536304850335
1683662780901864767,118,1683662780901864767,camera_2,120,0,-0.15969283872997758,0.9141537928500508,4.623496199978764,-0.7187867301845353,0.6852321206733675,-0.08794668627637592,0.07789709674377138,0.007006058396655135,0.0021659784325540428,11613.48561619606
1683662780908548116,119,1683662780908548116,camera_2,121,0,-0.15967127887748592,0.9142308190367243,4.623896895910773,-0.7190333416569371,0.6854149856179554,-0.08630280385489077,0.07582332835467291,0.005098786510643549,0.001575834003053098,11623.398847402772
1683662780915122747,120,1683662780915122747,camera_2,122,0,-0.1596542568937546,0.9140498759317874,4.6229042522683415,-0.7185241764093441,0.6854133555527846,-0.08955488201904824,0.07688603938102388,0.009119215654209256,0.0028201284479502054,11613.287206655777
1683662780922056198,121,1683662780922056198,camera_2,123,0,-0.15969334042980815,0.914303254147259,4.624283329840852,-0.7190063737837353,0.6852564520550122,-0.08782976667664252,0.07575857351393818,0.006401608174201101,0.0019797661703889456,11615.999080390407
1683662780928352594,122,1683662780928352594,camera_2,124,0,-0.15976656918115598,0.9146083672652896,4.62570967701152,-0.7188797576674869,0.6855722156201942,-0.08752537644447558,0.07444420503844465,0.005284898652462289,0.001635205902371518,11613.462739067854
1683662780935095071,123,1683662780935095071,camera_2,125,0,-0.15973602371333684,0.9144117183530335,4.62476522036721,-0.7187420787897895,0.6854147221910267,-0.08818399544546296,0.07642032274208437,0.005427021693321876,0.0016789415008659615,11610.404946772764
1683662780941794157,124,1683662780941794157,camera_2,126,0,-0.15972834899018912,0.9144101373207912,4.624725618832383,-0.7187657088041555,0.685428991562916,-0.08775143838741185,0.076567868151361,0.006925708701601252,0.002142159230130747,11611.788218194157
1683662780948394775,125,1683662780948394775,camera_2,127,0,-0.1597023397738887,0.9141740628989599,4.623637257206831,-0.7188567827004656,0.6854052897043119,-0.08866318586853796,0.07485555612327627,0.004832342325244099,0.0014944051844835513,11618.51287375769
1683662780955224514,126,1683662780955224514,camera_2,128,0,-0.15971862596822994,0.9143690995823964,4.62464093722965,-0.7186948124691985,0.6856915210003476,-0.08774663078441403,0.07486944199122236,0.0059074297023471445,0.0018271088528349587,11616.874425689337
1683662780961898326,127,1683662780961898326,camera_2,129,0,-0.1597408602092901,0.9146637603659125,4.626094630956392,-0.719060935165905,0.6855263127513169,-0.08744121214385044,0.07320574064055421,0.009747231655637734,0.003016331693833281,11615.187701786981
1683662780968553781,128,1683662780968553781,camera_2,130,0,-0.15964727331238254,0.9138961535858154,4.622212464845704,-0.7186257061044865,0.6854134402328289,-0.08966899107221107,0.07579566289781006,0.00564035442948807,0.0017437854670391928,11619.304506027689
1683662780975011587,129,1683662780975011587,camera_2,131,0,-0.15960428275719388,0.9138967065677074,4.621992084508808,-0.7185293045929285,0.6854251009331578,-0.08931168077889783,0.0770161874440782,0.013273186239530332,0.004102793156739552,11618.44998282683
1683662780981607675,130,1683662780981607675,camera_2,132,0,-0.15969610601692136,0.9141600827462182,4.623453298380858,-0.7186320908805922,0.6854051445633748,-0.08934749464639423,0.07618878502155277,0.010342845853301696,0.00319904654199428,11613.224406706955
1683662780988447904,131,1683662780988447904,camera_2,133,0,-0.15967661636831837,0.9140817468960981,4.622957440225444,-0.7186474283745518,0.6855254763901383,-0.08960524534828701,0.07464311700880906,0.007513595191994682,0.0023236055574189893,11618.92248393246
1683662780995052814,132,1683662780995052814,camera_2,134,0,-0.15969991051658758,0.9143233442854131,4.624491551289466,-0.7186224145632438,0.6855741190348359,-0.08746045263212586,0.07694557701574514,0.002573001926066354,0.0007956950572286823,11613.013446898258
1683662781001901865,133,1683662781001901865,camera_2,135,0,-0.15973530191763785,0.91418656293849,4.623623541417321,-0.7187390135257068,0.6854597536680829,-0.08960456103371746,0.07436517450621513,0.010286564312991686,0.0031820133217878655,11616.277979588078
1683662781008424520,134,1683662781008424520,camera_2,136,0,-0.15975251152131645,0.9145093750239827,4.625371790638962,-0.7189248614740943,0.6854309217429659,-0.08823114472265921,0.0744765746659433,0.0060775091260438785,0.0018806034183455355,11612.458004962476
1683662781015177249,135,1683662781015177249,camera_2,137,0,-0.15960345710113533,0.9138781381627425,4.621917092317235,-0.718488387830269,0.6853623730751981,-0.0903648063203277,0.07672715232877834,0.010990184935508296,0.0033980828999078077,11615.585197833825
1683662781021990299,136,1683662781021990299,camera_2,138,0,-0.15969374478386678,0.9142682959616344,4.624064971700298,-0.7190183522527404,0.6853923255948169,-0.08846174713842622,0.07365112648629177,0.0055767638550605625,0.0017248332834414288,11620.373732354783
1683662781028424739,137,1683662781028424739,camera_2,139,0,-0.15961779743018045,0.9138736487791584,4.6220646537494225,-0.7186945749338061,0.6852947539655058,-0.0894864341670626,0.07642896210296768,0.009341561264591292,0.0028878251340390803,11619.064458420853
1683662781034936666,138,1683662781034936666,camera_2,140,0,-0.15969680193925626,0.9142166979326505,4.623796055190186,-0.718419337609889,0.6855879472120298,-0.08848731746107114,0.07754235380943202,0.0068313904776005074,0.0021126810773068293,11610.977505532264
1683662781041980504,139,1683662781041980504,camera_2,141,0,-0.15968700807473057,0.9141410827635065,4.62335466324312,-0.7187274664165572,0.6852145709107076,-0.09033818269322098,0.07583425069042352,0.004877030543866567,0.0015088786001706453,11610.907540595745
1683662781048682689,140,1683662781048682689,camera_2,142,0,-0.15971559440857436,0.9143213405302082,4.624475720808254,-0.7188876160263812,0.6853698577435373,-0.08812526138937411,0.07551616996090559,0.00492152247170452,0.0015222397521298934,11614.537914933811
1683662781055274009,141,1683662781055274009,camera_2,143,0,-0.15971029881960785,0.9145602106634472,4.625520246234464,-0.7189809691400635,0.6854737503908961,-0.08726368691748582,0.0746803353301352,0.0055089683446567506,0.0017042632883452985,11614.821880871317
1683662781061943531,142,1683662781061943531,camera_2,144,0,-0.15968426920064793,0.9140797430305108,4.623133239254286,-0.7185765702879713,0.6855193988718155,-0.09011989129376514,0.07476143121156414,0.006005091694532894,0.0018575022194823765,11615.733035773625
1683662781068440675,143,1683662781068440675,camera_2,145,0,-0.15961240882722927,0.9138975581882872,4.622276365406205,-0.7184238145271059,0.6854515258046074,-0.08892994841816333,0.07819777980736446,0.00674994416476693,0.002086418008112893,11615.120239138894
1683662781075189828,144,1683662781075189828,camera_2,146,0,-0.15974352974637668,0.9144880810953896,4.625396510865024,-0.7188366759951852,0.685569930710606,-0.08816873211624371,0.07412137361559243,0.003715362152433954,0.0011497022781921816,11613.545961003021
1683662781081742763,145,1683662781081742763,camera_2,147,0,-0.15964094569707693,0.9139625389043243,4.622604033497955,-0.7186463368401638,0.6853222172422655,-0.08918133196984952,0.07699085093985139,0.0028242391272215173,0.0008731872083261783,11615.927018097631
1683662781088328361,146,1683662781088328361,camera_2,148,0,-0.15970916383280012,0.9142852653772673,4.624264904660864,-0.7188108825654088,0.6855563273207209,-0.08752871659713658,0.07524733182592533,0.0023059279046719894,0.0007130633067993143,11618.56875291443
1683662781095136404,147,1683662781095136404,camera_2,149,0,-0.1596450699212224,0.914231484970044,4.623978030201245,-0.7189504048227191,0.6853240365620552,-0.08753021252300613,0.07602461582419645,0.006585757349967025,0.0020363124884282408,11617.978885416465
1683662781101911783,148,1683662781101911783,camera_2,150,0,-0.15972748231498773,0.9144999497114608,4.625396086388043,-0.7188722395728383,0.6856072443727587,-0.08759361351138781,0.07411321411962828,0.0034602109080879018,0.0010704981656411018,11615.698399843295
1683662781108344078,149,1683662781108344078,camera_2,151,0,-0.1597568540090087,0.9145976204776816,4.625816889769692,-0.7189882950059554,0.6855799764335884,-0.08753380470216704,0.07330593831411414,0.006561094967764802,0.002030204575111085,11615.94418586223
1683662781115200281,150,1683662781115200281,camera_2,152,0,-0.1597527671994322,0.9146095333674085,4.625908792757966,-0.7190169930226362,0.6855879903945442,-0.08653051243325346,0.07413596690875048,0.0037056388828204945,0.0011463214137739973,11616.991593428305
1683662781122007608,151,1683662781122007608,camera_2,153,0,-0.1596296413702029,0.9138847884083323,4.622159456104428,-0.7187115838894275,0.6853375472917183,-0.08916569141870036,0.07625998248850649,0.004670246868045069,0.0014435874280273775,11620.2235404946
1683662781128432989,152,1683662781128432989,camera_2,154,0,-0.1596814572650685,0.9144130321006778,4.624705117739793,-0.7188507618304445,0.6855954287402691,-0.08729113162020205,0.07478468189877371,0.011781179448007606,0.0036435722609873167,11618.56512286712
1683662781135018825,153,1683662781135018825,camera_2,155,0,-0.15978450722120804,0.9149029145903127,4.627339869182949,-0.7191137311749229,0.6856892055329858,-0.08633341559118553,0.07247272868867934,0.005427859097835608,0.0016799943950988078,11614.906130511019
1683662781141661167,154,1683662781141661167,camera_2,156,0,-0.15969728628088087,0.9143453428897695,4.624483024260324,-0.7188981707428159,0.6856374770771223,-0.08759115507693337,0.07358301218515459,0.00557083246530965,0.0017227833657838382,11621.691583162
1683662781148357391,155,1683662781148357391,camera_2,157,0,-0.15972933552064578,0.9143946185785794,4.6247975362302824,-0.7186583502347602,0.6857665855078308,-0.08845236478498542,0.07369223163080174,0.010030965131591074,0.003103334256350405,11616.578756547879
1683662781155112028,156,1683662781155112028,camera_2,158,0,-0.15959667350496717,0.9137249621394097,4.621398209561764,-0.7187854942800479,0.6851586588273694,-0.09038239695576941,0.07573670026478199,0.00476183180580847,0.0014720210300819296,11620.867847315381
1683662781161775588,157,1683662781161775588,camera_2,159,0,-0.15966704507134985,0.9143161170895802,4.624111504699847,-0.7187354579938948,0.6854589216353979,-0.0875425423185098,0.07682259730805628,0.006627291746553965,0.0020492530153610423,11615.007015655836
1683662781168564319,158,1683662781168564319,camera_2,160,0,-0.15962828301590823,0.9138354150035277,4.621913628168395,-0.7184950070752464,0.6854012101753001,-0.09061298292896007,0.0760223205571351,0.002250325822387822,0.0006958515431218023,11616.570828141965
1683662781175207376,159,1683662781175207376,camera_2,161,0,-0.15966492378033986,0.9141486894640745,4.623630238721962,-0.7187939799867137,0.6853070666351364,-0.08849460941358736,0.07653850573104695,0.0013511071738321334,0.0004178141450867325,11614.631133188264
1683662781181931018,160,1683662781181931018,camera_2,162,0,-0.15976336356240667,0.9144807829343037,4.625171462467513,-0.7188082243852499,0.6856262640157891,-0.0859029415842698,0.07649867498882135,0.012234933354193345,0.003782631299422531,11616.473182371552
1683662781188385725,161,1683662781188385725,camera_2,163,0,-0.1597366637477225,0.9145935069656865,4.62569177857867,-0.7189203325552476,0.6855212559057928,-0.08770737499621693,0.0743073314772506,0.0060327977407723665,0.0018665998365787891,11613.231759168732
1683662781195186376,162,1683662781195186376,camera_2,164,0,-0.15967199845632657,0.9139674462842544,4.622539940189857,-0.7185115799534114,0.6853458527623796,-0.09068282023173926,0.0762810441005975,0.012614721985301003,0.003901776402339886,11612.406992148988
1683662781201663970,163,1683662781201663970,camera_2,165,0,-0.1596016383044032,0.9138117126421746,4.621787884287987,-0.7186635510502695,0.6853084252380746,-0.09025592405908908,0.07568970116050819,0.00377039254817646,0.0011656734097194041,11619.518859994245
1683662781208355903,164,1683662781208355903,camera_2,166,0,-0.1596283939784116,0.913942851451363,4.622449410529582,-0.7184615199342678,0.6854134536685413,-0.08980138431243709,0.07718259699876859,0.006851363446912728,0.0021185966921185,11613.825044105852
1683662781215174198,165,1683662781215174198,camera_2,167,0,-0.1595864268377985,0.9137900106328904,4.6214573961626,-0.718666015009769,0.6852512780004095,-0.08908709857483753,0.07754568805743522,0.0040925869543571025,0.0012646738902322718,11620.502307736897
1683662781221656322,166,1683662781221656322,camera_2,168,0,-0.15973971338634815,0.9143895993466484,4.62460850460589,-0.7187606318915404,0.6855129168404384,-0.08948780433473498,0.07380465949474911,0.00628047353529837,0.0019435696790213782,11613.314024544175
1683662781228522539,167,1683662781228522539,camera_2,169,0,-0.15960747853624055,0.9136519876029097,4.621043761646909,-0.7186113425663805,0.6852377141622888,-0.08921594853208963,0.07802261180007511,0.0027396365185268223,0.0008464374361656185,11620.665336627866
1683662781234951734,168,1683662781234951734,camera_2,170,0,-0.15960988795211323,0.9138249274900673,4.621750913348737,-0.718555395470459,0.6854666732808355,-0.08954877189422338,0.07612227606839528,0.010311786638339981,0.003187240650163128,11621.208036763503
1683662781242078065,169,1683662781242078065,camera_2,171,0,-0.15976103259540375,0.9144745962772747,4.6251775478245465,-0.7186412274566577,0.6856289519761417,-0.08900606963993224,0.0744690941192218,0.0031421749299624935,0.0009724492315905262,11610.488813710055
1683662781248430490,170,1683662781248430490,camera_2,172,0,-0.1597873421529923,0.9147066332029881,4.626413964086283,-0.718974467570329,0.6856353864208732,-0.0876627697524349,0.07276723623165622,0.004235279586282559,0.0013108988935325624,11613.848069833304
1683662781255234479,171,1683662781255234479,camera_2,173,0,-0.15965571625920866,0.9142014336102633,4.6236667957024995,-0.718594342226089,0.685446791344404,-0.08867667075222026,0.0769500852541323,0.013044930092291906,0.004034295364186978,11612.636455163622
1683662781261783123,172,1683662781261783123,camera_2,174,0,-0.1596228268555689,0.9139649353158449,4.622482762670775,-0.7189180483534304,0.685238122464441,-0.0886488388064474,0.07580856581792715,0.00817534010275267,0.0025269689773652045,11621.83392167621
1683662781268362045,173,1683662781268362045,camera_2,175,0,-0.15963988407010207,0.9140143776022102,4.6226729338443295,-0.7187855041155194,0.6855434229793714,-0.08783676936486078,0.07524836364114176,0.008912545017665252,0.002754282082480423,11625.410437642484
1683662781275061607,174,1683662781275061607,camera_2,176,0,-0.1596004798759247,0.9138285843596421,4.621785150365626,-0.71854595131638,0.6853777440918657,-0.08981744915991627,0.07669347805902155,0.012306518183322623,0.0038043227344537406,11618.47183592094
1683662781281702041,175,1683662781281702041,camera_2,177,0,-0.15965602246123517,0.9139491849854013,4.622513113479065,-0.7185694447851222,0.6855318020772654,-0.0884327499527995,0.07670560669002086,0.009686976627563126,0.0029940065250346837,11619.956106749778
1683662781288441181,176,1683662781288441181,camera_2,178,0,-0.1597081160257672,0.9143904458330477,4.624523449150425,-0.7187184089155552,0.6854666107721415,-0.08961797900470002,0.0744848443749431,0.009517180107650347,0.0029452630461375444,11611.48313599528
1683662781295486927,177,1683662781295486927,camera_2,179,0,-0.15968853790020995,0.9142960396118323,4.624196734240668,-0.7188001521211692,0.6855019370598269,-0.08745116886819781,0.07593239533555703,0.003539527751854621,0.0010944547120055794,11617.343216492209
1683662781301943540,178,1683662781301943540,camera_2,180,0,-0.15975394937954474,0.9145567280109423,4.625834497332905,-0.7190817009976079,0.6855161903796365,-0.08632077023708228,0.07441629286287955,0.0019277976680314168,0.0005963038697281986,11617.388768314153
1683662781308413505,179,1683662781308413505,camera_2,181,0,-0.15974155780202948,0.9146127582305823,4.625810111207687,-0.7188917301102562,0.6854781385319704,-0.08744139177427566,0.07528881044620726,0.006599817163078114,0.002042180518781637,11611.066757288963
1683662781315102577,180,1683662781315102577,camera_2,182,0,-0.15974985422841192,0.9145585961218379,4.625628841563749,-0.7191468659459251,0.6854368086901679,-0.08598712213008022,0.07490247873454302,0.007365543380728923,0.002277830401032069,11618.32827741286
1683662781321848869,181,1683662781321848869,camera_2,183,0,-0.15957182380344173,0.913530535365412,4.620426753250284,-0.7185220060570816,0.6851663681179816,-0.09133411027514546,0.07701464219204929,0.0044686423789244145,0.001381232253743956,11618.494387657875
1683662781328590869,182,1683662781328590869,camera_2,184,0,-0.15973125922770823,0.9143993201205926,4.624814472839226,-0.7189256652841379,0.6854211541915219,-0.08800708827489054,0.07482300178352451,0.0033575426932657138,0.0010386245814610257,11615.159720176945
1683662781335103273,183,1683662781335103273,camera_2,185,0,-0.15970996554588185,0.9143146632895215,4.6242269208809095,-0.7185558140767723,0.6854609171709287,-0.08920029967838629,0.07657793170974671,0.003787032750551589,0.0011716670747459867,11608.826687663855
1683662781341698884,184,1683662781341698884,camera_2,186,0,-0.15971422306479133,0.9144773931808449,4.625184624567265,-0.7188045983559479,0.6856255120058332,-0.08773622553358053,0.07443091695125127,0.004466564001631923,0.0013817933289942304,11615.398011739391
1683662781348605871,185,1683662781348605871,camera_2,187,0,-0.15977033820913772,0.9143998166482915,4.624794635379676,-0.7188699202377684,0.6855946489401454,-0.08878806397945303,0.07281960461828921,0.008247295598266646,0.002551694497781847,11617.538602952207
1683662781354991674,186,1683662781354991674,camera_2,188,0,-0.1596818506415419,0.914202066129529,4.623757178758254,-0.7189456009072085,0.6854107382631088,-0.08816511394530982,0.07454029442391259,0.0037322048447094858,0.0011540577719517885,11620.655347555934
1683662781361775398,187,1683662781361775398,camera_2,189,0,-0.1597674865025852,0.9147615574695885,4.626539404690923,-0.7193351872562695,0.6854231266900903,-0.08638276305684024,0.07273268879969963,0.0031964497466105968,0.0009890103257231334,11618.053915337716
1683662781368381500,188,1683662781368381500,camera_2,190,0,-0.15971369691398496,0.9143161515057954,4.624380390735436,-0.7188233495571092,0.6855933354719966,-0.0872613365845792,0.07510146220516077,0.009774232137715444,0.0030222891769648595,11619.366345407674
1683662781374955892,189,1683662781374955892,camera_2,191,0,-0.15968716147009404,0.9141078377022716,4.623331484842103,-0.7187426559985389,0.6855072814576721,-0.08876340617124706,0.0748987265683217,0.006028729476383887,0.0018641810419502902,11619.5499752262
1683662781381955623,190,1683662781381955623,camera_2,192,0,-0.15970234923393112,0.9144246096886914,4.624979018481135,-0.718898143852799,0.6854697793088892,-0.08689740770360978,0.07593076421066608,0.006409725072444417,0.0019822465803243134,11615.487353351054
1683662781388350725,191,1683662781388350725,camera_2,193,0,-0.1598493316773805,0.9150304639841953,4.627978348022748,-0.7191923322342202,0.6856783678313342,-0.08607369094474625,0.07210329306494108,0.003642748823040165,0.0011276776890084418,11613.529975795911
1683662781395233392,192,1683662781395233392,camera_2,194,0,-0.15965318912484783,0.9140742111294964,4.623147668691862,-0.7186955173990034,0.6854781361147836,-0.08830909378950667,0.07614448196197267,0.004097660043044016,0.001266829639826988,11618.840485348544
1683662781401888847,193,1683662781401888847,camera_2,195,0,-0.15972340741066016,0.9144222827943238,4.624899303830799,-0.718891894629281,0.6854412641546057,-0.08772418510278276,0.07529398766509632,0.004036319398437627,0.0012485215482530142,11614.521233448584
1683662781408796072,194,1683662781408796072,camera_2,196,0,-0.15964355773379635,0.9140771216095003,4.623079209467579,-0.7186913608403297,0.6852219550684344,-0.09036343302949054,0.07607923577949673,0.004044590154080652,0.001251223884776312,11611.57740241452
1683662781415528297,195,1683662781415528297,camera_2,197,0,-0.1596620460161184,0.9139902304957226,4.622704319699446,-0.7186741437813069,0.6852900333993346,-0.08982774639883528,0.07626284259487649,0.00365982145012822,0.0011317639240104164,11614.933844279352
1683662781421787977,196,1683662781421787977,camera_2,198,0,-0.1597725374328056,0.9145969171517939,4.625777450892161,-0.7187868960161906,0.6855730165317054,-0.08804586093586984,0.0747192310659679,0.0036956981639377773,0.0011437139730601253,11610.443433267676
1683662781428507566,197,1683662781428507566,camera_2,199,0,-0.1596252588586466,0.9137941304860508,4.621758413147845,-0.7188052449451894,0.6852903362907106,-0.08954197116857082,0.07535522692619386,0.0021824733266839758,0.0006745808995371719,11623.285017855
1683662781435101747,198,1683662781435101747,camera_2,200,0,-0.15968956915345744,0.9140933146247556,4.623162750056862,-0.7187116370011466,0.6855873010554079,-0.08825637557405129,0.07506295785023179,0.006861416433821432,0.0021211949906792013,11621.856426872893
1683662781441871643,199,1683662781441871643,camera_2,201,0,-0.15962335710294878,0.9138915895248111,4.622125475073552,-0.7185525504032579,0.6854473314041978,-0.090577287270777,0.07509955532827436,0.004295409278711304,0.0013283252967711597,11618.175101350065
1683662781448552846,200,1683662781448552846,camera_2,202,0,-0.1596714140642126,0.9140116651845874,4.622857475572358,-0.7186908869298168,0.6853936013878682,-0.08855999060565226,0.07665603880013908,0.005267375076073222,0.0016282878682042,11617.861227151
1683662781455281734,201,1683662781455281734,camera_2,203,0,-0.15964480703856387,0.9138956108923142,4.622134526519289,-0.7187216950162255,0.6853598035296349,-0.08869927400390262,0.07650819309070428,0.008368998620426282,0.002586466522730586,11621.407690359052
1683662781461773157,202,1683662781461773157,camera_2,204,0,-0.15977726070294537,0.9147241494650302,4.626260291092495,-0.7189415500973638,0.6857317368225788,-0.0865751112182565,0.07348321424268016,0.0075841489306185395,0.002346438699734791,11616.751353227912
1683662781468539953,203,1683662781468539953,camera_2,205,0,-0.15965164626827666,0.9141685688676708,4.623541501804323,-0.7188196347616398,0.6853129343619745,-0.08839430327301263,0.07636073484587247,0.0033070490462705493,0.0010225868594300309,11615.954303530536
1683662781475126504,204,1683662781475126504,camera_2,206,0,-0.1595843208251701,0.9137111101482424,4.621256698942294,-0.7186858839838928,0.6853529929420699,-0.08979211225908683,0.07562573506214365,0.005470983131090179,0.0016908099306958539,11624.149837489791
1683662781481829643,205,1683662781481829643,camera_2,207,0,-0.15968042850597436,0.9142229900307678,4.623887146636836,-0.7187472050647509,0.6854673115556478,-0.08778174268144502,0.07636350995135183,0.007701641094172373,0.0023813853030198034,11616.49599370593
1683662781488476991,206,1683662781488476991,camera_2,208,0,-0.1597687134859508,0.9145443867049325,4.625551100272857,-0.7189512533611261,0.6855802993103198,-0.08826014430786754,0.07279351217514321,0.0021729956788476557,0.000672453868016754,11615.853653494622
1683662781495186805,207,1683662781495186805,camera_2,209,0,-0.15977121367851382,0.9145323124602003,4.625553879812439,-0.7187824380461645,0.685560090309162,-0.0876173299339318,0.07538151515427337,0.0036060774873476475,0.0011157346718138105,11611.374277285619
1683662781501878023,208,1683662781501878023,camera_2,210,0,-0.15961071918552264,0.913858229575687,4.621963176324299,-0.7186814132933167,0.6852975449777611,-0.08923303602611769,0.0768229543543861,0.010134303898666985,0.0031324289048010774,11619.431039159683
1683662781508616685,209,1683662781508616685,camera_2,211,0,-0.15963954879251321,0.9139543560988357,4.622451090593783,-0.7186504768811264,0.6851834857503815,-0.08851362944868973,0.07893301169540225,0.005439605636638589,0.0016813215759994542,11613.688825789786
1683662781515014886,210,1683662781515014886,camera_2,212,0,-0.15967076764200835,0.9142629162431724,4.623959175850022,-0.7187113037109683,0.6853527571746582,-0.08869871457532558,0.07666940839643681,0.0037987158430041745,0.001174994428535881,11611.874327105645
1683662781521670341,211,1683662781521670341,camera_2,213,0,-0.15960514706680035,0.9136685126415015,4.621172463598708,-0.7185466338115052,0.6851475806619624,-0.09083654907997352,0.07753869422717924,0.0011971187923336402,0.00037008749483368863,11615.204292768962
1683662781528602123,212,1683662781528602123,camera_2,214,0,-0.15964964700540718,0.9141094762855313,4.623299982525759,-0.7185399269528545,0.6854721047784105,-0.08831173802412481,0.0776492361353331,0.003251693517086096,0.0010053530665766748,11613.863965768942
1683662781535353899,213,1683662781535353899,camera_2,215,0,-0.1595698718363285,0.9135781687126685,4.620501683709323,-0.7184452360319952,0.6853690722681179,-0.09053748762310256,0.07686768460261256,0.006389560061506927,0.0019745458693807816,11621.627522745399
1683662781541952848,214,1683662781541952848,camera_2,216,0,-0.15968669681990777,0.9141208314444635,4.6234242610677025,-0.718655474763546,0.6854599203795765,-0.0891576507156905,0.07569623150769048,0.006603428366361186,0.0020422347193253102,11615.433608563555
1683662781548502922,215,1683662781548502922,camera_2,217,0,-0.15961377601042182,0.9138146635443043,4.6217241503108735,-0.7183734769883154,0.6854928398031197,-0.08974104697769103,0.07736703836725776,0.0069407234113896266,0.002145418197966916,11617.129006360188
1683662781555124759,216,1683662781555124759,camera_2,218,0,-0.15975745070265376,0.9144758977876837,4.625283615852281,-0.7188556390746668,0.6857500020511098,-0.08669198777178627,0.07401354006958291,0.003763069093110971,0.0011638349968615517,11619.82535948249
1683662781561884403,217,1683662781561884403,camera_2,219,0,-0.15968141384241924,0.9141778486518473,4.623557850958798,-0.7188735835935242,0.685653785772993,-0.08777707817036955,0.0734495841679191,0.014613028455642052,0.004517433887738685,11625.96912709624
1683662781568964719,218,1683662781568964719,camera_2,220,0,-0.15962209067734576,0.9140967771141051,4.623189288010201,-0.7187722126042478,0.6852627418445884,-0.0881681903290452,0.07751032990339102,0.00989460056007374,0.0030589921676250887,11615.416321982486
1683662781575260877,219,1683662781575260877,camera_2,221,0,-0.15974817284029408,0.9144463377686429,4.624856837047512,-0.7190015878395485,0.6853776365869502,-0.08794776461330547,0.07456140187937192,0.013407678125076927,0.004147529175187503,11615.863967583282
1683662781581985712,220,1683662781581985712,camera_2,222,0,-0.1596397716261225,0.9139625207512299,4.622619175162566,-0.7186123677083442,0.6852956305400805,-0.08950838940024541,0.07716483633271821,0.00469047119258903,0.001450326535033004,11614.119049460249
1683662781588820695,221,1683662781588820695,camera_2,223,0,-0.15969959586617036,0.9141947008142483,4.623729733754312,-0.7189042419345757,0.6854269302514234,-0.0873546320844502,0.07573494878834856,0.009166122777969576,0.002833483156646293,11620.539132585223
1683662781595622062,222,1683662781595622062,camera_2,224,0,-0.15960671712502567,0.913740360286502,4.62141425406691,-0.7187336566842704,0.6852523967250285,-0.08848706221512327,0.07759589778073772,0.003810609545325861,0.001177261414253682,11622.805873309493
1683662781601793289,223,1683662781601793289,camera_2,225,0,-0.15971946732035294,0.9143939766755902,4.624681147622517,-0.7188070650595955,0.6854210585594582,-0.08880348966044975,0.07502210292819515,0.0049427619960624725,0.0015293063844587682,11612.314266044326
1683662781608448266,224,1683662781608448266,camera_2,226,0,-0.1596517631810584,0.9141010398964895,4.623164108337179,-0.7185861106037993,0.685379521283736,-0.0892868086587528,0.07692060355793306,0.006855029467260465,0.002120042806182731,11612.937318368058
1683662781615043401,225,1683662781615043401,camera_2,227,0,-0.1598981574587692,0.915265907645308,4.628939506863523,-0.7189294520638818,0.6861292369383227,-0.08592637605953596,0.07059582899036622,0.01099459380202461,0.0034046106519502474,11612.976377859244
1683662781621841907,226,1683662781621841907,camera_2,228,0,-0.15970993165599628,0.9144453061503584,4.625057101455498,-0.7186540376820518,0.6854613424489663,-0.08820341378076342,0.07680677007116382,0.01070597450598143,0.0033124411510112644,11607.835518535314
1683662781628416776,227,1683662781628416776,camera_2,229,0,-0.1595716967204823,0.9136967577804664,4.62119127775773,-0.7187050979158107,0.6854691646900458,-0.0878553466418259,0.07665797124500823,0.006865679475595243,0.0021204054945742623,11628.939168639281
1683662781635256290,228,1683662781635256290,camera_2,230,0,-0.15970667994789137,0.9142810478193957,4.62409948026207,-0.7187753346270913,0.6853868669000017,-0.0874089636784597,0.07724334328192908,0.008967040732386522,0.0027725782230239937,11614.338515006264
1683662781641749620,229,1683662781641749620,camera_2,231,0,-0.15967365844082615,0.9141462089796757,4.623552102806055,-0.7186677193235418,0.6855116216198838,-0.08813735416713041,0.07630421106855108,0.002168934472138062,0.00067059197856562,11616.960256140675
1683662781648336172,230,1683662781648336172,camera_2,232,0,-0.15967628192063982,0.9139969325880045,4.622812160611121,-0.7188059684139881,0.6853492731573853,-0.08772024937744542,0.07693836107060693,0.00701348195434548,0.0021674856558189614,11620.463277967094
1683662781655008792,231,1683662781655008792,camera_2,233,0,-0.15963783569532464,0.9139399613529391,4.6224082537840445,-0.7185601474121756,0.6854818403845743,-0.08943792813655994,0.07607113818399958,0.0020586951141012833,0.000636486184745161,11618.463174665576
1683662781661701679,232,1683662781661701679,camera_2,234,0,-0.15969582318055708,0.9143402946199721,4.624376973015337,-0.7184746774529418,0.6857873146527882,-0.08820202976983038,0.07556651946921389,0.007191728145699017,0.002224491366036806,11614.646263687435
1683662781668367147,233,1683662781668367147,camera_2,235,0,-0.1597547566646208,0.914673144994013,4.626085042136076,-0.7188273427267433,0.6855574486496336,-0.08805276887198382,0.07446439312444016,0.010781570308608934,0.003337115228667913,11609.621929077632
1683662781675542116,234,1683662781675542116,camera_2,236,0,-0.1596308046521412,0.913971190539841,4.622602173595158,-0.7186121147492953,0.6854541569313756,-0.08825957424459009,0.07719763490681907,0.002757429363555275,0.0008522475263077676,11618.814634052018
1683662781681664228,235,1683662781681664228,camera_2,237,0,-0.15960733301170174,0.9135842947775538,4.620675822115372,-0.7185677065296804,0.685277616031474,-0.08978493207611038,0.07741902912710161,0.007002398386248387,0.002163515264325412,11622.048931008721
1683662781688615083,236,1683662781688615083,camera_2,238,0,-0.1596328118621845,0.914001663778574,4.62269362368036,-0.7186143046227306,0.6854981688191552,-0.08888261906616717,0.07606327474618113,0.00888768098957371,0.002747684782396808,11619.198075144344
1683662781695272445,237,1683662781695272445,camera_2,239,0,-0.1597161156583595,0.9142923505696698,4.6243647733792566,-0.7186323815697385,0.6856069650800476,-0.08803167854751535,0.07590133836263435,0.006265920164878481,0.0019379588805381303,11614.395846201456
1683662781702105283,238,1683662781702105283,camera_2,240,0,-0.15965759690699102,0.9142439476782878,4.623878123373254,-0.7187760829921858,0.685653536052055,-0.087207807138717,0.0750664331894106,0.010550960738328286,0.0032618081951932072,11622.24726412143
1683662781708443641,239,1683662781708443641,camera_2,241,0,-0.15960854327928298,0.9137494670919055,4.62150303409167,-0.7186130335510661,0.6851636624181326,-0.09017652878955353,0.07755164323063994,0.004104031890165061,0.0012686628509884364,11616.070729154279
1683662781714985609,240,1683662781714985609,camera_2,242,0,-0.1597202637951809,0.9142207813588357,4.623984225210412,-0.7188970812906672,0.6853387021386634,-0.08809744772034281,0.0757409371992044,0.008564412215491757,0.00264835667914735,11616.4576677953
1683662781721698045,241,1683662781721698045,camera_2,243,0,-0.15982453546712294,0.9150149082876063,4.627862458878218,-0.7192867614749721,0.685506042504133,-0.08583389037303997,0.07307916064513358,0.005230463109910488,0.0016190144923156863,11612.508512287252
1683662781728398084,242,1683662781728398084,camera_2,244,0,-0.15977499284723073,0.9146047113963716,4.625722775990541,-0.7189303620174984,0.6854192044405003,-0.08806994242572946,0.07472171033019201,0.005517503144801594,0.0017075335605702298,11610.643581981127
1683662781735093593,243,1683662781735093593,camera_2,245,0,-0.15964268160123857,0.9138015789311155,4.621750425018997,-0.718621352857564,0.6852605570723617,-0.09059518040939296,0.07611723474109192,0.008629234143882059,0.002668102410648263,11617.176554150763
1683662781741629123,244,1683662781741629123,camera_2,246,0,-0.15970291289411415,0.9142874282747543,4.624162760638467,-0.7187976673998763,0.6855529897903738,-0.0881389425516209,0.07468961330639488,0.0055961274629225954,0.0017306530615776234,11618.282255537692
1683662781748316049,245,1683662781748316049,camera_2,247,0,-0.15961387079759137,0.9138931159691008,4.62216827701934,-0.7187266643147465,0.6854689780177444,-0.08819523860055768,0.07606485434481126,0.004005589784355834,0.0012377672894169837,11624.396579588616
1683662781755143165,246,1683662781755143165,camera_2,248,0,-0.15966084558593824,0.9139782892261229,4.622525164038285,-0.7188894459398559,0.6850859662486551,-0.08994602811357807,0.07592690822116316,0.004991387671907432,0.0015435436696764528,11616.341237472312
1683662781761729717,247,1683662781761729717,camera_2,249,0,-0.1597695514081558,0.9147793307436684,4.626459673222325,-0.7190938112168805,0.6856449911546627,-0.08738765412574295,0.07182224363317917,0.010433122079120949,0.0032290000103053227,11617.092891556706
1683662781768318176,248,1683662781768318176,camera_2,250,0,-0.15960797490307588,0.9137169246564787,4.621284823694107,-0.7186167178115834,0.6850215046010517,-0.09044061692706759,0.07846047365183169,0.011137437555589713,0.0034429083921264166,11613.57646373113
