%time,field.header.seq,field.header.stamp,field.header.frame_id,field.image_seq,field.transforms0.fiducial_id,field.transforms0.transform.translation.x,field.transforms0.transform.translation.y,field.transforms0.transform.translation.z,field.transforms0.transform.rotation.x,field.transforms0.transform.rotation.y,field.transforms0.transform.rotation.z,field.transforms0.transform.rotation.w,field.transforms0.image_error,field.transforms0.object_error,field.transforms0.fiducial_area
1683169284287365198,10,1683169284287365198,camera_2,10,0,-0.0577380382308092,0.9195811249188902,4.6410117760123235,-0.7170459788737241,0.6910586501437607,-0.06377237502295273,0.06493142864929369,0.008952548378147185,0.0027822211594605716,11640.121405324437
1683169284306605815,11,1683169284306605815,camera_2,11,0,-0.057742991529927554,0.9193878949068336,4.640090941129916,-0.7169379836147415,0.6910232887850781,-0.06384071696238348,0.06641614912664025,0.00915947079192847,0.0028454896738087554,11639.8575583112
1683169284326150894,12,1683169284326150894,camera_2,12,0,-0.057721465463685194,0.9192959802352064,4.639706100701597,-0.7169723235312014,0.6909625482943185,-0.06479746215430993,0.06574749457776184,0.010547298297751695,0.0032769121102195803,11640.716812894685
1683169284345680475,13,1683169284345680475,camera_2,13,0,-0.05772669641603569,0.9196383174750953,4.641205193592524,-0.7169661128608001,0.6910873465916977,-0.0642131544186717,0.06507336774537782,0.007858478231355548,0.0024427196295316754,11637.215271098532
1683169284364799737,14,1683169284364799737,camera_2,14,0,-0.057740481246325276,0.9193249143674332,4.639850596985738,-0.7171450295575686,0.6909692628662424,-0.06394469882830835,0.06461857199530648,0.010183915961533785,0.003163437322448712,11646.368547779046
1683169284384138822,15,1683169284384138822,camera_2,15,0,-0.057706669342842645,0.9194599995067981,4.64049567927322,-0.7170586187886018,0.6910200785765013,-0.06344440383848039,0.06552095730900535,0.004026037291623652,0.0012508184085521256,11642.058863244016
1683169284403826236,16,1683169284403826236,camera_2,16,0,-0.057703633909514426,0.9193399807874466,4.6398836260103895,-0.7167875133380667,0.6910348152860467,-0.06462779750869063,0.06715498919950927,0.006935757177416235,0.0021549485427901664,11635.95492737973
1683169284423208951,17,1683169284423208951,camera_2,17,0,-0.0577273552156505,0.9193575788202457,4.6399869872187525,-0.7169695498716908,0.6910285059375111,-0.06487672700816247,0.06500214482049674,0.0059767988859675825,0.0018572468267156654,11641.352236133995
1683169284442602396,18,1683169284442602396,camera_2,18,0,-0.05776288750693052,0.9195269393276687,4.640781821148319,-0.7170403245690066,0.6911514620874746,-0.06280966691069492,0.06494440036591084,0.011984960292465985,0.0037232488387867893,11644.411897757087
1683169284461721658,19,1683169284461721658,camera_2,19,0,-0.05774503362566902,0.9199204859017636,4.642707606688492,-0.7172017683599486,0.6909666980351261,-0.06320902782313158,0.06473997582214654,0.005153723352123052,0.0016026118108423406,11634.122039680373
1683169284481345891,20,1683169284481345891,camera_2,20,0,-0.05773463556496436,0.9195583689430951,4.64110935040173,-0.7169795111698687,0.6911648231193718,-0.06361571278574416,0.06468855332858851,0.0071547747938893735,0.002223498743191639,11641.005529667718
1683169284500617504,21,1683169284500617504,camera_2,21,0,-0.057733617229761475,0.9195564564481895,4.640913465639517,-0.7169426948086702,0.6911598071666571,-0.06421348494405839,0.0645594429124861,0.012371633376460522,0.003845071231524333,11640.273381261153
1683169284519752740,22,1683169284519752740,camera_2,22,0,-0.05773912583479934,0.9196830163563132,4.6416402016390705,-0.7169528383808024,0.6911078668160681,-0.06409506311677986,0.06511809922526343,0.006823622796218842,0.002121395816678063,11635.36715056864
1683169284538799047,23,1683169284538799047,camera_2,23,0,-0.0577097316890751,0.9194254744460839,4.640476914847994,-0.7170822527489582,0.6909728729446627,-0.06335777917989042,0.06584317325638608,0.004229943500831723,0.0013141225456926276,11641.491677392503
1683169284558100938,24,1683169284558100938,camera_2,24,0,-0.057673424126750736,0.919270430887724,4.639499611294971,-0.7169914772510728,0.6909941757571463,-0.06338295851224975,0.0665798106730651,0.006185522070154548,0.0019208865226427627,11643.909141967073
1683169284577070474,25,1683169284577070474,camera_2,25,0,-0.057725541963087164,0.9193651233591935,4.639998359591604,-0.7169695945006752,0.6910859520150937,-0.06351975313795552,0.0657270754729158,0.007172908517532051,0.0022280226706400197,11643.609770016741
1683169284595659971,26,1683169284595659971,camera_2,26,0,-0.05776670291135436,0.9200051319782632,4.643064585366818,-0.7172051259140367,0.6911651607285864,-0.06177142867659543,0.06396732413435945,0.008652355172671378,0.002689824819449151,11639.37019409705
1683169284614762067,27,1683169284614762067,camera_2,27,0,-0.05774795342592802,0.919565981939577,4.641091697129449,-0.7172177132584723,0.6909109930625525,-0.06309845532993023,0.06526359160038799,0.006710359652061015,0.0020850931173626262,11641.00916946377
1683169284633537054,28,1683169284633537054,camera_2,28,0,-0.057737200614822994,0.9194035244211278,4.640120309792043,-0.7169854577386622,0.6909623733510263,-0.06517859595888946,0.06522731508521462,0.004460291122086346,0.0013862052204627628,11638.923436960202
1683169284652242660,29,1683169284652242660,camera_2,29,0,-0.05773157386187367,0.9195182375831122,4.6407523036443115,-0.7170446058011358,0.691107284541352,-0.06350728981149686,0.0646883195497555,0.008810557308606803,0.0027375758328690636,11643.08578018611
1683169284671329736,30,1683169284671329736,camera_2,30,0,-0.05770273862859235,0.9190527940855391,4.638396074263725,-0.7168410181706553,0.6908744140031353,-0.06650297347244638,0.06639919625421599,0.004580315086059272,0.0014230215830764842,11639.336758538613
1683169284689717769,31,1683169284689717769,camera_2,31,0,-0.05773373997054912,0.9196189257435539,4.64141514528768,-0.7170880679803796,0.6911010696963734,-0.063530327578386,0.06424882646771084,0.01023827790049836,0.0031820633717495623,11641.105245651212
1683169284708703517,32,1683169284708703517,camera_2,32,0,-0.05770370336731946,0.9194122664496976,4.64024888682198,-0.7171003724617374,0.6909685187626188,-0.06307891988132841,0.06595916737524153,0.006718812568578869,0.0020869454762962388,11643.12796258135
1683169284727613925,33,1683169284727613925,camera_2,33,0,-0.05771374790695647,0.9194104225738172,4.64026832279087,-0.7168036520044911,0.6909772608048571,-0.06454806905132843,0.06764980639577488,0.010408528556581587,0.0032343768663588308,11632.698827927932
1683169284746213674,34,1683169284746213674,camera_2,34,0,-0.05768220043882832,0.9192999525955545,4.639625009914058,-0.7169087276917476,0.6908820422753604,-0.06471610670042098,0.0673476454997986,0.007832775940187275,0.002433483826518841,11636.31533748284
1683169284765154123,35,1683169284765154123,camera_2,35,0,-0.05773898250953195,0.9194441510895136,4.640420466797866,-0.7169960758093228,0.6909494255950778,-0.06506226881170382,0.06536374928764209,0.006618574028834701,0.0020571551256555877,11637.417441216061
1683169284783900022,36,1683169284783900022,camera_2,36,0,-0.05768527353378227,0.9193369103412029,4.639927554885399,-0.7168589349688,0.6911543204046245,-0.06384812517795677,0.06589681064117679,0.007005558465607464,0.002176170869685868,11642.396254798168
1683169284803107023,37,1683169284803107023,camera_2,37,0,-0.05774499726568198,0.9194860837872245,4.64060429596912,-0.7171143191473514,0.6910430632242027,-0.06214722380768496,0.06591100527634741,0.012385008158162236,0.0038464422621292105,11644.50493121333
1683169284821773290,38,1683169284821773290,camera_2,38,0,-0.05776757055410713,0.919822846481479,4.642219545484673,-0.7171579763377066,0.6911030309014066,-0.06300654544874762,0.06396258972798048,0.007982286508195102,0.002481459391332994,11639.582177340984
1683169284840584754,39,1683169284840584754,camera_2,39,0,-0.0577441173864752,0.9196120290867787,4.641249395878033,-0.7171380508834346,0.691057374171726,-0.06358028688088929,0.06411137729086133,0.01096514833625406,0.0034077784038723346,11642.125823419075
1683169284859380722,40,1683169284859380722,camera_2,40,0,-0.05772637124418731,0.9196425427015504,4.641307958693562,-0.7171094163197679,0.6909685593584063,-0.06415800369760494,0.06480961013020123,0.00928934122202918,0.002887589463377732,11637.725356140876
1683169284878175497,41,1683169284878175497,camera_2,41,0,-0.05776210517647551,0.9198638151653691,4.642505892319919,-0.7170178455017981,0.6912841468990272,-0.06308135822093444,0.06350102143309275,0.008722800354007632,0.0027119723520918687,11639.346553970596
1683169284897319316,42,1683169284897319316,camera_2,42,0,-0.05767487375498106,0.9189551086864977,4.637890750474176,-0.7167513682026629,0.6909496389153146,-0.06542124056446637,0.06764712813869772,0.006524213764350861,0.0020258507707904463,11641.626372938277
1683169284916280269,43,1683169284916280269,camera_2,43,0,-0.05769409369269205,0.9194016245713885,4.640133134615316,-0.7169147944510247,0.6910778690402921,-0.06488037437110743,0.06507759554131493,0.008127339999191463,0.00252564312089653,11640.366461539641
1683169284935066223,44,1683169284935066223,camera_2,44,0,-0.05773330568724197,0.9196551037312587,4.641420340504709,-0.7170618874539553,0.6910171473476091,-0.06295190448392642,0.06598946396502095,0.006146089755930006,0.0019099594368200802,11637.545828855129
1683169284953902959,45,1683169284953902959,camera_2,45,0,-0.05774261789961034,0.9195925191978354,4.641220193666954,-0.717053638709422,0.691233883764839,-0.06099141255101506,0.06564940779616135,0.015814774960745126,0.004911252041364084,11646.022178995194
1683169284972599983,46,1683169284972599983,camera_2,46,0,-0.05770903119900479,0.9194738171181848,4.640523979982312,-0.7170000084697974,0.6909553623646986,-0.0641182537046612,0.06618553176974104,0.0067128853988833725,0.0020860073612419473,11637.532599168127
1683169284991897344,47,1683169284991897344,camera_2,47,0,-0.057772379367189035,0.9198225603628414,4.642180757407782,-0.7171262736851818,0.6911637814879603,-0.06256774662610325,0.06409221350367626,0.005643859796691686,0.0017542661201115093,11640.82442835765
1683169285010629177,48,1683169285010629177,camera_2,48,0,-0.057706051710483305,0.918847123532885,4.637348356134711,-0.7166944544365363,0.6910403765393208,-0.06502864885851674,0.06770178579583416,0.006446562823839486,0.0020010454356057207,11645.477247873318
1683169285029716014,49,1683169285029716014,camera_2,49,0,-0.05774761685004111,0.9196790105047599,4.641589822714602,-0.7169567952470641,0.6911963003870086,-0.06347808341161358,0.06473917675380188,0.005227715417277068,0.001624921034170789,11638.849421190102
1683169285048378705,50,1683169285048378705,camera_2,50,0,-0.057765085229486264,0.9201970313253977,4.644266745947109,-0.7171407599513363,0.6912492406975177,-0.061511864519208,0.06403052533671742,0.0060502299456857145,0.001881687805656286,11634.126656410284
1683169285066762447,51,1683169285066762447,camera_2,51,0,-0.05771814527971252,0.9195927543503448,4.641051315870446,-0.7170654090922991,0.6911622759529896,-0.06317833838694838,0.06419038044318943,0.00900997087592259,0.0027996679398487176,11644.19315443025
1683169285085824728,52,1683169285085824728,camera_2,52,0,-0.05769294169242252,0.9196022526195383,4.641168760947305,-0.7171735663095294,0.6911366275469156,-0.06183970413492929,0.0645607376231983,0.0068891559494659305,0.002139952292659235,11646.946052252315
1683169285104656457,53,1683169285104656457,camera_2,53,0,-0.05772212340713996,0.9196911483331497,4.641648266279634,-0.7170359106198487,0.691126105176248,-0.06378077279660148,0.06431347173759674,0.005266288935672492,0.0016370946579395045,11638.878580689667
1683169285123896598,54,1683169285123896598,camera_2,54,0,-0.05769320871564759,0.9195225216778372,4.6407972118989465,-0.7171309149797779,0.6910457569725482,-0.06353127795810333,0.06436450319480976,0.00846386922057718,0.0026299451612075793,11643.824263990156
1683169285142920494,55,1683169285142920494,camera_2,55,0,-0.05768796157584128,0.9193190304646741,4.639790354992152,-0.7168855742328455,0.6910141242119114,-0.0640368302939412,0.06688675476051857,0.007090853527188301,0.002202687983031727,11639.288778312504
1683169285161967039,56,1683169285161967039,camera_2,56,0,-0.057762269964926755,0.9200522546990928,4.643543666600652,-0.7171062062139328,0.6912997165186089,-0.06244691760384567,0.06295850564085945,0.011178789485711604,0.0034764421205794155,11637.915082618594
1683169285181286334,57,1683169285181286334,camera_2,57,0,-0.057741194706947815,0.9195023422589845,4.640558951020294,-0.7169803517512304,0.6910823738479723,-0.06380927352560377,0.06536592668560696,0.00782483967486769,0.002431374707399912,11640.882582905231
1683169285200356960,58,1683169285200356960,camera_2,58,0,-0.05775977625798741,0.9195666280561214,4.641015538506596,-0.7170934097361735,0.6910992186519314,-0.06268398037032406,0.06503560791267514,0.007634541601873934,0.0023718692856281513,11643.426624657346
1683169285219912767,59,1683169285219912767,camera_2,59,0,-0.05770629070950846,0.919254854427078,4.639389481308287,-0.716798558920415,0.6910362133141478,-0.0651819478579738,0.06648376863190418,0.0062192309414967895,0.0019322519031152046,11638.63938030205
1683169285238794088,60,1683169285238794088,camera_2,60,0,-0.05773423362143695,0.9197682336984334,4.641901228216495,-0.7171534447127843,0.6911116110479807,-0.0635515962703558,0.0633788010516281,0.0060019586817361414,0.0018659116514559441,11641.152491102697
1683169285258109331,61,1683169285258109331,camera_2,61,0,-0.057749491257879086,0.9195398372080912,4.640837732454823,-0.7168365950426255,0.6912826118662874,-0.06400149873874343,0.06463323215044674,0.005697868473362178,0.001770745832253666,11641.15391228464
1683169285277207612,62,1683169285277207612,camera_2,62,0,-0.05769957141227579,0.9195416013917155,4.640951251377068,-0.7169595418009873,0.691206300203104,-0.06380569695540221,0.06427829350636236,0.006372774252668023,0.001980477519407713,11642.42134311353
1683169285296245813,63,1683169285296245813,camera_2,63,0,-0.057724453201391836,0.9193702547988758,4.640046577342033,-0.716830243846475,0.6909908059594647,-0.0659726424198017,0.06583098084216456,0.009972337691579014,0.0030998144265003,11634.703442942817
1683169285315240383,64,1683169285315240383,camera_2,64,0,-0.05775438463645033,0.9196723577478422,4.641678050171313,-0.7171476246045477,0.6910549828077377,-0.06302471147325275,0.06457693864194441,0.011950860556680709,0.003714173076599645,11640.449893441284
1683169285334842443,65,1683169285334842443,camera_2,65,0,-0.05771127511954361,0.9195584804280439,4.641003165091334,-0.7169630780057914,0.6911099791721144,-0.06384683268455575,0.06522670788359178,0.007514587079640478,0.002335399375648017,11639.06774521526
1683169285353749752,66,1683169285353749752,camera_2,66,0,-0.05773006052592473,0.91960903054846,4.641218394589142,-0.7170880040010171,0.6909467172636734,-0.06429384365588739,0.06514391827594615,0.008224021003115922,0.002556463159102522,11636.709111372942
1683169285372867345,67,1683169285372867345,camera_2,67,0,-0.05776257372077603,0.91973202087938,4.641869398181557,-0.7170546676872643,0.6911924626052676,-0.06237930306768538,0.0647642319059098,0.009135683998465538,0.0028390154438337786,11640.99512901879
1683169285391906261,68,1683169285391906261,camera_2,68,0,-0.05773615475334072,0.9192463193454157,4.639356575973002,-0.7168962011322594,0.6910566959324181,-0.06469928278156024,0.06568472133347458,0.007954997126944363,0.0024711222824128297,11642.940379877575
1683169285411266565,69,1683169285411266565,camera_2,69,0,-0.057738318545349325,0.919579397609128,4.640990849278735,-0.7169610222004495,0.6911831483313106,-0.06363190601870417,0.06468174892912959,0.0074793638195842505,0.0023242872241896447,11641.465091946535
1683169285430436134,70,1683169285430436134,camera_2,70,0,-0.05771231651700599,0.9196549390159305,4.641346941881085,-0.7171054952495794,0.6910495004118097,-0.06296293059732731,0.06516107760035691,0.01174259273102507,0.0036489919140106275,11640.42820566311
1683169285449769973,71,1683169285449769973,camera_2,71,0,-0.057718109856927845,0.9196954922001672,4.641892820684206,-0.7171157274142561,0.6911527312279809,-0.06269226094575528,0.06420760101992393,0.004458461364265531,0.001385671848738065,11641.705577681074
1683169285468925714,72,1683169285468925714,camera_2,72,0,-0.05771606662325876,0.9194792177648505,4.64060510834648,-0.7170730245838267,0.6909780081527734,-0.0638846377239449,0.0653790694818214,0.0109654605621472,0.003407204422385071,11640.471111330204
1683169285488126039,73,1683169285488126039,camera_2,73,0,-0.057699721955636156,0.9194507267281997,4.640368808716673,-0.7170181794322268,0.6911018235387233,-0.06362189183158665,0.06492653344293446,0.006755138922017068,0.002098652727405485,11643.910672619471
1683169285507336139,74,1683169285507336139,camera_2,74,0,-0.05772069245987686,0.9196547204158048,4.641439656132202,-0.7170247219958717,0.6910833324401022,-0.06408122436238425,0.06459854761868898,0.00827548309462145,0.0025725438730154642,11638.008405894503
1683169285526167869,75,1683169285526167869,camera_2,75,0,-0.05772882842021636,0.9194255703191043,4.640199477175912,-0.7169751037260566,0.6911019656033608,-0.06389957989106951,0.06512770121788666,0.009328615327831358,0.00289818600732755,11643.14126009587
1683169285545084714,76,1683169285545084714,camera_2,76,0,-0.057752107854236866,0.9197789088156478,4.642051623357919,-0.7170357630486724,0.6911172969384207,-0.06258753446737511,0.06556978657151563,0.007996387139428407,0.002485323071107586,11636.89539316459
1683169285564055204,77,1683169285564055204,camera_2,77,0,-0.057749074038105586,0.9196321612242023,4.641373899866291,-0.7169823116298373,0.691086171976147,-0.06296504493125563,0.06611861182825494,0.005116367363370955,0.0015899271398574298,11637.352747044522
1683169285582949876,78,1683169285582949876,camera_2,78,0,-0.05776977616984284,0.9197545863103048,4.642031625425296,-0.7170183948734079,0.6911251825276373,-0.06312630348242594,0.06515883131200571,0.0072585458983667195,0.00225633079524278,11636.515731618274
1683169285601502656,79,1683169285601502656,camera_2,79,0,-0.057722865874805254,0.919161698759263,4.639075912940573,-0.7168521400567042,0.6910346640366811,-0.06415794417633693,0.06691681847563122,0.006989061483182013,0.002170459870252133,11642.361957709307
1683169285620296239,80,1683169285620296239,camera_2,80,0,-0.057695919390244224,0.9193797747427378,4.6402093067815295,-0.7170804431372586,0.6909612141476706,-0.06450779658952065,0.06486125802676501,0.0061505932244472206,0.0019111884056518074,11642.018940596143
1683169285639092445,81,1683169285639092445,camera_2,81,0,-0.057720408122721494,0.9195405195156379,4.64080596876348,-0.7169400582492292,0.6912414348655483,-0.06268712584766865,0.06521162362315583,0.006384331325534731,0.0019833081899395958,11643.916409915546
1683169285657814025,82,1683169285657814025,camera_2,82,0,-0.05772588526684702,0.9196791824921945,4.641542944744288,-0.7170287985625257,0.69118376346676,-0.06311019002136231,0.06443454870932809,0.005262303864583373,0.0016354807473700742,11641.245851254323
1683169285676600217,83,1683169285676600217,camera_2,83,0,-0.05771301607733931,0.9193589032782044,4.63995173596942,-0.7171073809785731,0.6909576054294855,-0.06379906265668044,0.0653013878055575,0.006206430785823613,0.0019279469314232918,11644.251220156671
1683169285695425748,84,1683169285695425748,camera_2,84,0,-0.057739046171815515,0.9195954414221141,4.6412233478291665,-0.7171038422444402,0.6909905711386682,-0.06346093423250947,0.06532089912160763,0.006458283285610378,0.002007080729056055,11638.967795315199
1683169285714149236,85,1683169285714149236,camera_2,85,0,-0.057697865932016985,0.9195038526070358,4.640767355456692,-0.7171444310558511,0.6911532715280173,-0.06234749111361535,0.06421690286471562,0.0031595701002515852,0.0009814410911167235,11648.397510044746
1683169285733462572,86,1683169285733462572,camera_2,86,0,-0.05773910280764987,0.919628942433848,4.641243245125569,-0.7169779166769298,0.6911234099047633,-0.06304776841607536,0.06569686580785215,0.008758925716392696,0.0027217407806928925,11638.99816035549
1683169285752335786,87,1683169285752335786,camera_2,87,0,-0.05773969939402568,0.9195988882299856,4.641267793472621,-0.7168798841741634,0.6912182870302763,-0.06373574562743176,0.06510196671901684,0.007735612511169165,0.0024042485898574527,11638.50538256415
1683169285771572828,88,1683169285771572828,camera_2,88,0,-0.05773315207918747,0.9194776471401244,4.640491653062328,-0.7169028830322779,0.6910271595150338,-0.06461230844618226,0.06600735345283547,0.008429952606093138,0.0026198819064194084,11636.534025630915
1683169285790921926,89,1683169285790921926,camera_2,89,0,-0.057756245882396064,0.9197777629646581,4.642151760314686,-0.717058286917057,0.6913013715836606,-0.0627799601891937,0.06315459926853033,0.008108048932626843,0.0025202254180835488,11643.20789287216
1683169285809937715,90,1683169285809937715,camera_2,90,0,-0.057740583910422506,0.9196016011658994,4.641364443885732,-0.717035653076916,0.6910032956149675,-0.06362183069879629,0.06577674607601165,0.005247924418654293,0.0016311006252063204,11636.356257652867
1683169285829075813,91,1683169285829075813,camera_2,91,0,-0.05773278046701766,0.9199327757328332,4.642771046183855,-0.7172005612316078,0.6912370860843433,-0.06103436587257718,0.06394882307928289,0.011821740481536835,0.0036737958736273416,11643.332905431284
1683169285848250150,92,1683169285848250150,camera_2,92,0,-0.057710192049079234,0.9195015947775812,4.640654550824361,-0.7168813718735404,0.6911268732045468,-0.06390815103837953,0.06588241059700745,0.004927624249830843,0.0015312318009582963,11638.543683274656
1683169285867619514,93,1683169285867619514,camera_2,93,0,-0.0577341751273795,0.9195868825108755,4.6410507083134,-0.717040627970025,0.6909909059066941,-0.063992169248479,0.06549280929592398,0.011915829207282513,0.0037034271517569373,11637.43753527943
1683169285886955976,94,1683169285886955976,camera_2,94,0,-0.05773766707791452,0.9196281422358253,4.641458902500189,-0.7171512948694779,0.6910892267819487,-0.0631064897875862,0.06408800074623015,0.006198212795425206,0.001926239264796815,11642.804825383706
1683169285905994892,95,1683169285905994892,camera_2,95,0,-0.05773541512199576,0.9195926146007979,4.641140282467016,-0.7171022755259137,0.691010439513016,-0.06376487870409449,0.06483007915649329,0.006274750689044595,0.0019501395730421288,11639.867408560356
1683169285925121068,96,1683169285925121068,camera_2,96,0,-0.05773406311515704,0.9196096279576242,4.641285016777752,-0.7171447819761458,0.6910518483312632,-0.0622798385274738,0.06535997487241631,0.0073495390242896965,0.0022833509588894257,11642.442396811904
1683169285944388389,97,1683169285944388389,camera_2,97,0,-0.057716927789519604,0.9195104211511478,4.6406033805983835,-0.7169828766841968,0.6910471355601173,-0.06391855157853026,0.0656035802370083,0.0036693218862637877,0.0011402160684182833,11639.601551130647
1683169285963729143,98,1683169285963729143,camera_2,98,0,-0.05771790117368649,0.9192369952743367,4.639348238750761,-0.7168171911806583,0.6911567752602431,-0.06416167763538978,0.06602049350577252,0.009180844877846539,0.0028514114268410233,11643.783513431905
1683169285983317136,99,1683169285983317136,camera_2,99,0,-0.05770741062006379,0.9194051352862329,4.64021607957503,-0.7169086891161296,0.6909526487700907,-0.06427354865325614,0.06704684609216167,0.007834289513994008,0.002434216367036591,11635.835832711773
1683169286002535104,100,1683169286002535104,camera_2,100,0,-0.057694948427337994,0.9191242400901406,4.6389025672945055,-0.7168322796082781,0.6911428686013605,-0.06513027740467203,0.06504663756315207,0.010785792605020106,0.003350186585970092,11645.821219792128
1683169286021907091,101,1683169286021907091,camera_2,101,0,-0.0577346063876459,0.9197304379901815,4.641751325024108,-0.7169467697711206,0.6910842227248971,-0.06417927919433374,0.06535247919992276,0.0060347000253386796,0.0018762626892513145,11633.761539537461
1683169286041290283,102,1683169286041290283,camera_2,102,0,-0.057735707586868454,0.9194788846016237,4.640495903307244,-0.7170203811975773,0.6909652825549162,-0.06408285862008246,0.06589490482703952,0.007440447341650724,0.0023120143768108822,11638.662815383173
1683169286060974836,103,1683169286060974836,camera_2,103,0,-0.057731178977009995,0.9192579712349731,4.639316303220138,-0.7170263814573103,0.6909594767302445,-0.0647740957920337,0.06521109050787792,0.005380108079407364,0.0016713066353755764,11644.342095731292
1683169286079906702,104,1683169286079906702,camera_2,104,0,-0.057731787757189304,0.9196880803406657,4.641536906018075,-0.7170008011316535,0.6911986976980555,-0.06301955621710675,0.06467416030593573,0.005193010321818292,0.0016139196881732284,11640.811084525427
1683169286099188327,105,1683169286099188327,camera_2,105,0,-0.057740735090758694,0.9194512956047124,4.640465866755592,-0.7169234288988748,0.6910856597330601,-0.06351685735924412,0.06623455924520398,0.00643137568840757,0.001998110206061875,11639.681995159015
1683169286118550777,106,1683169286118550777,camera_2,106,0,-0.05776911996265367,0.9200498007583386,4.643492278553918,-0.7170215846141004,0.6913194463379836,-0.0630378702732253,0.06311653684926281,0.009270354988984764,0.0028833726223556296,11635.736185912738
1683169286137800216,107,1683169286137800216,camera_2,107,0,-0.0577194648579577,0.919431772527932,4.64038413892125,-0.7170401965689273,0.6909608974783946,-0.06467324144736931,0.06514419775341482,0.0034998091869056225,0.0010876733852487966,11639.65173204429
1683169286157714605,108,1683169286157714605,camera_2,108,0,-0.0577023736684852,0.9197247232071709,4.641902024801374,-0.7171982723351031,0.6910605315679037,-0.06132427194198813,0.06558440012239763,0.012295958178583533,0.003820034362629307,11641.797618746758
1683169286176940202,109,1683169286176940202,camera_2,109,0,-0.05773420600651351,0.9195023768432489,4.640596881454372,-0.7170425645769514,0.6909694798781311,-0.0642460879591177,0.06544905380372489,0.0088467777823098,0.0027492264121980964,11638.997832497345
1683169286196171283,110,1683169286196171283,camera_2,110,0,-0.05773426514254486,0.9194642822760799,4.6404513029570325,-0.7171103325988999,0.6910685545111496,-0.06334496070958864,0.06453247088455967,0.0088418252998963,0.002746840633899327,11645.596231974894
1683169286215256690,111,1683169286215256690,camera_2,111,0,-0.057748763187934656,0.9198680353518306,4.642675634989018,-0.7171542912497537,0.6910591010130381,-0.062347629066528784,0.06511385873143784,0.005755947378929704,0.0017893495181658043,11636.071766716419
1683169286234925508,112,1683169286234925508,camera_2,112,0,-0.057761933210720276,0.9197730459579325,4.642041101577416,-0.7171543325644713,0.691181903064399,-0.062391776874348395,0.06375348099315781,0.009544894972350448,0.0029664213046768154,11643.172330334552
1683169286254398822,113,1683169286254398822,camera_2,113,0,-0.057768656012166394,0.9195691278362217,4.641012760002049,-0.717112849183253,0.6910715213334054,-0.06316308488369249,0.06465089826278698,0.008697736950125545,0.002702544127732378,11643.019225853728
1683169286273494720,114,1683169286273494720,camera_2,114,0,-0.057703460088887513,0.9191904226498888,4.6392152371669,-0.7168370072934488,0.6910766279475886,-0.06455882359572368,0.06625675493939068,0.003151024749968201,0.0009787452088593144,11642.43726203451
1683169286293056726,115,1683169286293056726,camera_2,115,0,-0.05767568108486734,0.9191634094577732,4.638986970744385,-0.7169742475781015,0.6909643849042135,-0.06531133793704695,0.06519644346611289,0.005785557557828724,0.0017972520413337453,11644.317734713437
1683169286312481641,116,1683169286312481641,camera_2,116,0,-0.057694047174551004,0.9192878328357487,4.639773917425541,-0.7168715254007534,0.691117479540364,-0.06378709561706454,0.06620462201471393,0.0025310584460385144,0.0007861928776149159,11642.449936487477
1683169286331920623,117,1683169286331920623,camera_2,117,0,-0.05771912635741136,0.9192698788470758,4.639546451994931,-0.7170209474444317,0.6909135066457099,-0.06511402993587609,0.0654190367242443,0.009221359039656818,0.00286507041480196,11641.451050726933
1683169286351237297,118,1683169286351237297,camera_2,118,0,-0.057718498905272704,0.9192279787371347,4.639189461555294,-0.716890387551128,0.6909542819812097,-0.06407779247362745,0.06741208319233993,0.009264313499443233,0.0028771617778968026,11640.373984350124
1683169286370468854,119,1683169286370468854,camera_2,119,0,-0.0577639468567514,0.9197820586401176,4.642124531462137,-0.7171749193885992,0.6910646745994592,-0.06311751720252526,0.06407752759656571,0.01034092711051926,0.0032146179609618885,11639.378821032818
1683169286389940261,120,1683169286389940261,camera_2,120,0,-0.05774913638946869,0.919357289389335,4.640077673887851,-0.7168951469389394,0.691041151092416,-0.06456382509247495,0.06599233502228505,0.006951153161935508,0.002159860936744219,11638.895072715828
1683169286409173965,121,1683169286409173965,camera_2,121,0,-0.05775104073271023,0.9194721619824903,4.640396803418885,-0.7169349247318543,0.6910376286255335,-0.06449796694325652,0.06566065628301428,0.006367835390847176,0.001978896013897602,11638.44585833792
1683169286428706645,122,1683169286428706645,camera_2,122,0,-0.05771544965058872,0.9191858362336897,4.639141471224594,-0.7167515059564065,0.6910589243135034,-0.06581460776432534,0.06613077377979913,0.00801086553838104,0.0024890612941047027,11638.844695839569
1683169286447839021,123,1683169286447839021,camera_2,123,0,-0.057724169918420096,0.9196610210213312,4.641466372722611,-0.7170715744733799,0.691124292132761,-0.06279697396645714,0.06490077015655664,0.008111777133308351,0.0025207106575474746,11641.231607889988
1683169286467383146,124,1683169286467383146,camera_2,124,0,-0.05769166433808402,0.9195359339125663,4.6409415551425734,-0.7171400344956856,0.6910055873079568,-0.06357426342743246,0.06465108090644679,0.0043294396018609405,0.0013453817569476247,11642.13354720268
1683169286486599683,125,1683169286486599683,camera_2,125,0,-0.05769340836762825,0.9192948247064293,4.639656498913548,-0.716840112105426,0.6910848015795786,-0.06463577744875076,0.06606259891943661,0.003194984863512218,0.000992622177192175,11640.550575859845
1683169286505893707,126,1683169286505893707,camera_2,126,0,-0.05772367551033505,0.919328798566858,4.639781424047683,-0.7168867225369387,0.6910400760822403,-0.06485757484408164,0.06580680271706058,0.008105808985419571,0.002518542891928879,11639.909800570693
1683169286525164127,127,1683169286525164127,camera_2,127,0,-0.057744942936025785,0.920021813746468,4.643379199986612,-0.7171779193338166,0.6912439396895244,-0.061277570182207725,0.0638960660376501,0.00809874467086047,0.0025176558479397763,11639.736297637692
1683169286544985771,128,1683169286544985771,camera_2,128,0,-0.057730941182173284,0.9192969100953858,4.639708433970448,-0.7168407774551875,0.6911477527790761,-0.06382661953151525,0.0661834287798312,0.008203119155950844,0.0025479137897713978,11642.606716200246
1683169286564231157,129,1683169286564231157,camera_2,129,0,-0.057747690721540734,0.9198053951551012,4.642184474380887,-0.7168571065949164,0.691437730275492,-0.06262541232960726,0.06409221174516724,0.00384788925293833,0.0011960408452209952,11640.683750487398
1683169286583458662,130,1683169286583458662,camera_2,130,0,-0.057714094739411526,0.9193072988032621,4.639691049016334,-0.7170636555572648,0.6909185844820266,-0.06398368394019319,0.06600993626452524,0.005632782180327922,0.001749712925694032,11642.70611075056
1683169286602996587,131,1683169286602996587,camera_2,131,0,-0.05770686654878588,0.9195338738633242,4.640795021112861,-0.7169013078559845,0.6910922914552611,-0.06481456069894176,0.06513856159678931,0.006094688782468438,0.0018944886748374554,11637.089151416441
1683169286622053384,132,1683169286622053384,camera_2,132,0,-0.057718357969463924,0.9197870270824198,4.6421251467131475,-0.7171910257769856,0.6911019319591029,-0.06292542985315898,0.06368314113755523,0.010056720697321,0.0031260979327480285,11641.248204618229
1683169286641662836,133,1683169286641662836,camera_2,133,0,-0.05766814951198298,0.9194005062060132,4.640183007521951,-0.7169055872724132,0.6909985323882087,-0.06424872961508969,0.06662963243021279,0.0040111325215548286,0.0012463236582226558,11637.453910737298
1683169286660955190,134,1683169286660955190,camera_2,134,0,-0.057724921059054135,0.9195943398036632,4.641196040878455,-0.7171980827052616,0.6910213765067892,-0.06334290494127216,0.06406281111659169,0.008468400803394616,0.002631598554860834,11643.384345451836
1683169286680344104,135,1683169286680344104,camera_2,135,0,-0.05771240323444408,0.9193879389115416,4.640009641102528,-0.7169876980665854,0.6911025491176941,-0.06363530561187407,0.06524151518694066,0.010939748957753181,0.003398181310014926,11644.6322411336
1683169286699517011,136,1683169286699517011,camera_2,136,0,-0.05773365737903696,0.9193096616449675,4.639807945006351,-0.7169160998332867,0.6910958380648505,-0.06328924219792845,0.06642529812716462,0.005376824585255235,0.001669884806051596,11643.179010319524
1683169286719273805,137,1683169286719273805,camera_2,137,0,-0.05770020148216039,0.9191453378958572,4.638907991740191,-0.7167832485972755,0.6910292375778194,-0.06472245337329877,0.06716674305261115,0.004090444010216743,0.001270440169657648,11640.482873439792
1683169286738578796,138,1683169286738578796,camera_2,138,0,-0.05767925555101301,0.9190127312831371,4.638336605337704,-0.7169422775398073,0.6909142749251487,-0.06430149788981522,0.06705634011647248,0.005285249091684818,0.0016408899080111456,11645.198872597432
1683169286757669210,139,1683169286757669210,camera_2,139,0,-0.05774036737004794,0.9197447665971403,4.641966576293017,-0.7171937147787801,0.6911748039459468,-0.062008369352197126,0.06376149310028283,0.008260816510301083,0.00256696024421422,11644.842830511045
1683169286777013778,140,1683169286777013778,camera_2,140,0,-0.05771212551694744,0.9196450905179648,4.641368114579146,-0.7171467757228099,0.6911218599426626,-0.06190155339971649,0.06495594250316551,0.00779449928086251,0.002421391858579214,11644.50629657274
1683169286796406745,141,1683169286796406745,camera_2,141,0,-0.05773667536760261,0.9196228062296143,4.641305108744004,-0.716964249119624,0.6912122086974107,-0.06299691433204527,0.0649564224432198,0.00535247556399554,0.0016632662101924074,11641.211785975842
1683169286815745115,142,1683169286815745115,camera_2,142,0,-0.05770857612091404,0.9193502089027242,4.640016351957788,-0.7167476301131176,0.6911449360989534,-0.06503205898154579,0.06604803809821959,0.007214504876174033,0.002241935825988413,11637.450418091375
1683169286835031986,143,1683169286835031986,camera_2,143,0,-0.057751447851977375,0.9195184925051048,4.640598556594272,-0.716977340298194,0.6910097561965981,-0.06422273150757524,0.06576055883089707,0.015311734052374959,0.0047581821630568,11638.017462905264
1683169286854582309,144,1683169286854582309,camera_2,144,0,-0.05773001225054373,0.91945441805312,4.640486669373551,-0.7168667744754021,0.6911338679582018,-0.06483318219694359,0.06505891714888755,0.002548306540120393,0.0007920354436123571,11638.848096995154
1683169286874136924,145,1683169286874136924,camera_2,145,0,-0.057720463798567226,0.9195037674207693,4.64067381379942,-0.717001473965211,0.6911574747462973,-0.06307794248145221,0.06504924754632557,0.00695092004025355,0.002159442809873396,11643.805738624416
1683169286893434524,146,1683169286893434524,camera_2,146,0,-0.057724242342861845,0.9193764792705533,4.640074233554233,-0.7167903402132096,0.6910900064074667,-0.06428597276326466,0.06688441467666287,0.011361708224285394,0.003529957325924049,11636.994743393967
1683169286912652730,147,1683169286912652730,camera_2,147,0,-0.05769977588670353,0.919136818382523,4.638845027575106,-0.7169715337418396,0.6908035956508746,-0.06507994480204292,0.0671327999137544,0.00547525443835184,0.0017006588411153135,11639.687293336254
1683169286931989908,148,1683169286931989908,camera_2,148,0,-0.05769864453097227,0.9193718407682971,4.640103806876632,-0.7169287142558818,0.6910616903643643,-0.063942189881417,0.06601783955359926,0.006439344200771302,0.0020005236705557066,11640.803188724447
1683169286951581716,149,1683169286951581716,camera_2,149,0,-0.05774517034981444,0.9194212619618689,4.64034280088188,-0.7169570501865734,0.690983451162005,-0.06420207626230846,0.0662763291954287,0.013483182934578508,0.004189533680957111,11637.840279072756
1683169286970739364,150,1683169286970739364,camera_2,150,0,-0.057708521416530545,0.9198461387385151,4.642456627668697,-0.7171082277777092,0.6910790984996167,-0.06342343459615665,0.06436565244365254,0.004384391068015248,0.001363312149178213,11635.90053240559
1683169286990290403,151,1683169286990290403,camera_2,151,0,-0.057725164171434515,0.9196484983822862,4.64148291116869,-0.7169068717195733,0.6912386043881213,-0.06303689740951714,0.0652692779935517,0.0052867476479150355,0.0016429978739758997,11639.24509971007
1683169287009344100,152,1683169287009344100,camera_2,152,0,-0.057737865502279925,0.9195245257918563,4.640912495761805,-0.7171125356559688,0.6910850418886549,-0.06334673827169844,0.0643293621386061,0.008503975928761065,0.002642325385271694,11643.989372362383
1683169287029019832,153,1683169287029019832,camera_2,153,0,-0.05773062284583323,0.9193471057162994,4.639862705598231,-0.7169360580460211,0.6910086711941916,-0.06478391213683363,0.06567152911358905,0.0033499948331154883,0.0010409120642486738,11640.190960329954
1683169287048332452,154,1683169287048332452,camera_2,154,0,-0.057730504435139135,0.9194477433108423,4.640374820323215,-0.7170886381570729,0.6908745277744589,-0.06282762635909349,0.06729755764168094,0.007471322198398411,0.00232068422477411,11639.02353078243
1683169287067613601,155,1683169287067613601,camera_2,155,0,-0.05772968917767193,0.9194733154744648,4.640575385806068,-0.7169168193869779,0.691244604365241,-0.06374397750695049,0.06440400878512294,0.015396358794532716,0.004783677559150636,11644.054111698639
1683169287086837053,156,1683169287086837053,camera_2,156,0,-0.05768757668554189,0.9193297652996584,4.639827611955458,-0.7170744907684908,0.6910287140386958,-0.06319631383174289,0.06549593102793377,0.006890621385537088,0.002140001044672359,11646.30380993383
1683169287106643438,157,1683169287106643438,camera_2,157,0,-0.05768907280433651,0.9193590976660231,4.639988306648092,-0.717139202648794,0.6909768474714985,-0.0633640622409826,0.06517174156735775,0.0034051089314743876,0.0010576748490945562,11645.971443459624
1683169287125961065,158,1683169287125961065,camera_2,158,0,-0.05771008511857301,0.9193801992199102,4.6400285321012635,-0.7168209793706595,0.6911493274559913,-0.06376260818847851,0.06644261048620886,0.014178841665852815,0.004404402584401031,11640.36826616479
1683169287145370721,159,1683169287145370721,camera_2,159,0,-0.05768404466766064,0.9190874236082894,4.638682547017269,-0.7170008722281618,0.6911366111958859,-0.06303396551227741,0.06531962247685709,0.0016390217933803797,0.0005087645542347535,11653.188761034513
1683169287164422512,160,1683169287164422512,camera_2,160,0,-0.05772317008950527,0.9195137165198572,4.640706515385489,-0.716886710629891,0.6911340325348049,-0.06353007543565463,0.06611446671927584,0.007486418588086963,0.0023261144412568386,11638.800699896183
1683169287184279918,161,1683169287184279918,camera_2,161,0,-0.057727371680103244,0.9191734502086514,4.639042062052084,-0.7169675999925991,0.6910279151145702,-0.0645441597784775,0.06536002242773006,0.009498939209152013,0.0029501770739179052,11646.079922215315
1683169287203294992,162,1683169287203294992,camera_2,162,0,-0.05771322776774943,0.9192577239369504,4.6394895111435,-0.7168270703841786,0.6910983014472082,-0.0644898927783995,0.06620530666532871,0.011951085296459496,0.0037123508607515435,11641.392450323328
1683169287222484588,163,1683169287222484588,camera_2,163,0,-0.05772160719483392,0.9196991509079198,4.641643931127242,-0.7170006349624206,0.6912986841205756,-0.06285002251069732,0.06376592716374038,0.005349574727006256,0.0016625446536277734,11643.648537859317
1683169287241850852,164,1683169287241850852,camera_2,164,0,-0.05774321395742459,0.9198287387936863,4.642320855572296,-0.717063427473387,0.6910355220273993,-0.06407322436771583,0.0646882539226611,0.009693973988760263,0.0030146182491563806,11633.331867843397
1683169287261380195,165,1683169287261380195,camera_2,165,0,-0.0577518303364722,0.9197686331068627,4.64208029603097,-0.7170174483923331,0.6912817094147887,-0.06310360131149478,0.06350993962393142,0.012611988000571728,0.003920401604775047,11641.38770365459
1683169287280786514,166,1683169287280786514,camera_2,166,0,-0.05771685702714359,0.9195853643179215,4.641213467518595,-0.7170598858962811,0.6911543820395106,-0.06364017804873011,0.0638801061671042,0.005252798495348543,0.0016325124518722623,11642.896048844324
1683169287300077676,167,1683169287300077676,camera_2,167,0,-0.05771886528258219,0.9193316521701338,4.639796110325686,-0.7168913400821066,0.6910413487456883,-0.06449877461594446,0.06609515044285047,0.008448346692603081,0.0026247035450627965,11640.15516497777
1683169287319418430,168,1683169287319418430,camera_2,168,0,-0.05771193431190781,0.9192834952725443,4.639525800472813,-0.716986463627777,0.6910920635597743,-0.06460591282750387,0.06440688384755473,0.007019401295110583,0.0021805987005302737,11646.39375978685
1683169287338960647,169,1683169287338960647,camera_2,169,0,-0.05771871026106982,0.91931701475353,4.639688681703911,-0.7169602722466513,0.6909374558015828,-0.06470451751602177,0.06623236069673402,0.006795613677240909,0.0021113482271361934,11639.54461903032
1683169287358119249,170,1683169287358119249,camera_2,170,0,-0.05772139116158422,0.9198248080020297,4.642310726042518,-0.7170479574078984,0.6912226883410095,-0.06322350843065047,0.06368838105579287,0.009083077951800078,0.002823921178127208,11639.309516516283
1683169287377622842,171,1683169287377622842,camera_2,171,0,-0.05771525422587009,0.9193244225080257,4.639906978275823,-0.7167671800401356,0.6911939990704925,-0.06485441852119957,0.065494806393553,0.00533484120387584,0.0016576655602624656,11640.350199219303
1683169287396927118,172,1683169287396927118,camera_2,172,0,-0.05769948465297767,0.9190905795018243,4.638564476342483,-0.7168735572173944,0.6907673935206791,-0.06609801757551062,0.06755562954864665,0.011299543431960046,0.003510331979488826,11636.173172113951
1683169287416539192,173,1683169287416539192,camera_2,173,0,-0.057721322015823424,0.9195992385320599,4.641251472915121,-0.7169444431022038,0.6910766636729383,-0.06415811536290782,0.06547859699650734,0.005828510271385312,0.001811738644727132,11636.022815585602
1683169287435781717,174,1683169287435781717,camera_2,174,0,-0.057737376738813184,0.9196130777854399,4.6411941613153065,-0.7169655773049346,0.6911333352669258,-0.06458425416996537,0.06421797221904772,0.010009064746554941,0.0031114992324996226,11638.672271914318
1683169287454989194,175,1683169287454989194,camera_2,175,0,-0.05771365514447584,0.9194095317513231,4.640241521465297,-0.7169505597260375,0.6908661255608539,-0.0660016356472559,0.06580027015858571,0.003673437633551657,0.0011420050485176497,11633.759113730634
1683169287474196672,176,1683169287474196672,camera_2,176,0,-0.05775458721058952,0.9198001275174202,4.642141913755008,-0.717134387402459,0.6912252296267819,-0.06153933325536968,0.064333994083899,0.007873651687987149,0.00244658758649825,11643.675699958105
1683169287493753671,177,1683169287493753671,camera_2,177,0,-0.05772139359157387,0.9199703321751288,4.643006244196797,-0.7172435578885175,0.6911595119384149,-0.06187268814941017,0.06349785969337143,0.0032096243230625987,0.0009978157922657964,11640.878536572214
1683169287513143539,178,1683169287513143539,camera_2,178,0,-0.05774081828738272,0.9195330090440872,4.640875719589678,-0.716933067790907,0.6910645336775978,-0.06526284589892191,0.06463395041351387,0.0048391479649581015,0.001504456878038298,11636.733366467524
1683169287532477140,179,1683169287532477140,camera_2,179,0,-0.05771978385543083,0.9196386334390262,4.641453200202665,-0.7170418621324827,0.6910004999077661,-0.06437420852317373,0.06500183346501838,0.006354678713250905,0.001975589499084969,11635.766606197698
1683169287552042245,180,1683169287552042245,camera_2,180,0,-0.057685973130215486,0.9191631490356865,4.638939925519627,-0.7169445612955646,0.690968818383682,-0.0647418237908393,0.0660385062096701,0.0035230076173320413,0.001094233852471778,11643.836646963842
1683169287571408987,181,1683169287571408987,camera_2,181,0,-0.05768375144547143,0.9190967008713455,4.638688032282621,-0.7169169075454404,0.6908911039572618,-0.0652313662305818,0.06666707589125465,0.004919826169498265,0.0015281083909629996,11641.468598349484
1683169287590621232,182,1683169287590621232,camera_2,182,0,-0.05770472285094251,0.9193331448752079,4.639836135018502,-0.7169619196403978,0.691047362954275,-0.06414493389526066,0.06560926302795178,0.004811141116078943,0.001494605713952087,11642.71878560353
1683169287609951496,183,1683169287609951496,camera_2,183,0,-0.05772632577280843,0.9194677118781616,4.640598384237262,-0.7168789240562881,0.6911817567619009,-0.0639726413558084,0.06526782148496017,0.009117006382439286,0.0028329595119911343,11640.544277050525
1683169287629145622,184,1683169287629145622,camera_2,184,0,-0.05774433118938225,0.919523132264623,4.640763796571447,-0.7170755155609132,0.6909947780394908,-0.06458270522152192,0.06448252392296297,0.006373155047185719,0.0019809056701037262,11640.0318463929
1683169287648669004,185,1683169287648669004,camera_2,185,0,-0.057689621223262065,0.919018841899062,4.638231633444465,-0.7167371901760086,0.6909656783144204,-0.06651585501952999,0.06655728841467433,0.006914151250384748,0.002147917301461997,11639.618870358909
1683169287668111562,186,1683169287668111562,camera_2,186,0,-0.05770950357513648,0.9193418827604969,4.639936834401443,-0.7169565262163141,0.6910779460576579,-0.06265783340868096,0.06677280809651816,0.007546507695224136,0.0023434278284078167,11643.514642872844
1683169287687307119,187,1683169287687307119,camera_2,187,0,-0.05769192533121968,0.9194661035697509,4.640635520173206,-0.7168438542286677,0.6913639582243675,-0.06322353365007605,0.0644480466400757,0.006270273355767131,0.0019479914023955197,11645.464056506757
1683169287706643342,188,1683169287706643342,camera_2,188,0,-0.05770299725869109,0.9193585516087404,4.639933609098076,-0.7170373840782162,0.6909746889392843,-0.06350765717309163,0.06616756425857681,0.006257659173570573,0.0019437210217036352,11642.594616158396
1683169287726275682,189,1683169287726275682,camera_2,189,0,-0.05773718126585741,0.9200376805431526,4.643386561703465,-0.717083263967849,0.6912416278198081,-0.06255349004492586,0.06374688533126545,0.007640279305633157,0.0023759666301070895,11635.976962461835
1683169287745533704,190,1683169287745533704,camera_2,190,0,-0.05771841866013182,0.9194460978625235,4.640364885439284,-0.716871390080869,0.691156528467136,-0.06455251255944226,0.06504641698850767,0.008012806938495487,0.002490045373457379,11640.399901644798
1683169287764727354,191,1683169287764727354,camera_2,191,0,-0.05771286356039828,0.9195699789352715,4.640916993406418,-0.7170954067503623,0.6910856274728165,-0.06350169050287204,0.06436123383927224,0.007927500060759485,0.0024633640331504117,11643.27481150231
1683169287784369468,192,1683169287784369468,camera_2,192,0,-0.05774458709379239,0.919565644938396,4.641028741616982,-0.7170945478086629,0.6909236246909398,-0.06336525152176332,0.0662178166855893,0.006775361893232912,0.002105403578854461,11637.421810314057
1683169287803716897,193,1683169287803716897,camera_2,193,0,-0.05775572845366489,0.9197907554191762,4.642049830998221,-0.7173959605789534,0.6909247797842597,-0.061158770195483846,0.06500453255927059,0.007979902089573443,0.002479258654078689,11643.291570431084
1683169287822895526,194,1683169287822895526,camera_2,194,0,-0.0577330644936828,0.9196922833203934,4.641620861247869,-0.717021649201448,0.6910918777727878,-0.06351700551324121,0.06509655185606057,0.007745449198409915,0.0024075352688587813,11637.45192194823
1683169287842339992,195,1683169287842339992,camera_2,195,0,-0.057726781368467414,0.9198497126392928,4.642457057872784,-0.7171308629873605,0.6909482689877886,-0.06401802464809205,0.06492693935446742,0.009559787926264107,0.0029729866335085273,11632.136303437175
1683169287861640930,196,1683169287861640930,camera_2,196,0,-0.05771619579018676,0.9195270137115643,4.640882565246979,-0.7170675061536047,0.691101258450714,-0.06336442572065439,0.06463893362039023,0.008523162337951362,0.0026483007458010526,11643.117357157174
1683169287881120443,197,1683169287881120443,camera_2,197,0,-0.05771706354931323,0.9195907208066579,4.641116344188286,-0.7169302407131087,0.6912086874116409,-0.06420762090071724,0.06417913847965213,0.004570922290440649,0.001420792762869731,11640.505770615528
1683169287900426149,198,1683169287900426149,camera_2,198,0,-0.05771865219142025,0.9194186320781859,4.640362815122591,-0.7169854288412176,0.6910640774207142,-0.0639826697360978,0.06533416947871634,0.010710897971875966,0.0033278595573834556,11641.503680215217
1683169287919842481,199,1683169287919842481,camera_2,199,0,-0.05776473460585228,0.9197715030732561,4.642117159125104,-0.7169766809622593,0.6912298300517697,-0.0633803332573833,0.06425491700350383,0.004536395077593624,0.0014103154905789148,11638.042532524561
1683169287939221858,200,1683169287939221858,camera_2,200,0,-0.05776260819735144,0.9196920907616077,4.641657412831004,-0.7171419946645871,0.6911216906995548,-0.06228253369688554,0.06464560409944965,0.007642155280336738,0.00237468423617979,11642.730618119705
1683169287958592653,201,1683169287958592653,camera_2,201,0,-0.05770425829138574,0.9195227628323921,4.6407628387074205,-0.716972871694384,0.691071631530016,-0.06381594165191419,0.06555476290728005,0.0028652382898144424,0.0008903800297854823,11639.363471471705
1683169287978394031,202,1683169287978394031,camera_2,202,0,-0.05773346270844004,0.9193609541046299,4.640049886571233,-0.7170085933687765,0.6910681085010016,-0.06401826486728877,0.06500160160763689,0.007193184341304005,0.0022346869923966705,11643.961694527185
1683169287997251749,203,1683169287997251749,camera_2,203,0,-0.05772443931442639,0.9195035721943311,4.640711738030356,-0.7168487857845102,0.6910295116833325,-0.06510184969672,0.06608919327722476,0.009212498436681926,0.002863703007084977,11633.569571124153
1683169288016601324,204,1683169288016601324,camera_2,204,0,-0.05768805210438568,0.9190259820641066,4.638155767984503,-0.7170443378003739,0.690886400802836,-0.0642075183848325,0.06633847599234989,0.01259464310714975,0.003909820248066746,11648.54683334846
1683169288036154270,205,1683169288036154270,camera_2,205,0,-0.057715688352869304,0.9198710142522248,4.642417833974632,-0.7171136752002558,0.691187320854942,-0.061947704320603175,0.06457976664216702,0.008378699945751578,0.0026041251982793123,11640.215159562878
1683169288055360078,206,1683169288055360078,camera_2,206,0,-0.057727553778208276,0.9194209561327595,4.640385563162605,-0.7171192951469202,0.6909634866578146,-0.06380689538072687,0.06510035895088058,0.005103213828988373,0.0015855436673948297,11642.72496630601
1683169288074726104,207,1683169288074726104,camera_2,207,0,-0.05772399333950716,0.919731050031358,4.641935710017766,-0.7170558408740452,0.6911427458261579,-0.06234693079211049,0.06531068963882443,0.004509701509959996,0.0014015025604737347,11639.159273733852
1683169288094023942,208,1683169288094023942,camera_2,208,0,-0.05777720463828202,0.9197272457879133,4.641732696207906,-0.7170186288147028,0.6910760343790862,-0.06385413751666448,0.06496806724509109,0.009104833065066487,0.0028304915460406286,11636.085832537618
1683169288113525390,209,1683169288113525390,camera_2,209,0,-0.05774415452334231,0.9194905890356593,4.640566777427542,-0.7170071395864642,0.6911108783852474,-0.06343479055387101,0.06513480564947376,0.006003564107231796,0.0018652397779997194,11642.8545962153
1683169288132876873,210,1683169288132876873,camera_2,210,0,-0.057719459894486375,0.9195936079419679,4.641294953451586,-0.7169891197331415,0.6910277806751378,-0.06359101651256654,0.06605596974072238,0.004979791410733014,0.0015477033002228389,11635.939790006261
1683169288152195930,211,1683169288152195930,camera_2,211,0,-0.05771633209440673,0.9192936586365462,4.639664056779824,-0.7169552476100203,0.6909664126778415,-0.06393858734342742,0.06672665527430693,0.004137569456361234,0.0012851885357897661,11640.76080770278
1683169288171483278,212,1683169288171483278,camera_2,212,0,-0.057724936324477796,0.9197703253425012,4.642062102209762,-0.7172890552606386,0.6909708292844811,-0.06296882926608766,0.06395819589447022,0.005958878493402153,0.001852272284895396,11640.617457133252
1683169288190953016,213,1683169288190953016,camera_2,213,0,-0.057674560566219266,0.9190636615062284,4.6386181822790835,-0.7170362064667609,0.6909021259311816,-0.0647212369591883,0.06576087351915846,0.006074268720112741,0.001886310908161589,11646.470482972678
1683169288210639715,214,1683169288210639715,camera_2,214,0,-0.05769545970287094,0.9194080130027584,4.640119286834142,-0.7169742472412345,0.6909784316097839,-0.06414897402161959,0.06619399500651256,0.008300021581817418,0.0025787315218529353,11639.408717593644
1683169288229716777,215,1683169288229716777,camera_2,215,0,-0.057750241337635365,0.9197133292255332,4.641742876478982,-0.7170956532843858,0.6911009314007176,-0.06240478016752637,0.06526078508525085,0.009915044589433819,0.0030810644771703836,11640.00460539269
1683169288249172449,216,1683169288249172449,camera_2,216,0,-0.0577699312812579,0.9199520579990211,4.6427990495428535,-0.717095816823456,0.6910961016302825,-0.0629897001974644,0.06474616185350565,0.008048572693951428,0.002502704969380049,11634.30568694766
1683169288268514871,217,1683169288268514871,camera_2,217,0,-0.05772938857139909,0.919620367544949,4.641312831417369,-0.7170704269301708,0.6911467456169118,-0.06348444965523918,0.06399924606826131,0.00618014665087685,0.001920720418853296,11642.507521941094
1683169288288148403,218,1683169288288148403,camera_2,218,0,-0.057695363527828114,0.9192734352684733,4.639612820271188,-0.7167445627635272,0.6910857544790195,-0.06551272682085788,0.0662253299695845,0.002863408881239593,0.0008898204265349115,11637.283507384367
1683169288307346105,219,1683169288307346105,camera_2,219,0,-0.0577094448385847,0.919219649565901,4.6393886683319625,-0.7170394483771837,0.6908931101551856,-0.06436214312161957,0.0661714012533425,0.007473931065760553,0.0023214791896067994,11642.498315597419
1683169288326325654,220,1683169288326325654,camera_2,220,0,-0.057721003426374595,0.9193380824689339,4.63984299295143,-0.716913073505021,0.6909715208801307,-0.06480662313194538,0.0662880378983836,0.008947545604314655,0.0027800949237199776,11638.270876500756
1683169288345983028,221,1683169288345983028,camera_2,221,0,-0.05770036822326251,0.9196152818807946,4.641274135249383,-0.716941066125126,0.6911246643595992,-0.06296859917435231,0.06616012042929506,0.008869437559042126,0.002756040420129689,11637.728658081502
1683169288365167856,222,1683169288365167856,camera_2,222,0,-0.05771516602829007,0.9195990964450002,4.641112430656571,-0.7169677053428912,0.691019030597818,-0.06462054034106347,0.06537732491491312,0.008146050909999758,0.002532314905169823,11635.403400793672
1683169288384898185,223,1683169288384898185,camera_2,223,0,-0.05769915941913685,0.9194392168053714,4.6402822312692775,-0.7170533576050653,0.6910015480871098,-0.06454502189191494,0.06469376351312685,0.006161465193144977,0.001914697369359647,11641.937568436604
1683169288404168128,224,1683169288404168128,camera_2,224,0,-0.057694873735419615,0.9189184918428279,4.637710801709639,-0.7168244652555179,0.6909999585639099,-0.06493271507518152,0.0668242904098562,0.004658822086639702,0.0014463012872788321,11646.839027940525
1683169288423742771,225,1683169288423742771,camera_2,225,0,-0.05774391548082848,0.9194116489837791,4.640276379130001,-0.7170253668565862,0.6911116689866741,-0.0643451234062067,0.06402335018156917,0.006410549220163375,0.001991931809848639,11644.716638565993
1683169288443230867,226,1683169288443230867,camera_2,226,0,-0.057725797985293675,0.9196047988834287,4.641131521189701,-0.7170527583918623,0.6909894706487233,-0.06408934856213827,0.06527977126261625,0.008024400915019214,0.0024941492158811183,11637.392752151936
1683169288462246179,227,1683169288462246179,camera_2,227,0,-0.0576858532162936,0.9192664364943427,4.639415411826559,-0.7168927704089915,0.69099150378622,-0.06527157813244343,0.06584161692030238,0.0066845816327258945,0.00207691394289999,11640.233421549667
1683169288481601476,228,1683169288481601476,camera_2,228,0,-0.05771703367568969,0.9196865234512603,4.6417571159136495,-0.7168839703315351,0.6912669347714635,-0.06354579464453633,0.06472503345966413,0.008655404264573008,0.0026905116740034477,11637.90036627161
1683169288501183986,229,1683169288501183986,camera_2,229,0,-0.05773811041621299,0.9198573608096609,4.642553523632817,-0.7171304789020321,0.691186647451709,-0.06196859659313538,0.0643800252445296,0.006986644584685565,0.002171572985033496,11640.159117561529
1683169288520608663,230,1683169288520608663,camera_2,230,0,-0.057709779980555,0.919790387805049,4.642098570755063,-0.7171203773374819,0.6910699551995578,-0.06387324974973611,0.06388183931475833,0.0036105792969465256,0.0011226574016882445,11637.638274479654
1683169288539728403,231,1683169288539728403,camera_2,231,0,-0.05773587084329275,0.9196697399028135,4.641445637913221,-0.7169421718301854,0.6912111628582502,-0.06347331369306684,0.06474711607773834,0.0042026208830066025,0.0013062309517901916,11639.53466155054
1683169288558982372,232,1683169288558982372,camera_2,232,0,-0.05776413347512078,0.9196343330101957,4.641257736778473,-0.7170035372655742,0.6909761405312993,-0.0643990906001953,0.06565560063690262,0.01081923401216045,0.0033633200652216054,11634.483231907943
1683169288578680992,233,1683169288578680992,camera_2,233,0,-0.05775727758638378,0.9197363420997513,4.641861485015627,-0.716805136949288,0.6913036723179345,-0.06417895148551563,0.0645808831549243,0.0050794490380212665,0.0015793416582168208,11635.606587652117
1683169288597718715,234,1683169288597718715,camera_2,234,0,-0.05771253522164809,0.919494625152722,4.6405741616654534,-0.7169216435190894,0.6909329330618401,-0.06539658152673813,0.06601762029236798,0.007095351989846677,0.00220570139918169,11633.442265151301
1683169288617500305,235,1683169288617500305,camera_2,235,0,-0.05770203633787774,0.9195771848328078,4.641067229583408,-0.7170218181560359,0.6911004184313082,-0.06408187051229818,0.06444717064331268,0.0051564640598371625,0.00160268945562872,11640.380227971822
1683169288636423587,236,1683169288636423587,camera_2,236,0,-0.05771708214065929,0.9195147837642652,4.640804552057379,-0.7169467401093123,0.6910198468717199,-0.06462333538114749,0.06559548460245539,0.0038832089630886912,0.0012070195597413647,11636.313351118704
1683169288655887842,237,1683169288655887842,camera_2,237,0,-0.05773286050211792,0.9193397131801125,4.639835738044144,-0.7168582185519207,0.6911686380822113,-0.06465761017525345,0.06495846113150268,0.011205608956515789,0.0034814912401399997,11642.941798312128
1683169288675322294,238,1683169288675322294,camera_2,238,0,-0.057725693326963604,0.9196108170910632,4.641219096445738,-0.7171068022808877,0.6910667506675082,-0.06267684153721441,0.06523951087531789,0.0048629570519551635,0.0015109620145467113,11641.831950353462
1683169288694460868,239,1683169288694460868,camera_2,239,0,-0.05773447376175529,0.9195169363500185,4.640803433393973,-0.7169969622986049,0.6910530704149189,-0.06423014229518768,0.06508070947236311,0.005169406242202968,0.0016065984585077171,11639.231518080225
1683169288713951587,240,1683169288713951587,camera_2,240,0,-0.05776746232205543,0.9197582224671792,4.641893457511024,-0.7170151917642802,0.6911727604732373,-0.06283792044613032,0.0649678821652929,0.009930135740432888,0.0030864312316682195,11638.66798125091
