%time,field.header.seq,field.header.stamp,field.header.frame_id,field.image_seq,field.transforms0.fiducial_id,field.transforms0.transform.translation.x,field.transforms0.transform.translation.y,field.transforms0.transform.translation.z,field.transforms0.transform.rotation.x,field.transforms0.transform.rotation.y,field.transforms0.transform.rotation.z,field.transforms0.transform.rotation.w,field.transforms0.image_error,field.transforms0.object_error,field.transforms0.fiducial_area
1682906769079220294,0,1682906769079220294,camera_1,1,1,-0.12352367925646447,-0.21318986615057386,1.7762301970214993,0.995792057562713,-0.010299866704962529,0.05216422717471348,0.07463902628078306,0.0022910512780072168,0.0001742711773820342,27510.004386635206
1682906769085723876,1,1682906769085723876,camera_1,2,1,-0.12355548228147585,-0.21324109308360148,1.7765194590404225,0.9958374541824644,-0.010211949846574454,0.051581494010528826,0.07445018739641368,0.001698343607131392,0.00012923661695587402,27504.435368630744
1682906769092057943,2,1682906769092057943,camera_1,3,1,-0.12356989859917222,-0.21322413304010163,1.7766186377369864,0.995838997693497,-0.010123226106381316,0.05201949624487215,0.07413624603687506,0.00417523221403826,0.0003177329084320046,27501.909378748736
1682906769098768949,3,1682906769098768949,camera_1,4,1,-0.12355224668831588,-0.21322580729223903,1.776453188122299,0.9957990130033121,-0.010273381334788763,0.051912719804548736,0.07472518223513282,0.0018054546235362068,0.0001373777217646266,27503.445650285812
1682906769106230974,4,1682906769106230974,camera_1,5,1,-0.12353211188999125,-0.21318277930193577,1.7760232563915592,0.9956390200513696,-0.010236912039404961,0.05185683035692424,0.07687012767245213,0.0024776479258434847,0.0001884629891070497,27502.37366471107
1682906769112846851,5,1682906769112846851,camera_1,6,1,-0.12353200362372059,-0.21319084827048845,1.776173988027224,0.9956899375402185,-0.010459347258248671,0.052272835961052054,0.07589269369758832,0.003244175997679122,0.00024677894041253703,27502.861010550565
1682906769119696378,6,1682906769119696378,camera_1,7,1,-0.12354173111826783,-0.21321560157121053,1.7764110680079077,0.99584784287151,-0.010381327157782772,0.05068298155515052,0.07490351977900651,0.0006860707653686404,5.2206203910890195e-05,27508.097103577464
1682906769126415729,7,1682906769126415729,camera_1,8,1,-0.12354079478263479,-0.2132109062634327,1.7763572714255573,0.9957538084353897,-0.010312694794863818,0.05122501948460848,0.07578917265208046,0.0029243384633446112,0.0002225122816491514,27501.820870645017
1682906769132985830,8,1682906769132985830,camera_1,9,1,-0.12347913225752784,-0.21314592067624968,1.7757258814709203,0.995569043671895,-0.010405900966769917,0.051667395285831814,0.07787475054005584,0.002155012931325473,0.00016386555965694098,27505.309394317454
1682906769139688730,9,1682906769139688730,camera_1,10,1,-0.12352279059508263,-0.2131911741648997,1.7761986908703125,0.9957930189245631,-0.010153778022980144,0.05169658504229876,0.07497084331878205,0.00114234967622906,8.689944714678544e-05,27510.502530397043
1682906769146203041,10,1682906769146203041,camera_1,11,1,-0.12351065213885992,-0.2131648869805854,1.7760309127249594,0.9957723204129847,-0.010245878073127438,0.051272576524749786,0.07552238594194774,0.002825514951837249,0.00021490546250553584,27513.555830386358
1682906769152998685,11,1682906769152998685,camera_1,12,1,-0.12352982992209069,-0.21320175048694234,1.7763079138114053,0.9957609760986273,-0.010033895267190207,0.05094960290356349,0.07591796486237896,0.004774893575813621,0.0003632852177647605,27503.512502761492
1682906769159422636,12,1682906769159422636,camera_1,13,1,-0.1235304830302813,-0.21318552769793764,1.7760689837980226,0.9957249686407691,-0.010368878015891132,0.05127710016255749,0.07612445200426743,0.0011079832911491394,8.427948137329439e-05,27508.235002549896
1682906769166252613,13,1682906769166252613,camera_1,14,1,-0.12351450798936815,-0.21316800023703175,1.776024913823569,0.9957247237819941,-0.010323232587937324,0.052049814553583575,0.07560768560896741,0.0011852121242554858,9.01437369241841e-05,27510.272700455505
1682906769172805070,14,1682906769172805070,camera_1,15,1,-0.12353485897679949,-0.2131849618447349,1.7760821595340264,0.9957089564199886,-0.010231744410550414,0.05202556416430419,0.0758440912973463,0.001799811027012765,0.0001369007877838224,27506.954604056966
1682906769179246425,15,1682906769179246425,camera_1,16,1,-0.12353272815248532,-0.21317368746952448,1.7761847566115365,0.9957438637930194,-0.010361011303725902,0.05149892496982433,0.07572759002018711,0.0005425419076345861,4.127214250163251e-05,27506.661847883362
1682906769185806035,16,1682906769185806035,camera_1,17,1,-0.12355344818994027,-0.21320936828603648,1.7762156821812474,0.9957270648279927,-0.010218430397848356,0.05237108976916451,0.07536885965453505,0.003420801382162608,0.0002602297679723162,27504.685221155647
1682906769192207813,17,1682906769192207813,camera_1,18,1,-0.12356194424364919,-0.21321700032836255,1.776400178291827,0.9957848281666617,-0.010183860842646681,0.0520040063182927,0.07486286327864286,0.004966164997313172,0.00037786933468020745,27503.80589889374
1682906769198511362,18,1682906769198511362,camera_1,19,1,-0.12354751427350046,-0.21321818162073608,1.7764605461887895,0.9958209204775583,-0.01021142287450068,0.05145252180996052,0.07476001057719531,0.0034265371650690213,0.0002607285203980278,27504.724908023498
1682906769205338478,19,1682906769205338478,camera_1,20,1,-0.12353921118436532,-0.21320065138032843,1.7761125206042085,0.9957528803723633,-0.010289852614835013,0.05099792912011664,0.07595743142554609,0.0013099498028168455,9.964561780726655e-05,27509.018248529228
1682906769212555408,20,1682906769212555408,camera_1,21,1,-0.12352008974033461,-0.21314051259309272,1.775856895805418,0.9957113014411474,-0.010173367410814187,0.05336663895539519,0.07488330003749624,0.00249446569068823,0.00018966346270600165,27515.294601174297
1682906769219076395,21,1682906769219076395,camera_1,22,1,-0.12350271139473129,-0.21314216771350014,1.7758188240048296,0.9957432130323245,-0.010249141425039377,0.05204403426687346,0.07537789660995305,0.001770336355548352,0.00013461314048626732,27518.206194682854
1682906769226045370,22,1682906769226045370,camera_1,23,1,-0.12349697125225995,-0.21315153976020373,1.7758820857250417,0.9957004585100645,-0.010204875718684772,0.0526110002027559,0.07555488132529305,0.004707995118224062,0.00035797080550394316,27512.925596157205
1682906769232470750,23,1682906769232470750,camera_1,24,1,-0.12354583832160046,-0.21321505742319466,1.776360114649859,0.9958089961456598,-0.010230434369502467,0.05102489491505041,0.07520798831834667,0.0035766224609687924,0.00027215716933591706,27506.353100578395
1682906769239196062,24,1682906769239196062,camera_1,25,1,-0.12355750588025101,-0.2132249762520102,1.7765044850551948,0.9958370736508702,-0.010172195449224403,0.05201970929242637,0.0741552360076206,0.00175903964554891,0.0001338550661357072,27505.254516634155
1682906769245763540,25,1682906769245763540,camera_1,26,1,-0.12353144193965046,-0.21320861473765435,1.776175257880124,0.9957658964101208,-0.010204587694314243,0.05042810495924214,0.07617842323622487,0.0023333554272539914,0.00017752078290961287,27507.619857181755
1682906769252420186,26,1682906769252420186,camera_1,27,1,-0.12351937655914513,-0.2132013971988741,1.776023587545052,0.9956735251577271,-0.010229291230166799,0.051181575780860425,0.07687677933876677,0.004923597400193103,0.00037450872264562483,27504.737507747654
1682906769259121894,27,1682906769259121894,camera_1,28,1,-0.12348684877084393,-0.21313387217942625,1.775701134657711,0.9956336871085761,-0.010318922881909996,0.05209004232897026,0.07677049182664734,0.0026722975308075547,0.00020316890962606202,27512.20944151645
1682906769265660524,28,1682906769265660524,camera_1,29,1,-0.12355677156235902,-0.21322625857241284,1.776541142132783,0.9958220893642987,-0.01012196691034328,0.052822193655646964,0.07379517584093288,0.0038413959700847045,0.00029229806607334485,27503.441788053315
1682906769272501707,29,1682906769272501707,camera_1,30,1,-0.12357759009629231,-0.21325900669105746,1.7766686553390745,0.9958130252730357,-0.01024430591585995,0.05161423210906118,0.07474920692996528,0.0016569419094594195,0.00012611262095672812,27497.720194694222
1682906769279040098,30,1682906769279040098,camera_1,31,1,-0.12355102168596019,-0.21318988212771225,1.776389964761735,0.9958105844731026,-0.01025842324482928,0.05260305887157284,0.07408753472225642,0.0014122100692475215,0.00010744275243174459,27507.107558473705
1682906769285974740,31,1682906769285974740,camera_1,32,1,-0.12355838286868562,-0.21321821512834577,1.7765465516610457,0.9958284691733181,-0.010231103515726847,0.050685983969211174,0.07517922275369203,0.0014044077252037825,0.00010688418542146178,27502.118780486748
1682906769292738914,32,1682906769292738914,camera_1,33,1,-0.12351179664018556,-0.21315795125005,1.7761029077762067,0.9957116965573356,-0.010387940494783206,0.05130258663049855,0.07627812685304869,0.0007091703737387434,5.394528436068535e-05,27506.183444993345
1682906769299384117,33,1682906769299384117,camera_1,34,1,-0.12351494672667232,-0.2131880022521913,1.7760712614074585,0.9957035400028402,-0.010298087526404534,0.05118204821674805,0.07647749838645093,0.000963873404543847,7.332372174215228e-05,27506.09808017377
1682906769306127309,34,1682906769306127309,camera_1,35,1,-0.12350982388655088,-0.21315221562361064,1.7759072384637231,0.9957659446510686,-0.010332280602717462,0.05072833517992792,0.075960933779046,0.0029170268826419488,0.00022183921681286065,27516.388274164507
1682906769312992572,35,1682906769312992572,camera_1,36,1,-0.12352598782810817,-0.21316831110269346,1.7760194224482404,0.9957576472307061,-0.010203032030807618,0.05186407734460478,0.07531748535459709,0.0022107092081569135,0.0001681446099342994,27513.07430654792
1682906769319509744,36,1682906769319509744,camera_1,37,1,-0.12357352320111901,-0.21325490217710708,1.7766863327364066,0.9958503990213821,-0.010175061321586258,0.05071964844921002,0.07487301354456556,0.003896212685503997,0.00029658278154809614,27499.629319728912
1682906769326330184,37,1682906769326330184,camera_1,38,1,-0.12354941176691124,-0.2132220588120294,1.7764741334145175,0.9957573023211671,-0.010285388735704556,0.0512404215448604,0.07573654898747584,0.0012691537267528474,9.657908658353598e-05,27498.555163593264
1682906769332922697,38,1682906769332922697,camera_1,39,1,-0.12346950961783018,-0.21311223793292863,1.7755882715602396,0.9956389246123517,-0.010383552919557138,0.052488052147960575,0.07642197332730688,0.0025054803700186312,0.00019046076685367427,27516.581667400897
1682906769339426517,39,1682906769339426517,camera_1,40,1,-0.12355799901183563,-0.21323206108123688,1.7766382852965428,0.9959244459954677,-0.010134288169626592,0.050726410974815075,0.07388251011930942,0.0025624571717344224,0.00019501812136856413,27507.71566407406
1682906769346023321,40,1682906769346023321,camera_1,41,1,-0.1235308086552518,-0.21321415048047027,1.776283325969991,0.9958010307174734,-0.010213684114353628,0.05084685456295349,0.07543596794556168,0.007386011304333806,0.0005619356229982435,27507.79879741045
1682906769352672576,41,1682906769352672576,camera_1,42,1,-0.12357406419581425,-0.21325081470695761,1.7767142626198875,0.9958222618628974,-0.01024462440829416,0.05133194828827718,0.07482046200021561,0.0018436968821333721,0.0001403371834771866,27496.93201550888
1682906769359210014,42,1682906769359210014,camera_1,43,1,-0.12354402749305371,-0.21321117630599534,1.7762967171529018,0.9957128669440708,-0.010397783775538112,0.05127438443499714,0.07628047060282543,0.0015288195136236027,0.00011631838388286612,27500.164577673597
1682906769365804195,43,1682906769365804195,camera_1,44,1,-0.12349845904622986,-0.21316668998968916,1.7758915015560528,0.9956952863576443,-0.010323306241208523,0.050458078543524715,0.07706042034088924,0.001025787030812353,7.801749634558517e-05,27510.281589635524
1682906769372557401,44,1682906769372557401,camera_1,45,1,-0.12354241041417272,-0.21320842457791522,1.7762453685738433,0.9956473985027255,-0.010165804754958378,0.052819974258133555,0.07611152729915024,0.0054167116759344935,0.000412062855597503,27497.059787778177
1682906769379263162,45,1682906769379263162,camera_1,46,1,-0.12351583252175384,-0.21319586136178154,1.7760201475772406,0.9956827537207961,-0.010235451212167112,0.05209243220108682,0.0761411057762573,0.003800541046075523,0.0002890640986220944,27506.519496522145
1682906769385917901,46,1682906769385917901,camera_1,47,1,-0.12353569229283787,-0.21322043565179896,1.776421989939765,0.9957701856487188,-0.01040294683010803,0.050825005827785506,0.07583096236348022,0.0021321033709682524,0.00016223616420378244,27501.022263295705
1682906769392458438,47,1682906769392458438,camera_1,48,1,-0.12348623556637883,-0.2131517387150558,1.7758718387489851,0.995700042726693,-0.010478985637318736,0.05178368165737007,0.07609248378179591,0.004634603043086827,0.0003524150203959038,27512.697286264683
1682906769399054765,48,1682906769399054765,camera_1,49,1,-0.12355239426640291,-0.21321947517431938,1.7764594173262047,0.9958276568714768,-0.01037253156891619,0.05032416660106011,0.0754133055542933,0.00339957867981866,0.00025870320999643576,27504.46840818866
1682906769405715942,49,1682906769405715942,camera_1,50,1,-0.1235381888682191,-0.213222872884678,1.7763711212503948,0.9957977143670345,-0.010366946650620785,0.04985287936380511,0.07611917562395804,0.0026942958938889205,0.0002050132645749557,27504.084178153375
1682906769412428379,50,1682906769412428379,camera_1,51,1,-0.1235655460407792,-0.21324882925356353,1.7765276983183946,0.9958109296712926,-0.010064178991544544,0.050957506240283244,0.07525049638503165,0.001964886861969717,0.00014953847958776458,27501.1167865357
1682906769419283866,51,1682906769419283866,camera_1,52,1,-0.12349900740700546,-0.21315330851440895,1.7758193379252765,0.9957279490306584,-0.010325039198557213,0.05201947015974204,0.07558584397257652,0.0013518862542696295,0.00010279713296546644,27516.839721663724
1682906769426050186,52,1682906769426050186,camera_1,53,1,-0.12355093646108302,-0.21321851307098932,1.7764598559907603,0.9957990706182278,-0.010179271401318135,0.053610476249206715,0.07352897541748782,0.0027006262098439038,0.00020546397690410196,27504.624871043838
1682906769432678699,53,1682906769432678699,camera_1,54,1,-0.12354094957640802,-0.21318903704094208,1.7762020090530244,0.9956966746095467,-0.010160855218759745,0.05373946737582047,0.07481282536355001,0.002552230333094485,0.00019412904317971823,27503.619527812647
1682906769439098119,54,1682906769439098119,camera_1,55,1,-0.12351995714897568,-0.21316745141748927,1.7758129343826348,0.9957566614065255,-0.010019502277570754,0.052114496135914824,0.07518217961152542,0.0036623889027396217,0.00027849108112109965,27519.324195801637
1682906769445604085,55,1682906769445604085,camera_1,56,1,-0.12359417670902836,-0.21328491369248995,1.7767867089367693,0.9959323110833733,-0.010023567399201908,0.05190639730209518,0.07296633302997842,0.003004907805006951,0.0002287319292018033,27504.607976845884
1682906769452956676,56,1682906769452956676,camera_1,57,1,-0.12357600277612028,-0.2132380602769175,1.7766117904388379,0.9959131304458301,-0.010037593259648415,0.05226038045908606,0.07297352918293337,0.0025858317530946806,0.00019678619686920346,27508.728161469517
1682906769459520101,57,1682906769459520101,camera_1,58,1,-0.1235309724202046,-0.21319020316707019,1.7762110824216715,0.9957868491493127,-0.010187136282084123,0.05125428878408807,0.0753509867015131,0.0030191319092409685,0.00022967020485664544,27509.209242794666
1682906769466460466,58,1682906769466460466,camera_1,59,1,-0.12355443182909637,-0.21320741414878364,1.7763082084442656,0.9958460843662712,-0.010125623559256702,0.0525508319415738,0.07366449661913305,0.0029163555154809733,0.00022185828166895527,27512.487464673126
1682906769472972631,59,1682906769472972631,camera_1,60,1,-0.12355451912916839,-0.21321223224130173,1.7763468099247504,0.9958499262664632,-0.01019318120084855,0.051005238185303586,0.07468258893307791,0.0016927588148973882,0.00012879142228907256,27510.37106636761
1682906769479296445,60,1682906769479296445,camera_1,61,1,-0.12353963808492488,-0.21319423963611195,1.7761906423696296,0.9957299033057313,-0.010261729527205056,0.051046308859607446,0.07622946229430677,0.0037234529881970957,0.0002832778404971879,27504.60892449762
1682906769485914945,61,1682906769485914945,camera_1,62,1,-0.12355001570984063,-0.21321580559549477,1.776206697888606,0.9957460837797034,-0.010247572574215994,0.051956878605487915,0.0754003094111338,0.001942951072123833,0.00014780763234131924,27506.295095170786
1682906769492042779,62,1682906769492042779,camera_1,63,1,-0.12354336244537986,-0.21321189238266192,1.7761925047040963,0.995829225632791,-0.009998636211572109,0.05248355285366553,0.07395713170047119,0.005373312640585937,0.00040874511483427487,27514.32005952323
1682906769499079227,63,1682906769499079227,camera_1,64,1,-0.12353737385214351,-0.2132211309200115,1.776242326787785,0.9958135264150226,-0.010321373722676162,0.05028485038095501,0.07563282141715225,0.0033404757996322587,0.0002541420815305438,27509.735878988406
1682906769505669116,64,1682906769505669116,camera_1,65,1,-0.12350915002232989,-0.2131704655951589,1.7760581678477414,0.9957189295945145,-0.010376238522080486,0.051874683880667655,0.07579686071050708,0.0029099611565470695,0.00022132123456989957,27508.63311197132
1682906769512328147,65,1682906769512328147,camera_1,66,1,-0.12354903868574714,-0.21320923397540048,1.7762820285534664,0.9958231771018354,-0.010245359317439938,0.05043497168122772,0.07541582188623813,0.00023218640126287937,1.7666487396621655e-05,27509.52398005513
1682906769519044160,66,1682906769519044160,camera_1,67,1,-0.12352395950090429,-0.21320308315539285,1.7761566238906432,0.9957666214080899,-0.010243826437443706,0.05147134222053092,0.07546257774191424,0.0022024050704203546,0.0001675427999850142,27509.253396201522
1682906769525821447,67,1682906769525821447,camera_1,68,1,-0.12350591185852396,-0.21314449112451017,1.775861893882759,0.9957473041296575,-0.010373418224609816,0.05193385562682325,0.07538284388764513,0.0018220850033685565,0.00013855137673853045,27517.26838987285
1682906769532401084,68,1682906769532401084,camera_1,69,1,-0.12352295532425066,-0.21318817139524215,1.7761438874200874,0.9957982753643464,-0.010229942708465854,0.0521183116270883,0.07459775228997496,0.003086829514359124,0.00023478523163684764,27513.06749096664
1682906769538950920,69,1682906769538950920,camera_1,70,1,-0.12356802674938293,-0.2132634140651723,1.7766442662757163,0.9957803285937377,-0.01008829072982111,0.051949651460748834,0.07497331051117638,0.0028736391686834395,0.00021870594645981387,27495.70808916376
1682906769545671939,70,1682906769545671939,camera_1,71,1,-0.12352366608177971,-0.21318320863038265,1.7760674299842922,0.9957716560865618,-0.01023145500835867,0.05119953989090443,0.07558262616499592,2.057309029623866e-05,1.5649149749386893e-06,27512.272683872834
1682906769552253007,71,1682906769552253007,camera_1,72,1,-0.1235199431346249,-0.21318448893962225,1.7762813431233875,0.9959056362834078,-0.010065825078167322,0.05114507341354371,0.07385678201736004,0.0037021316966274753,0.00028163173041898714,27517.397156400257
1682906769559007167,72,1682906769559007167,camera_1,73,1,-0.12354102514774612,-0.21317474917024998,1.7761014000316013,0.9958443781873337,-0.010294094050524063,0.05114206927789438,0.07464914473948656,0.0026682171155698597,0.0002029602027027138,27517.673122490483
1682906769565706253,73,1682906769565706253,camera_1,74,1,-0.12352635404054062,-0.2131724502157214,1.7760609335721584,0.9958063478835826,-0.010230970183529963,0.05160639070491701,0.07484534188763328,0.0034218633809359744,0.00026025526137487295,27515.91116469656
1682906769572507143,74,1682906769572507143,camera_1,75,1,-0.12353242216566554,-0.2131973742391809,1.7762287041819398,0.9958115509424112,-0.010211008517199034,0.05142350804845878,0.07490469367617261,0.006094543321523815,0.00046359243304492823,27511.00052611978
1682906769578980922,75,1682906769578980922,camera_1,76,1,-0.12354823960397252,-0.21320787683955333,1.776260849214589,0.9958008743034281,-0.010182221469220078,0.050296937828595616,0.07581002009989382,0.0006442660960601643,4.902304235354533e-05,27508.007877999327
1682906769585783958,76,1682906769585783958,camera_1,77,1,-0.12358899201703977,-0.21327250686317123,1.7767368096671712,0.9958903262272996,-0.010026878449842338,0.05176377810045657,0.07363715850168095,0.004978595417924225,0.00037893405095961764,27502.34648731444
1682906769592469692,77,1682906769592469692,camera_1,78,1,-0.12346142172881436,-0.21312521060379003,1.775537662845637,0.9957442913018015,-0.010365787383202317,0.050715786830349815,0.0762480541258458,0.0017187136254506186,0.00013065600887400132,27525.849027885866
1682906769599047422,78,1682906769599047422,camera_1,79,1,-0.12351613742817633,-0.21315109785675518,1.775894475433556,0.9956492678122927,-0.010429117079135094,0.052115486537157384,0.07653590715991143,0.0015982997720129788,0.00012154314576028096,27507.76464503845
1682906769606024742,79,1682906769606024742,camera_1,80,1,-0.12354976037784761,-0.2132222463155915,1.7764124354424133,0.9958379573180437,-0.01004168590488023,0.05183784377797022,0.07428839250693679,0.004496450434089638,0.00034213151401381607,27507.853858274168
1682906769612475156,80,1682906769612475156,camera_1,81,1,-0.12351397156832737,-0.2131747730303827,1.776003384105486,0.9957993795658631,-0.010178532068983783,0.05058026575175465,0.07564145594609364,0.004880826512817293,0.0003712140198489785,27516.073181707874
1682906769619067668,81,1682906769619067668,camera_1,82,1,-0.12355253714987433,-0.21321809553682453,1.7763680325569642,0.9958381268415951,-0.010165496525339882,0.051073612464922064,0.07479688441906794,0.00477110972860828,0.0003630043677085634,27508.676689449007
1682906769625924110,82,1682906769625924110,camera_1,83,1,-0.12354857512355229,-0.21319136523536034,1.776187002787092,0.9957824682079641,-0.010384497914472315,0.0508444553119894,0.07565896891146816,0.0010810914682224395,8.22493158322088e-05,27509.34333277407
1682906769632644414,83,1682906769632644414,camera_1,84,1,-0.12356382139794149,-0.21324586984875277,1.7765543609841068,0.9958198291958826,-0.010295278717337325,0.050978447222651324,0.07508710232245504,0.006401473714504391,0.00048713839752273285,27501.315198571945
1682906769639335155,84,1682906769639335155,camera_1,85,1,-0.12353168984428745,-0.21320953612457372,1.776187413657837,0.995736011484445,-0.010203228936734948,0.050561602914292715,0.07648015339322574,0.001897091162391007,0.00014432840289716321,27504.724918330678
1682906769646074056,85,1682906769646074056,camera_1,86,1,-0.12350523367093158,-0.21319133891344905,1.7760084367287439,0.9956961173750537,-0.010231817577729264,0.051990351360678554,0.07603653805041705,0.00459168957604561,0.0003492093263597338,27508.003602866076
1682906769652836084,86,1682906769652836084,camera_1,87,1,-0.12351100803668974,-0.2131747923762964,1.7760656813043003,0.995791755787155,-0.010179764843243488,0.05178938965850054,0.07492002811579461,0.0063758092146599665,0.00048495576890802164,27514.555163599143
1682906769659481763,87,1682906769659481763,camera_1,88,1,-0.12358964628688639,-0.2132618164113406,1.7768878547360973,0.9959463941030324,-0.010121986170259226,0.05167775759183024,0.07292280054562145,0.0015259325882652774,0.00011615847027149516,27502.765532412333
1682906769665923833,88,1682906769665923833,camera_1,89,1,-0.1235589239019789,-0.21321814048040424,1.7764203157266596,0.9957921266460207,-0.010280235002643223,0.05143867696667023,0.07514266291531542,0.003122590482234955,0.00023759120364676435,27503.450285597948
1682906769672522306,89,1682906769672522306,camera_1,90,1,-0.12352622592450954,-0.21322093529194167,1.776320959302699,0.9957517203259882,-0.01011626442043787,0.051396946185334594,0.07572665702929356,0.0033546969207236543,0.00025524480422108226,27502.68883077288
1682906769679229497,90,1682906769679229497,camera_1,91,1,-0.12354423944822492,-0.2132184723109443,1.776320340402796,0.9958451721092906,-0.010196816273096281,0.0515299608254512,0.07438468432303659,0.0019065168453380466,0.00014505707450822986,27511.186353780577
1682906769685751914,91,1682906769685751914,camera_1,92,1,-0.12353161653170801,-0.21316936810593726,1.7760911358646891,0.995793901561194,-0.010266282519740735,0.05259685400218921,0.07431473612839097,0.0008008303120732307,6.09116707417821e-05,27514.804355607354
1682906769692275285,92,1682906769692275285,camera_1,93,1,-0.12354613969935592,-0.2132201032738786,1.776385391247688,0.9958438203620781,-0.010283345284145937,0.050528311971296834,0.07507481565584796,0.005603553610853851,0.00042636883685866,27508.247232998845
1682906769699166297,93,1682906769699166297,camera_1,94,1,-0.12353438946186417,-0.2131711714428653,1.7760057466120154,0.9957324553874037,-0.010334374337191983,0.05182076502808133,0.07566165678291323,0.003295048954896629,0.0002505885297619656,27511.347057365692
1682906769705820083,94,1682906769705820083,camera_1,95,1,-0.12351605056015559,-0.21318668937890484,1.7761308761468328,0.9958172565975184,-0.01029150828506248,0.05057166867242273,0.07539617130529468,0.0020015586051158607,0.0001522531381875405,27513.846633556874
1682906769712677955,95,1682906769712677955,camera_1,96,1,-0.12355746022823615,-0.2132226620624983,1.7765009515151011,0.9958550516290311,-0.01020572988786395,0.051459420017196285,0.07429998192388565,0.0034132444416172802,0.00025974023015315023,27506.486018660937
1682906769719172000,96,1682906769719172000,camera_1,97,1,-0.1235348234964825,-0.21319479904388858,1.7762101323990414,0.9958359161709738,-0.010234182522719138,0.05126562268155957,0.07468551066358889,0.001271505025215447,9.672397748712828e-05,27513.630479065767
1682906769725788593,97,1682906769725788593,camera_1,98,1,-0.12357114731646356,-0.21324435309350026,1.7766458983470699,0.9958897775513365,-0.010216540645073385,0.05153899152718562,0.0737760504388649,0.0013632666232297197,0.00010375193305278265,27505.164472613367
1682906769732571125,98,1682906769732571125,camera_1,99,1,-0.12350588934384152,-0.2131503340570715,1.7758511122045397,0.995746435889454,-0.010156366737903717,0.052787056504742705,0.07482920749079065,0.005326283004251309,0.00040498090876984935,27518.022265888285
1682906769739309072,99,1682906769739309072,camera_1,100,1,-0.12350497273910879,-0.2131880524639528,1.776017783995581,0.9957075109305393,-0.010192382751448643,0.05103849025139716,0.07653587735967922,0.005583839621976949,0.0004246957080810348,27507.848385985133
1682906769746093750,100,1682906769746093750,camera_1,101,1,-0.12353176592713082,-0.21324724684357352,1.776572923799895,0.9959594798261946,-0.010363905889095339,0.049365962639238654,0.0742987599611144,0.005950812483206391,0.000452900699410267,27511.677709117714
1682906769752891302,101,1682906769752891302,camera_1,102,1,-0.12354706196865055,-0.2132009690325343,1.7762993439751613,0.9958329084701771,-0.010304970426968124,0.05107795787118862,0.07484429311601679,0.004343340347986668,0.0003304133154815539,27510.52113462729
1682906769759474039,102,1682906769759474039,camera_1,103,1,-0.1235570267606177,-0.21323578344250768,1.776412529404091,0.9958093207815303,-0.010205464612239055,0.05264611447398728,0.07408125111975102,0.004655329161323607,0.0003541777212716868,27506.10980413204
1682906769766244411,103,1682906769766244411,camera_1,104,1,-0.12349992854433986,-0.2131684867570209,1.7758119616555907,0.9956774817639736,-0.01025916580201758,0.051136785902599555,0.07685135621933134,0.0033534295071149245,0.0002549993633927697,27511.67903842894
1682906769772325515,104,1682906769772325515,camera_1,105,1,-0.12354520363988512,-0.21319149412461616,1.7761725637206192,0.9957586634650114,-0.010098552972146282,0.05325938542149434,0.07433802006219772,0.003417985761188902,0.0002599674094768608,27509.531780272016
1682906769778972625,105,1682906769778972625,camera_1,106,1,-0.12349607155116395,-0.21315865740527212,1.7758944478723762,0.9957263545507186,-0.010280586953715259,0.050197077529255896,0.07683482148444162,0.0016437852318631485,0.00012501920033684282,27512.705304708637
1682906769785941600,106,1682906769785941600,camera_1,107,1,-0.12355949347990797,-0.21319873528595212,1.7763056715346341,0.9957830858890802,-0.010176805805759963,0.05176862646756459,0.07504990202841426,0.00373412377666682,0.00028410005576863,27506.389390974655
1682906769792555809,107,1682906769792555809,camera_1,108,1,-0.12349991285342526,-0.21316190546289648,1.7759836327964436,0.9958014288884179,-0.0102931778317495,0.050027377275503604,0.07596595445884712,0.0007103365496732295,5.403067479114654e-05,27516.512012857533
1682906769799082756,108,1682906769799082756,camera_1,109,1,-0.12350055398529516,-0.21319106529754292,1.776101005126347,0.9957020709281451,-0.010465663881175072,0.05087794732296247,0.07667653034097986,0.0032814574224175885,0.000249624973718819,27504.90407648025
1682906769805723905,109,1682906769805723905,camera_1,110,1,-0.12352811151569662,-0.21319674288773754,1.7762061266101856,0.9958017598048151,-0.010290236201765151,0.04947933800243792,0.07632012394765728,0.002412334841210395,0.00018353821180701116,27509.11299691441
1682906769812419652,110,1682906769812419652,camera_1,111,1,-0.12350949665652486,-0.21316659202479857,1.7760770829859498,0.9958581987757053,-0.010432839219270044,0.0502329274407491,0.07506168661684466,0.002643518557306379,0.00020106690766360347,27519.012740864062
1682906769818971157,111,1682906769818971157,camera_1,112,1,-0.12355157945460674,-0.21324078489113024,1.776527460259369,0.9959075572695834,-0.010323248201907942,0.05043125042291723,0.07428497089367755,0.00434832445171196,0.00033093450709007237,27509.43062364048
1682906769825690984,112,1682906769825690984,camera_1,113,1,-0.1235483964639594,-0.2132389223549802,1.7764973828227428,0.9958301081622535,-0.01031694048968642,0.05093942626011567,0.07497420402229728,0.0021422841382445768,0.00016302248000097365,27503.982873915233
1682906769832399129,113,1682906769832399129,camera_1,114,1,-0.12355781661317018,-0.2132140518468757,1.7765102899231715,0.9958686940404645,-0.010301934431151304,0.050097108960239806,0.07503128714704134,0.0009101884206756949,6.926834406322515e-05,27506.336038071495
1682906769839005947,114,1682906769839005947,camera_1,115,1,-0.12354212200434095,-0.21319672535462586,1.7762249801465315,0.9958273012449703,-0.010175553865195006,0.05145801973428169,0.07467607651532096,0.0030673623696202412,0.00023333460434205573,27512.511282418505
1682906769845677614,115,1682906769845677614,camera_1,116,1,-0.12355235973775475,-0.2132126347811043,1.776425945343594,0.9958556627435101,-0.010094636114976418,0.05246344567452273,0.07360152288741645,0.002475927656632848,0.0001883792415221535,27509.637358762804
1682906769852410793,116,1682906769852410793,camera_1,117,1,-0.12354058511557514,-0.21321123803872832,1.776258481951165,0.995898734977784,-0.010184190189197159,0.05081078091585757,0.07416371405586647,0.0017515740619273854,0.00013325045923490774,27517.197463079832
1682906769859070301,117,1682906769859070301,camera_1,118,1,-0.12356723574211327,-0.21325783695658318,1.776553522578647,0.9958499226642814,-0.010198924544456665,0.05059413077841768,0.07496097250208081,0.002517752189305611,0.00019161871599280737,27503.532511826597
1682906769865684270,118,1682906769865684270,camera_1,119,1,-0.1235422574807932,-0.21324469912054989,1.776534664513032,0.9958484122768752,-0.010302799885659344,0.05114755715878437,0.07459034439411165,0.004886740643996745,0.00037186839602524675,27504.60258212308
1682906769872360229,119,1682906769872360229,camera_1,120,1,-0.12356486798034645,-0.21325143454735743,1.7766509608837382,0.9958779102528594,-0.010267059142084289,0.05133325245211119,0.07407207678780588,0.003597081537009217,0.00027376473012519816,27503.781105455488
1682906769879046916,120,1682906769879046916,camera_1,121,1,-0.12355845905533797,-0.21323658821067343,1.776468842295151,0.9958983619529206,-0.01026790239622158,0.05046144716324364,0.0743953304318378,0.0014019680820638314,0.00010668948339498332,27510.420832585092
1682906769885676383,121,1682906769885676383,camera_1,122,1,-0.12353995796372853,-0.21323379962243438,1.7766582768704322,0.9959365381397118,-0.010012348205765706,0.0519653884160682,0.07286812258086604,0.006613987919990905,0.000503281895757637,27509.13364683335
1682906769892357349,122,1682906769892357349,camera_1,123,1,-0.12351599319927933,-0.21320043588264614,1.7761512877175887,0.9958212324287427,-0.010498720981797115,0.04975918971982262,0.0758542875536608,8.596648694947362e-05,6.5402953954575784e-06,27512.96812502923
1682906769899088859,123,1682906769899088859,camera_1,124,1,-0.12352978838890162,-0.21318647194828647,1.776069495183676,0.995817884236783,-0.01017111793354088,0.05005318695811746,0.07574937801391478,0.0036800134839722887,0.0002799213173235842,27515.1706298793
1682906769905816078,124,1682906769905816078,camera_1,125,1,-0.12355648733429139,-0.21327186815500704,1.776718749706673,0.9958914314787037,-0.01037554249292118,0.050549762216654165,0.07441321364593714,0.0016480268095619977,0.00012544854680871838,27502.248709578656
1682906769912404775,125,1682906769912404775,camera_1,126,1,-0.12357154049089038,-0.2132466659231223,1.7766645340901508,0.9958880837583584,-0.01014871703212753,0.05189301760223965,0.07355979129144263,0.0032648969790898263,0.0002484732980789997,27504.671051761252
1682906769919023513,126,1682906769919023513,camera_1,127,1,-0.12356362206565623,-0.21327350917418814,1.7767167511926696,0.9959242010643378,-0.010369276175708842,0.05045305347562021,0.07404021367431908,0.0027525502518983558,0.00020951410324440229,27505.099341169804
1682906769925676584,127,1682906769925676584,camera_1,128,1,-0.12355271136456174,-0.21326537304259618,1.7765887587453646,0.9959341295317542,-0.01018733645867568,0.05121213172382049,0.07340807431071145,0.003931991886929609,0.00029921002869934136,27510.416724304087
1682906769932245969,128,1682906769932245969,camera_1,129,1,-0.12352899909373496,-0.21314996236956907,1.7761490736634924,0.9957514394155453,-0.010196035226702324,0.05235425541844312,0.07506093329493044,0.0037577947514364496,0.00028581046431881365,27509.095450126675
1682906769939041614,129,1682906769939041614,camera_1,130,1,-0.12354845733262343,-0.2131933889036179,1.7764796686414452,0.9958002409050499,-0.0101870061154429,0.051672672929303366,0.07488684792531823,0.001203608131618239,9.158791870551785e-05,27502.59568511589
1682906769945761680,130,1682906769945761680,camera_1,131,1,-0.12354111045379616,-0.2132287091010816,1.7765948221267946,0.995949163864344,-0.01032265835685113,0.05055662204010425,0.07363921299318811,0.004819817957468331,0.00036681460332392367,27511.213586162317
1682906769952326059,131,1682906769952326059,camera_1,132,1,-0.12350697060167694,-0.21318849050235852,1.7759529614433776,0.995741464970549,-0.010173438583299308,0.05175076190261569,0.07561279473869191,0.0009361665725009516,7.119753431077916e-05,27513.48159651995
1682906769959000110,132,1682906769959000110,camera_1,133,1,-0.12353772831764874,-0.21320277826014944,1.7760928388172177,0.9958011211511781,-0.01026156414214861,0.05058261960445712,0.07560572735821046,0.0022470070543931793,0.00017091903297349327,27513.486668555073
1682906769966003656,133,1682906769966003656,camera_1,134,1,-0.12354118462045441,-0.2132281658836256,1.7764556380241832,0.9959553796367473,-0.010284943624996223,0.049932149845205866,0.0739856886099543,0.0007643537828698754,5.81626961947851e-05,27515.459316938308
1682906769972456932,134,1682906769972456932,camera_1,135,1,-0.12352660629889403,-0.21318454456501715,1.7762242246134687,0.9957765978589709,-0.010315821905354957,0.052406638346806464,0.0746732564712267,0.004087976136361249,0.00031094921673588074,27509.04299252556
1682906769979052782,135,1682906769979052782,camera_1,136,1,-0.12352063035910257,-0.21317298115316546,1.7759577311889847,0.9956846286471256,-0.010249055805130877,0.051550059838903844,0.076483125338498,0.001160814965260215,8.829003071267635e-05,27508.214994733684
1682906769985710620,136,1682906769985710620,camera_1,137,1,-0.1235410821545945,-0.21317150248679495,1.7762263672588643,0.9957528151095445,-0.010301402909991611,0.05240225201053591,0.0749947750428496,0.0026349109975853935,0.00020043330168250623,27506.903724986303
1682906769992346763,137,1682906769992346763,camera_1,138,1,-0.12353760626854325,-0.21319450515699254,1.7763227866688074,0.995844002533096,-0.010171209920655015,0.05082614583678773,0.07488639400445664,0.002537194188334979,0.0001930419289733843,27510.453655259
1682906769999103069,138,1682906769999103069,camera_1,139,1,-0.12352956568917967,-0.2131975080728586,1.7761922067693587,0.9958083872323203,-0.01022821351431491,0.052532020855607126,0.07417160070334568,0.002428138453979045,0.00018469340823977978,27512.807428835662
1682906770005764245,139,1682906770005764245,camera_1,140,1,-0.12354919613650416,-0.21323016361403335,1.7762827950558115,0.9958145118712214,-0.010133140592831925,0.05255448274406491,0.07408646132668835,0.0032229042408289388,0.0002451722997455429,27510.3986157102
1682906770012534856,140,1682906770012534856,camera_1,141,1,-0.12354978037379785,-0.21324592479277732,1.7765390720711796,0.9959070040850263,-0.010172625244082011,0.05205333318250978,0.0731861149031822,0.005420735877123661,0.00041244890502912255,27510.31392535079
1682906770019042253,141,1682906770019042253,camera_1,142,1,-0.12356630774708138,-0.21323564093837838,1.7764527782237662,0.9958841791776658,-0.010145849073459983,0.05070541398348203,0.07443604236503414,0.0011715228902176023,8.915125815496045e-05,27509.77664621686
1682906770025578498,142,1682906770025578498,camera_1,143,1,-0.12354837066492268,-0.21323153862827487,1.776374790238179,0.9958227158581257,-0.01036090277681508,0.05057273193539358,0.07531380390862734,0.001900069648399949,0.00014457830321837356,27506.785318845177
1682906770032568693,143,1682906770032568693,camera_1,144,1,-0.12353267121466094,-0.21314440744161017,1.7761016483580985,0.9958446745800773,-0.010175070246504448,0.05227515104124958,0.07387259735242241,0.002180595605750568,0.000165841241420097,27518.713337441906
1682906770039190530,144,1682906770039190530,camera_1,145,1,-0.12356277081239496,-0.21319486934024168,1.7765086599038489,0.995844192703568,-0.010208125265505493,0.051599167939449235,0.07434826094199536,0.0035996450460515916,0.00027390099610709415,27505.537726975446
1682906770046116828,145,1682906770046116828,camera_1,146,1,-0.1235174704474382,-0.21317477564989878,1.7761974945015295,0.9957079784202638,-0.01025078143874671,0.05124472832542962,0.0763840363490932,0.0006789404578739777,5.165392188870913e-05,27502.731103482667
1682906770052581071,146,1682906770052581071,camera_1,147,1,-0.12354611259844875,-0.21323493578434874,1.776510110808491,0.9958559807103938,-0.010263396483918068,0.05034249407654612,0.07504106653097638,0.002886545960791409,0.00021966537719464102,27505.316000885672
1682906770059242010,147,1682906770059242010,camera_1,148,1,-0.12353184299641344,-0.213227188525214,1.776288298092626,0.9958621361657393,-0.010281848695723189,0.05030339534194699,0.0749830497904742,0.0031859934097155933,0.00024239587563082359,27512.607332959647
1682906770066045045,148,1682906770066045045,camera_1,149,1,-0.12350621502640295,-0.21320805040505109,1.7762044899319505,0.995815899038209,-0.010341915704678597,0.04981778281105944,0.07590736800911348,0.005881186516489834,0.0004474103653427365,27510.737056258837
1682906770072629928,149,1682906770072629928,camera_1,150,1,-0.1235410966930377,-0.2132089021063882,1.7764120009941347,0.9958022829558705,-0.010267028336861559,0.05127687038334944,0.07512046294250381,0.0035259605501778424,0.0002682763049683515,27504.490237767568
1682906770079174041,150,1682906770079174041,camera_1,151,1,-0.12358992895162808,-0.2132492803150042,1.7768392428577227,0.9959078435645344,-0.010229723741832796,0.051793406399513076,0.07335095726941446,0.003349662365508266,0.0002549707397604506,27501.07370884368
1682906770085773229,151,1682906770085773229,camera_1,152,1,-0.12353586477933264,-0.2131935212596993,1.776398926781805,0.9959513865388888,-0.01011761357438891,0.05123862731781733,0.07316469515695512,0.0034682007535593584,0.0002638645945938284,27517.939626741576
1682906770092419862,152,1682906770092419862,camera_1,153,1,-0.12352158767695871,-0.21315390921921173,1.7760953730986995,0.9958093633841211,-0.010468983558670479,0.05127566874842423,0.07499945315908631,0.003791737894061953,0.0002883878690081192,27515.132851804257
1682906770099204063,153,1682906770099204063,camera_1,154,1,-0.12356498740725315,-0.21324307645506715,1.776655985948967,0.9958936703469086,-0.010301495228789063,0.05050980901698506,0.07442066750629157,0.005400631460361183,0.00041105961762106835,27504.33629762381
1682906770105716705,154,1682906770105716705,camera_1,155,1,-0.12354414559037034,-0.21321524943128015,1.7764183727610723,0.9959561860405178,-0.010301320549248025,0.05194345702698871,0.0725743450170411,0.0028999238420510665,0.00022061171752599693,27518.462203100906
1682906770112391948,155,1682906770112391948,camera_1,156,1,-0.12353055008069419,-0.21323668241253965,1.7763000449767248,0.9958543154151438,-0.010203918471943706,0.050248011766470944,0.07513454485368151,0.0035568524763220925,0.0002706357115936536,27511.389627704273
1682906770118754386,156,1682906770118754386,camera_1,157,1,-0.12356606291095129,-0.21326538531016093,1.7765401249186894,0.9957706065931906,-0.01025083426312892,0.051236371834218294,0.07556886689110046,0.003982152222306468,0.00030307158724197545,27497.48958619649
1682906770125577688,157,1682906770125577688,camera_1,158,1,-0.12356393572738765,-0.21323158459011637,1.7764146167153587,0.9957930757767556,-0.010320731290135032,0.0517467149061706,0.0749126840870419,0.0002704336657188833,2.0577632360131496e-05,27503.97886494139
1682906770132854461,158,1682906770132854461,camera_1,159,1,-0.12354452104005816,-0.21319911921029205,1.7764577608210528,0.995862634365024,-0.010197425154643724,0.05097467840344727,0.07453326879612457,0.005210911447647959,0.00039650887020971457,27508.12173749134
1682906770139348030,159,1682906770139348030,camera_1,160,1,-0.12356522343271861,-0.2132091528095661,1.7766586518545466,0.9958625498979662,-0.010095598266809237,0.051299346012444194,0.07432521580898217,0.007813880933099426,0.0005946517691855262,27502.173575015277
1682906770145987987,160,1682906770145987987,camera_1,161,1,-0.12358211384068528,-0.21327243540119223,1.7769313658789145,0.9960337828056827,-0.010055153543027407,0.049572464557833554,0.07319950925170698,0.0022446353104896843,0.00017089581489635911,27507.186699235877
1682906770152987718,161,1682906770152987718,camera_1,162,1,-0.12350677419274018,-0.21318530623470844,1.7760548753780754,0.9957870242165683,-0.010273652232464264,0.050957116384977824,0.07553824701067666,0.0037249114247970283,0.0002833317165157467,27513.781343754727
1682906770159298419,162,1682906770159298419,camera_1,163,1,-0.12351644088133774,-0.21317539133578145,1.7760061429587728,0.9957505187680656,-0.01027273798712274,0.05092602808867215,0.07603890379593735,0.0005685448995791376,4.3244770908245214e-05,27512.06260336086
1682906770165874004,163,1682906770165874004,camera_1,164,1,-0.12354191918198718,-0.21321035827983276,1.7762585957464525,0.9958108769593716,-0.010251261966309237,0.052246006644430534,0.07433682631922937,0.0022242681006900966,0.00016920550308336023,27510.73141045822
1682906770172529697,164,1682906770172529697,camera_1,165,1,-0.12354544310419242,-0.21320391826590657,1.7763206595540186,0.9958805518877051,-0.010116633073011432,0.05216987067841712,0.07347029808366952,0.004859894936089404,0.00036968918940878697,27514.837040067832
1682906770179054021,165,1682906770179054021,camera_1,166,1,-0.1235603550488178,-0.21323533785251492,1.7765306193269819,0.9958864692436792,-0.010247637488592245,0.051246816389088276,0.07401952521628301,0.004030696072732098,0.0003067318995672238,27508.156744247368
1682906770185934305,166,1682906770185934305,camera_1,167,1,-0.12357416755275026,-0.21320920141308114,1.7765335121033212,0.995884592874474,-0.010150976860568522,0.05108585948996962,0.07416920050931297,0.0025437032018089667,0.00019357335509649114,27507.7908620194
1682906770192648172,167,1682906770192648172,camera_1,168,1,-0.12357773407069998,-0.21320628361371557,1.7765273954079972,0.9958465498643431,-0.010222130373034316,0.052356860643824436,0.07378289989858294,0.007097451729350723,0.0005400320093136759,27505.770181926084
1682906770199201107,168,1682906770199201107,camera_1,169,1,-0.12353865504387365,-0.21317208249829714,1.7761321326156732,0.995923510403614,-0.010141498666834005,0.04984621849580993,0.07449071037251048,0.005182599066756666,0.00039421607349788445,27522.45592113631
1682906770206856489,169,1682906770206856489,camera_1,170,1,-0.12353720445719614,-0.21322120477505607,1.7762665029194846,0.9956994466034874,-0.010315636116543892,0.05120729045111834,0.07651152259414808,0.00255670805927366,0.0001945421682951796,27499.69035044311
1682906770211952209,170,1682906770211952209,camera_1,171,1,-0.12356151581978915,-0.21323930045538195,1.7765796795840474,0.9958671869668709,-0.010361288767732424,0.052426912624109624,0.07343438193698629,0.0013726985780522227,0.00010445984484781527,27506.08180277308
1682906770218580245,171,1682906770218580245,camera_1,172,1,-0.12351913847603527,-0.21317071696187695,1.7759213678437902,0.9957374961428139,-0.010384465548482439,0.051184727844894355,0.07602055831126306,0.0008129935740726069,6.183195392878526e-05,27513.8229894046
1682906770225745201,172,1682906770225745201,camera_1,173,1,-0.12352700898970295,-0.21321361875154596,1.7761780048777718,0.9957787779519446,-0.010182165543769387,0.05099585126637521,0.07563314114188915,0.004356159843155183,0.00033138408861719805,27509.155169973616
1682906770232543468,173,1682906770232543468,camera_1,174,1,-0.12354001510113423,-0.21321665692122438,1.776450758799462,0.9958920975111057,-0.01027605114244772,0.05057087236536668,0.07440376170634216,0.0028929890249855816,0.000220132709562021,27510.599623041457
1682906770239178657,174,1682906770239178657,camera_1,175,1,-0.12358053918430834,-0.2132373451020964,1.7767078482190446,0.9959600690696607,-0.010037380881282986,0.05162516700574542,0.07278484688058179,0.0051968193729408085,0.00039551561836604363,27509.387884088566
1682906770245568990,175,1682906770245568990,camera_1,176,1,-0.12351491961649913,-0.21313284019379158,1.7759589254264871,0.9957518080841582,-0.010260766562723227,0.05187373286801967,0.07538016453293497,0.004222675284836441,0.00032110864625973997,27514.612747712115
1682906770252237319,176,1682906770252237319,camera_1,177,1,-0.12354105849737332,-0.21319718650594074,1.77621881213798,0.9958023277805268,-0.010291140089777199,0.05091639457081806,0.07536137728601736,0.0032883192179724574,0.0002501577758404053,27510.095357131613
1682906770259272813,177,1682906770259272813,camera_1,178,1,-0.12352216393073018,-0.21321156099694477,1.7762223756640876,0.9957832994588247,-0.010219303947054286,0.051074533458114774,0.07551541814603449,0.002654533673194237,0.0002019462425829025,27508.33149068802
1682906770265898227,178,1682906770265898227,camera_1,179,1,-0.12355020478790175,-0.21321799579273287,1.776324881031548,0.9958581761057457,-0.010066661052040276,0.05161409488756641,0.07416967458158487,0.005564990045968443,0.0004233499736896752,27512.15876937844
1682906770272432088,179,1682906770272432088,camera_1,180,1,-0.1235494936415266,-0.21323324243120817,1.7763194172009293,0.9957809504026244,-0.01026955244006692,0.05151324853368358,0.0752410814212159,0.0026404057862237096,0.00020088917353560005,27505.51898895181
1682906770279098272,180,1682906770279098272,camera_1,181,1,-0.12356288637192339,-0.2132401046541142,1.7764782806487331,0.9959492956257876,-0.01026120691730562,0.05077190373281664,0.07349776844533111,0.0034777646214934066,0.00026464737642869547,27514.867068897576
1682906770285970926,181,1682906770285970926,camera_1,182,1,-0.12357388911683405,-0.21325108219245476,1.7767939922794338,0.9958642889608947,-0.010361139562293722,0.05165627706621861,0.074017523594353,0.0010238491231575608,7.793289694691375e-05,27498.622572583143
1682906770292516469,182,1682906770292516469,camera_1,183,1,-0.12353831590098178,-0.21317351225488104,1.7763154536940893,0.9958375651209512,-0.01017925820559636,0.05071324291868607,0.07504727569358736,0.005410811470937915,0.000411647720075226,27510.091632869735
1682906770299111127,183,1682906770299111127,camera_1,184,1,-0.12352648214204144,-0.21316930611273174,1.7761382131037224,0.9958057715040491,-0.010165645167065512,0.05105906672939191,0.07523627318179715,0.005516645687748678,0.0004196193844539856,27512.97423055955
1682906770305736303,184,1682906770305736303,camera_1,185,1,-0.12353252762132444,-0.21323190291187075,1.776435923753774,0.9958038074018923,-0.010287900102181686,0.05102444703717707,0.07526913098962178,0.0018011644278885797,0.00013705458440085852,27503.61014903435
1682906770312797069,185,1682906770312797069,camera_1,186,1,-0.12355791864671724,-0.21326234688155926,1.7765147375750108,0.9958820987184999,-0.010349779184982737,0.05052467547044129,0.07455859904440588,0.0025144817191176116,0.00019134803515097733,27507.620379315107
1682906770319136619,186,1682906770319136619,camera_1,187,1,-0.123532405191439,-0.21322341566943395,1.776374884846864,0.9959762004619166,-0.010198163972673188,0.049814113100318476,0.07379674587039356,0.003590064065065235,0.0002731413138767635,27519.572813017756
1682906770325657606,187,1682906770325657606,camera_1,188,1,-0.12354771032223208,-0.21321355271369502,1.7764438254956936,0.9957893222501979,-0.0104136871111,0.050264450824085684,0.07595173333503859,0.00409016024786979,0.00031123611524401626,27501.57248108524
1682906770332393407,188,1682906770332393407,camera_1,189,1,-0.12357168011626786,-0.213230954790748,1.7766557282634108,0.9959469364059519,-0.010233811159558367,0.05147578007230488,0.07304254266314258,0.0041475860780337825,0.00031562530064536563,27509.903056799914
1682906770339253902,189,1682906770339253902,camera_1,190,1,-0.12356564082184471,-0.21319100343641192,1.7764822275271286,0.9959303907647088,-0.010125245570269174,0.05096056141480933,0.0736420894168794,0.0012704610853688791,9.667533348639836e-05,27513.33885914216
1682906770345835208,190,1682906770345835208,camera_1,191,1,-0.12352180188051655,-0.21313140271183026,1.7760458728060087,0.9958107169550091,-0.01024027266366227,0.05181248425365677,0.07464328026546847,0.0023974594223545864,0.00018233697948525387,27517.107485454068
1682906770352398157,191,1682906770352398157,camera_1,192,1,-0.12354249199224789,-0.21321489981310981,1.7763632843791157,0.9957829124686961,-0.01027541843641962,0.0520652252870104,0.07483327687018952,0.0018110139790223911,0.00013779396009395528,27504.922288810303
1682906770359182357,192,1682906770359182357,camera_1,193,1,-0.12348347921454311,-0.21310159619411675,1.7754887588314414,0.9956805205077325,-0.010244692359565832,0.05260554272403913,0.07581559361119716,0.0014839573996141553,0.00011279120693346354,27523.341953339303
1682906770365746736,193,1682906770365746736,camera_1,194,1,-0.12356797669816802,-0.21328699075567073,1.7768678385027905,0.9959838075282504,-0.010090385066761638,0.0508726221006337,0.07298229642412993,0.00298004767682869,0.0002268612980990434,27505.837864098787
1682906770372308015,194,1682906770372308015,camera_1,195,1,-0.12357015923674389,-0.21325631967191655,1.7767290774215787,0.9959404736588677,-0.010296051208059397,0.05158230046904354,0.07304676951099655,0.0021462732838699594,0.00016335015364073649,27507.155839525738
1682906770379131317,195,1682906770379131317,camera_1,196,1,-0.12354121356028644,-0.2132180873552233,1.7762849646234355,0.9958114375771485,-0.010354186346244418,0.0507160373705908,0.0753674675776296,0.0010853350395336747,8.257721612723708e-05,27508.69740095403
1682906770385779142,196,1682906770385779142,camera_1,197,1,-0.12354785807548473,-0.2132379608403845,1.776643574514567,0.995872390269353,-0.010260272804936375,0.050733252716323354,0.07455901132656971,0.004104079504031688,0.0003123413296627416,27503.052704407415
1682906770392472267,197,1682906770392472267,camera_1,198,1,-0.12353906396404339,-0.21318003205623612,1.7763161612319653,0.9958705501862307,-0.010184810265896571,0.05116086531492745,0.07430129724203995,0.004372714785858989,0.00033266942553067397,27513.358569864304
1682906770399068117,198,1682906770399068117,camera_1,199,1,-0.12352359130891533,-0.2131769932707605,1.776264409589796,0.9958460078098458,-0.010095195834692122,0.05204909684073133,0.07402504487209796,0.0026881417288677767,0.0002044798305870969,27513.5015095884
1682906770405868291,199,1682906770405868291,camera_1,200,1,-0.123584817962636,-0.21327366051660418,1.7769917477031238,0.9959634510136339,-0.010089758338480264,0.05102245225962757,0.07315538522281283,0.005858693446498363,0.00044606925063973347,27500.440237030787
1682906770412498474,200,1682906770412498474,camera_1,201,1,-0.12355465993219035,-0.21323447654741054,1.7765550976825955,0.9958965588889301,-0.010214810945036821,0.050485412101454394,0.07441051535563545,0.0036098953132750466,0.0002747116251667158,27507.62493103482
1682906770419295549,201,1682906770419295549,camera_1,202,1,-0.12350210075632526,-0.21317661605900656,1.7758988317777122,0.9957254578592607,-0.010230872115389993,0.05169963853833788,0.07585043969371158,0.002242637041490525,0.0001705485533538626,27513.739579585035
1682906770425906896,202,1682906770425906896,camera_1,203,1,-0.12357131179597221,-0.21323623341220896,1.7766430483824467,0.9958925513129793,-0.010150887243762338,0.05234549794994363,0.07317741845584548,0.004907461581751704,0.000373446403060929,27506.135844490036
1682906770432498693,203,1682906770432498693,camera_1,204,1,-0.1235062641422422,-0.21318042011086366,1.7761139720856096,0.9958259695089963,-0.01041490255219146,0.05012351713854713,0.07556322707480076,0.0024404184077866375,0.0001856354494401008,27514.85654284752
1682906770439465761,204,1682906770439465761,camera_1,205,1,-0.12355153508062645,-0.21322897964532472,1.7766937741402187,0.9959925078033957,-0.010230544353133102,0.05103432640197832,0.07273072177861015,0.001824516395572573,0.00013885700907782358,27512.38717757688
1682906770446216106,205,1682906770446216106,camera_1,206,1,-0.12356724575516916,-0.2132250032823447,1.7766965047655436,0.9959823188246448,-0.0101701525895917,0.04992221729363538,0.07364482877619544,0.000758189067710191,5.771111096239399e-05,27510.39721447142
1682906770452616691,206,1682906770452616691,camera_1,207,1,-0.12355034053372604,-0.21323061151933548,1.776536493103883,0.9958490183928377,-0.010359803475539739,0.04867484464606453,0.07621132813861414,0.005055207875557244,0.0003847837299498354,27502.403213586782
1682906770459182024,207,1682906770459182024,camera_1,208,1,-0.12356408821776572,-0.21323321262493666,1.7766159445292138,0.9959959252391253,-0.010237761460535167,0.05068337872437013,0.0729280485713002,0.005472898366861045,0.00041649057964432493,27514.712090642875
1682906770465853691,208,1682906770465853691,camera_1,209,1,-0.12354910429457373,-0.21323733718390941,1.7765243157008115,0.9958475450998234,-0.010131886553062686,0.052327384359009924,0.0738028227080467,0.0014740059850737453,0.00011216402556335293,27505.763827217168
1682906770472452640,209,1682906770472452640,camera_1,210,1,-0.12356883425502059,-0.21323917046116203,1.776549364140754,0.9958154887835461,-0.01032729782596473,0.05093599932610883,0.07516903079760716,0.0031967340619303286,0.00024329637759421858,27501.088571437976
1682906770479103088,210,1682906770479103088,camera_1,211,1,-0.12350593469842,-0.213143833587704,1.7759296842684476,0.9957874317784473,-0.010055034254794553,0.052419387864779746,0.0745553135202376,0.007155754719860852,0.0005440846466824812,27518.90603712025
1682906770485892295,211,1682906770485892295,camera_1,212,1,-0.12352666730654106,-0.21320330302640336,1.7764115942839596,0.9958406462543699,-0.010200623456505206,0.05091471714182878,0.07486685599880172,0.006664981323410757,0.000507122881692631,27507.512555738464
1682906770492517709,212,1682906770492517709,camera_1,213,1,-0.12356106063306882,-0.21321101366009726,1.7764747770895934,0.9959793312772611,-0.010211400370100931,0.05042503784340804,0.07333631112533599,0.006104965985286981,0.0004645586722830117,27517.366869839076
1682906770499103069,213,1682906770499103069,camera_1,214,1,-0.12357329248321965,-0.21325082965905326,1.7768111489394016,0.996000851921731,-0.010167017020412887,0.0495929982354976,0.07361704464393119,0.003809251706115902,0.00028999637574440916,27508.117145032265
1682906770505758285,214,1682906770505758285,camera_1,215,1,-0.12351612574691424,-0.2131661247523282,1.776004717950797,0.9958731860974288,-0.010257476552716334,0.05132630729917569,0.07414169923839721,0.0006919363077031448,5.262406462079095e-05,27523.35477106238
1682906770512430191,215,1682906770512430191,camera_1,216,1,-0.12354679636201248,-0.21323053626846383,1.776444356405482,0.9958664152869546,-0.010130505381691841,0.05088855725879104,0.07455072437167268,0.003230077272746712,0.0002457726061212989,27508.638943213322
1682906770519210338,216,1682906770519210338,camera_1,217,1,-0.12357481016159767,-0.21327676861852785,1.7769610698919547,0.9959251550095684,-0.010346910096889301,0.05063505149776971,0.07390614744682789,0.0017510527395643294,0.00013331386795639857,27497.90896479291
1682906770525695800,217,1682906770525695800,camera_1,218,1,-0.1235631756896027,-0.21323725564143914,1.7765383517975453,0.995888432172475,-0.010228890837350934,0.05248919911046501,0.07311965832817581,0.004037773658637889,0.0003072534877189279,27509.132756435705
1682906770532463312,218,1682906770532463312,camera_1,219,1,-0.12351728599400155,-0.21317798774520832,1.7760541767631874,0.9957296509233645,-0.01033535056022841,0.05115134541191049,0.07615236479179963,0.004681155856815167,0.00035603158258276863,27509.010677437756
1682906770539041519,219,1682906770539041519,camera_1,220,1,-0.1235680875138988,-0.21324677250934346,1.7767196382800996,0.995875824281986,-0.010227808876397104,0.05178674718076656,0.07378934443873583,0.004141613680985756,0.00031521224140388195,27501.889738974627
1682906770545789003,220,1682906770545789003,camera_1,221,1,-0.12355898872556619,-0.2132027260640033,1.7763577768059835,0.9958733020496274,-0.010063359584972786,0.05147758337281029,0.07406182193769263,0.0022970931750023738,0.00017476847741375735,27512.434635333186
1682906770552427291,221,1682906770552427291,camera_1,222,1,-0.12357046081338964,-0.21324080232243883,1.776640178926942,0.9959203570018834,-0.01013829751526209,0.051125420323583776,0.07366171888756126,0.003475064819213003,0.000264470575382946,27507.604919409612
1682906770559041023,222,1682906770559041023,camera_1,223,1,-0.12355862490629427,-0.21323581868674796,1.7765264244528802,0.9958720481244324,-0.010208697135341506,0.051633786928351244,0.07394997170171708,0.0013293413358042017,0.00010115858673443809,27507.338185259843
1682906770565798997,223,1682906770565798997,camera_1,224,1,-0.1235198653288025,-0.2131864944365939,1.7761460970593617,0.9957209101615306,-0.010405768146426122,0.05206748344849108,0.07563442485877009,0.0029753411799902096,0.00022632390412280072,27506.24966863379
1682906770572384119,224,1682906770572384119,camera_1,225,1,-0.12352505841247974,-0.213217294298685,1.77636337907061,0.9958416898055061,-0.010331113190806504,0.0489541656993884,0.07613203403449736,0.002664277912117541,0.0002027401917565228,27507.354505551448
1682906770579104185,225,1682906770579104185,camera_1,226,1,-0.12352511323406538,-0.21318392415666101,1.7760958830979916,0.995880977448503,-0.01031354337630249,0.050695076464946684,0.074462868608807,0.0022027759114280343,0.0001675446785838575,27520.68654449447
1682906770585901975,226,1682906770585901975,camera_1,227,1,-0.12354426430538587,-0.2132191032557597,1.7764603990366834,0.9958509462592186,-0.010252798999189842,0.050379432272972174,0.07508452404559965,0.0016088877455331385,0.0001224286409264599,27506.486513396507
