%time,field.header.seq,field.header.stamp,field.header.frame_id,field.image_seq,field.transforms0.fiducial_id,field.transforms0.transform.translation.x,field.transforms0.transform.translation.y,field.transforms0.transform.translation.z,field.transforms0.transform.rotation.x,field.transforms0.transform.rotation.y,field.transforms0.transform.rotation.z,field.transforms0.transform.rotation.w,field.transforms0.image_error,field.transforms0.object_error,field.transforms0.fiducial_area
1684735363119170904,19,1684735363119170904,camera_1,39,0,-0.9307940731244636,-0.07588716876243098,1.8978964015596247,0.9754564938666165,-0.05356758035963543,0.21305145548126866,0.014973984946385424,0.0003291490429546684,0.00040003545676224,2362.8237286375374
1684735363139131069,20,1684735363139131069,camera_1,41,0,-0.9304287948394754,-0.07492467463920163,1.8971684198177434,0.9752978955981942,-0.053456630214269066,0.21374813832106596,0.01575236147844169,0.0003045547055080533,0.0003698420841514052,2363.3910047144172
1684735363159192562,21,1684735363159192562,camera_1,42,0,-0.9305601126276797,-0.07484288553889128,1.8973532255873258,0.9751950669277826,-0.053728390178888315,0.21411638583313541,0.01618687265221032,0.0009162015921901911,0.0011128642965240359,2361.922657799325
1684735363199337959,22,1684735363199337959,camera_1,45,0,-0.9292516136640708,-0.07624990223118917,1.8947787333771824,0.9750495188168502,-0.05297732088772799,0.21496604757390725,0.016169035748622083,0.00038548589509446174,0.0004670960570938738,2365.5289353633993
1684735363229153871,23,1684735363229153871,camera_1,47,0,-0.9286265844444083,-0.07504989690328971,1.8934826128614404,0.9745253083611352,-0.053450437661296216,0.2171397289605463,0.017140950510132855,0.0029197634576121345,0.0035350918540494533,2364.0667822958203
1684735363249242782,24,1684735363249242782,camera_1,49,0,-0.9285860395767072,-0.07435354245275877,1.8933818728063847,0.9747035840989519,-0.05340263375302156,0.21645334989052967,0.015780658226645154,0.0008706429071025923,0.0010542682011469083,2366.7788409010964
1684735363279539108,25,1684735363279539108,camera_1,51,0,-0.9291615696148647,-0.07540874951072968,1.894514705116969,0.9747871403698395,-0.05378859940634686,0.21601475539966428,0.015311531377285324,0.0012473807000787929,0.0015123722441495362,2364.4482112881965
1684735363309468984,26,1684735363309468984,camera_1,53,0,-0.9284049505871222,-0.07606406605190222,1.893040745659722,0.97466743009117,-0.05300751527191328,0.2167134538126311,0.015776025506210677,0.002729691710555926,0.003304560672056972,2365.9703583333176
1684735363339687585,27,1684735363339687585,camera_1,55,0,-0.9304018459385892,-0.07492657662258391,1.8971113994044595,0.9752895888236683,-0.0537612711820421,0.2137456560981851,0.015255758001736217,0.00013277832476887852,0.00016126927867089004,2363.679122416652
1684735363359305143,28,1684735363359305143,camera_1,57,0,-0.9288415517321074,-0.0744173924194316,1.8938597418521195,0.9746042832804291,-0.053408987348849975,0.21676605744924335,0.017505639654768045,0.0004097292694495991,0.0004961197197003863,2364.238206036971
1684735363419309377,29,1684735363419309377,camera_1,61,0,-0.9287937116521631,-0.0759552203390047,1.893823376836664,0.9747835052941827,-0.05323762095713668,0.216064285697352,0.016706225405627644,0.0027299574721837416,0.003305502486907681,2365.325964608695
1684735363449402332,30,1684735363449402332,camera_1,63,0,-0.9282242186239983,-0.07432893518788845,1.8926308231611708,0.9747253239989475,-0.053312726458932286,0.21627926963692343,0.017075522773288644,0.0005223068001214415,0.0006315826563122542,2368.63846245897
1684735363479375123,31,1684735363479375123,camera_1,65,0,-0.9293499820073966,-0.07542337872690563,1.8949010393211974,0.9748453834109272,-0.053677622179085886,0.21572550269259988,0.01605299995723967,2.4476568796671927e-05,2.9675325100565574e-05,2363.931929356069
1684735363519609451,32,1684735363519609451,camera_1,67,0,-0.9292208055148904,-0.07576235687475816,1.8946847483369125,0.975041089291789,-0.05386989729935603,0.2149320802607234,0.014039559552790485,0.0018652800936251879,0.0022620789482337804,2366.74828449078
1684735363549720287,33,1684735363549720287,camera_1,69,0,-0.9285608714334441,-0.07428831638392874,1.8933208948400897,0.9748242819947459,-0.053483103952110755,0.21581961637483468,0.016705388738219494,0.00019723037257790565,0.00023865927047134213,2368.1565065032337
1684735363570014715,34,1684735363570014715,camera_1,71,0,-0.9303329022870688,-0.07484035650833262,1.8968922309019218,0.9749520738295223,-0.05359373061174067,0.2151566452537689,0.017429394073623556,0.002372738963458687,0.002880467248179658,2360.253854668117
1684735363610343933,35,1684735363610343933,camera_1,73,0,-0.9286054938733541,-0.07617111348162127,1.8934430113960725,0.9747993560767009,-0.05327619371576336,0.21604749239619367,0.015853819884386285,0.0004054671881021932,0.0004909214636770657,2366.4262822449664
1684735363639585018,36,1684735363639585018,camera_1,75,0,-0.9291196052824087,-0.07464377479097671,1.8945118114785466,0.9748559059492841,-0.053390264700366515,0.2157109663972405,0.016559627018573764,0.00031297783425543457,0.0003791957982180431,2365.331664427533
1684735363660032987,37,1684735363660032987,camera_1,77,0,-0.9285564811931728,-0.07430559281667298,1.893282616681505,0.9746926164471857,-0.05297930595479803,0.2165441408788756,0.01661720899901198,0.0004986568965250626,0.0006035615478207803,2366.5512954726582
1684735363689351081,38,1684735363689351081,camera_1,79,0,-0.9303890777640491,-0.07596630502242177,1.8970252314707097,0.9754395806281635,-0.05345058996319764,0.21318149973663322,0.014639233128090073,0.0015311606402974576,0.001859570147930415,2364.693231157028
1684735363719734191,39,1684735363719734191,camera_1,81,0,-0.9308740999198789,-0.07589228821661131,1.8980253516563086,0.9754183248938308,-0.05368101947426459,0.21328250658095674,0.013711746645156508,0.0002074571093544364,0.0002523271423789033,2362.308373415376
1684735363749866008,40,1684735363749866008,camera_1,83,0,-0.9290041913236051,-0.07432598822783265,1.8942031552576928,0.9750333020931383,-0.053589824235117864,0.2147980505956206,0.017320161896515307,0.00043093477142974734,0.0005215962126769093,2368.1127453467343
1684735363779292821,41,1684735363779292821,camera_1,85,0,-0.9285143674563596,-0.07513776850015744,1.8931843384800213,0.9745971654063375,-0.053117988886530056,0.21684304593120649,0.01783081237238988,0.00297269866860006,0.003596485561264125,2365.1819512154916
1684735363819593191,42,1684735363819593191,camera_1,87,0,-0.9289342915230508,-0.07597454648803229,1.8941076975670892,0.9748510659973492,-0.053602847872388136,0.2157927769035245,0.015020361515874506,0.0015754288906464353,0.0019093009997005733,2365.7542775220945
1684735363839838743,43,1684735363839838743,camera_1,89,0,-0.9295573766781942,-0.07469039451438877,1.8953658927286132,0.9747892343558211,-0.05372641916353461,0.21595186422279256,0.016254624159204433,0.0008557132096029818,0.001037982401878832,2362.674319399288
1684735363870183944,44,1684735363870183944,camera_1,91,0,-0.9295563010047346,-0.07498451482888775,1.8953196934235306,0.9750867634556726,-0.053745966515364944,0.21460348012013902,0.01620250404090676,0.0013942079385742545,0.0016901770736843843,2365.74302731757
1684735363899811506,45,1684735363899811506,camera_1,93,0,-0.9277642710937379,-0.07604720255435893,1.8916940502464739,0.9744806820682647,-0.05308319560939988,0.21758100734868557,0.015102313094193662,0.0001953986065927893,0.00023636739700453146,2367.4429141657893
1684735363949219942,46,1684735363949219942,camera_1,95,0,-0.9293055863643765,-0.07435628724238441,1.8948242794856998,0.9748520745070268,-0.053273813992826706,0.21571121743848906,0.017146551933522394,0.0006070978852221742,0.0007356156185717249,2364.493695844548
1684735363969293594,47,1684735363969293594,camera_1,97,0,-0.9302985116052115,-0.07481989122162794,1.8968316794160407,0.9750249095853751,-0.053889885100800165,0.21482312168578255,0.0165327662848397,0.000630756956525147,0.0007658595677139618,2361.4875976567846
1684735363999252796,48,1684735363999252796,camera_1,99,0,-0.9280330591750365,-0.07614874331012544,1.8922657171078836,0.9746360187229901,-0.053290774933209856,0.2168015382020544,0.015550477421623743,0.0005052470369264483,0.0006112458667589145,2367.675364679425
1684735364019356250,49,1684735364019356250,camera_1,101,0,-0.9284728359955566,-0.07592967736147252,1.8931756492097522,0.974811786951489,-0.05304511442613961,0.21602663418090734,0.016145871931584132,0.002893848461098969,0.0035022110663538004,2367.22198196035
1684735364049529075,50,1684735364049529075,camera_1,103,0,-0.9283618201289785,-0.07434136602855408,1.892925388814257,0.9748159278242219,-0.05305687732835679,0.21601675100108325,0.015988680849306287,0.0004392261616885662,0.0005314363589367732,2368.891406478361
1684735364079682588,51,1684735364079682588,camera_1,105,0,-0.9296120384864113,-0.07543931780148598,1.8954418760516512,0.9748844248705408,-0.05393552195469126,0.2155651818606413,0.014932179536120155,0.0006228295678738505,0.0007558592096758784,2363.3067894075066
1684735364109909534,52,1684735364109909534,camera_1,107,0,-0.9277764265147446,-0.07600921243276751,1.8917667246359737,0.9744147677266605,-0.052972861042703386,0.21780037222650908,0.016514668847505826,0.002191268402384594,0.0026495939240158686,2366.3715924003636
1684735364129363059,53,1684735364129363059,camera_1,109,0,-0.9292937347635504,-0.0752952252645579,1.8948347477321512,0.9750334123880547,-0.05310185243482763,0.21500402513032912,0.016226742515126964,0.000234920546063222,0.0002846699098903587,2365.8565311181574
1684735364169239521,54,1684735364169239521,camera_1,111,0,-0.929634557876928,-0.07476984143910274,1.8954664625233975,0.9747683568277118,-0.05388146577032047,0.2159345277693648,0.01719644994951092,0.0010511672153370455,0.001274754006101359,2362.0696287704636
1684735364199168205,55,1684735364199168205,camera_1,113,0,-0.9291690538323802,-0.07624137616975962,1.8945825839334893,0.9746913386846883,-0.05335736047347303,0.21662628840319986,0.014242104795571975,0.0008614820835646242,0.0010452584987147655,2362.685304632644
1684735364219349622,56,1684735364219349622,camera_1,115,0,-0.9289526675369638,-0.07596688999619865,1.8941494962721355,0.9749669111396235,-0.05312219044479888,0.2153428934119263,0.01565226252616403,0.0022037306480342522,0.002669545732518227,2366.5300347295133
1684735364248976707,57,1684735364248976707,camera_1,117,0,-0.9283863806348663,-0.07434870966949916,1.8929549303665205,0.9746053314058595,-0.05358403158101014,0.21676986803318926,0.016853007674417823,0.0012428595509845763,0.00150390494279469,2366.7228215218056
1684735364279091119,58,1684735364279091119,camera_1,119,0,-0.9288557938137348,-0.0753817050638196,1.8938525593144189,0.9746670780394631,-0.05360123413256792,0.21652238419669737,0.016402799372631508,0.0003202215448254719,0.0003878864543691062,2364.5411249172166
1684735364298922538,59,1684735364298922538,camera_1,121,0,-0.9283277581101905,-0.07609552303354272,1.8928480998643775,0.974639258251882,-0.05311039135468124,0.2167431492734098,0.01673349477599618,0.0001379267341690138,0.0001668777442723862,2366.024302068517
1684735364329355716,60,1684735364329355716,camera_1,123,0,-0.9282612937505013,-0.07522051552321046,1.892741775808196,0.9746361144126321,-0.05326877675759545,0.21676770141791138,0.01608246024062998,0.0017574234661879018,0.0021266558392052308,2367.013615960837
1684735364349495887,61,1684735364349495887,camera_1,125,0,-0.9285248208742898,-0.07429123189275051,1.8932180062469584,0.974813589131402,-0.05319144508417462,0.2159733886057991,0.01626751452249906,0.0002865088463295251,0.0003467300175165482,2368.1706551959496
1684735364379153251,62,1684735364379153251,camera_1,127,0,-0.9280946195282211,-0.07509770866633628,1.8923160627984748,0.9744599357414806,-0.05292663037270073,0.21752471721736547,0.017595534422295896,0.001046142730046995,0.0012649741159789407,2365.813963051535
1684735364399340867,63,1684735364399340867,camera_1,129,0,-0.9287570560151277,-0.07619535293635651,1.8937674357606495,0.9748085815392066,-0.053352921029609396,0.21594357011832654,0.01643379748200902,0.00035996781662106514,0.0004358594869841451,2365.6896869963975
1684735364429397583,64,1684735364429397583,camera_1,131,0,-0.9286188346185994,-0.07505070876945734,1.8934653910010362,0.9748387002924674,-0.052750737049636634,0.21593152753790423,0.016746449413539297,0.0020141639979556203,0.0024375328961294906,2367.094133276143
1684735364459608554,65,1684735364459608554,camera_1,133,0,-0.9286273966353562,-0.07431960350585765,1.8934237038827602,0.9746996317429674,-0.053668754234535834,0.21626656590677512,0.017580249427335867,0.0009645939717302099,0.0011671936334033915,2366.5141154095763
1684735364489360094,66,1684735364489360094,camera_1,135,0,-0.9294345792254225,-0.0758778467694716,1.8950648405295294,0.9749362685536597,-0.053910377916218145,0.21531673428912196,0.015219965396300716,0.0025105645472649485,0.0030449582087775625,2364.4436206469554
1684735364509059190,67,1684735364509059190,camera_1,137,0,-0.9286527005557099,-0.07607983001061983,1.8935534898454374,0.9749030339992915,-0.05333052586464785,0.21560917433681875,0.015251663901743736,0.003349384933244437,0.004056016613564254,2367.444203009829
1684735364539171695,68,1684735364539171695,camera_1,139,0,-0.9304474305745707,-0.07493214178346438,1.8971987853985053,0.9753573512913146,-0.05345176135557799,0.21347102937900647,0.015845065662369394,0.0013919413031544536,0.0016901397088519587,2363.9210487322425
1684735364569289684,69,1684735364569289684,camera_1,141,0,-0.9293745217383688,-0.0747524908132067,1.8949551039463988,0.9748141638070751,-0.05355282657771006,0.2157408300345711,0.01803704694913505,0.0011107896716566756,0.0013457116752848591,2363.5499176721787
1684735364599422693,70,1684735364599422693,camera_1,143,0,-0.9291373321527658,-0.07623926476333127,1.8945533797340672,0.9749883484125613,-0.05333305105962301,0.21520537697829015,0.015490379080244343,0.0001818519813241437,0.00022038864732093122,2365.744584472849
1684735364619432926,71,1684735364619432926,camera_1,145,0,-0.928490830580017,-0.07592778126686903,1.8931956796042406,0.9749112814114284,-0.05350678525660095,0.21546314869556613,0.016144623328629624,0.000989009509794414,0.0011967269987572242,2368.457039683708
1684735364649217367,72,1684735364649217367,camera_1,147,0,-0.9285288095935063,-0.07433010159013305,1.8932425714061931,0.9746719098053399,-0.05303430861332185,0.2166280421440261,0.016562659906081075,0.00021026453759986907,0.0002545027543429743,2366.4707111299504
1684735364679243087,73,1684735364679243087,camera_1,149,0,-0.9290831413438417,-0.07538311947959683,1.894343501439521,0.9747381378404467,-0.053687204847153766,0.21617594200568793,0.01646841744041166,7.931063009891659e-05,9.610200649840167e-05,2364.1402055552458
1684735364699328660,74,1684735364699328660,camera_1,151,0,-0.9290345722209717,-0.07614763408841416,1.8942995308221533,0.9748904486858986,-0.05285912297037672,0.2157641741515918,0.015503139439854707,0.0019398628210183233,0.00235079543648192,2365.0979696381833
1684735364729180812,75,1684735364729180812,camera_1,153,0,-0.9290902259062219,-0.07528144015929875,1.8944368232104924,0.9748493852482336,-0.05325164143788073,0.2157439605786434,0.016955301210922886,0.0020911915344186127,0.002533065891294619,2364.912975164597
1684735364749040365,76,1684735364749040365,camera_1,155,0,-0.9291573979029025,-0.07433984808711701,1.894511772540722,0.9748164840771287,-0.05311811957812458,0.21592382887440606,0.016976096966192518,0.0009271256858482957,0.0011231859937920446,2364.8290973394173
1684735364779256105,77,1684735364779256105,camera_1,157,0,-0.9286992555741591,-0.07515901250853145,1.8935711229969607,0.9747607227643931,-0.053440558604757306,0.2160820248986842,0.017152217568990664,0.001752834883518517,0.002121491213530693,2366.2107527479525
1684735364809129714,78,1684735364809129714,camera_1,159,0,-0.9278510305875434,-0.07611330834786163,1.8919368257878393,0.9744257602735292,-0.05311793683765415,0.21777756200511567,0.01567979555267466,0.002390287321759388,0.00289177200920492,2366.2032898874027
1684735364829233646,79,1684735364829233646,camera_1,161,0,-0.9283683620004433,-0.07502711113442015,1.8929614438605868,0.9747800020624379,-0.05276907111152795,0.21618943613455116,0.01677797416271988,0.00150086592475418,0.0018155540787643716,2367.744266588473
1684735364859195470,80,1684735364859195470,camera_1,163,0,-0.929327871806679,-0.07436097224926629,1.8948448457339329,0.9748721614493775,-0.052929566481146,0.21571462718920073,0.01702731451993749,0.00045094384404364973,0.0005464254980919599,2364.459187792265
1684735364879387855,81,1684735364879387855,camera_1,165,0,-0.9289654468282365,-0.07538311948785427,1.8941130886729585,0.9746302414932008,-0.05353166562333561,0.21680903811793353,0.014969773975351307,0.0009681059455033392,0.0011738056841920814,2363.702416357817
1684735364899271249,82,1684735364899271249,camera_1,167,0,-0.9285807471447504,-0.07611228639691744,1.8933766582362581,0.9747835088926232,-0.05303565680095408,0.21616514048733984,0.01603003233825084,0.0006497061840491369,0.0007865402552299857,2366.3031992550236
1684735364929120540,83,1684735364929120540,camera_1,169,0,-0.9277230249069849,-0.07517113654995607,1.8916768336953482,0.9745288505977407,-0.0530916867348643,0.2172652656362174,0.016449817637810712,0.0026995246298611164,0.0032631096126337356,2368.4344740473907
1684735364949397087,84,1684735364949397087,camera_1,171,0,-0.9284965995474196,-0.074284772550572,1.8931783197740963,0.9747948327973529,-0.05363998228217719,0.21594586411126637,0.016284042053093414,0.00024286711413878947,0.0002939108321117735,2368.330498828669
1684735364979198217,85,1684735364979198217,camera_1,173,0,-0.9287704840164941,-0.07515491648580348,1.893693433959525,0.974663506544761,-0.05297640785759138,0.21663446956147925,0.017148055813807163,0.0013985464756842703,0.0016932359483424239,2364.6092864926904
1684735364999521970,86,1684735364999521970,camera_1,175,0,-0.9290794020172202,-0.07623291536127029,1.8944244970561634,0.9746530063980019,-0.05373223398483164,0.2167031899303546,0.014286063990643673,9.459943976253271e-05,0.00011476597937154003,2362.9035813662927
1684735365029397726,87,1684735365029397726,camera_1,177,0,-0.9294339443529649,-0.07510988460542722,1.895144839406783,0.9750737957081611,-0.053132916993287725,0.21481320906673704,0.016225636058840465,0.0023704415216343477,0.0028730916131905985,2365.6886361334473
1684735365049387454,88,1684735365049387454,camera_1,179,0,-0.9287325761626035,-0.07435499141072943,1.8936793181701572,0.9748041757224313,-0.0533161194535567,0.2159394418657176,0.016863209873800175,0.0001774618576746434,0.0002148133974442089,2366.9059803731516
1684735365079235792,89,1684735365079235792,camera_1,181,0,-0.9283878324515292,-0.07534155738449513,1.8929371538667712,0.9746245844596961,-0.053336166711567184,0.216760562308162,0.01664425772241059,0.0008194743131753058,0.000991644652387518,2366.235003251233
1684735365109153985,90,1684735365109153985,camera_1,183,0,-0.9289473419195241,-0.07610321935564134,1.8941440617500827,0.9750151611295598,-0.05302007806881513,0.2151642393479424,0.01544852727274392,0.001519045516033657,0.0018401147764261299,2366.9430511216633
1684735365129417896,91,1684735365129417896,camera_1,185,0,-0.9283400497955936,-0.07521910582371467,1.8929014779139322,0.9745936449987431,-0.05310430029360681,0.21696297201088285,0.016559866986033345,0.0011167206976097077,0.0013514008926964417,2366.008622990223
1684735365159310340,92,1684735365159310340,camera_1,187,0,-0.9282642488477464,-0.07436574679785794,1.8926968374683721,0.9745744398686006,-0.053300331569500814,0.2169735878084948,0.016917387590702892,0.0004917950282106176,0.0005949451849357197,2366.8574504257417
1684735365179325342,93,1684735365179325342,camera_1,189,0,-0.9291150672546007,-0.07517594740209,1.8944164669600372,0.974652599529081,-0.053276003467559424,0.21657859068258403,0.017541144309174878,0.001395880084601231,0.001691028227172378,2362.8240069694593
1684735365209548711,94,1684735365209548711,camera_1,191,0,-0.9291340197971718,-0.076206802681531,1.8945413351471538,0.9752049296279885,-0.05317761269818951,0.21426882484341106,0.015373920684547897,0.0008687665831530467,0.0010524772181808996,2368.004160467419
1684735365239386320,95,1684735365239386320,camera_1,193,0,-0.9303749237805535,-0.07474913243235197,1.8970450720551428,0.9754084739756351,-0.053197012299580265,0.2132936155060464,0.015944289362647537,0.0009963741758838296,0.0012094505507179315,2364.7868067347445
1684735365259489536,96,1684735365259489536,camera_1,195,0,-0.929068801139396,-0.07434274832952059,1.8943360226348833,0.9749864333655345,-0.05331186309856553,0.21508334870871004,0.017275795621664973,0.00032390067644882947,0.0003921416948630312,2367.1295313070295
1684735365289341926,97,1684735365289341926,camera_1,197,0,-0.929800147124975,-0.07591091027565655,1.8958175369744057,0.974903454904154,-0.05412434803275878,0.2153479159251772,0.016096076312438062,0.00385542849835474,0.004678329127189492,2362.2208137885896
1684735365309706449,98,1684735365309706449,camera_1,199,0,-0.9277339874780852,-0.07600332429705317,1.8916833438648448,0.9745513305828509,-0.05286164573989489,0.21731780020448047,0.015110399834222828,0.0026031856541521847,0.0031485155855506264,2368.1622642817665
1684735365339784622,99,1684735365339784622,camera_1,201,0,-0.9304304607885177,-0.07492735146097548,1.8971723949017498,0.9752234409349493,-0.053705796322362644,0.21407550535671574,0.015053428135991706,0.0005916042719036341,0.0007187517738628458,2362.833116093417
1684735365369873523,100,1684735365369873523,camera_1,203,0,-0.9304007756353806,-0.07483774761880091,1.897059894386784,0.9753712001293035,-0.053770180602602205,0.2133457466780157,0.015600705454746927,0.001400565102812834,0.0017005120634405286,2364.639107604278
1684735365389711618,101,1684735365389711618,camera_1,205,0,-0.9285647130199427,-0.07600765112908794,1.8933591255379865,0.9747219178934846,-0.05320372755900894,0.21649080820515304,0.014774170519986442,0.002770244565908797,0.0033558854191756064,2366.041794992285
1684735365419498205,102,1684735365419498205,camera_1,207,0,-0.9293231409433895,-0.0759976978427062,1.8949051930250405,0.975213343606176,-0.05309471588259991,0.21426423598275554,0.015189561433259896,0.002652003284310922,0.0032142351459315405,2367.3000321385916
1684735365439581155,103,1684735365439581155,camera_1,209,0,-0.9299244115038148,-0.07470887861771375,1.8961342624280433,0.9750639956915386,-0.05312438067822198,0.2148500103086643,0.016354741024350108,0.0007796084100846201,0.0009458828034108075,2363.3381063437555
1684735365469882726,104,1684735365469882726,camera_1,211,0,-0.9300916991589989,-0.07499698817822502,1.8964133231581992,0.9751055652989922,-0.05382969583323392,0.21448515143105198,0.016359100984869993,0.0024806411238387227,0.003010402437845199,2363.2620255363872
1684735365490186452,105,1684735365490186452,camera_1,213,0,-0.9296155677588821,-0.07589407222753959,1.895421587339566,0.975036637881036,-0.0534175455378838,0.21496090498392387,0.015554097429491709,0.000619878075667657,0.0007518543787482323,2364.2714428015747
1684735365519718885,106,1684735365519718885,camera_1,215,0,-0.930917939283102,-0.07591281182883305,1.898179908424849,0.9756640525178418,-0.05361280437446479,0.21208204757748828,0.015050877944741864,0.00320839203777723,0.0038988250041947616,2364.341398699208
1684735365539387226,107,1684735365539387226,camera_1,217,0,-0.9304631751869314,-0.07493451694326779,1.8972179877931508,0.9753800559250319,-0.05387150266044111,0.21332925975591507,0.014907536241152092,0.0008323814399773255,0.001011088875744756,2364.4536361999344
1684735365569623470,108,1684735365569623470,camera_1,219,0,-0.9303621291730891,-0.07482622179617723,1.8969767039963987,0.975147335457791,-0.05345338967572898,0.21438667605484873,0.016393974865751886,0.001072566315997392,0.001302269706192986,2362.19830587483
1684735365589794874,109,1684735365589794874,camera_1,221,0,-0.9285550099850773,-0.07599989026293583,1.8933375773355963,0.9747411503930306,-0.052744739913377255,0.2164356823885421,0.015914695439998804,0.004377857854706235,0.005300408808142371,2365.892964421422
1684735365619848728,110,1684735365619848728,camera_1,223,0,-0.9286351428193355,-0.0759456667964534,1.893546713119428,0.9748957516724692,-0.05341530657801019,0.2155601410687475,0.016090493360070072,0.004070296548889019,0.004927213162167841,2367.4226457048226
1684735365639910459,111,1684735365639910459,camera_1,225,0,-0.9286058306149314,-0.07459844938223853,1.8934517645318363,0.9745967005736673,-0.05364836652364732,0.21683727451690193,0.016270229879986702,0.000503198301885277,0.0006093665729608972,2365.4069119859487
1684735365669873237,112,1684735365669873237,camera_1,227,0,-0.9308058904472669,-0.07506389208910845,1.8978648248205117,0.9755104502493447,-0.05383810976045014,0.21268391909293308,0.015696176318242903,0.002007176197366789,0.0024383498725361707,2363.9972372136544
1684735365689760208,113,1684735365689760208,camera_1,229,0,-0.9305354907643061,-0.07596870243632207,1.8973209724327817,0.9752771557653607,-0.05398079395963591,0.21377488091667743,0.014860808012228773,0.001686178584350273,0.0020489207980548913,2362.511411395739
1684735365720023632,114,1684735365720023632,camera_1,231,0,-0.9301453200607613,-0.07584048770788465,1.8965774913240125,0.9752121649166142,-0.053565861291724616,0.21409658612503615,0.01595567962612082,0.0011829347058665007,0.001435779120886415,2363.391887805308
1684735365739565372,115,1684735365739565372,camera_1,233,0,-0.9315022942042496,-0.07501628992885627,1.899348715673918,0.9755546532436659,-0.05398118900645834,0.2124886541936423,0.015090447543214095,0.0005383373936638236,0.0006551066533764001,2361.04255027976
1684735365759597778,116,1684735365759597778,camera_1,235,0,-0.9289047542027625,-0.07441108122768827,1.8939945953823452,0.9747816050366146,-0.0535116342160538,0.21599081278136398,0.01689071578751611,0.0005458837258629501,0.0006610301498284181,2365.922299616853
1684735365789959430,117,1684735365789959430,camera_1,237,0,-0.9291164360974349,-0.07605745258125807,1.8944846332231822,0.9750239458816652,-0.05290674241707101,0.2150675581636579,0.016586952392867952,0.0028545705717988312,0.003457401000464833,2366.001425915863
1684735365799573659,118,1684735365799573659,camera_1,238,0,-0.928703370095617,-0.07620845299240804,1.8936431789401555,0.9747247157293404,-0.05306307461876007,0.21653424415375538,0.014455440744663747,0.0019323912711115554,0.002341942527472173,2365.198161205743
1684735365839477300,119,1684735365839477300,camera_1,240,0,-0.9290915612288599,-0.07463998424726055,1.8944389468433926,0.9747614677349495,-0.05357938842201194,0.21612471898405972,0.01610701709167834,9.87274688668549e-06,1.1965182483090933e-05,2364.667554917978
1684735365869585990,120,1684735365869585990,camera_1,242,0,-0.9307769470341417,-0.07505071438068528,1.897814400479765,0.9752358016547941,-0.05379252692543614,0.2138912454759224,0.016493341882897965,0.0017449600418331102,0.002120078294534051,2361.1105039813547
1684735365889980554,121,1684735365889980554,camera_1,244,0,-0.9303820162069617,-0.07594654381315916,1.8970223699415372,0.9754256836691182,-0.05393079626982641,0.21305274369513502,0.01564395270739563,0.0013458556059049442,0.0016338463606975567,2364.697826102957
1684735365919331789,122,1684735365919331789,camera_1,246,0,-0.9310562707268845,-0.07591636851505407,1.8984681303393385,0.9756390740313436,-0.053604101934027405,0.21222258629679916,0.014716363158279695,0.0014869547449052334,0.001807825648888031,2363.410551013076
1684735365939882755,123,1684735365939882755,camera_1,248,0,-0.9308601524187509,-0.07496106111832622,1.898054048697105,0.9757418859707765,-0.05374412378432484,0.21162784832139545,0.015905814525002344,0.0005494724173331633,0.0006672663706672671,2366.012814199319
1684735365960148811,124,1684735365960148811,camera_1,250,0,-0.928266628036433,-0.07436369205884605,1.8926864119675741,0.9746384221623066,-0.05322914341260043,0.216660652243993,0.017457551539028945,0.0003235238546039909,0.00039123575963268274,2367.4365690872073
1684735365979873895,125,1684735365979873895,camera_1,252,0,-0.9286077973899345,-0.07511935233638795,1.8933657127987504,0.9748167662755701,-0.053276820474193486,0.2158815815675576,0.016999862590363696,0.0032480104855494574,0.00393009395062307,2367.2619115022244
1684735366019944429,126,1684735366019944429,camera_1,254,0,-0.9284465352021504,-0.07593140297234424,1.893138303713875,0.9748881634631515,-0.05255779288642909,0.2157950012843731,0.01622542964078921,0.003743692359421402,0.004529745232711742,2367.849344751333
1684735366039509057,127,1684735366039509057,camera_1,256,0,-0.9299158039537978,-0.07471094133850498,1.8961365336075866,0.9749345106936278,-0.053338184462136166,0.2153940941617665,0.016221039950993252,0.00040531625563744456,0.0004919120561207199,2362.1246725430246
1684735366059673786,128,1684735366059673786,camera_1,258,0,-0.9288569504536925,-0.07433511745446128,1.8939352475336604,0.9748667270260056,-0.053343600211640065,0.21566096731229864,0.016723397740530575,0.0006718704244121909,0.0008134567861842151,2366.983287692884
1684735366089839220,129,1684735366089839220,camera_1,260,0,-0.930210441830786,-0.07593052312381325,1.89666132370556,0.9751618397339071,-0.05387610105403138,0.21429781773677842,0.01527080139521147,0.00311132195929531,0.0037782221858324574,2362.8325862275683
1684735366109864711,130,1684735366109864711,camera_1,262,0,-0.9278361878969758,-0.0760179212975633,1.8918923630896947,0.9745022336117195,-0.0530651477711203,0.21742026243289117,0.016059771524273566,0.0017835688195191324,0.002156973428554756,2367.0957029793644
1684735366139900207,131,1684735366139900207,camera_1,264,0,-0.9311729793715152,-0.07498885037902706,1.8987188271204618,0.9754162686229602,-0.053860691376024866,0.21321588584493747,0.014181496871500507,0.0006413142109522596,0.0007804105838880502,2361.2467989318543
1684735366159864664,132,1684735366159864664,camera_1,266,0,-0.9280472524843087,-0.07434381584389624,1.8922694253053736,0.974243745703287,-0.05344075161761017,0.21845230353000333,0.01648639157029933,0.000241835557972081,0.00029266605224355477,2364.5863971182844
1684735366190119266,133,1684735366190119266,camera_1,268,0,-0.9278798355842388,-0.07594883247085456,1.8919406257978717,0.9745121536910394,-0.05318154684733793,0.217335297547117,0.01622201662810584,0.003158608640660532,0.0038197728171508924,2367.1372721277885
1684735366209583282,134,1684735366209583282,camera_1,270,0,-0.9285730284549112,-0.07616791501033551,1.893424068032454,0.9747238966604206,-0.05347106691533783,0.21634798294801316,0.01573914090373442,0.0025028836680576205,0.003030911977793694,2365.8429522414226
1684735366239653587,135,1684735366239653587,camera_1,272,0,-0.9292717421619024,-0.07465357351193187,1.8948314458766609,0.9747753682717514,-0.053341663646793235,0.21606866712213518,0.016792242796238456,0.001000791511614807,0.0012130127454152428,2363.631802289282
1684735366269314050,136,1684735366269314050,camera_1,274,0,-0.9300812177025044,-0.07500288080039219,1.8964000700867147,0.9750209358773463,-0.053880533488257526,0.21492018839171828,0.015504042490689169,0.002000918160774745,0.002429499928415919,2362.5467850761497
1684735366289473772,137,1684735366289473772,camera_1,276,0,-0.9294009255828101,-0.07588120356591835,1.8950124013028833,0.9751944752963624,-0.05335113495167491,0.21434152525524786,0.01439104937364188,0.0013077761395834386,0.0015858257067309057,2367.1160523942663
1684735366319224834,138,1684735366319224834,camera_1,278,0,-0.9299891745246687,-0.07583366299484834,1.8962579212112394,0.9753556443657315,-0.053881930341152656,0.2135140088082818,0.013779427754330846,0.0007828009547665715,0.0009504203332317222,2366.182149153553
1684735366349918127,139,1684735366349918127,camera_1,280,0,-0.9283084165787974,-0.07427004378439873,1.892817074194227,0.9744927144198232,-0.053309078236234486,0.21739700703711035,0.016144133658842662,0.0008045428694458678,0.0009738875780152458,2365.89769387478
1684735366369806289,140,1684735366369806289,camera_1,282,0,-0.9302526181268429,-0.0748091432931848,1.8967378768234093,0.9751046848927664,-0.05369260066068009,0.21445602549023943,0.017221244595023017,0.0008803178207017482,0.0010682870020450694,2362.3548255602363
1684735366399776458,141,1684735366399776458,camera_1,284,0,-0.928275475240276,-0.07616169900276876,1.8928001919318953,0.9744874357549509,-0.05339035759209648,0.21745384945480462,0.01541202871837713,0.0008173922688001767,0.000989776118437611,2364.8734609570815
1684735366419609546,142,1684735366419609546,camera_1,286,0,-0.9290018056199628,-0.07597206815659599,1.8942684641929337,0.9751485864868928,-0.05343624789429579,0.21448540111038306,0.015027121950417166,0.0007559366204077378,0.0009157522677333676,2368.4283204827216
1684735366449755668,143,1684735366449755668,camera_1,288,0,-0.9289675785526952,-0.07437583017848302,1.8941553871015544,0.9748973309214395,-0.05342284533094646,0.21551615500732166,0.016552362062842444,0.000508215933223255,0.0006154692397061516,2366.794593371449
1684735366479476213,144,1684735366479476213,camera_1,290,0,-0.9284649289522138,-0.07533011705969588,1.8931301008697932,0.9745841436825827,-0.053742902099246904,0.21694005601763222,0.015312068818568765,0.0008742156205698848,0.001058791426334986,2365.7783519816576
1684735366499728918,145,1684735366499728918,camera_1,292,0,-0.9282076744143664,-0.07608152827641745,1.892630514083585,0.9747451895712901,-0.05328254080400483,0.21626939556872504,0.016134893660559584,0.0006936552381375805,0.0008391050231282559,2367.896119318088
1684735366529768228,146,1684735366529768228,camera_1,294,0,-0.9285443526086818,-0.07523216288561686,1.8933547288658177,0.9745983850006726,-0.0533847848581226,0.2169120899480065,0.016037391749302143,0.0009356089431094006,0.001133004766902639,2365.188601549017
1684735366579596757,147,1684735366579596757,camera_1,296,0,-0.9292241401985838,-0.07519063434419207,1.8946471017719861,0.9748779427821931,-0.05312429891409496,0.21573963636110072,0.015723067271522995,0.0025543020601617172,0.00309624765233717,2364.8036906158077
1684735366599740982,148,1684735366599740982,camera_1,298,0,-0.9276667137382479,-0.07610515173508013,1.8915561804208618,0.9743461386408305,-0.05340785954224857,0.21809647187606768,0.015203013189189435,0.00033234484726563096,0.00040205056875098716,2366.53817472991
1684735366620244264,149,1684735366620244264,camera_1,300,0,-0.9284998274659072,-0.07592621102614336,1.8932364558944343,0.9747188930583517,-0.052985060189387694,0.21648787769850988,0.015769011428232282,0.0014000044029671699,0.001695009785494673,2366.112168867024
1684735366649196147,150,1684735366649196147,camera_1,302,0,-0.9287646537361862,-0.07434897332044568,1.8937564356603178,-0.9747898994601614,0.053550425021876215,-0.21600798770454416,-0.01604846217737395,0.0003683913964778185,0.0004461310015773298,2366.8235633547883
1684735366679491758,151,1684735366679491758,camera_1,304,0,-0.9299665716048117,-0.0754564483639179,1.8961710952932402,0.9750334193861088,-0.05350952801076183,0.21496215910491356,0.015421791246552706,0.0011620812001638114,0.0014106759733245485,2362.7673234597323
1684735366699568986,152,1684735366699568986,camera_1,306,0,-0.9285866074161296,-0.07611259153537524,1.8934179331456016,0.9746885064564622,-0.05296561119520486,0.2165673602696377,0.01659933366827391,0.0009580279875081033,0.0011597722207564575,2365.098985749063
1684735366719619989,153,1684735366719619989,camera_1,308,0,-0.9300553395221349,-0.07583813382063373,1.8964032433938893,0.9753277742796282,-0.05380310135254555,0.21357585130937157,0.015043760868602712,8.508571772836149e-05,0.00010326925840175638,2365.3131362438435
1684735366749526023,154,1684735366749526023,camera_1,310,0,-0.929755091813328,-0.07438705718315847,1.8957392161554203,0.9750237856538914,-0.05313210555743883,0.21494750491981374,0.017411688514741036,0.0019584396504797037,0.0023742804858436534,2363.909467759426
1684735366769809007,155,1684735366769809007,camera_1,312,0,-0.9298495551704846,-0.07478341279395885,1.8959456301261917,0.9748902535601461,-0.05366926421592958,0.21549363269417549,0.016465049657471635,0.00031459385354537517,0.00038172745482291815,2362.1820211010063
1684735366799793481,156,1684735366799793481,camera_1,314,0,-0.9289419672461502,-0.07621236184882364,1.8941712900732588,0.9748570219685737,-0.05291262626713599,0.2159086099287344,0.015411452193735097,0.0013633900380227715,0.0016521299466650734,2365.110804021707
1684735366819533824,157,1684735366819533824,camera_1,316,0,-0.9291169189100266,-0.0759784376780666,1.8945177406045017,0.9752422417982142,-0.052801255098586616,0.21416891836404983,0.015693045567407277,0.0031850220693740994,0.003857621176917135,2368.367224905639
1684735366849077463,158,1684735366849077463,camera_1,318,0,-0.9284503752802443,-0.07433951878407816,1.8931106303602254,0.9746904965331781,-0.05369000745307003,0.21644989769987294,0.015660806279073368,0.0002868692681659013,0.0003472961937651676,2367.5016564547554
1684735366869118690,159,1684735366869118690,camera_1,320,0,-0.9310458114239707,-0.07507799444836964,1.8983428984399744,0.9753833042190453,-0.05375244669704836,0.21325112010625039,0.01618777619835749,0.0010062102373922244,0.0012230245802132792,2361.3411023772783
1684735366899225234,160,1684735366899225234,camera_1,322,0,-0.9280600354090891,-0.0760685100302253,1.8923530742675547,0.9746041386850829,-0.053303529321334364,0.21695268257921918,0.015396107997736231,0.0013629555178340524,0.0016492420513172076,2367.2358392305905
1684735366919121265,161,1684735366919121265,camera_1,324,0,-0.9299093439257671,-0.07583724441180031,1.8961093825979871,0.9751955293338451,-0.05354740372419513,0.21426638295257414,0.014706197948508802,0.0025051850388990715,0.003040904419811348,2364.542864104733
1684735366939144849,162,1684735366939144849,camera_1,326,0,-0.9300371897371238,-0.07491017831573012,1.8963785405187599,0.9750945771966197,-0.053603641779641754,0.21464418718217862,0.0156552872412849,0.0020636136905523017,0.002505023158626653,2363.3062266837806
1684735366969116687,163,1684735366969116687,camera_1,328,0,-0.9299819315097594,-0.07479009558809943,1.8961853070854122,0.9750497286051554,-0.053360488913225756,0.2148422554862265,0.016537539948409407,0.0012201855570310727,0.0014804635308180636,2363.0664443010464
1684735366989252090,164,1684735366989252090,camera_1,330,0,-0.928488433919431,-0.07601258117705746,1.8931842746996421,0.9748460152112789,-0.05280684024158143,0.215907513037952,0.01645083779501048,0.0036393749178387225,0.004403709255506481,2367.310040656942
1684735367019139528,165,1684735367019139528,camera_1,332,0,-0.9283733080764229,-0.07592023611710415,1.892984136004456,0.9747895308246124,-0.05304139572269166,0.21620812760191274,0.015034177509798118,0.003285602550022304,0.003977641239192711,2367.6236581862922
1684735367049173593,166,1684735367049173593,camera_1,334,0,-0.9280944670431839,-0.07430272142954036,1.8923669033123751,0.9747136597929248,-0.053135708354650944,0.21641331143956993,0.01658784321398199,0.0011835045443149284,0.0014310505689556106,2369.149895327165
1684735367059271097,167,1684735367059271097,camera_1,335,0,-0.9280743953384251,-0.07426697217262368,1.8922842526702846,0.9745383173766848,-0.05339856627920168,0.21711479810165174,0.01687677484665037,0.0027481538272695616,0.0033234525416216934,2367.5875235184794
1684735367079212903,168,1684735367079212903,camera_1,337,0,-0.9291342966471875,-0.07538503591283516,1.8944703619480727,0.9746620793853811,-0.05351894470520283,0.2166310466470539,0.015509455000381998,0.00037926332151982933,0.0004598832487551975,2363.0783936430244
1684735367109289646,169,1684735367109289646,camera_1,339,0,-0.9285702652896883,-0.07607833397962016,1.8933896099287295,0.9747769793375938,-0.05298980973850579,0.216181776088039,0.016351156068438406,0.0009970233804779127,0.0012068710941619096,2366.1730848354055
1684735367139173030,170,1684735367139173030,camera_1,341,0,-0.9301715674481856,-0.07490772036975904,1.8966524490155972,0.9751740250417391,-0.053471639593321185,0.21432991893358613,0.015462551310121694,0.00022279415861703458,0.0002705049707329041,2363.430281662149
1684735367159408569,171,1684735367159408569,camera_1,343,0,-0.9283355526323716,-0.07437161158543991,1.8928355794851635,0.9744111350610852,-0.053069133229632186,0.21784921056615655,0.015758439736395985,0.0003230422444175929,0.00039117713819482845,2364.8093240680178
1684735367189583301,172,1684735367189583301,camera_1,345,0,-0.9281007614682131,-0.07597737014326106,1.8924013646636921,0.9745260852633492,-0.05311926605022773,0.217315999592102,0.015843264716032465,0.0025972902949433774,0.003142922448578416,2366.150664793792
1684735367209486484,173,1684735367209486484,camera_1,347,0,-0.9283874365063143,-0.07615030823917526,1.8930251872140116,0.9745810373383021,-0.053472414871755886,0.2169860119024688,0.015797884258454426,0.0007151792524382472,0.0008659073103528569,2365.3083912261063
1684735367230047702,174,1684735367230047702,camera_1,349,0,-0.9291228387744028,-0.07507550167970849,1.8945137795229399,0.9750644558019931,-0.053107621357722866,0.21488373627908433,0.015933219010261044,0.0013552830350818112,0.0016418268471910785,2367.193992162822
1684735367259737491,175,1684735367259737491,camera_1,351,0,-0.9287990272633413,-0.0743204055208046,1.8938230043103617,0.9748968682736152,-0.05329992700063097,0.21554454738704729,0.016606086346211642,0.0004650649061659351,0.0005629983453684633,2367.584455923411
1684735367289191246,176,1684735367289191246,camera_1,353,0,-0.929717264036089,-0.0758889425095496,1.8956791297348032,0.9752111634871479,-0.05358767853984347,0.21411846545112703,0.015647046737586476,0.0012183410726720467,0.001477564193546907,2365.6031273296103
1684735367309151411,177,1684735367309151411,camera_1,355,0,-0.9279235596944949,-0.07602008762017884,1.892094985178194,0.9745700851464119,-0.052931240322097145,0.21713349517512717,0.01626278600710885,0.002464801145833917,0.0029808082025298815,2367.223749657161
1684735367339047908,178,1684735367339047908,camera_1,357,0,-0.9300106057547907,-0.07491004019224107,1.89632976613848,0.975056481650803,-0.05356748700460582,0.21473498239230693,0.016860286585470237,0.0017918711237143725,0.00217406107077501,2362.838649238226
1684735367359173059,179,1684735367359173059,camera_1,359,0,-0.9281788482423573,-0.07435440494882545,1.8925156731086055,0.974560258737631,-0.05328982049749478,0.2170966576027319,0.016172148228007936,0.0010262167925247925,0.0012416678771183037,2367.252685355256
1684735367389041900,180,1684735367389041900,camera_1,361,0,-0.9291933253813145,-0.0760619960338506,1.894624285855377,0.97496446794654,-0.05258781683020705,0.21549853274007055,0.015465773489529785,0.0007424747745972127,0.0008999451664909996,2364.9889952517124
1684735367409132719,181,1684735367409132719,camera_1,363,0,-0.9284921023975108,-0.07614312205156443,1.8932566611406458,0.9748890745987043,-0.05310960766083869,0.21568222156226827,0.015869502328629586,0.000583079265197739,0.0007056895902993707,2367.806982496986
1684735367439265727,182,1684735367439265727,camera_1,365,0,-0.9298448858131485,-0.0747103174013866,1.8959715693036698,0.9749318329516633,-0.05370398754114233,0.2152993232095792,0.0164318059016071,0.00210724952921737,0.002556838413519624,2362.6476999074216
1684735367469197750,183,1684735367469197750,camera_1,367,0,-0.92981335716278,-0.07497220137169662,1.8958596312263116,0.9750792380874285,-0.05378191357089112,0.21464929819039064,0.015926833014316764,0.0006654039752902463,0.000807224833279768,2364.4036253790823
1684735367499500751,184,1684735367499500751,camera_1,369,0,-0.9285716323637381,-0.0761126502679511,1.8933897541019724,0.9747209045225961,-0.05293584586233939,0.21647677406258115,0.015961228052657882,0.002922075873357244,0.0035381180109183793,2365.5802004437423
1684735367529679298,185,1684735367529679298,camera_1,371,0,-0.9288834153063642,-0.07526350909971462,1.894020593289009,0.9749095364430134,-0.05328690779247682,0.21554293199857252,0.015910552342496543,6.142750498838723e-05,7.43994103403163e-05,2366.7495192306815
1684735367549773931,186,1684735367549773931,camera_1,373,0,-0.928653393224767,-0.07429884927286522,1.8935129475721186,0.9747279582476226,-0.05345852289227506,0.21627878346626409,0.0164645547449677,0.0010075710742967203,0.0012198254072936432,2366.6769574815407
1684735367559922218,187,1684735367559922218,camera_1,374,0,-0.9286685501510906,-0.07439491504435705,1.8935456304302372,0.9747362216248768,-0.05333074419697651,0.21627122844877172,0.016488957550888268,0.0003381267888471484,0.0004093590840637539,2366.548189390568
1684735367589278697,188,1684735367589278697,camera_1,376,0,-0.9284892136582875,-0.07600109471605027,1.8931944616455858,0.9748169852280578,-0.0530193952814783,0.21599228023527164,0.01637448972135909,0.0015945122722769156,0.0019295560457624318,2367.122875743312
1684735367609305858,189,1684735367609305858,camera_1,378,0,-0.9288761388923079,-0.0761850116836725,1.8940337277467507,0.9750033762613761,-0.053155340632915944,0.21522776309803285,0.01483024048804526,0.0007359787268796936,0.0008916806012268679,2367.2319731697216
1684735367629527568,190,1684735367629527568,camera_1,380,0,-0.9290404953576527,-0.07507638695712207,1.8943479230750246,0.9747988573083805,-0.05292278833892827,0.21605746414815466,0.016897883020592763,0.0021141977049410343,0.0025609982262068524,2364.5641678628754
1684735367659230232,191,1684735367659230232,camera_1,382,0,-0.9279974798491344,-0.07426200921601012,1.892159015965563,0.9744288313661869,-0.053176165463637966,0.21767446351256098,0.016690595059196255,0.0009743695409270003,0.0011785154761162926,2366.680423016661
1684735367679348230,192,1684735367679348230,camera_1,384,0,-0.9284130705577442,-0.07533575181301856,1.8930105266470416,0.9744010529535136,-0.05365722343612211,0.2177214920644298,0.016150612045625307,0.0010467565443832427,0.0012675952268354504,2363.9558430239567
1684735367709398508,193,1684735367709398508,camera_1,386,0,-0.9281732257190758,-0.0760379154115508,1.8925995364239176,0.9745987473977964,-0.05263311890589859,0.21717470922238494,0.014905772004714447,0.001622565119760111,0.0019643447222589955,2366.2977094827233
1684735367729307651,194,1684735367729307651,camera_1,388,0,-0.929190589953995,-0.07528727405604742,1.8946541627299014,0.9749201743186927,-0.05346225301587853,0.21546548840358679,0.015718286035058423,0.0006739137461408973,0.0008168275418164118,2365.4103053548597
1684735367759257078,195,1684735367759257078,camera_1,390,0,-0.9284472991002025,-0.07437042458703423,1.8930683851015324,0.9745940779752944,-0.05338687289965923,0.2169393359898451,0.015923237037940033,0.0008648377988720312,0.0010470626621073137,2366.324198292802
1684735367789386034,196,1684735367789386034,camera_1,392,0,-0.9278992737515189,-0.07595007013721801,1.8919826742463786,0.9744763412757117,-0.05304920686890084,0.21752756789014055,0.016229576466554957,0.00495278173184488,0.0059902087430986975,2366.578591740922
1684735367819171667,197,1684735367819171667,camera_1,394,0,-0.9286445324016424,-0.07593749657252068,1.8935646565793411,0.9748858119060102,-0.05337753161056887,0.21568855903329331,0.015064473627171568,0.004018331193947233,0.004866657983241714,2367.402348445612
1684735367839102268,198,1684735367839102268,camera_1,396,0,-0.9295061832642229,-0.0746704096863111,1.895303913415717,0.9747737404914075,-0.05344714260770565,0.21614566960774775,0.01551152169452833,0.0002141479344572872,0.0002598329852567315,2362.667514331405
1684735367859057903,199,1684735367859057903,camera_1,398,0,-0.9286634340581283,-0.07431038072657534,1.8935052061731106,0.9749067275931248,-0.053288012392506044,0.21547562755626606,0.01695624245386621,0.00010236691741738468,0.00012386120351207252,2368.3943736488
1684735367879177331,200,1684735367879177331,camera_1,400,0,-0.929227082369361,-0.0753914293271466,1.8946734323328551,0.9748050285525875,-0.053947232677915354,0.21587483436979588,0.015585515095659419,0.0024792375188553706,0.0030059626526037658,2364.325516706099
1684735367899121046,201,1684735367899121046,camera_1,402,0,-0.9286874541162865,-0.07612316089961652,1.8936357401331576,0.9748237432813247,-0.052791492151344536,0.21605378197206573,0.015889971270826267,0.002330568982870318,0.0028221539735690847,2365.9926568772644
1684735367929058790,202,1684735367929058790,camera_1,404,0,-0.9292129146182846,-0.07528135418703535,1.8946994816929636,0.9750683515289121,-0.05326746885736891,0.21485008990142046,0.015611709629970192,0.0007225594745250419,0.0008756157198934723,2366.7789361397736
1684735367959025859,203,1684735367959025859,camera_1,406,0,-0.9282191887357946,-0.07434660578848949,1.8926193654354762,0.9746243153464171,-0.05296348532690426,0.21690656490770893,0.01593283582706908,2.692118869163096e-06,3.257553782381165e-06,2367.5563783078687
1684735367979112863,204,1684735367979112863,camera_1,408,0,-0.9284135381058921,-0.07511726108920297,1.8930067237169481,0.9747613674882651,-0.05300389607637887,0.21613719209722437,0.017764505212898483,0.0027865794254466887,0.003369682966441061,2367.3414059224306
1684735368019640207,205,1684735368019640207,camera_1,410,0,-0.9293070579029172,-0.07599617764838998,1.8949272016529952,0.975188656912511,-0.05333666215045458,0.21434215837814302,0.014823057768904494,0.004613110111677088,0.00559235646784823,2367.212516607135
1684735368049307107,206,1684735368049307107,camera_1,412,0,-0.928184312833887,-0.07430407991579846,1.8925827531406247,0.9745226880020093,-0.05338780634583125,0.21717615683788566,0.017023207807128866,0.0005939590046182275,0.0007184801076579144,2366.7084244458238
1684735368079504489,207,1684735368079504489,camera_1,414,0,-0.9294854750529379,-0.07541641912624102,1.8951793400720967,0.9747609740936262,-0.05378083272592429,0.2160407486016948,0.016584943743362012,0.0009583612845744938,0.0011621828195901643,2362.3458942839648
1684735368109481811,208,1684735368109481811,camera_1,416,0,-0.9282215286761704,-0.076052973777662,1.892744043219588,0.974696184453281,-0.05308178666515034,0.21660267892505528,0.015262746120553772,0.0035973839840153232,0.004354256713775504,2367.199718421907
1684735368129524707,209,1684735368129524707,camera_1,418,0,-0.928568116412402,-0.07524018544339939,1.893395354907504,0.9747664737252426,-0.05336106213881855,0.21623136677639945,0.015063690473565003,0.0007358521834248677,0.000891225925933468,2366.978529264453
1684735368159126996,210,1684735368159126996,camera_1,420,0,-0.9282911605904937,-0.07435465405722344,1.8927868138990507,0.9747197789605685,-0.053291402743590344,0.2162596298109006,0.017696084615910837,0.000560727683478035,0.0006779703358789528,2368.106317100348
1684735368169080495,211,1684735368169080495,camera_1,421,0,-0.9291135179766168,-0.07517205184615994,1.8944321017426013,0.9747515384908089,-0.0532648721562911,0.2161386512189057,0.017503572585257768,0.0020827894331887364,0.002522786772889369,2363.8450671166665
1684735368198983669,212,1684735368198983669,camera_1,423,0,-0.929949561724953,-0.07630402837785615,1.8962173108212121,0.9752772218147074,-0.053551087654059304,0.21391275427657336,0.014420651104016255,0.001844520287704654,0.0022391333101051706,2364.9128140615067
1684735368219073534,213,1684735368219073534,camera_1,425,0,-0.9295618034840295,-0.0760009514624294,1.8954248448933935,0.9751724819364386,-0.05281745610399836,0.21450867888002514,0.015328845024171254,0.0021279778593452647,0.0025805502545962486,2365.439684423735
1684735368239191770,214,1684735368239191770,camera_1,427,0,-0.9292133629352983,-0.07464203734239852,1.8947071081491782,0.9747765905823187,-0.05305141522224779,0.2161566183874317,0.016506426716203955,0.0008273936837213114,0.0010028366780488827,2363.8293389168102
1684735368269577741,215,1684735368269577741,camera_1,429,0,-0.9296042711701221,-0.07496339217188727,1.8954407658835428,0.9749420486146891,-0.05366863001488291,0.21534132567027667,0.01535556752083133,0.0038784795615356416,0.004705461862110438,2364.02703391458
1684735368290038108,216,1684735368290038108,camera_1,431,0,-0.9296304973110067,-0.07587608759406257,1.895483718746844,0.9750524965974188,-0.054192941000374945,0.2147198240256027,0.015203657299644313,0.0007039645715849474,0.0008539946306807011,2364.8039075888223
1684735368319321393,217,1684735368319321393,camera_1,433,0,-0.9302650614862725,-0.07585752992737807,1.896874458116905,0.9754296877059898,-0.05388684729019262,0.21305652189973695,0.015493563402445882,0.0010761645389720798,0.0013062885061879165,2365.2238946397556
1684735368349125623,218,1684735368349125623,camera_1,435,0,-0.9292999581439533,-0.07435088872704829,1.894849198367166,0.9749009285510158,-0.05328710850780079,0.21554960228928963,0.016341130015212257,0.0005331160791683942,0.0006461474118019738,2365.104803521652
1684735368369434595,219,1684735368369434595,camera_1,437,0,-0.9292164625959319,-0.07472500341696652,1.894639285612324,0.9746736378256147,-0.05324433847653672,0.21658994857150546,0.016282945856671283,0.0012487687199609354,0.0015139352890061984,2362.930865107919
1684735368399580001,220,1684735368399580001,camera_1,439,0,-0.9294951173552167,-0.07626922956773816,1.8952850288056653,0.9749271711076976,-0.053516645834618265,0.215531995003452,0.014104566082880892,0.0016860057949088514,0.002046372504763958,2363.563778680981
1684735368429461002,221,1684735368429461002,camera_1,441,0,-0.929218917486554,-0.07508233192936388,1.8947338144921395,0.9750204598000604,-0.05338266113204959,0.21500525133745446,0.016066622515569395,0.0014919036766514182,0.0018077822835120777,2366.3354539228603
1684735368449496269,222,1684735368449496269,camera_1,443,0,-0.9285555692806988,-0.07433050878189536,1.8933404654206611,-0.9749127710752996,0.05305001055454578,-0.21556451078486116,-0.016208851425272862,0.00010668719187378883,0.0001291042366357141,2368.8694632297857
1684735368479583740,223,1684735368479583740,camera_1,445,0,-0.9275976027274604,-0.0752631516644583,1.8913491470134758,0.9742946212741069,-0.05360560256393914,0.21830865799476243,0.014756699313442588,0.0008180222066584975,0.000989678578230787,2367.1519628996025
1684735368509454965,224,1684735368509454965,camera_1,447,0,-0.9276715144820995,-0.07599932277979785,1.891577441489667,0.9743557843357347,-0.053024613765337444,0.21817489906275273,0.014795583310231782,0.003110905076027848,0.0037640928472632957,2366.514771108981
1684735368529447793,225,1684735368529447793,camera_1,449,0,-0.9283857314565201,-0.07523216513288022,1.8930190049082758,0.9746231820776421,-0.05325822122082756,0.21677285019180104,0.016815060183287565,0.00160764972679317,0.0019454102465501432,2366.0885496595865
1684735368559284210,226,1684735368559284210,camera_1,451,0,-0.9283708476808791,-0.07436156869744096,1.8929346589918676,0.974581832259351,-0.053393405621548436,0.2170099602221159,0.015686734221458103,0.00038167674210853875,0.00046208562101994255,2366.591950794216
1684735368579654455,227,1684735368579654455,camera_1,452,0,-0.9285350624804631,-0.07512120569460312,1.8932578547746723,0.9746766652325977,-0.05310751940227718,0.21647685866471297,0.017965502961438798,0.0029498208459699526,0.0035683074897053936,2365.851848956896
1684735368609932899,228,1684735368609932899,camera_1,454,0,-0.9287261739129439,-0.07616878840388429,1.8937248406359215,0.9749972300604939,-0.05331288512767597,0.2151324325368146,0.0160054404663094,0.0016547767736483365,0.002003220729838604,2367.856992490823
1684735368639925479,229,1684735368639925479,camera_1,456,0,-0.9295260899998077,-0.07466872381556036,1.8953470406826622,0.9748783340601409,-0.05304314347725958,0.2156678540435899,0.016912582369589813,0.0009425674943486229,0.0011427781434081633,2363.2523022977402
1684735368669866323,230,1684735368669866323,camera_1,458,0,-0.9303394060088225,-0.07500632146171027,1.8969307929465595,0.9751824403677052,-0.054039306285378404,0.21421304941162572,0.01455097372874213,0.0014406409754883496,0.001750353529544736,2363.163632338865
1684735368689901351,231,1684735368689901351,camera_1,460,0,-0.9306362122332277,-0.07596828151904036,1.8975376880698442,0.9752838647680315,-0.0539225749224787,0.21375319323933542,0.014943607892640116,0.001648655757890083,0.0020036876343934636,2362.0100810882873
1684735368719876766,232,1684735368719876766,camera_1,462,0,-0.9304290695573754,-0.0758641473773299,1.8971712876987012,0.9753711972096208,-0.053465265378697405,0.21336749149500545,0.01633421638723931,0.001682968228124082,0.002042990587665717,2363.50393920415
1684735368739916801,233,1684735368739916801,camera_1,464,0,-0.9309942192310445,-0.07496994384281538,1.8983276500449606,0.9754886829436337,-0.05346350174941204,0.21286841250013852,0.015827899079051536,0.00032876915065571666,0.00039957471389989567,2362.515109236353
1684735368759624242,234,1684735368759624242,camera_1,466,0,-0.9284006582426096,-0.07435481777944121,1.892976547820877,0.974381865485324,-0.053578627708266255,0.21780385253203952,0.01645577978828516,8.26321920612827e-05,0.00010004993005988252,2364.359248133726
1684735368789701938,235,1684735368789701938,camera_1,468,0,-0.9274844396283344,-0.07591877079299363,1.8911419061646648,0.9744375779908235,-0.053079350645674525,0.21773455333077943,0.01567333468849394,0.002959224540973082,0.003577007743137217,2368.371555745369
1684735368819354534,236,1684735368819354534,camera_1,470,0,-0.9279162759284678,-0.07586518028683702,1.892045194011768,0.9746141672018622,-0.05301067323566374,0.21709229796982862,0.013712322002544469,0.0032093561749206856,0.003885058605117104,2368.293322769925
1684735368839295148,237,1684735368839295148,camera_1,472,0,-0.9296067835200695,-0.07468770405238877,1.8954987152228773,0.9748936283787695,-0.05337328838579187,0.21557107653232524,0.016211612999919953,0.0019377175049157813,0.0023503555784139163,2363.289039131487
1684735368869215488,238,1684735368869215488,camera_1,474,0,-0.930233791301548,-0.07500674080390071,1.8967270570822223,0.9751443526164494,-0.05393505015414315,0.21436923790820017,0.015176684874280403,0.003735064994543791,0.004536176672464188,2363.1340734601254
1684735368889305591,239,1684735368889305591,camera_1,476,0,-0.9296463386486381,-0.07587844295438503,1.8955332782701488,0.9751015629144302,-0.053237117129289864,0.21480751560477276,0.014159187875832611,0.0015580128674628213,0.001890839363337945,2364.830686856062
1684735368909353494,240,1684735368909353494,camera_1,478,0,-0.9276720560381397,-0.07599567862248859,1.8915581292790127,0.9743803120844977,-0.053314223874550495,0.2179386677362914,0.01559929678227864,0.001250998888281174,0.001513030612535869,2366.849190269829
1684735368939261913,241,1684735368939261913,camera_1,480,0,-0.930207675447725,-0.07491313525885626,1.8967383920256775,0.975317829499391,-0.05371357216651681,0.21371300741684626,0.014026192874632627,0.0006561178306583315,0.0007969690740960646,2365.0712128416626
1684735368959348201,242,1684735368959348201,camera_1,482,0,-0.9288864759314066,-0.07440569576225298,1.893952121314451,0.9749351273688277,-0.05317970862989112,0.21545900660736925,0.015837691881501092,0.000321580795571208,0.00038945905938800774,2367.6111261480255
1684735368989315271,243,1684735368989315271,camera_1,484,0,-0.9282801820464905,-0.07597977103131395,1.8927543058272083,0.9744522055697034,-0.053224949995949136,0.21753098596178025,0.017037426588689362,0.0029894701729062945,0.0036174867915406595,2364.3694201874314
1684735369009270429,244,1684735369009270429,camera_1,486,0,-0.9291390834159337,-0.07620461324328053,1.8945791687096352,0.9751255649647397,-0.05325281699195554,0.21455660722600356,0.01611621327374569,0.0013287668843986467,0.0016095361927322925,2367.0349305962436
1684735369029147386,245,1684735369029147386,camera_1,488,0,-0.9285420514331344,-0.07503157370252539,1.8933249990621304,0.9747649113579541,-0.05302331646862894,0.216205554523712,0.01664492983108835,0.0027697578771039844,0.0033520722776135964,2366.8495183784976
1684735369059148550,246,1684735369059148550,camera_1,490,0,-0.9288394449973434,-0.07430933355767835,1.8938684246638036,0.9748363397899739,-0.05318150693853854,0.2158196418166559,0.016962315607346005,0.0001566186110721901,0.00018960186702596872,2366.6971066975957
