%time,field.header.seq,field.header.stamp,field.header.frame_id,field.image_seq,field.transforms0.fiducial_id,field.transforms0.transform.translation.x,field.transforms0.transform.translation.y,field.transforms0.transform.translation.z,field.transforms0.transform.rotation.x,field.transforms0.transform.rotation.y,field.transforms0.transform.rotation.z,field.transforms0.transform.rotation.w,field.transforms0.image_error,field.transforms0.object_error,field.transforms0.fiducial_area
1684303330246805906,8,1684303330246805906,camera_1,10,0,0.0404540649553326,-0.8971462389710151,5.192560808738838,-0.7025995812129411,0.7057433805371454,0.07944135158060874,-0.04437545454920238,0.005854991206433624,0.0038899837518685814,3151.652173181995
1684303330253225564,9,1684303330253225564,camera_1,11,0,0.04044675124523903,-0.8976898087109934,5.195377400829483,-0.702406474566732,0.7061516866245544,0.07892242825820277,-0.041787441676428415,0.002110864908900112,0.0014038684655706174,3150.5810832342836
1684303330259730577,10,1684303330259730577,camera_1,12,0,0.0404987531301311,-0.8985068387833327,5.2001643519434015,-0.7027736032708685,0.7064221653857495,0.07356897707925372,-0.040799416771579826,0.004587322269799188,0.003052207331139364,3149.721459904917
1684303330266576528,11,1684303330266576528,camera_1,13,0,0.0404814672444995,-0.897697418539189,5.195388942122253,-0.7025742923109113,0.7061166489394571,0.07729876071678465,-0.0425857190379959,0.005621750155114569,0.0037370298085945292,3151.308919703006
1684303330273225069,12,1684303330273225069,camera_1,14,0,0.0404661813130156,-0.8971857870350143,5.192343019544756,-0.7022967992473793,0.7060853897196409,0.08104265065849796,-0.040678212418860875,0.004033078279462643,0.002680491794229987,3153.3013790339464
1684303330279914140,13,1684303330279914140,camera_1,15,0,0.040514797032567745,-0.898520530246708,5.199926780927382,-0.7024593691024519,0.7066400499739028,0.0746689467530024,-0.04043788970585161,0.006313917838269845,0.004201652021066316,3149.4338761288673
1684303330287027120,14,1684303330287027120,camera_1,16,0,0.04056475502041548,-0.898633188802692,5.2005181506620595,-0.7026050852364669,0.7064514735531847,0.07475765309241225,-0.04103295039971728,0.0039056685054674745,0.002599786517676595,3148.219982375389
1684303330293657541,15,1684303330293657541,camera_1,17,0,0.04049263569428263,-0.8978004803886381,5.195880710676013,-0.7024949856394621,0.7063788867347796,0.0769258924521726,-0.04015059896417711,0.005234411408309825,0.0034798696368000814,3152.7791565214284
1684303330300311565,16,1684303330300311565,camera_1,18,0,0.04046793541138166,-0.8977520763095607,5.195792703413226,-0.702617914093935,0.7060541184567645,0.07810569038564932,-0.04141436627439984,0.003554890470695682,0.002364011996275431,3151.0219370513214
1684303330306962251,17,1684303330306962251,camera_1,19,0,0.0404956478775127,-0.8983970429050571,5.199085517289754,-0.7024614648239239,0.7063386601432741,0.07676919511053523,-0.04171424584614108,0.006154345319373533,0.004096273344566247,3147.8776610939526
1684303330313468933,18,1684303330313468933,camera_1,20,0,0.04046335170478024,-0.8981125254978992,5.197814593923165,-0.7027025101846959,0.7063972715933862,0.07360095172065437,-0.04236716619460419,0.00718426845560316,0.00477570108503615,3151.402786110527
1684303330320170164,19,1684303330320170164,camera_1,21,0,0.040436344539354935,-0.8976042071111735,5.195924071797359,-0.6997952609149802,0.7091470020846832,-0.045369777667882145,0.07306644585312702,0.0059781127056339756,0.003973020368851146,3153.1644944015425
1684303330326882839,20,1684303330326882839,camera_1,22,0,0.04048365734409515,-0.8981624363023322,5.198158771238171,-0.7025922901235002,0.7063894433933499,0.0757462885391448,-0.04050343064474141,0.004020934371510521,0.002674721461284225,3150.68981866946
1684303330333571672,21,1684303330333571672,camera_1,23,0,0.04041241053858047,-0.8974440745328865,5.1940091887392725,-0.702451169573539,0.705949280887476,0.07908169581628731,-0.04409141147709961,0.0032889053982216865,0.002186175213362847,3150.382870574249
1684303330340120553,22,1684303330340120553,camera_1,24,0,0.04042405762138315,-0.8973748155331227,5.1939304146787135,-0.702533984061606,0.7059534524538873,0.0793403468912747,-0.04219992372192905,0.00733772266539745,0.004877507450433852,3151.7091196383108
1684303330346858501,23,1684303330346858501,camera_1,25,0,0.040472008293146816,-0.8981062158828004,5.198177789603998,-0.7024954486058547,0.7064559471353573,0.07423860173242212,-0.043689466212794896,0.005733719386626035,0.0038125943629675977,3149.5058785569845
1684303330353474378,24,1684303330353474378,camera_1,26,0,0.04044876647605261,-0.8979986377764713,5.197520708738378,-0.7029158860220932,0.7059702261955266,0.07616921427196825,-0.04139502023678276,0.006989664369029924,0.004648802290391652,3150.49747483735
1684303330360160589,25,1684303330360160589,camera_1,27,0,0.04049663606066228,-0.8978348663586727,5.196599409741308,-0.7022507929669604,0.7063438280671941,0.07775736784898303,-0.04331295503490566,0.005055359855759889,0.003362433041796223,3148.9551998846
1684303330366899967,26,1684303330366899967,camera_1,28,0,0.04050761860361471,-0.8987268784811914,5.20151100414129,-0.7025213343989406,0.7067687262340803,0.07363971455253787,-0.03897351372930695,0.0068625769490608945,0.0045683575884651485,3149.3430232241517
1684303330373407125,27,1684303330373407125,camera_1,29,0,0.04050641934416979,-0.8977287017691107,5.195570324399106,-0.7024856761204531,0.7059820995034468,0.07929841879586184,-0.04260176994880972,0.00962771569902543,0.006403330984340944,3149.453751973458
1684303330380398035,28,1684303330380398035,camera_1,30,0,0.040469300197429614,-0.8975463522774422,5.194832025259133,-0.7023301589405451,0.7062807472830838,0.07804973535098503,-0.04252167296143126,0.004841907270019874,0.003218567678228428,3151.4438227992505
1684303330386942625,29,1684303330386942625,camera_1,31,0,0.040420464060656164,-0.896790700001435,5.190600338586905,-0.7023085438319784,0.7057511141454839,0.08086213469408456,-0.046253533008085095,0.0059441289777169,0.003947659697648629,3151.3822036902407
1684303330394234657,30,1684303330394234657,camera_1,32,0,0.04046104305663656,-0.8977268123129631,5.195438393625953,-0.7024008146037178,0.7059463488976179,0.08008771627466992,-0.04311387043707022,0.004629847608157434,0.003079952010157183,3148.5534714923706
1684303330399963140,31,1684303330399963140,camera_1,33,0,0.04044326959170849,-0.8977856682791056,5.196190631600881,-0.702476957019181,0.7060081568962604,0.07866682012306776,-0.04347572500536482,0.006000298133585602,0.003991206843993696,3148.5621462392155
1684303330406680583,32,1684303330406680583,camera_1,34,0,0.040494881464203464,-0.8977456431310621,5.196078951828291,-0.7024898218120734,0.7060679453082275,0.07736883678673027,-0.04461132090543503,0.0059497591719264165,0.003956133341075495,3148.9096708809957
1684303330413325786,33,1684303330413325786,camera_1,35,0,0.040476781107641524,-0.8982012912941756,5.198602168708978,-0.7022986688847677,0.706273014692808,0.07929148576525474,-0.040839548045426576,0.004333232820499688,0.0028855928542183,3147.080776087009
1684303330420489072,34,1684303330420489072,camera_1,36,0,0.04046184832992436,-0.8975337531406947,5.194544756654359,-0.702461933737747,0.7060072368969041,0.07942625319090706,-0.04233773024948032,0.004074080672580749,0.002708838596547821,3150.7736846138714
1684303330427684545,35,1684303330427684545,camera_1,37,0,0.04052508473841979,-0.8988244992077501,5.201996957784767,-0.702494284287383,0.7067935832495708,0.07294765151587151,-0.04028959368259506,0.007155285464250483,0.004763303617328338,3148.3498781220997
1684303330434194326,36,1684303330434194326,camera_1,38,0,0.040460758634962596,-0.8976449971655158,5.194988680383895,-0.7025592657656357,0.7058500445211789,0.0784366718491619,-0.045098572544234834,0.004884550013230181,0.003247451201173725,3148.9540958638545
1684303330440580844,37,1684303330440580844,camera_1,39,0,0.04044954311494997,-0.897757608551037,5.195814462150586,-0.7022130054009559,0.7067267606843866,0.07570200167678323,-0.041272117954371974,0.002606047346489504,0.0017320104189103777,3153.0234024678343
1684303330447159528,38,1684303330447159528,camera_1,40,0,0.04046640118314229,-0.8981694031662301,5.198787889868608,-0.702991786245567,0.706132761441322,0.07428929211124642,-0.040745217733250905,0.006661329767666757,0.004430472024118018,3150.900616872008
1684303330453681230,39,1684303330453681230,camera_1,41,0,0.04042332386800884,-0.8981534072947173,5.198508986068562,-0.7028172548956408,0.706218318829227,0.07537519051458796,-0.040276209179437285,0.004345134031609632,0.002890544741885262,3150.721109447885
1684303330460256814,40,1684303330460256814,camera_1,42,0,0.0404240659992951,-0.8972449365719334,5.1933927542895555,-0.7026785581435817,0.7057306916428194,0.0797724151195555,-0.04270124804497113,0.006632007018197328,0.004407887580252989,3151.628706471296
1684303330467122316,41,1684303330467122316,camera_1,43,0,0.04044434761425969,-0.8978226695975945,5.196763062123486,-0.7027083752419427,0.7058959933948299,0.07689689211658797,-0.044706306677752196,0.0038534577033715323,0.0025626884455071217,3148.3716615423327
1684303330473709583,42,1684303330473709583,camera_1,44,0,0.04044486630382266,-0.8977926028655078,5.197553395387466,-0.7000674056225703,0.7088629987329979,-0.04620347284249753,0.07269192327513561,0.006051570060662925,0.004025134272944964,3150.8366713388814
1684303330480433940,43,1684303330480433940,camera_1,45,0,0.04039688813572076,-0.8974598057951432,5.194625135166576,-0.7025144467162018,0.7059083736552989,0.07839364914714388,-0.04495837999477351,0.003842788253678009,0.0025545160468645406,3149.5577074324256
1684303330487242937,44,1684303330487242937,camera_1,46,0,0.04047668603267007,-0.898814693776857,5.202566662177891,-0.7027364309804689,0.706381928039252,0.07492591842877103,-0.03965081411505702,0.0023250038793776184,0.001548962641431822,3146.6134409395754
1684303330493639230,45,1684303330493639230,camera_1,47,0,0.04041518162300928,-0.8973013620103518,5.194056278486015,-0.7026387536165927,0.7059266589763518,0.07720361283544203,-0.04478767941925606,0.006980207355809398,0.0046374178976583726,3151.365036926698
1684303330500166416,46,1684303330500166416,camera_1,48,0,0.040329351244885625,-0.8968189013732543,5.192227922790234,-0.6995941517619418,0.7086296684734456,-0.04915044683009709,0.0774354528372202,0.003998517204308882,0.0026560265963528067,3151.30580517184
1684303330506897687,47,1684303330506897687,camera_1,49,0,0.040414961174598335,-0.8980034460268025,5.198067789436151,-0.7026600675585477,0.706219626165283,0.07663364231028029,-0.04061962510714899,0.0074315277161076665,0.00494420607917815,3150.0499347303985
1684303330513496398,48,1684303330513496398,camera_1,50,0,0.04040703361875572,-0.8985028809952176,5.201067429522675,-0.7030043422986115,0.7066047604170612,0.07050841226795393,-0.03902782423728435,0.004716195369837806,0.0031368230928452306,3152.1424977288116
1684303330520099401,49,1684303330520099401,camera_1,51,0,0.04040799874261622,-0.897632733288839,5.196056844595867,-0.7027356594753617,0.7059758814501497,0.0760881812297506,-0.044398607968736,0.0075633707019733265,0.005027312250558566,3150.1228132967367
1684303330533945083,50,1684303330533945083,camera_1,53,0,0.04038550118133724,-0.8972319465498135,5.193798364667693,-0.7024292271003971,0.7059331720841758,0.07853477590390562,-0.04564894785244785,0.008077861915808171,0.0053679140218523165,3149.938760691555
1684303330540859460,51,1684303330540859460,camera_1,54,0,0.04040518335150725,-0.8972626590930521,5.193722551043823,-0.7025368122780099,0.7058942919521768,0.07982227229231563,-0.04223364570669632,0.007678375535761006,0.005104090745327409,3151.5509602060765
1684303330547489166,52,1684303330547489166,camera_1,55,0,0.04033508650446127,-0.8972275333966923,5.193786844219458,-0.7022667544737312,0.706064629146985,0.07764984214154333,-0.04758830784821244,0.002162749893614091,0.001437002996008871,3149.1148134383825
1684303330553835153,53,1684303330553835153,camera_1,56,0,0.040384948328388015,-0.8981105267489411,5.198922203089371,-0.7029487029409441,0.70599973837861,0.07586289058239072,-0.0408939148952846,0.007643152159289457,0.005085673590759384,3149.4190533997044
1684303330567007541,54,1684303330567007541,camera_1,58,0,0.04036327011795038,-0.897468400092707,5.195008743671399,-0.7028009263760007,0.7057773633176323,0.07717419403563949,-0.04464655740811063,0.005827556626172736,0.0038731321368394747,3150.321715625817
1684303330573786020,55,1684303330573786020,camera_1,59,0,0.04041843816087401,-0.8982722794262973,5.199742197247882,-0.7024968190562667,0.7067702681543176,0.07283471922252206,-0.040854754248156766,0.005037608498241752,0.003350649891729266,3150.7789323752504
1684303330580722332,56,1684303330580722332,camera_1,60,0,0.04041963037044238,-0.8978152170435046,5.197020289153049,-0.7027882575668924,0.7060108519380525,0.07712582006983919,-0.04109683504056549,0.006598059684620239,0.004388517007375175,3150.582626645919
1684303330593624114,57,1684303330593624114,camera_1,62,0,0.040438329306277804,-0.8977578324022754,5.196497313469477,-0.7026219419159636,0.706145835976945,0.0760787767166925,-0.04350269881229656,0.005229253511060961,0.003476482230923468,3150.2661428919523
1684303330599885463,58,1684303330599885463,camera_1,63,0,0.04044733759741451,-0.8971811939385972,5.1933385052664915,-0.7026415923228865,0.7058541728790534,0.07678114235078227,-0.046576126357771336,0.007126392112695612,0.004732756553773689,3151.1839607497677
1684303330606480836,59,1684303330606480836,camera_1,64,0,0.04038292694800674,-0.8978266875401366,5.197036364721035,-0.7027423675434118,0.7064244039008465,0.0731293371446441,-0.04206930569428386,0.007452198085957207,0.004951777634612968,3152.9440107467817
1684303330613246440,60,1684303330613246440,camera_1,65,0,0.040428729708299416,-0.8978291744252053,5.196750934413923,-0.7025626006411039,0.7065315693034628,0.07429043868744675,-0.041229412773187646,0.0049671049491735175,0.003301091611966337,3153.018497796496
1684303330620155572,61,1684303330620155572,camera_1,66,0,0.04036270787543211,-0.8975478064541871,5.196047127924919,-0.7002812574368266,0.7085929472785821,-0.04832711318939965,0.0718796611047132,0.004788178513990715,0.0031846066865427714,3151.561140624108
1684303330626695632,62,1684303330626695632,camera_1,67,0,0.04041233562911081,-0.8983472830823046,5.1997862158412875,-0.7027514700821229,0.7063649613440043,0.074358351074737,-0.04074000869347779,0.006333882934995927,0.004214404453052174,3149.6334714405243
1684303330633266687,63,1684303330633266687,camera_1,68,0,0.040447361393300046,-0.8981365986758291,5.1984618016139,-0.7025763154660067,0.7063972100669941,0.07534063551409834,-0.04139192187020555,0.005589463471551426,0.0037180822520443387,3150.017587299925
1684303330639975786,64,1684303330639975786,camera_1,69,0,0.04045667617876306,-0.8980878602153315,5.198100143206016,-0.702402304906773,0.7062909521491936,0.0772029805180254,-0.042705886865535066,0.005290969857014716,0.003520717549311772,3148.026229750366
1684303330646705389,65,1684303330646705389,camera_1,70,0,0.040393970103714594,-0.8974550230807156,5.194583465754131,-0.7023874451240594,0.706022654867208,0.08043534480441031,-0.04140100303798848,0.004296877013985068,0.002857836147935641,3150.585261003929
1684303330652766942,66,1684303330652766942,camera_1,71,0,0.040479048843297866,-0.898581460061705,5.200999129716,-0.7024815848393023,0.7065581728079702,0.07621269901268071,-0.03855899258444285,0.006511255924124271,0.004336464341769402,3148.2782492723786
1684303330659649372,67,1684303330659649372,camera_1,72,0,0.04045001307965032,-0.8983031402841742,5.199071149271659,-0.7028086666013654,0.7065778731121723,0.07335467273865026,-0.03777273309803645,0.004163704870734364,0.0027691327252581874,3153.320085552754
1684303330666721105,68,1684303330666721105,camera_1,73,0,0.04041770339362799,-0.8976361555704164,5.195098563479467,-0.7022968043877613,0.7061034038026616,0.07993384433394977,-0.04251778704295422,0.005447177987662144,0.003623024241623736,3149.544405108435
1684303330673166275,69,1684303330673166275,camera_1,74,0,0.04046071824540892,-0.8981452044282568,5.1981762325052,-0.7024999733459698,0.7064463808858318,0.07636820573904464,-0.03993989902867778,0.006520421025925316,0.004337951234024374,3150.592447064817
1684303330680021762,70,1684303330680021762,camera_1,75,0,0.04043073166068126,-0.898082901521766,5.197824433355155,-0.7024433023494508,0.7063997100782838,0.07623331813609723,-0.041968295077061,0.00430200932896696,0.0028616963520117747,3149.655903764302
1684303330686533212,71,1684303330686533212,camera_1,76,0,0.04038322320663826,-0.8971815334566141,5.192194582393911,-0.702346020401377,0.7059269157876636,0.08011516890558007,-0.04425852351915864,0.007222335916594602,0.0047984515386145345,3151.5816457530022
1684303330692770004,72,1684303330692770004,camera_1,77,0,0.04037995565779931,-0.8976118302183165,5.195906396303338,-0.6999879390968067,0.7088162252637326,-0.04768281112752068,0.07295747696333917,0.006757143200957216,0.0044932923633775835,3151.455940285232
1684303330699555635,73,1684303330699555635,camera_1,78,0,0.040457660190790945,-0.898241964410769,5.1987554919648264,-0.7025656876002736,0.7063981600051031,0.07506756409129658,-0.042047056609929044,0.007659607115783729,0.005095354142671988,3149.389677837025
1684303330706673383,74,1684303330706673383,camera_1,79,0,0.040490552748332104,-0.8984775605419701,5.199968074057766,-0.7024204240232734,0.7067693012605685,0.07490065849767656,-0.03837439337927596,0.0055680297227809206,0.0037055908040143797,3150.6590174243333
1684303330713368654,75,1684303330713368654,camera_1,80,0,0.040436316130377986,-0.8973996834279676,5.193672698618344,-0.7026267266533226,0.706049139524054,0.07751581987563147,-0.042445179217297596,0.0053677395335398614,0.0035660058775968703,3153.3096318163443
1684303330719977378,76,1684303330719977378,camera_1,81,0,0.04041707376527898,-0.8976659107546092,5.1952771792992225,-0.7027388907697617,0.7061155413126449,0.07540695956827376,-0.043274520969089056,0.006469085012213327,0.004298033555205876,3152.411255380254
1684303330726479291,77,1684303330726479291,camera_1,82,0,0.04046559247556153,-0.898047096102151,5.197219970599355,-0.7024259672054747,0.7062349953786888,0.07890729538457568,-0.040044108593004495,0.005763225693954155,0.003835389513485439,3149.6157926423466
1684303330733346700,78,1684303330733346700,camera_1,83,0,0.040386874256443134,-0.8972353636591893,5.1923336108314455,-0.7024408835327774,0.7059763474228777,0.0784974872736407,-0.044859185379002034,0.004404495673952624,0.0029253514453775826,3152.284503965173
1684303330739892482,79,1684303330739892482,camera_1,84,0,0.04045323101022397,-0.8984346641724849,5.199515498323228,-0.7024767638893524,0.7065215092618814,0.07631670792347385,-0.03910899177401086,0.0026448681310284883,0.0017605772852386074,3149.565371718373
1684303330746612071,80,1684303330746612071,camera_1,85,0,0.04044632678864343,-0.8980359183714255,5.197018105099905,-0.7024004108897226,0.7061544449544556,0.07932596074706731,-0.04107255293463622,0.005238008627202362,0.0034859109733179276,3148.7594366271514
1684303330753382205,81,1684303330753382205,camera_1,86,0,0.04048778138609757,-0.8981244905195739,5.19778386884949,-0.7024129081561689,0.7065987884667273,0.07629127073380064,-0.03890887562971742,0.006015291161020286,0.0040012213093929255,3151.846559386816
1684303330760066509,82,1684303330760066509,camera_1,87,0,0.04040978053509686,-0.8971539737179918,5.193077778625686,-0.6997667786082016,0.7085777045374375,-0.047271599744550016,0.07752088780675355,0.006260198904783465,0.004157765400784574,3151.734623604453
1684303330766970396,83,1684303330766970396,camera_1,88,0,0.04047453059595832,-0.8978644948631092,5.19626558921248,-0.7023565220230857,0.7065040679994372,0.07643102888211145,-0.04129910042486456,0.004683249469962902,0.0031135311186718064,3151.878074879292
1684303330773477077,84,1684303330773477077,camera_1,89,0,0.04049202966676335,-0.898325767636538,5.198909001313602,-0.7025969223899592,0.7065538789160434,0.07461066337554068,-0.03965387430646202,0.008440254692686722,0.005614190626273643,3151.264300052775
1684303330780166625,85,1684303330780166625,camera_1,90,0,0.04048543493262047,-0.8977752787158129,5.1958366735253305,-0.7029196508673823,0.7058978757272264,0.07693710661993995,-0.04114407725564805,0.005795890130684711,0.003853058795393668,3152.1000177937094
1684303330786960601,86,1684303330786960601,camera_1,91,0,0.04042638204111562,-0.8979051707452896,5.196881787436174,-0.7025615001946633,0.7058614880681398,0.08021899977997086,-0.04161502349820848,0.0038211937790038064,0.002543598438777659,3147.808880559167
1684303330793777227,87,1684303330793777227,camera_1,92,0,0.04041150084830217,-0.8980451314215933,5.197378616881065,-0.702289615097198,0.7067109729668182,0.07494642207564668,-0.041616475499274504,0.0038149734609760344,0.002536482403728646,3151.4468560735695
1684303330800323009,88,1684303330800323009,camera_1,93,0,0.04037106762418016,-0.8972286200664457,5.192432210348983,-0.7024385010293983,0.7060908437378204,0.07900766880016265,-0.04211485405351656,0.0032711644598748535,0.0021730242478425277,3153.8169188660086
1684303330807005405,89,1684303330807005405,camera_1,94,0,0.04047205875003193,-0.8980369319554532,5.197292015522671,-0.702442598013405,0.7063304445566774,0.07641645328436189,-0.04280450041740059,0.006936848934856243,0.004613447142446097,3149.537639735382
1684303330813782691,90,1684303330813782691,camera_1,95,0,0.040418587898219616,-0.8975444121180467,5.1945817246142925,-0.702668291071385,0.7060043095078835,0.07749616053739689,-0.04253860342181155,0.006933735741768032,0.004607819291562433,3152.145921788295
1684303330820296049,91,1684303330820296049,camera_1,96,0,0.040421709690446006,-0.8982620558974976,5.198900022461525,-0.7023642839974441,0.7064638063965121,0.07601509196753616,-0.04260291785401944,0.0049766718002501875,0.0033116045026605812,3148.0563845372526
1684303330827045679,92,1684303330827045679,camera_1,97,0,0.04043128727918732,-0.8974511988651499,5.194280158028785,-0.7026624186088163,0.7060439357832208,0.07633410914551439,-0.044052128206350516,0.010329787677619606,0.006861701533447671,3152.3288466953663
1684303330833667755,93,1684303330833667755,camera_1,98,0,0.04042919806116649,-0.8977222012788848,5.195647230812173,-0.7024553051371393,0.7062047463979468,0.07747460047767084,-0.042767823542067374,0.0046669956791447476,0.00310279537973881,3150.7082918685624
1684303330840761423,94,1684303330840761423,camera_1,99,0,0.04042288768134075,-0.8976492680917039,5.195399642158871,-0.7025585484321792,0.7063902395093158,0.07438455840450794,-0.043488538970710734,0.004321918269852176,0.00287092430843196,3152.902789184358
1684303330847411870,95,1684303330847411870,camera_1,100,0,0.04045863151742635,-0.8980510135489518,5.197425931832779,-0.7029011076734925,0.706107502692975,0.07532606755015969,-0.0408437390489253,0.008371163654373959,0.005566138957965183,3151.656971869058
1684303330854111194,96,1684303330854111194,camera_1,101,0,0.040481774283375016,-0.898774363109069,5.20166105582099,-0.7025993910644581,0.7064275207653965,0.07521323791121688,-0.040708996843678735,0.005636979534756392,0.003754211634412084,3146.7168104926823
1684303330860597848,97,1684303330860597848,camera_1,102,0,0.040423833301229645,-0.8983755427398397,5.199153077875448,-0.7025109415130787,0.7065239154755458,0.07567867403031892,-0.039687179447829825,0.0055440141732105985,0.0036891902109771404,3150.1013518106197
1684303330867268323,98,1684303330867268323,camera_1,103,0,0.040373233966211924,-0.8972893040103722,5.192828548913182,-0.7023227251736054,0.7061155328805797,0.07828000865170652,-0.044898598808693006,0.005324758967617527,0.003536977589099234,3151.8402994293715
1684303330873868227,99,1684303330873868227,camera_1,104,0,0.04045113484688198,-0.8988826897720533,5.201958333184049,-0.702657043771709,0.7065195090612862,0.07376376606742477,-0.040769706515401516,0.002484233002178371,0.001654184588752535,3147.3906854306115
1684303330880449056,100,1684303330880449056,camera_1,105,0,0.040424394332005814,-0.8977634776796609,5.195257401437534,-0.7026212603795224,0.7059863656461797,0.07861106280878616,-0.04155618832933438,0.011242458786000498,0.0074751141852318435,3151.1292035337533
1684303330887198686,101,1684303330887198686,camera_1,106,0,0.040458225388625146,-0.8978156016083971,5.195834454421384,-0.7024721598981902,0.7063811816713593,0.07631267304672641,-0.041651730828492196,0.003162536129821092,0.0021021715618895253,3152.2211003683024
1684303330893759489,102,1684303330893759489,camera_1,107,0,0.04050077076367564,-0.89827925080396,5.198603650771197,-0.702706517733482,0.7061287895454551,0.07712347634202639,-0.0404679120646809,0.005624597746646032,0.0037433334432791718,3149.0802111863177
1684303330900467395,103,1684303330900467395,camera_1,108,0,0.04050665782937818,-0.8979643010223859,5.196518909467471,-0.7021867626445835,0.706392657832156,0.07881957947931455,-0.041600928093565734,0.00680011065560393,0.004523941246773615,3149.415152651258
1684303330907107591,104,1684303330907107591,camera_1,109,0,0.040510639734843396,-0.8986382901365942,5.200533550683244,-0.7026463241620595,0.7065734944282468,0.07428784640628508,-0.0390301933036285,0.005388303630752489,0.003586242357425866,3149.9697487233207
1684303330913707017,105,1684303330913707017,camera_1,110,0,0.040378149228140314,-0.8972505257980524,5.192506958451275,-0.7022002239750156,0.7062208301549153,0.07959191233201804,-0.042803177406272035,0.0074134324240731075,0.004925348185449426,3152.7452490807045
1684303330920386314,106,1684303330920386314,camera_1,111,0,0.04049507537140609,-0.898733979511005,5.201148204849302,-0.7024219055883745,0.7066055716692153,0.07599761962350593,-0.039196867823581186,0.005565662067965604,0.0037067177509794093,3147.792240094276
1684303330927039861,107,1684303330927039861,camera_1,112,0,0.040449519259723954,-0.8980116818111765,5.196989361911061,-0.7023596756442895,0.7064548583650199,0.07770056091260927,-0.039686798247963895,0.00563367415452376,0.0037475875317497472,3151.124514928206
1684303330933955669,108,1684303330933955669,camera_1,113,0,0.04039567102093597,-0.8976252321763272,5.1945424851269,-0.7022312661360589,0.7058355520986808,0.08196384732212472,-0.04415144376635344,0.007320199249079451,0.004870346967677447,3147.2395543991597
1684303330940312862,109,1684303330940312862,camera_1,114,0,0.040445485101365364,-0.8980067899418044,5.197226837342238,-0.7026557522993967,0.7063316864236745,0.07537652218575219,-0.04109528461560623,0.009181889123283327,0.0061047019070675996,3151.6848152460298
1684303330946786880,110,1684303330946786880,camera_1,115,0,0.04041133755958376,-0.8980340109825464,5.196980127806291,-0.7024699284947354,0.7062599239373627,0.07744252860610737,-0.041660222799262896,0.006951645846129396,0.0046240035039222865,3149.9147352711298
1684303330953644752,111,1684303330953644752,camera_1,116,0,0.040452376166714266,-0.8977001199577956,5.195235808360135,-0.7023984811951318,0.706603313727709,0.0744030430438708,-0.04257132637826761,0.00855777392280288,0.00568403508344062,3153.7688950342126
1684303330960265159,112,1684303330960265159,camera_1,117,0,0.04045688149777238,-0.8981419533602826,5.197754346721944,-0.7026338224850501,0.7060017081745575,0.07785785765265262,-0.04249062904210068,0.005057953836512752,0.003365839031017244,3148.039349393337
1684303330967066764,113,1684303330967066764,camera_1,118,0,0.040450430208037486,-0.898077347649083,5.197428654683116,-0.7026865470526398,0.7062165322860698,0.07636367500235353,-0.04072364494015234,0.0059906512760790065,0.003984412673682455,3150.9193992244554
1684303330973746538,114,1684303330973746538,camera_1,119,0,0.04042229612325515,-0.8976886231876097,5.195217165137803,-0.702268243325647,0.7065012723508156,0.07563170987757643,-0.04421663763768898,0.006390008158632554,0.004245659429337706,3151.6033021579506
1684303330980286836,115,1684303330980286836,camera_1,120,0,0.04032309532057157,-0.897089880991533,5.192645350045443,-0.699870961207935,0.7084315601774273,-0.049965360913741465,0.07621564741716122,0.004653684925870039,0.0030923231366626145,3151.0877321145963
1684303330987133979,116,1684303330987133979,camera_1,121,0,0.040445829181908866,-0.8985776924356701,5.200223826352014,-0.7025763324198548,0.7062845183005807,0.07619471036299807,-0.041749759820641295,0.003009994368767366,0.0020041037097819985,3146.9053025871995
1684303330993739843,117,1684303330993739843,camera_1,122,0,0.04044467626831291,-0.8978350429846426,5.195829446188496,-0.702503203972257,0.7061492588596859,0.07825855587887699,-0.04144962065426629,0.004419716438860633,0.0029392207746653685,3150.803544505732
1684303331000485181,118,1684303331000485181,camera_1,123,0,0.040472452053867264,-0.8976419017672851,5.194583557462218,-0.7022217946950129,0.7060434090256331,0.08160150928101112,-0.041574623387817276,0.006174467678647488,0.0041077195329405165,3149.435344229334
1684303331007089138,119,1684303331007089138,camera_1,124,0,0.04045837771702562,-0.8984910322181224,5.199508744309439,-0.702420297930384,0.7066012937946741,0.07508339362501389,-0.04102219722095019,0.0038469269929919383,0.0025599584226662212,3149.1757612454226
1684303331013702392,120,1684303331013702392,camera_1,125,0,0.0404955490669619,-0.8982187909387348,5.1978062371722675,-0.7026086192286272,0.7060870486353366,0.07768621616794118,-0.0417978438748932,0.007418962137307972,0.004936683509721495,3148.6195893456465
1684303331020378351,121,1684303331020378351,camera_1,126,0,0.04049908465191826,-0.8983386663563284,5.19858493139485,-0.702543025558679,0.706173148432983,0.07748707982210701,-0.04181547717948561,0.006200468429597095,0.004126945054795506,3147.8273088415153
1684303331027263641,122,1684303331027263641,camera_1,127,0,0.040465982855935806,-0.8978452509724921,5.1956378548250575,-0.7025720047668956,0.7060501924843162,0.0770092369051731,-0.04421856218793424,0.005506119414349086,0.0036602309127277406,3149.974072376382
1684303331033967971,123,1684303331033967971,camera_1,128,0,0.040450936786760344,-0.8970803292326738,5.191461603796252,-0.7021986441134902,0.705899370623516,0.08136917015997532,-0.04474595966092325,0.0073957736167358235,0.004913940896467929,3151.051170087536
1684303331040483474,124,1684303331040483474,camera_1,129,0,0.04046384757418878,-0.8979572297158511,5.196215895115395,-0.7025215161303926,0.7060863392540302,0.07755487146591564,-0.04348382233201644,0.004706934167188592,0.003130141323508624,3149.389073043363
1684303331047228336,125,1684303331047228336,camera_1,130,0,0.04046955546438863,-0.8983258460382364,5.198293822003819,-0.7025312185898085,0.706295623885702,0.07614176218644009,-0.04241238778669706,0.006761132477549836,0.00449803957199897,3148.7927679695413
1684303331053802251,126,1684303331053802251,camera_1,131,0,0.04045453460756179,-0.8986335640999578,5.2002341537091565,-0.7024221680999696,0.7065774122868927,0.07630025418964863,-0.039111755499997736,0.007045964026474394,0.004691193155034544,3148.6953593488997
1684303331060433387,127,1684303331060433387,camera_1,132,0,0.04041914030558541,-0.8977462048791426,5.194958706906231,-0.702242265646726,0.7061231791485305,0.07937749446154639,-0.04410294300307727,0.005690567384590395,0.0037841690685360752,3148.9521154245595
1684303331067259788,128,1684303331067259788,camera_1,133,0,0.040478267185827504,-0.8981557126500153,5.19729925851272,-0.7023824779956224,0.7063171941845113,0.07779538701418358,-0.04150606658503971,0.004260980029357597,0.002834931267015947,3149.3477233301373
1684303331073765277,129,1684303331073765277,camera_1,134,0,0.04052053402779093,-0.897986464520651,5.196571500646742,-0.7025678370753987,0.7063952737739081,0.0758417069104397,-0.04064710309471908,0.005134335457114503,0.003413344520027234,3152.430377953454
1684303331080386161,130,1684303331080386161,camera_1,135,0,0.04047176745040876,-0.8979818893109524,5.196320345577289,-0.702287424946339,0.7063172797862741,0.07870324502132603,-0.04140135578301568,0.005375226406613365,0.003575712293420999,3149.8781336128013
1684303331087149858,131,1684303331087149858,camera_1,136,0,0.04039579060731574,-0.8977814771326341,5.195301815201305,-0.7022370141159987,0.7063364803318967,0.07888939991040989,-0.041574212434756584,0.003730892582098022,0.0024810877980417207,3150.8238124804343
1684303331093642473,132,1684303331093642473,camera_1,137,0,0.04051450008849819,-0.8989063395549892,5.201786451523098,-0.7025644679765721,0.7068069105010947,0.07339427303462197,-0.03795313281421018,0.005326582497218624,0.003546111347660441,3149.857417589519
1684303331100208520,133,1684303331100208520,camera_1,138,0,0.040419533667306495,-0.8977646380298793,5.19514766279137,-0.7025497793585368,0.7060829881869463,0.07943596592415228,-0.039503779995854735,0.006316320286714472,0.004200626869450434,3152.038966324646
1684303331107342243,134,1684303331107342243,camera_1,139,0,0.0404262247307513,-0.8979805020917138,5.196329060329559,-0.7024026251468644,0.7065000664606912,0.0759730348174525,-0.041428326763924245,0.0057054429344134405,0.003792764874451912,3152.0304399911547
1684303331113713264,135,1684303331113713264,camera_1,140,0,0.04038565894052629,-0.8967546833157202,5.189415257838044,-0.7024886323364218,0.7056076938319854,0.08153552694123394,-0.04449114169838911,0.010374761608545668,0.006888149933497692,3153.5687930563
1684303331120187759,136,1684303331120187759,camera_1,141,0,0.040460485145310504,-0.8984492539760015,5.199020953963949,-0.7025531194673291,0.7064385317909263,0.07568406581659969,-0.04044301310824981,0.005007266852771863,0.003331880081800672,3149.7009030671315
1684303331127165555,137,1684303331127165555,camera_1,142,0,0.04047493497613791,-0.8984802638664312,5.199368600538168,-0.7024444211111693,0.7064739456479854,0.07678197804886867,-0.03963492421167119,0.004464312471100129,0.0029718198969470775,3148.999969686033
1684303331133960247,138,1684303331133960247,camera_1,143,0,0.040506630432331076,-0.8983476768195777,5.19839603758222,-0.7024554409081332,0.7063179368625565,0.07693760524722738,-0.041856068898113837,0.006488132828962989,0.004317462983614421,3148.453573509818
1684303331140415668,139,1684303331140415668,camera_1,144,0,0.040509852554042325,-0.8989760904802071,5.20259775524394,-0.7027952128043873,0.7067168295512998,0.07136604582848301,-0.03920585659059459,0.008090175484539941,0.005384918145863944,3149.52628479409
1684303331146581411,140,1684303331146581411,camera_1,145,0,0.040514214114274194,-0.8982690629116925,5.19796279008314,-0.7024482456089588,0.7063763772040482,0.07685655229807813,-0.0411332753112718,0.01504512911196798,0.010008972822061063,3149.590492910822
1684303331152960538,141,1684303331152960538,camera_1,146,0,0.04048079971364779,-0.8985399696756764,5.199765485198382,-0.7025886893249029,0.7066169333271414,0.07546165528229525,-0.036975420891688225,0.006169115556986071,0.004105904034064904,3151.3887930200444
1684303331159698486,142,1684303331159698486,camera_1,147,0,0.040502756804418255,-0.8988208262893652,5.201246508116648,-0.7024756739824505,0.7067701010801644,0.07326926914186316,-0.04044213003111619,0.004924871449475177,0.0032779544905412444,3148.8699081239765
1684303331167132616,143,1684303331167132616,camera_1,148,0,0.04041456188042594,-0.8978921543331388,5.195675348277499,-0.7023299259456193,0.7061578221074106,0.08001979516116352,-0.040873436118156796,0.002467092708684504,0.0016414073318491691,3149.924520471366
1684303331173993825,144,1684303331173993825,camera_1,149,0,0.040435626184349094,-0.8978026877010262,5.195473833453898,-0.70257446923562,0.7062028108154925,0.07728533603634273,-0.041154368034681046,0.007183200228610076,0.004775095360032718,3152.2339395377794
1684303331180638551,145,1684303331180638551,camera_1,150,0,0.04047126608403426,-0.8981475235172163,5.197478537013686,-0.702186336800283,0.7065868346441279,0.07797022218663213,-0.03987528019661761,0.004730856991955079,0.0031479209971543368,3150.179076952744
1684303331187463521,146,1684303331187463521,camera_1,151,0,0.04048693151887617,-0.8985184771401182,5.199477930991502,-0.7024021296925509,0.7066504438501393,0.0765303755442466,-0.0376762528501261,0.004558656786684878,0.0030345936490689808,3150.4224152106326
1684303331193904638,147,1684303331193904638,camera_1,152,0,0.04047585061653158,-0.8981906305722934,5.197491548893908,-0.7022799266433117,0.7066234626474001,0.07714738167019854,-0.03917228831069155,0.007393922089249827,0.004918702643635257,3151.308719259221
1684303331200292110,148,1684303331200292110,camera_1,153,0,0.04042305745710437,-0.8976888671245976,5.194567940590821,-0.7023606914319587,0.7062795670994959,0.07922192962991628,-0.03978087599189293,0.004244871568516827,0.002822309801428429,3152.722270865226
1684303331206787347,149,1684303331206787347,camera_1,154,0,0.040426398555258564,-0.898415844702862,5.198953713904776,-0.7025911490046244,0.7066313734766999,0.07433372749570538,-0.03888799706064318,0.00447079494188074,0.0029739370215552167,3151.9200379867107
1684303331213510513,150,1684303331213510513,camera_1,155,0,0.040499961729498074,-0.8984012641705907,5.19868255834799,-0.7024782287139842,0.7064489882741661,0.07499804521642074,-0.042772168088442204,0.008312699588714167,0.005529458320994563,3148.9600485160477
1684303331220535039,151,1684303331220535039,camera_1,156,0,0.040469490692542825,-0.8985407613867742,5.199677274476415,-0.7024816481719539,0.7065123349009198,0.07663831970506352,-0.038554151102706075,0.007164146314607933,0.004769312039895701,3149.4943109794976
1684303331227272033,152,1684303331227272033,camera_1,157,0,0.040423366773906844,-0.8984512669319992,5.199029607590416,-0.702536635426602,0.7065577037039271,0.07529055347054235,-0.0393677504844093,0.00973382088704966,0.00647601684723907,3150.7565737213026
1684303331233853578,153,1684303331233853578,camera_1,158,0,0.04041942883083882,-0.8981211465717723,5.1972026221268965,-0.7023789266098168,0.7061677817692755,0.07865814366181045,-0.042471212381805144,0.004502138661337085,0.0029960057762301226,3148.048722681589
1684303331240530729,154,1684303331240530729,camera_1,159,0,0.04046466155862377,-0.8981502508203265,5.197323534131325,-0.7022328592376308,0.7064911856619961,0.07855888037206218,-0.0395944226316911,0.008470297339954413,0.005636399274707281,3150.0791933939317
1684303331247079849,155,1684303331247079849,camera_1,160,0,0.04052991334105016,-0.8988211278539472,5.20129048085652,-0.7026042110964469,0.7065954336151876,0.075586825288177,-0.03683541212691,0.006385311848134734,0.004252336345760141,3149.5379124358287
1684303331253784656,156,1684303331253784656,camera_1,161,0,0.04044939239280915,-0.8981786017877101,5.197683056154758,-0.7026131233219425,0.7064127727609932,0.0759498372449652,-0.03933720425212749,0.00446451676543802,0.0029694088056664886,3151.903052096487
1684303331260428190,157,1684303331260428190,camera_1,162,0,0.04040234103005702,-0.8982045528519045,5.19766364176105,-0.7024533045795054,0.7063324379142587,0.07671085640286691,-0.042062887981819674,0.004803516450920142,0.00319546758979221,3149.3553147510393
1684303331267096042,158,1684303331267096042,camera_1,163,0,0.040419708462770904,-0.8977145608985295,5.195020792820257,-0.7025044704977287,0.7060912476458124,0.07869316946225635,-0.0415933168750769,0.005032682151068002,0.0033461736532719674,3151.3151757158344
1684303331273797988,159,1684303331273797988,camera_1,164,0,0.04042442552668035,-0.8982383167949467,5.197949247823907,-0.7023033304589014,0.7065020874461276,0.07651808252466659,-0.042069175263458096,0.004469059189432301,0.002973204105565211,3149.172851340613
1684303331280412673,160,1684303331280412673,camera_1,165,0,0.04045579589512249,-0.8983758094715184,5.198642009545395,-0.7026063024941577,0.7064325913974467,0.07570168632081496,-0.03958070483406573,0.006596650375286117,0.004388725668082676,3150.754999560653
1684303331287178277,161,1684303331287178277,camera_1,166,0,0.040450724288471046,-0.8980394967013522,5.1966978059526445,-0.7023133720199733,0.7061199155583491,0.07936379920516208,-0.04303463383749474,0.008176277304301038,0.005440613199185727,3147.6716055613924
1684303331293731212,162,1684303331293731212,camera_1,167,0,0.040465492821007365,-0.8977539700288987,5.194951037793965,-0.7024406286111449,0.7065133262016939,0.07621431487579856,-0.04009315881558142,0.004952789226081222,0.003290882766780765,3154.4747452330794
1684303331300282716,163,1684303331300282716,camera_1,168,0,0.04046535644032215,-0.8981784224917035,5.197483013842343,-0.7026062843238864,0.7060613841972081,0.07871682189617245,-0.04031616207764341,0.006191276479512453,0.0041203931422258006,3149.2283285720036
1684303331307021379,164,1684303331307021379,camera_1,169,0,0.04047093386054687,-0.8987160304411559,5.200584860857248,-0.7023351122047404,0.7067839510653969,0.07502325021674651,-0.039412543785663945,0.004580176289891824,0.0030490293202819377,3149.0553749958053
1684303331313780307,165,1684303331313780307,camera_1,170,0,0.04046414215473454,-0.8979396008660553,5.196005850918467,-0.7022281762063177,0.7064072875897056,0.07865052067823443,-0.04096862432577471,0.005300647870171815,0.0035256080448029243,3150.608429258922
1684303331320354700,166,1684303331320354700,camera_1,171,0,0.04046772341915361,-0.8981910429350779,5.19742231763922,-0.7025953395103751,0.7063720374063466,0.07641391596382222,-0.03948730322244917,0.005843644757987931,0.0038867140515541623,3151.7420549136605
1684303331327051401,167,1684303331327051401,camera_1,172,0,0.040481587876350644,-0.8986512853756358,5.200123184510179,-0.7023980862795937,0.7065792709931635,0.07554682061306198,-0.04093091849435735,0.00904144110972993,0.00601832497141352,3148.1352991610756
1684303331333649873,168,1684303331333649873,camera_1,173,0,0.040495298642573896,-0.8983624972834594,5.198273389312594,-0.7022435817467991,0.7066901823507444,0.07517751876270894,-0.042323501003352935,0.003905249701347202,0.002597549132860596,3149.6400297633368
1684303331340293407,169,1684303331340293407,camera_1,174,0,0.040472548341580206,-0.8981138683315975,5.196789792620456,-0.7022969672790796,0.7063452040960241,0.07801702832980599,-0.042056696158157963,0.00449804998061154,0.0029922444691236815,3149.3734728751
1684303331346973896,170,1684303331346973896,camera_1,175,0,0.04052133115406753,-0.8989964176909226,5.20193133415051,-0.7026131454542838,0.7066255872917644,0.0751706956230126,-0.036937971505743836,0.008252284227637574,0.005496487453375635,3149.0044504421526
1684303331353736162,171,1684303331353736162,camera_1,176,0,0.04044726931427428,-0.8988654544900613,5.2010915672618365,-0.702456876056599,0.7065150951071761,0.07649034903797765,-0.03924263205431617,0.004584039939800277,0.0030533425346894617,3147.388511762255
1684303331360243558,172,1684303331360243558,camera_1,177,0,0.040430672833739384,-0.8983368015801189,5.19803243520178,-0.7020989869898651,0.7066229056789397,0.0786635467071847,-0.03940974571224742,0.0055008854396874085,0.003661724352124408,3149.2386667217356
1684303331367034912,173,1684303331367034912,camera_1,178,0,0.04044267831906087,-0.8985094657333224,5.1992781703308815,-0.7025904947045216,0.7067211451964507,0.07278900636472378,-0.04016939426365977,0.0044887907861266285,0.0029851038903723932,3151.780855314574
1684303331373484373,174,1684303331373484373,camera_1,179,0,0.04041128395399196,-0.897685792070349,5.1941955479004704,-0.7023194814080499,0.7064931372127788,0.0759339169037304,-0.04299806239391453,0.00404514059482608,0.0026868790306151255,3153.468940544757
1684303331380275249,175,1684303331380275249,camera_1,180,0,0.040412067935873014,-0.8973930893617498,5.192436117409362,-0.7024892330451007,0.7058917608761055,0.07931630797126597,-0.04398434576920085,0.004836198364500888,0.003212906644692139,3152.1227522206036
1684303331386914730,176,1684303331386914730,camera_1,181,0,0.04050224509265615,-0.8988602470945259,5.201128444657971,-0.7024482232093013,0.7065772623586225,0.07591406144578669,-0.039396970729935414,0.006686038934276439,0.004452699794683965,3147.7078664941937
1684303331393753767,177,1684303331393753767,camera_1,182,0,0.04044682771477148,-0.8981348996318407,5.1969204757966,-0.7024095351644837,0.7062601298035456,0.07789683790592127,-0.04182770139694138,0.005782248714240268,0.0038465907162913405,3149.4759079405344
1684303331400357961,178,1684303331400357961,camera_1,183,0,0.04041316947540596,-0.8977345959121866,5.194670534114362,-0.7025353643777039,0.7062622040477743,0.07811388196535173,-0.03919161104841496,0.008189057829440571,0.005443154016414019,3153.9148824315075
1684303331407134294,179,1684303331407134294,camera_1,184,0,0.040458288055795155,-0.898132542400196,5.196870919957316,-0.7023919573197379,0.706440004888182,0.07617162976694207,-0.04226039049489436,0.004881553933955729,0.003245944402585799,3150.59628869046
1684303331413508415,180,1684303331413508415,camera_1,185,0,0.04047618343296028,-0.8985258109645575,5.199410951950746,-0.702790853863797,0.7063306994681251,0.07651959682004585,-0.03642403075940097,0.007929592771688476,0.005278079147463781,3151.331640405464
1684303331420245170,181,1684303331420245170,camera_1,186,0,0.04043256805764231,-0.8983117876741539,5.197824380591551,-0.7024134385741778,0.7064640057560528,0.07595845440673869,-0.04188416270681512,0.001859598109149374,0.0012369815750613562,3149.8668036893937
1684303331426930665,182,1684303331426930665,camera_1,187,0,0.040444966386218056,-0.8983578492690374,5.198010485416219,-0.7021963912052958,0.7067429829442564,0.07522534008403856,-0.04213944051069588,0.006692493596347049,0.0044509121901022,3150.0326739631137
1684303331433788061,183,1684303331433788061,camera_1,188,0,0.0404307651753035,-0.8982800922686648,5.197751786905144,-0.7023153277674602,0.7065445945350172,0.07651056486384776,-0.04115883599481764,0.005659774949890561,0.003764963377081883,3150.062273115269
1684303331440307617,184,1684303331440307617,camera_1,189,0,0.04042087686729581,-0.8980181653507113,5.196412146701342,-0.702637930608494,0.70621626370379,0.07690466348187014,-0.04054873715928133,0.003991574529209174,0.002654276878158545,3151.809997892822
1684303331447064638,185,1684303331447064638,camera_1,190,0,0.04048025693317983,-0.8987486486492414,5.200629790119149,-0.7021926199838301,0.7070763101306877,0.07572205357119774,-0.03513953180076413,0.0052654902974609286,0.0035058786327051114,3151.3370922046024
1684303331453783273,186,1684303331453783273,camera_1,191,0,0.040430259371824234,-0.8985591774869338,5.199488089874755,-0.7025644297044927,0.7065647832199791,0.07440861904695958,-0.0404077546868104,0.0015006299072410911,0.0009984898932644472,3150.123885093023
1684303331460265159,187,1684303331460265159,camera_1,192,0,0.04037165177449495,-0.8981276054459767,5.196956093007052,-0.7024440968747169,0.706460571011324,0.07632761503851954,-0.04074122672120994,0.003170724681694992,0.002108556925635075,3151.4559494587584
1684303331466819524,188,1684303331466819524,camera_1,193,0,0.040424280427818066,-0.8974669802547038,5.19318451565057,-0.7025264070768628,0.7059096795354621,0.07987197097240173,-0.042055201233607016,0.004848263299209066,0.003222305494626531,3152.2113877361417
1684303331473516464,189,1684303331473516464,camera_1,194,0,0.04044752679119892,-0.8982330060403105,5.197577412359241,-0.7024538412745884,0.7063085357822465,0.07813499082116869,-0.03977155225899981,0.00447725948470179,0.002979407086402907,3149.9620214209444
1684303331480133533,190,1684303331480133533,camera_1,195,0,0.04042250273627335,-0.8984259866904379,5.198706669187396,-0.7023362068555516,0.7063461743106237,0.07696123196730563,-0.043311699927112327,0.0032740959577495232,0.002179121717152951,3146.95809968561
1684303331486927509,191,1684303331486927509,camera_1,196,0,0.04051284268362981,-0.8987365134018763,5.200524963144602,-0.7025293449635901,0.7064183711170423,0.07736848052255538,-0.03794367714132088,0.011358840361936018,0.0075652689988575834,3148.3001738542216
1684303331493582487,192,1684303331493582487,camera_1,197,0,0.04047436744263094,-0.8985563703066992,5.199711992306271,-0.7024599460907057,0.7068110838097345,0.07461414414025953,-0.037427869778654754,0.004539009736618027,0.0030203432178120227,3151.7969478757595
1684303331500055789,193,1684303331500055789,camera_1,198,0,0.0404419614264076,-0.8979070214005503,5.195980715449957,-0.7021820846525337,0.7065452391617741,0.07754204938385571,-0.04148946358059152,0.004022782610263675,0.0026749439132923046,3151.1704122764063
1684303331506861686,194,1684303331506861686,camera_1,199,0,0.04043611185216109,-0.8980210581019991,5.196731531026485,-0.7024017204340782,0.706374485220603,0.07729899534518042,-0.04113119350566981,0.003348788493894972,0.0022273169109388573,3150.7097999241655
1684303331513412714,195,1684303331513412714,camera_1,200,0,0.04038869279678409,-0.8980847104207248,5.19705170074223,-0.7025177133118357,0.7064514831484173,0.07648080082769705,-0.03931731864287151,0.0039049422484822576,0.0025969888508031377,3152.2495172057543
1684303331520074844,196,1684303331520074844,camera_1,201,0,0.040410772932484434,-0.8983998590036978,5.199075560955368,-0.7023544367638522,0.7064203116066738,0.07816234987292044,-0.03948715702611323,0.004201209187158383,0.0027973832128332862,3148.345110603842
1684303331526881933,197,1684303331526881933,camera_1,202,0,0.040347216259935564,-0.8980121155972065,5.196933211624993,-0.7026132862494979,0.7061693922740144,0.07766868741320235,-0.04033527484151549,0.0028210628079250455,0.0018766484432554617,3150.7201360100885
1684303331533410072,198,1684303331533410072,camera_1,203,0,0.040425081500323534,-0.8980466150514206,5.196971060250915,-0.7024293896422509,0.7062749322764553,0.07768887033092121,-0.04163066215433687,0.0037191148730926216,0.002474066213299836,3149.742200432811
1684303331540147542,199,1684303331540147542,camera_1,204,0,0.040325520770088163,-0.8969361750316267,5.190638213758839,-0.7025691468615445,0.705602325251866,0.08110091321820496,-0.04409755495007102,0.004499018381466158,0.0029882730286096316,3152.7361128203343
1684303331546693086,200,1684303331546693086,camera_1,205,0,0.04034953725772139,-0.8972214078633888,5.192146122716566,-0.702338746908263,0.7058437840377972,0.08171065006078462,-0.04275753492869467,0.005897069699130952,0.003919725440981382,3151.4010861103884
1684303331553408861,201,1684303331553408861,camera_1,206,0,0.04044209095109211,-0.8985837589871192,5.199973603802273,-0.7025774868722147,0.7067847497481698,0.07368474571502108,-0.03755996156351128,0.0052032353123649955,0.0034618546081976627,3152.0918752985285
1684303331560184717,202,1684303331560184717,camera_1,207,0,0.04044441458649087,-0.8986823943553505,5.200541395147487,-0.7024543884804186,0.7066065902318625,0.07536725110862992,-0.039808745343587984,0.005369341364712454,0.0035745722164487867,3148.5595997864148
1684303331566817522,203,1684303331566817522,camera_1,208,0,0.04044842333327228,-0.8980881641534805,5.196889952013094,-0.7026716175279389,0.7061811093488436,0.07731993867419713,-0.03978021873902712,0.005616572016151622,0.0037357718220036615,3151.454132635845
1684303331573476552,204,1684303331573476552,camera_1,209,0,0.040421732420777595,-0.897875114653874,5.195745455403122,-0.7024401232105434,0.7064038196271849,0.07514070929861863,-0.04387927444911366,0.008661522311740555,0.005755159863945024,3151.5692242388604
1684303331580040216,205,1684303331580040216,camera_1,210,0,0.04040243754600725,-0.8983953160421758,5.19850680150641,-0.7024883772796617,0.7063745950318162,0.07789254074444309,-0.038441688009252996,0.003863572681439109,0.0025718087504778826,3149.9435426119
1684303331586750507,206,1684303331586750507,camera_1,211,0,0.04047783152738618,-0.8983818162186888,5.198345594575724,-0.7023322292686293,0.7066734705140346,0.07463334564504347,-0.042094055637761245,0.0039033319480950013,0.002596000737161619,3150.131773568456
1684303331593468666,207,1684303331593468666,camera_1,212,0,0.04043881536934635,-0.8980039019018922,5.195811244555604,-0.7025825911805577,0.7062580309964548,0.07693980788664834,-0.040713169679967895,0.004878907580859959,0.0032435031370868605,3152.374695207225
1684303331600237846,208,1684303331600237846,camera_1,213,0,0.040515760097395714,-0.8984081731998959,5.198179999682191,-0.7023728605335947,0.7064442997913772,0.07657446355224681,-0.041775203288697035,0.009525457237032242,0.006337324260805036,3149.050634618384
1684303331607114553,209,1684303331607114553,camera_1,214,0,0.04048542405200595,-0.8987666958188835,5.200097357602991,-0.7022555941096758,0.7065314101804105,0.07747392669076311,-0.040598493238801776,0.0028507990937214345,0.001898652242905062,3146.839920001569
1684303331613666534,210,1684303331613666534,camera_1,215,0,0.04050953639799715,-0.8987050800324049,5.199735570412582,-0.7024959333393734,0.7066302358299887,0.07402388576238543,-0.04115383079537721,0.006673090043477714,0.004439670839482684,3149.583411513712
1684303331620397090,211,1684303331620397090,camera_1,216,0,0.040510629370002244,-0.8988658795591343,5.200413066664152,-0.7023923477094173,0.7065978262006899,0.07759967079914401,-0.03664413977128016,0.007629343366716057,0.005081625586400536,3149.082950746757
1684303331626908779,212,1684303331626908779,camera_1,217,0,0.04043332484680928,-0.897804482517867,5.194241673829016,-0.7022877514731055,0.706189242661885,0.07837866514610811,-0.04410728431219961,0.005250647169305012,0.0034897979626555874,3150.592952692648
1684303331633684635,213,1684303331633684635,camera_1,218,0,0.0404611465360466,-0.8980615523860171,5.195807304609235,-0.70238346575181,0.7065219769050561,0.07639589284021557,-0.04059348156777916,0.003920815375749953,0.0026062464446761353,3152.892829576507
1684303331640046834,214,1684303331640046834,camera_1,219,0,0.04052637265265693,-0.8987722381455785,5.199793555338037,-0.702455085551886,0.7065669987341694,0.07505365225161485,-0.04107162482510853,0.0041171095363097265,0.0027400001416369906,3148.7682269474026
1684303331646803617,215,1684303331646803617,camera_1,220,0,0.04047960292030198,-0.8987643603777171,5.199916193254771,-0.7025430442079521,0.7066869661852048,0.07494151973194371,-0.03755757552400748,0.005443592177471146,0.0036228031098743934,3151.162144149887
1684303331653432846,216,1684303331653432846,camera_1,221,0,0.040463740735633386,-0.8986174635824092,5.199147280324212,-0.7027583537087889,0.7067619686022826,0.07317824134308909,-0.03554097668708035,0.004390631627757102,0.0029199905775610284,3154.7700516444165
1684303331660275220,217,1684303331660275220,camera_1,222,0,0.04044911826356651,-0.8982105219240092,5.196480187876625,-0.7023560225355817,0.7063575099318993,0.07731128469931689,-0.0421669423713111,0.004533911080216058,0.003015224012509517,3150.1899152388796
1684303331666887760,218,1684303331666887760,camera_1,223,0,0.04050896682019428,-0.8983905545364359,5.197502673828384,-0.7025320977363492,0.706382747935021,0.07633848846947885,-0.04055243825134015,0.006367247275193222,0.004235003837560515,3150.909988888074
1684303331673432588,219,1684303331673432588,camera_1,224,0,0.04047171783219644,-0.8989108187349765,5.200636281361678,-0.7023991927748138,0.7067951094608835,0.07371201678340936,-0.040528826940711776,0.004567999218124896,0.003040048304056132,3149.152938808315
1684303331680067539,220,1684303331680067539,camera_1,225,0,0.040472063479617654,-0.8981089893187338,5.195768394494689,-0.7022817553677634,0.706553332153984,0.07736585038162767,-0.039965611397834215,0.008319064741954207,0.005530793847362356,3152.610025444884
1684303331686788082,221,1684303331686788082,camera_1,226,0,0.04044910846857458,-0.8981295663439277,5.1956080229709825,-0.7023347589539974,0.7060182896243627,0.0800029252503962,-0.04316935292889441,0.004564629009109922,0.0030367522969371743,3148.2720697681657
1684303331693479776,222,1684303331693479776,camera_1,227,0,0.040503893777898065,-0.8982921590121857,5.196789335508863,-0.7025261426520963,0.7061886215757496,0.07888035978124419,-0.03914764984121757,0.008089512833976187,0.0053824711364562705,3150.7131115659136
1684303331700364828,223,1684303331700364828,camera_1,228,0,0.040516210643610356,-0.8992150121906152,5.201923078154682,-0.702858498919399,0.7065503815650658,0.0733249914713096,-0.03741569767840222,0.00975684834702406,0.006495500170375992,3150.0304544223472
1684303331706526994,224,1684303331706526994,camera_1,229,0,0.04050250026112612,-0.8990156796926586,5.200792012502991,-0.7025252070801208,0.7067679679269638,0.07306564010224934,-0.039984811689843414,0.007920765521703288,0.005270683589054586,3149.8284106550273
1684303331712726831,225,1684303331712726831,camera_1,230,0,0.0404847469485525,-0.8985491318158334,5.198200402799909,-0.7025080916502076,0.7064757764445552,0.07612560513512727,-0.03973978744101669,0.005876019684365019,0.003909147924281479,3150.7926562872008
1684303331719558954,226,1684303331719558954,camera_1,231,0,0.04050396449860552,-0.8992493945130794,5.202212998312776,-0.7024974765491271,0.706775734727121,0.07410481210157008,-0.03839053355240355,0.004537718385108747,0.003022115743877879,3148.43536820379
1684303331726351976,227,1684303331726351976,camera_1,232,0,0.04049891276850939,-0.8990524970143712,5.200824426484714,-0.7022064615513922,0.706996795434061,0.07447353077358222,-0.038926980560506086,0.0055045116459950805,0.0036642517208195836,3149.4629266562415
1684303331733253479,228,1684303331733253479,camera_1,233,0,0.04044988927446738,-0.8983343468149242,5.196693826611382,-0.7022375748514541,0.7065080100905798,0.07803888551380743,-0.040233723322115264,0.004098127203178592,0.0027261905641068535,3150.7252620472564
1684303331740482568,229,1684303331740482568,camera_1,234,0,0.04046717167686645,-0.898323922307276,5.1966150981981984,-0.702352569258385,0.7065141629377792,0.07496477103166102,-0.043805126739290726,0.005021890363423154,0.003337970113499236,3150.633534927504
1684303331747177124,230,1684303331747177124,camera_1,235,0,0.040488020800026864,-0.8993804673577825,5.2030329433313725,-0.7023489063351389,0.7067216444136192,0.07472779093959007,-0.04082019535025897,0.00361893635999877,0.0024113432614189132,3145.2594848735025
1684303331753963232,231,1684303331753963232,camera_1,236,0,0.040484390108486035,-0.8986442955072893,5.198581138260391,-0.7024876581972748,0.7065421967250499,0.07524427652915934,-0.04058956980621244,0.004396908596390858,0.0029249807212605745,3150.404127730289
1684303331760412216,232,1684303331760412216,camera_1,237,0,0.04044472932505791,-0.8983431875017392,5.196858560911689,-0.7023302286739276,0.7065127771273403,0.07598051572988186,-0.04241352232558658,0.008175213195499964,0.005435609943872933,3150.5956347757024
1684303331767167568,233,1684303331767167568,camera_1,238,0,0.040518344488704505,-0.8985680714109475,5.198299380947361,-0.702290350205934,0.706431724161482,0.07889263000414336,-0.03896711481354364,0.009884894723654725,0.0065806831183337165,3149.001801267965
1684303331773722410,234,1684303331773722410,camera_1,239,0,0.04048150370867984,-0.898280386309143,5.196805166410831,-0.7024825597367124,0.7063251207948413,0.07763691761889968,-0.03994478717612239,0.010009477060521021,0.006657629225140296,3151.1457319302717
1684303331780311107,235,1684303331780311107,camera_1,240,0,0.04046679573176762,-0.8989739625606126,5.200957575290121,-0.7025637414054967,0.7065779119625852,0.07541976470847533,-0.03825836745369291,0.0023626765032531694,0.00157330461638555,3149.0335519018117
1684303331787129640,236,1684303331787129640,camera_1,241,0,0.040463434315437447,-0.8988685468251228,5.200457916429384,-0.7023936187664013,0.706715023051409,0.07463032329798744,-0.040340988511976886,0.0040422112215310335,0.0026905602221869436,3148.8010790079134
1684303331793937206,237,1684303331793937206,camera_1,242,0,0.04044179578845314,-0.8982130104967895,5.196735883624695,-0.7025495135513468,0.7064021219274361,0.07595854957034569,-0.040626615566045604,0.005917213042266667,0.0039342372449000206,3152.0847520645475
1684303331800301790,238,1684303331800301790,camera_1,243,0,0.04041278651248423,-0.8981967183193383,5.196718214111623,-0.7025482043230913,0.7064166356954524,0.07656917772593455,-0.03922650172386858,0.0037701976543758065,0.002507105973752196,3152.6028055744246
