%time,field.header.seq,field.header.stamp,field.header.frame_id,field.image_seq,field.transforms0.fiducial_id,field.transforms0.transform.translation.x,field.transforms0.transform.translation.y,field.transforms0.transform.translation.z,field.transforms0.transform.rotation.x,field.transforms0.transform.rotation.y,field.transforms0.transform.rotation.z,field.transforms0.transform.rotation.w,field.transforms0.image_error,field.transforms0.object_error,field.transforms0.fiducial_area
1684378879907050132,13,1684378879907050132,camera_1,15,0,1.3759009371394602,0.2833545723987906,6.047515402647985,-0.9955192789329441,-0.009317648634387748,0.0923165978322444,0.018226147739908487,0.007118111825548112,0.0038483359356391,6520.801903350044
1684378879913819313,14,1684378879913819313,camera_1,16,0,1.377204438398804,0.28158467712400587,6.052483090481497,-0.9957445309776346,-0.009620627311981187,0.08909873941545061,0.021486907474838952,0.0008394567994400859,0.0004541378362652919,6517.41252244415
1684378879920577287,15,1684378879920577287,camera_1,17,0,1.376243223249305,0.2794294933685599,6.047282190744934,-0.9956046934074213,-0.00964597413310192,0.09102427476132305,0.019819966001823123,0.01334355486324057,0.007211128240551901,6524.468356490139
1684378879927095413,16,1684378879927095413,camera_1,18,0,1.377014925141249,0.2765127290605629,6.049511171919345,-0.9956681698913682,-0.009800882835293907,0.08999939309986017,0.021188378948826598,0.004369481874164194,0.0023622994145116676,6522.079647015781
1684378879933812618,17,1684378879933812618,camera_1,19,0,1.376609760054514,0.27537630880264413,6.04730330442935,-0.9955303624457252,-0.009240732766447499,0.09146894620532767,0.02161800607616347,0.0005111683276481926,0.00027621240795455465,6522.6324819072615
1684378879940693140,18,1684378879940693140,camera_1,20,0,1.3776623225732652,0.27484942488084396,6.051373100813596,-0.9956520664068963,-0.009512554720344913,0.09015332752054663,0.021420819296724194,0.0076485874014906585,0.0041380203427498615,6517.594544547961
1684378879947306156,19,1684378879947306156,camera_1,21,0,1.3753888019428422,0.2738483847904909,6.04134229289751,-0.9953856586346752,-0.00904627108889478,0.09260630357655038,0.023444148559678402,0.0012521345051936805,0.0006752238838925555,6531.196501641069
1684378879953976631,20,1684378879953976631,camera_1,22,0,1.3759561362438786,0.27426104471151375,6.044071121384246,-0.9953721477076053,-0.009006690313210065,0.09316339695980337,0.021765765882719935,0.0005878953379578888,0.00031741703899866515,6524.838755695848
1684378879960588216,21,1684378879960588216,camera_1,23,0,1.377094418638316,0.2750614152823029,6.048981490455264,0.9954977791330167,0.00928578325165168,-0.09197543059017428,-0.02093958305189198,0.00893319002352655,0.004830532270494284,6517.94680171716
1684378879967310428,22,1684378879967310428,camera_1,24,0,1.3772908001776885,0.27746379041033764,6.0512387349616565,-0.9957754219370316,-0.009723951668799123,0.08851000995952288,0.022421685196138234,0.005699576169718057,0.003081916064446237,6521.599474984801
1684378879973783254,23,1684378879973783254,camera_1,25,0,1.3743801635019313,0.2782918284826635,6.038735469925232,0.994710290851783,0.009402628144705544,-0.10021274194291016,-0.020504492430140592,0.00673143332824111,0.003632573016930578,6515.837351481896
1684378879980673551,24,1684378879980673551,camera_1,26,0,1.3768916287412665,0.2806905904719741,6.050681040647191,0.9957636407822966,0.00913898376418255,-0.08897405778086835,-0.021327627944760376,0.0006542334449477494,0.00035372585220083095,6521.822061358135
1684378879987373113,25,1684378879987373113,camera_1,27,0,1.376268162070627,0.28455322419820206,6.049814403254875,-0.9955154743954139,-0.009597060862358585,0.09167935685572072,0.021253992297915653,0.0017671846435405314,0.0009554984531630757,6515.762101659899
1684378879994237661,26,1684378879994237661,camera_1,28,0,1.3766693402777461,0.28687814397330474,6.0524559461760035,-0.9955974674369417,-0.009329243777762668,0.09110233200942042,0.019975313417533582,0.004589835298247635,0.0024840969936473917,6512.126344703374
1684378880000752210,27,1684378880000752210,camera_1,29,0,1.3744854543721161,0.2885490532446632,6.043258682774719,-0.9953044001995353,-0.008846751520832394,0.09427570443029412,0.020074299119616393,0.004673288261983544,0.0025226503141390333,6522.40393981058
1684378880007297039,28,1684378880007297039,camera_1,30,0,1.376141374608705,0.2934075051593037,6.052511094699422,-0.9957634939511656,-0.009854455623338651,0.08886711705118928,0.021461344914639965,0.013647868006955832,0.00738106071792862,6515.893267360982
1684378880013923406,29,1684378880013923406,camera_1,31,0,1.3750138524198658,0.29510996043797527,6.048659681525985,0.9951911037039507,0.009740055335835532,-0.09573491098130492,-0.018292764962381847,0.0025317378458566964,0.0013695059638441768,6506.621862150028
1684378880020552158,30,1684378880020552158,camera_1,32,0,1.3748131130976005,0.2970158493764674,6.048284998880189,-0.9955745843006413,-0.00977678996656572,0.09133759172219076,0.019826896150067795,0.006949327536858618,0.0037551250677710225,6518.490939669313
1684378880027178049,31,1684378880027178049,camera_1,33,0,1.3749421522966507,0.3000656151951398,6.049987800263043,0.9958631424057659,0.009598363516916363,-0.08790746861665029,-0.02089856399188988,0.0038293183315545316,0.0020687323454495147,6522.857879077085
1684378880033854007,32,1684378880033854007,camera_1,34,0,1.373512651474079,0.3007833392100957,6.044077008940602,0.9953621261292254,0.009361793317871759,-0.09365783785231423,-0.01986967795942319,0.000859658292029053,0.00046398437523396756,6520.098683486109
1684378880040670633,33,1684378880040670633,camera_1,35,0,1.372466849809242,0.3012719447083523,6.039692180820676,0.9953977295997082,0.009539319436978584,-0.09268945249983641,-0.02238362543705368,0.00813436828320846,0.004381574030124066,6530.3811984937665
1684378880047294616,34,1684378880047294616,camera_1,36,0,1.3728445558450544,0.3019520222869676,6.041692070800646,-0.9954222384950516,-0.009100327411877907,0.09293171587319364,0.02038252524495552,0.0011874765623360872,0.0006402881249750514,6526.65842035832
1684378880053788185,35,1684378880053788185,camera_1,37,0,1.3731663693240237,0.30179828528721403,6.042851335694737,-0.9954371386419489,-0.009874820844927001,0.09284402332204097,0.01968192721728187,0.005205190682318062,0.002808053390252256,6524.838393689251
1684378880060742378,36,1684378880060742378,camera_1,38,0,1.3730672777354176,0.3011405274919267,6.042479621382007,0.9952969128254233,0.009561208497939578,-0.09405170485895492,-0.02114037429575638,0.008960432605817914,0.004832914296293948,6521.489454802591
1684378880067326307,37,1684378880067326307,camera_1,39,0,1.3765010867568732,0.2996612366035718,6.056613952655051,-0.9959853094488436,-0.010044613860103253,0.08622369086911712,0.021859648382339253,0.004806888056918979,0.0026016456836531676,6512.622163299708
1684378880073750019,38,1684378880073750019,camera_1,40,0,1.372856406894726,0.29743913865975125,6.039804498023471,-0.9952797153674989,-0.008761578725515428,0.09522507302742464,0.016544134403125903,0.015156162902712822,0.008176708712719548,6527.3853935750685
1684378880080561399,39,1684378880080561399,camera_1,41,0,1.374919715950533,0.29599429981699604,6.048266559466992,-0.9956917535252144,-0.009605457181316352,0.08932378287667503,0.022954933387447835,0.0010110152652487159,0.0005458686506313012,6522.227793613097
1684378880087281942,40,1684378880087281942,camera_1,42,0,1.375082763118765,0.29205934146723783,6.047317129426872,-0.9955569096825629,-0.009637978391073188,0.09196715483064569,0.017764892011902803,0.004655141558032483,0.0025160132187888005,6521.001857629397
1684378880093812704,41,1684378880093812704,camera_1,43,0,1.3738923397320852,0.2894329502947455,6.04106683817713,-0.9951501119341221,-0.009545367345446344,0.09586357550437269,0.019882544386021894,0.004322198685258627,0.00233206893188169,6522.487718251303
1684378880100635051,42,1684378880100635051,camera_1,44,0,1.3743994436108982,0.2874308156030519,6.042466813357418,-0.9953245388111511,-0.009319900109447278,0.09332395684357575,0.023083348573761025,0.010126691893674433,0.005461681864702348,6525.026076666192
1684378880107295751,43,1684378880107295751,camera_1,45,0,1.375072656640474,0.28319511167371725,6.043997508249173,0.994930983786226,0.010112970292698599,-0.0981816940950952,-0.019246305584412697,0.0008433900657109916,0.0004557752303448609,6510.881529811538
1684378880114153385,44,1684378880114153385,camera_1,46,0,1.3757775996196735,0.28124977896166675,6.046286968557653,-0.9954759737232111,-0.009810605155224259,0.09209631119716298,0.021203943741404958,0.00413230323465541,0.0022321329582170256,6522.649638071074
1684378880120553731,45,1684378880120553731,camera_1,47,0,1.376600978889324,0.2793989271397354,6.048704201335486,-0.9953982559094628,-0.009241301047815249,0.09297087896573039,0.02129145724657727,0.011506170500069857,0.006221525871838546,6515.01717445033
1684378880127251386,46,1684378880127251386,camera_1,48,0,1.3771834483905128,0.27651396906815184,6.049929650257746,-0.9955363598416014,-0.009480767718319303,0.09147839560861484,0.02119373524602833,0.004523096315097064,0.002446306001170112,6516.976792091851
1684378880133841037,47,1684378880133841037,camera_1,49,0,1.3773876903314328,0.27546871636410947,6.050923502417869,0.9955605294051436,0.00958127321996948,-0.09103223694650844,-0.021921754732441425,0.0010031203855760396,0.0005426038696419885,6515.935661081224
1684378880140616416,48,1684378880140616416,camera_1,50,0,1.3769714262968336,0.27468073535373394,6.048718113061947,0.9956025504461462,0.009150139622079095,-0.09056185189799792,-0.022144693965608846,0.0034442676696926355,0.001861593148741997,6521.8722721406975
1684378880147418737,49,1684378880147418737,camera_1,51,0,1.3758033112055479,0.27394535134653175,6.043300145815989,-0.9953039814897487,-0.008989930928945289,0.09394790716963972,0.021516419567194085,0.007632102468051016,0.004120527079520144,6524.408762516339
1684378880153944492,50,1684378880153944492,camera_1,52,0,1.3748579497938629,0.2740581194057089,6.039187440921396,-0.9948991753781846,-0.009045913510314885,0.09829094554104997,0.020801257298985333,0.0015031526563689113,0.0008111025559673843,6520.991617909518
1684378880160883188,51,1684378880160883188,camera_1,53,0,1.3759781169004157,0.2748713499252455,6.044551753821611,-0.9952763171028748,-0.008868771748828013,0.09427329585864178,0.021422959407000175,0.002226438489742577,0.0012025629908423239,6520.811837151648
1684378880167412519,52,1684378880167412519,camera_1,54,0,1.3764974898748938,0.2773003658297653,6.047554047122983,-0.9955847040516909,-0.008934627416348727,0.0907124833169518,0.022416843259256622,0.004720858938526362,0.0025504261754413934,6523.425516738673
1684378880174046754,53,1684378880174046754,camera_1,55,0,1.37720189336752,0.27887623366850495,6.051377369243026,-0.9955105748283075,-0.009325117925983995,0.09198646083570977,0.020254100908205022,0.004573720856569707,0.002475283409388696,6512.878146539442
1684378880180591344,54,1684378880180591344,camera_1,56,0,1.375024373611425,0.28026082547975384,6.042586715405105,-0.9953784461731858,-0.009660801039811305,0.0927737070082167,0.022835435294229874,0.0027224814984947443,0.0014685644440226892,6527.742830946924
1684378880187662363,55,1684378880187662363,camera_1,57,0,1.3758564450223345,0.2845311387134265,6.047779570501112,-0.9953044272796652,-0.009696882373200402,0.0942240047584627,0.0199224606164815,0.00803005718626082,0.004341788214575581,6513.653530845302
1684378880193804264,56,1684378880193804264,camera_1,58,0,1.3756683748346288,0.2868013808112802,6.047608649245071,-0.9954669843601041,-0.009562134595398331,0.09274406065571528,0.018777322601187557,0.011947237304411829,0.006458607673293999,6518.455512288844
1684378880200404405,57,1684378880200404405,camera_1,59,0,1.3760659015876227,0.2889460772219479,6.050314922688462,-0.9955135069366289,-0.009889621433849301,0.09155689590507259,0.021734481978119478,0.015557688020635398,0.008411768193124265,6513.816708246246
1684378880207087278,58,1684378880207087278,camera_1,60,0,1.3737449613576558,0.29294605634000925,6.0418152894376025,-0.9951349899643009,-0.009787434435933585,0.09612140603189845,0.019267412342189892,0.011608978093136102,0.006265685031589757,6519.81307350285
1684378880214025974,59,1684378880214025974,camera_1,61,0,1.3738696695604884,0.29489639496566966,6.043823695317051,-0.9951977963068735,-0.009901367132694426,0.09494619904239154,0.021645517832776157,0.0009133170824497938,0.000492914368110874,6517.259295194641
1684378880220762252,60,1684378880220762252,camera_1,62,0,1.3730707653974332,0.29669196358107197,6.040663363276032,-0.9953163008601438,-0.009520997467450394,0.093910436103218,0.020872034884214137,0.008132160000968724,0.00438417501135756,6526.977040976866
1684378880227385282,61,1684378880227385282,camera_1,63,0,1.3740918149947565,0.299855849125926,6.046175038397011,0.9956585289395303,0.009322321314748631,-0.09075486138125147,-0.018459231049663148,0.007151825062464923,0.0038620045775679466,6524.806000489394
1684378880233893632,62,1684378880233893632,camera_1,64,0,1.3737168679561615,0.30088297697271205,6.04496380780848,-0.995493564685915,-0.008997271110905397,0.09166497518207245,0.02256422182032976,0.0008812378509901463,0.00047544249636463295,6521.961041253526
1684378880240670442,63,1684378880240670442,camera_1,65,0,1.373932968168524,0.30173463584677634,6.046285063049096,-0.9955682023295862,-0.009464074814973184,0.09074749666718969,0.022787664355328814,0.006154558330308646,0.003321281542164327,6521.296356890236
1684378880247297763,64,1684378880247297763,camera_1,66,0,1.371849001857105,0.3017451333688751,6.037190255271665,-0.9950697787573337,-0.009591291039779301,0.09654002292357314,0.020595303200907536,0.007480608415789902,0.004029845356224459,6525.75788787927
1684378880253795862,65,1684378880253795862,camera_1,67,0,1.373223462339165,0.30169923652333624,6.0430543177917055,0.9954478589696122,0.009549824075235911,-0.09256124092500186,-0.020610133705804893,0.003892008331604302,0.0020992933651437376,6524.632065951709
1684378880260439157,66,1684378880260439157,camera_1,68,0,1.3728030901095682,0.30106078121780194,6.041619226231665,-0.995389459565904,-0.009343473280137814,0.09266055142914353,0.022946579287734397,0.00038879201747477055,0.00020953647943461792,6526.181860638318
1684378880267313241,67,1684378880267313241,camera_1,69,0,1.3758390343891,0.2994021098284536,6.05380193415766,0.9959441650973404,0.00963645435269815,-0.08661725194443651,-0.022356440272641772,0.011646065395325422,0.006297074140551196,6517.341828225761
1684378880273864746,68,1684378880273864746,camera_1,70,0,1.3737734602170022,0.2975510686089876,6.04359947448401,-0.9955280595420466,-0.009872905775406133,0.09071861383938762,0.02442419904638682,0.01189208630239591,0.006410830447447706,6526.815317022387
1684378880300523996,69,1684378880300523996,camera_1,72,0,1.376195221754045,0.2877764276654133,6.050443117954105,-0.9955554840168075,-0.010192204868074995,0.09103805238457745,0.021851092009564674,0.004956787568517029,0.002679944001550818,6515.163598183892
1684378880307213306,70,1684378880307213306,camera_1,73,0,1.3783663991929758,0.28378196192714,6.0582432072731445,0.9960715296307433,0.009907992380499336,-0.08516879479049481,-0.02212726688938432,0.008379539824090898,0.004538468185123996,6514.75309480657
1684378880313853979,71,1684378880313853979,camera_1,74,0,1.3769835762891214,0.2814379027088062,6.051548646081388,-0.9956091279635555,-0.009875603029413461,0.09023581549089604,0.0228568235576858,0.002890415024012327,0.0015631200957906177,6515.4159417510955
1684378880320583581,72,1684378880320583581,camera_1,75,0,1.37650145190405,0.27942370102807357,6.048443765659735,-0.9955609063347931,-0.009100916471935753,0.09075062188674912,0.023237463811364923,0.0053320040460675955,0.0028809715952589406,6520.6074105495345
1684378880327189207,73,1684378880327189207,camera_1,76,0,1.3754085358457764,0.27614909994509995,6.0424329345062,-0.995065124435052,-0.009541453279377995,0.09588895381096191,0.023657289350455562,0.0005666903452947736,0.0003058194970195828,6519.039571264527
1684378880333835601,74,1684378880333835601,camera_1,77,0,1.3758478639555562,0.2751508064029236,6.043882659525812,0.9953048129850558,0.009063290922557974,-0.09361888985472273,-0.022840522516038336,0.005496440688148141,0.0029668970617630725,6523.147795536786
1684378880340615510,75,1684378880340615510,camera_1,78,0,1.3772145766467303,0.2747303366257515,6.049481512791793,-0.9957571625690715,-0.009533523217624438,0.08879094987018872,0.022202530229694994,0.011850876384414732,0.006405491277570926,6524.924580418268
1684378880347150564,76,1684378880347150564,camera_1,79,0,1.3743908029981529,0.2736607005702586,6.03699508141373,-0.9948447764102141,-0.009321525549254594,0.09815322857383717,0.023726013809277764,0.004214167420286685,0.0022711558107470086,6524.245464149395
1684378880353904008,77,1684378880353904008,camera_1,80,0,1.3767913046879432,0.2743804288888809,6.047684718417855,0.9954539244935133,0.009174280862817677,-0.09240190045257365,-0.02119447036057819,0.003195873461663723,0.0017275192094084238,6519.5398196553615
1684378880360616207,78,1684378880360616207,camera_1,81,0,1.3766426838719394,0.27510830320706803,6.047389367578392,-0.9954795034180568,-0.008951399315064683,0.09146725241486899,0.023961896012543685,0.0020508496090769768,0.0011078462370052733,6520.940575554037
1684378880367207050,79,1684378880367207050,camera_1,82,0,1.37608009801131,0.2772799002735418,6.0458353749102,-0.9952988372254944,-0.009618023955084508,0.0940199993853386,0.021165017088569986,0.005654579086694866,0.003055320786508072,6518.621230802963
1684378880373758792,80,1684378880373758792,camera_1,83,0,1.3765254500546225,0.27883301492421236,6.048488251580901,0.9951826838424068,0.009923404916159388,-0.09534960945727512,-0.020528121965718543,0.0037680025561712682,0.002038188971680207,6509.341696047923
1684378880380549669,81,1684378880380549669,camera_1,84,0,1.3757489978990982,0.28052857729438385,6.045967269751296,-0.9955631921174358,-0.008904319792930538,0.09106265732729356,0.021959873188579216,0.0009950647945515811,0.0005372909891130848,6525.885511144301
1684378880387183189,82,1684378880387183189,camera_1,85,0,1.37465276337053,0.28427130269846046,6.042247530906582,-0.9951095139210581,-0.009593552987253604,0.09604847234943098,0.02096926332080169,0.012316261883825064,0.006647989560806462,6519.546729077814
1684378880394045114,83,1684378880394045114,camera_1,86,0,1.3764110872046642,0.2870388749595308,6.051165038835628,-0.9954677189199866,-0.00947448346479032,0.09240157534643387,0.02040106920755001,0.012778398930095136,0.006913976333909622,6510.860579489379
1684378880400653600,84,1684378880400653600,camera_1,87,0,1.3737624269253796,0.2884793810449858,6.040207038170664,-0.9953299427173883,-0.009233242638265922,0.09444832710827664,0.017679532432488067,0.009454655402805656,0.005100827090984407,6529.902460336223
1684378880407130479,85,1684378880407130479,camera_1,88,0,1.3750429607264225,0.29323427671890556,6.047894986859481,-0.9952388031989715,-0.009810472286354512,0.09432469716881782,0.022501794253092122,0.006004370574373752,0.0032444357688241787,6509.945120501799
1684378880413754940,86,1684378880413754940,camera_1,89,0,1.3733194874159804,0.2948382278701361,6.041127220347478,-0.994853722230081,-0.00909171502894571,0.09885135917348219,0.02029337015728501,0.004689027089625597,0.0025307640386937657,6512.334964559879
1684378880420427799,87,1684378880420427799,camera_1,90,0,1.3743714818085409,0.29704701069468964,6.046464609242356,-0.995453301344645,-0.009668163994902628,0.0920059401779931,0.02267506160914823,0.007197526574600488,0.0038856119744451354,6518.640776024318
1684378880427167892,88,1684378880427167892,camera_1,91,0,1.3731590790532988,0.29970825751132135,6.042249574563671,0.995429976776544,0.009590974549553821,-0.09251658533806302,-0.021629978715289197,0.001199069432914257,0.0006464884448432156,6526.38455362292
1684378880433989286,89,1684378880433989286,camera_1,92,0,1.3738161182071453,0.30088705276661204,6.045415712092926,0.9954776049205145,0.009507209414068556,-0.09220603692302357,-0.02078455738819786,0.0012865193421021104,0.000694415959975344,6520.712342770537
1684378880440671682,90,1684378880440671682,camera_1,93,0,1.3751913846812511,0.3019670330279278,6.051693590742163,-0.9958301383582251,-0.009862269313637009,0.08777207863222536,0.02282834628268542,0.00331707252189517,0.0017924401369381205,6517.730185977996
1684378880447124242,91,1684378880447124242,camera_1,94,0,1.3744991428491249,0.30233229851424187,6.048976472858459,-0.9957074277764477,-0.009823327100767635,0.08959244447485532,0.021057407449672126,0.00803196191554889,0.004338546979726666,6519.770245161371
1684378880453823089,92,1684378880453823089,camera_1,95,0,1.374655091226942,0.30202657871089456,6.049200069307584,-0.9956146210823436,-0.009430324482195164,0.09041036845631294,0.022103405683636456,0.009580930694937706,0.005175579303039967,6516.293382845703
1684378880460631370,93,1684378880460631370,camera_1,96,0,1.3753161903435098,0.3016188106663279,6.051979171237487,-0.9957531808145693,-0.008902569037147817,0.08968816267013063,0.01877180436352864,0.007411496771965176,0.004009060267697998,6514.648508699263
1684378880467320680,94,1684378880467320680,camera_1,97,0,1.3723935140724304,0.2986247002166216,6.038529900525587,0.9950101225085494,0.009448820326097188,-0.09754352444511359,-0.018730636369122037,0.0024265515385195613,0.0013084114579234173,6521.9511074018665
1684378880473841428,95,1684378880473841428,camera_1,98,0,1.3725007959346127,0.2972243296801138,6.03839346029864,0.9951426135757924,0.009546652254235418,-0.0959359838544315,-0.01990796519387107,0.005266657681204379,0.002838503209854165,6526.512657039916
1684378880480658531,96,1684378880480658531,camera_1,99,0,1.3739130085598428,0.2957205708682604,6.043752636122499,-0.995361991880013,-0.009701542569797187,0.09366267222066352,0.01968982033701657,0.0056511739967390895,0.0030502680596731914,6521.983105307443
1684378880487554311,97,1684378880487554311,camera_1,100,0,1.3757074474285584,0.29213930786593056,6.050008006803092,-0.9957261556143666,-0.009527666044778,0.08893818172973948,0.022992312536613428,0.0011332635185681283,0.0006122587476392715,6520.286106057932
1684378880494043588,98,1684378880494043588,camera_1,101,0,1.3749526121230358,0.2894949471676459,6.045608600588301,-0.9953561910001586,-0.01028624208476083,0.09343991160793921,0.020717846898990977,0.0026076234644278884,0.0014082513145677626,6519.1749334489
1684378880500672340,99,1684378880500672340,camera_1,102,0,1.375686361421063,0.28761333299057396,6.04832736402282,-0.9954647179245245,-0.009375003593614584,0.09249396304824246,0.020173534016055216,0.0004763453616760671,0.0002574862967859974,6516.801993565516
1684378880507227897,100,1684378880507227897,camera_1,103,0,1.3774285679484977,0.2834974307190123,6.054257517703692,-0.9957012030270314,-0.00931546574765231,0.08954035325850919,0.02179131769233485,0.005847660358995199,0.0031653280524001305,6511.904908001304
1684378880514215707,101,1684378880514215707,camera_1,104,0,1.3763137887973802,0.2813111686916239,6.048407590209443,-0.9953832857360218,-0.009814219426765296,0.09301348608996642,0.02154731955014948,0.001927947043441236,0.0010422188823755356,6515.213500987038
1684378880520646095,102,1684378880520646095,camera_1,105,0,1.3761139325085565,0.27927392678593255,6.046442210117808,-0.9954075457500342,-0.00975020335058849,0.09213668375577845,0.024074528136673337,0.013215059705544263,0.00713613169664799,6520.348596882306
1684378880527311563,103,1684378880527311563,camera_1,106,0,1.376453229761418,0.27632816185174314,6.047014184870652,-0.995451751913782,-0.009828439417388103,0.09252972745400885,0.02043186060269422,0.0035392644349485636,0.001912880299937833,6520.87420224515
1684378880533920526,104,1684378880533920526,camera_1,107,0,1.3753314057423849,0.2750227878070473,6.041507784661486,-0.9953464416925958,-0.00932937991734958,0.09316864142413307,0.022760227051315984,0.0016729693743400276,0.000902357778155891,6529.561251504348
1684378880540883779,105,1684378880540883779,camera_1,108,0,1.3764727549133997,0.27452512496644665,6.046423009475078,-0.9955363430470952,-0.009675900267901667,0.0909394024205474,0.023319342053670426,0.002242022892460227,0.0012107255879995457,6524.977726530282
1684378880547204017,106,1684378880547204017,camera_1,109,0,1.3754468198391288,0.27383771091788156,6.041389688986832,-0.9951607489379687,-0.00930982952303928,0.09508709973271677,0.02295330721036859,0.007237685669679195,0.003904843482079462,6524.219721341275
1684378880554297685,107,1684378880554297685,camera_1,110,0,1.3770366226971273,0.27449582125764277,6.048623361182632,-0.9958037610811497,-0.009553861739835922,0.08867284042856334,0.020511472712203965,0.011622002173680812,0.0062816265041097654,6528.174056994843
1684378880560833454,108,1684378880560833454,camera_1,111,0,1.3765969205730397,0.2750934026521751,6.047066266623959,-0.9954427191050362,-0.009678710293314836,0.09261938731124819,0.020536909259161476,0.00023556716041639447,0.00012732363226391685,6520.583120102996
1684378880567428588,109,1684378880567428588,camera_1,112,0,1.3783308222717658,0.2776731865748782,6.0559308063683925,0.9958095270490188,0.009287754635366874,-0.08812866411596643,-0.022593406413771937,0.008255771594122052,0.0044704555142168105,6512.443549264103
1684378880574322938,110,1684378880574322938,camera_1,113,0,1.3755199730008414,0.27867186232945657,6.043983913548831,-0.9951131312382446,-0.009269700665651177,0.09610992191612525,0.020659419063992282,0.008133304479997605,0.004393633001088513,6516.687173411251
1684378880580588817,111,1684378880580588817,camera_1,114,0,1.3742997946243418,0.28026389548156094,6.039090916902581,-0.9950440664709501,-0.009601509948798293,0.09680799698823848,0.02057494852445104,0.012473388342186809,0.006728023903744905,6524.935489442896
1684378880587405204,112,1684378880587405204,camera_1,115,0,1.3781545860368813,0.28502869344119847,6.057709955978159,0.9957805958936415,0.009455203578828876,-0.08886915393596907,-0.02082972505080668,0.013647393207065761,0.007395647288360995,6506.618563307216
1684378880593961954,113,1684378880593961954,camera_1,116,0,1.3743045896859827,0.2866072959976661,6.042079721333554,-0.9950483433331269,-0.009184995726200972,0.09731744770991058,0.0179929056780235,0.0026256017154082656,0.0014180479630403597,6517.754803606079
1684378880600713014,114,1684378880600713014,camera_1,117,0,1.375268316137906,0.28884546689921253,6.046961311536734,0.9952888216880138,0.009379772550679174,-0.09424833990430657,-0.020722734256486883,0.004265613330062479,0.0023050586248322177,6514.1449749929625
1684378880607405662,115,1684378880607405662,camera_1,118,0,1.3747495574294728,0.2932971308039604,6.046728848400943,-0.9954526027009428,-0.009499819773476333,0.09268740291988248,0.019822072045022673,0.0032840606290847063,0.001774187506673593,6518.899305068071
1684378880614064931,116,1684378880614064931,camera_1,119,0,1.3747210134013266,0.29523506724950105,6.047223842891958,-0.9951102450242048,-0.00926155174462916,0.09663668685614184,0.01819820487347161,0.005923427524976432,0.0032034949971076723,6507.005117717316
1684378880620707273,117,1684378880620707273,camera_1,120,0,1.3762736739710255,0.2975074930916306,6.054745319029391,-0.9957671603993324,-0.009654338782227946,0.08921730139539069,0.01987030811669434,0.007258963538333774,0.003929600816828692,6510.36726670282
1684378880627294540,118,1684378880627294540,camera_1,121,0,1.375082774487234,0.3001259647316125,6.050813973266725,-0.9956684536938887,-0.008988431839432369,0.0906181054285853,0.018758928019010145,0.007373331987764686,0.003987655986771866,6515.07182482397
1684378880633859157,119,1684378880633859157,camera_1,122,0,1.3737064396626195,0.300919418671965,6.044899261254069,-0.995404531876409,-0.009296316806724884,0.09341790438492426,0.01888098392736007,0.00893827120307833,0.004826388378306958,6519.533331681276
1684378880640629768,120,1684378880640629768,camera_1,123,0,1.3730379339341372,0.30153052273143194,6.042341743100076,0.995321116592934,0.009629388608313468,-0.09370780512367187,-0.021494115430258334,0.0057618237915448844,0.0031072402669309294,6522.387583289179
1684378880647504091,121,1684378880647504091,camera_1,124,0,1.3732057726001017,0.3020576760375134,6.043224222892671,-0.9953941413768118,-0.0101068370983996,0.09294676727846607,0.021195603531592458,0.0047972892643883824,0.0025876392731338784,6522.71882496064
1684378880653976917,122,1684378880653976917,camera_1,125,0,1.3723104988468913,0.3015725235565667,6.039029662819134,-0.9952511268807621,-0.00963099126162642,0.09489317662912047,0.01943510944466494,0.008956636651419103,0.004827639943633356,6527.367245780069
1684378880660466194,123,1684378880660466194,camera_1,126,0,1.3730066498552063,0.30103241414959403,6.04192608545659,0.9953445750677831,0.009454071233763872,-0.09339073570444666,-0.021862477097150505,0.003412202000617981,0.0018396773735757134,6524.044260581839
1684378880667128562,124,1684378880667128562,camera_1,127,0,1.3739780372863308,0.29895988287810205,6.04541457647465,0.9954943356969465,0.00967755014773155,-0.0925233209083423,-0.01835232155683361,0.004920070932712406,0.0026570000163983754,6521.7925708371895
1684378880673810243,125,1684378880673810243,camera_1,128,0,1.3746684867894807,0.2977355209905545,6.04824297030905,-0.9956425606552792,-0.009454549633848463,0.09031518594383392,0.021205425978992228,0.005005029437597841,0.0027034517858192985,6520.4703249421445
1684378880680623292,126,1684378880680623292,camera_1,129,0,1.3737594991153073,0.29564868127157545,6.043097215520653,-0.9953480288582794,-0.009350873686027559,0.09421100441694312,0.017864748976583956,0.0037136931787244976,0.0020049377519303748,6522.953809649338
1684378880687211513,127,1684378880687211513,camera_1,130,0,1.3742581626871926,0.2917624917278064,6.043778621771935,-0.9952946934600868,-0.009170812662892772,0.09467139183000434,0.018485046233742825,0.001810042536817491,0.000977453503205572,6520.60789297137
1684378880693939447,128,1684378880693939447,camera_1,131,0,1.375182838423845,0.2895129438610442,6.046567025594392,-0.9956602495434269,-0.009976043818637597,0.08988849801136473,0.02193636146014408,0.013275805453304201,0.007167026143120154,6526.203750944813
1684378880700503349,129,1684378880700503349,camera_1,132,0,1.3747647629638289,0.2873834514975687,6.044080698160359,-0.9952681169760681,-0.009640681081142303,0.09446608548847749,0.020605613111170568,0.0022958096233196557,0.0012395513660007267,6519.997015972856
1684378880707270145,130,1684378880707270145,camera_1,133,0,1.3764892342619053,0.28333251319044456,6.050296674861201,-0.9956586629485853,-0.009469454808472416,0.09080474916602678,0.018128812701358736,0.004280325141735375,0.0023156731416223673,6519.203726683278
1684378880713905334,131,1684378880713905334,camera_1,134,0,1.3759050355933011,0.2812395798332641,6.0467492321844825,-0.9953885421618067,-0.00978414654933013,0.09371825404192366,0.01796689924911104,0.005305747734382749,0.0028686916210232836,6518.9299146572575
1684378880720587015,132,1684378880720587015,camera_1,135,0,1.37551152726193,0.2791781953974369,6.044215039055872,-0.9955096706295492,-0.009328374489306434,0.09147808881703876,0.022477463798568124,0.00992922403384,0.005358731964556384,6528.250324532391
1684378880727613687,133,1684378880727613687,camera_1,136,0,1.3756716161711715,0.2762176137056026,6.043427672010254,-0.9954082140097067,-0.009372889551212151,0.09270940151844824,0.021899846884345986,0.0024180158507078886,0.0013050691289117193,6527.136237917349
1684378880733909130,134,1684378880733909130,camera_1,137,0,1.3755427297039917,0.2750592517353174,6.042495188724564,0.9949486421992375,0.009640156631709144,-0.09734138820902419,-0.022559275421650326,0.0003512130933813751,0.00018962063164488748,6515.486909811154
1684378880740687370,135,1684378880740687370,camera_1,138,0,1.3774361476313863,0.2747346906163784,6.050332857063659,0.9956740579303787,0.008929687872082197,-0.08973937435436323,-0.022366844423105568,0.008745737257413566,0.004728801267021743,6520.3795542202415
1684378880747097492,136,1684378880747097492,camera_1,139,0,1.3774077053983305,0.2743098710030064,6.050637374790191,-0.9956834626026684,-0.008918688157317707,0.08936730624645241,0.02341759755752351,0.006612762750592083,0.0035753138673246844,6520.283152412623
1684378880753902196,137,1684378880753902196,camera_1,140,0,1.375996132752403,0.274320290961801,6.044471274858113,0.995359607486128,0.009039892075212453,-0.09280881535694813,-0.023749861649488713,0.0006717799697071314,0.00036261175114961846,6523.736811769431
1684378880760423183,138,1684378880760423183,camera_1,141,0,1.3769074302116142,0.27521561471072625,6.048385090183213,-0.9957045982731632,-0.009700030812040964,0.08931260295677264,0.02239467197817799,0.0036178521113470197,0.001954763038750258,6525.722227888184
1684378880767226934,139,1684378880767226934,camera_1,142,0,1.3757450525232233,0.27726977975167005,6.044595731540424,-0.9953112284342981,-0.009528896232987912,0.09395879482177716,0.020892667728861225,0.001802683633286506,0.0009736519462886272,6521.719935206345
1684378880773815393,140,1684378880773815393,camera_1,143,0,1.3754640104905302,0.2786643875875334,6.043709174592234,-0.9951644028030598,-0.009228219194207674,0.09582920010788198,0.01947859776310039,0.004642812302336097,0.0025082681567524415,6518.8296806691205
1684378880780638933,141,1684378880780638933,camera_1,144,0,1.3745058249218742,0.28036455315227626,6.040471089088904,-0.9951188028775626,-0.009824507444330081,0.09598756517873278,0.02069866044122879,0.0049913497641682625,0.0026929533786881955,6524.444524873981
1684378880787157297,142,1684378880787157297,camera_1,145,0,1.3759217929182048,0.2846084604603924,6.04784693814273,0.995176957241395,0.00928520509235799,-0.09571718876819978,-0.019360488538885515,0.009194985614158213,0.004973262364454883,6509.438619179889
1684378880793849706,143,1684378880793849706,camera_1,146,0,1.3747397963400927,0.28675698399708616,6.043826191174056,-0.9953498211856302,-0.009512752378921794,0.09383095101692486,0.01959575564174283,0.01920228759991005,0.01036825127656447,6523.066676076034
1684378880800487279,144,1684378880800487279,camera_1,147,0,1.3743685837232231,0.2886929822594879,6.04297408477022,-0.995089001693063,-0.009659072515494405,0.0962619874100149,0.020933485317021185,0.0016262928838841617,0.0008779176994446483,6516.756936761898
1684378880807117462,145,1684378880807117462,camera_1,148,0,1.3741574465984492,0.29318314965471287,6.044012428308406,-0.9952420927610114,-0.009346020181948909,0.0948097654039251,0.020419037379217353,0.015589209215249866,0.008416836337495324,6518.236089240523
1684378880813759088,146,1684378880813759088,camera_1,149,0,1.3753805849968759,0.2953208230008914,6.0502348733736655,0.9955453413902735,0.009099785512932815,-0.09219666713977001,-0.017505476516250985,0.005518017045687884,0.0029851896983142806,6513.716967917746
1684378880820558547,147,1684378880820558547,camera_1,150,0,1.3752101598386361,0.29729946102891647,6.050068817924965,-0.995561453412969,-0.0093011247681492,0.09185319007432102,0.018272192793281176,0.007623580226209015,0.004123303541202584,6514.098461857646
1684378880827241659,148,1684378880827241659,camera_1,151,0,1.374006228680757,0.29996248046485563,6.046134280560367,-0.9957164765618602,-0.009116055938722667,0.08945597165530808,0.02152266160494479,0.006192503497004509,0.0033417811658533994,6526.5679326473
1684378880833935260,149,1684378880833935260,camera_1,152,0,1.3740808176219041,0.3010556428018651,6.0465993779394696,0.9955744627998573,0.00948398289707729,-0.09145798566615831,-0.019415971442919663,0.003439700696617365,0.0018575723590175317,6521.0846545745135
1684378880840767860,150,1684378880840767860,camera_1,153,0,1.3735860267493696,0.30164330743921824,6.04470037606667,-0.9955300964786317,-0.00932746797427152,0.09153534032956383,0.021309782194718154,0.001671807316597551,0.0009020330400813945,6523.569339123209
1684378880847339868,151,1684378880847339868,camera_1,154,0,1.372151444263087,0.3018400654798339,6.038704123879009,-0.995178519572748,-0.009624405034318209,0.0956796357815123,0.019300059726487163,0.004276442341506481,0.002305041421182884,6525.902279274889
1684378880853810787,152,1684378880853810787,camera_1,155,0,1.373446696983706,0.30178269431098304,6.0441338752526,-0.9955743674690372,-0.009678158145842415,0.09087266480065072,0.021912801864651252,0.0017278545419685543,0.0009319016537520625,6526.172018160927
1684378880860546588,153,1684378880860546588,camera_1,156,0,1.3729332895251294,0.3009740883183425,6.04182403667503,-0.995379259203043,-0.009311851688276702,0.09262498866217161,0.023537868252445124,0.007587659754790366,0.004089383397740732,6525.289859188838
1684378880867429018,154,1684378880867429018,camera_1,157,0,1.3740179976663331,0.2989702205876814,6.045628307517561,-0.9956608294285073,-0.009730867162644805,0.09000689075432851,0.02153096799352956,0.010785616817884147,0.005819909975375812,6526.30479193758
1684378880873872756,155,1684378880873872756,camera_1,158,0,1.3751873441322453,0.2977694242223665,6.050178085841237,0.9959698484517746,0.009901879550705872,-0.08672161671069122,-0.020624620030355013,0.007331014261581004,0.003960418061797319,6526.329288979292
1684378880880837440,156,1684378880880837440,camera_1,159,0,1.3747936850570033,0.2958487061806888,6.047573032373071,-0.9953580966583079,-0.009625356775653543,0.09376540474943265,0.019433496748322704,0.009012917755171657,0.004871421405018377,6513.606417679923
1684378880887453079,157,1684378880887453079,camera_1,160,0,1.3752671557398035,0.2919745165999888,6.047931045334366,-0.9955970893574462,-0.00941195581798649,0.09102845956905355,0.02028965990712751,0.009809774113819003,0.005300270908070112,6520.747458447582
1684378880893864870,158,1684378880893864870,camera_1,161,0,1.3752506842896302,0.28951422080496303,6.047092532100839,0.9955804167228793,0.009168156925719971,-0.09051681030679705,-0.023287030475498974,0.005002257879823446,0.0027005636180559944,6522.5148712607315
1684378880900631666,159,1684378880900631666,camera_1,162,0,1.3758943253956493,0.2876343751683877,6.0493064901345885,-0.9955433005379848,-0.009764807371469788,0.09168644381817348,0.019793466369254754,0.0027125654742121696,0.0014666749894293445,6517.224265392284
1684378880907271385,160,1684378880907271385,camera_1,163,0,1.37680876360769,0.2833027414715925,6.051383847796623,-0.9958490554144889,-0.009882153870735589,0.0879446107689586,0.021277859423389944,0.009794156940188259,0.005295752675905615,6522.715108430596
1684378880913967370,161,1684378880913967370,camera_1,164,0,1.3765526350296342,0.28131930380914505,6.049630660741183,-0.9957508798485204,-0.009982055845193342,0.08843806551015548,0.023648518152783366,0.0021782658877782524,0.0011768007381380238,6523.926279396748
1684378880921061038,162,1684378880921061038,camera_1,165,0,1.377807450823899,0.2795878042458777,6.054407789937996,0.9959741261361295,0.010081167698925942,-0.0869943670978349,-0.019128257067668054,0.0057403373648412526,0.003107664927299592,6520.657970220082
1684378880927400588,163,1684378880927400588,camera_1,166,0,1.3748222475069523,0.27602194292338034,6.039543206992807,-0.9952025954538383,-0.009107950305142899,0.09555855340271954,0.0189050817179578,0.008601801237091422,0.004641224901712751,6529.073904333167
1684378880933947801,164,1684378880933947801,camera_1,167,0,1.3763854106318754,0.27521865532353407,6.0464314351665625,0.9953446010741256,0.009860982368804724,-0.09396010668281535,-0.019062646496904437,0.0022903733770363033,0.0012381860143695956,6519.072914006652
1684378880940653085,165,1684378880940653085,camera_1,168,0,1.3751595158150338,0.27433315277200176,6.040421838548958,-0.9952514330164655,-0.009652111191547508,0.09446093722437475,0.021413854555189772,0.0163061540806666,0.008796044741922155,6529.051312153575
1684378880947301864,166,1684378880947301864,camera_1,169,0,1.3758240899506615,0.27399379191176415,6.043180532948864,-0.9953847721754877,-0.009205842337767715,0.09303873632988144,0.021637960397030708,0.008968957990873605,0.004841244909740819,6527.105331887145
1684378880953889131,167,1684378880953889131,camera_1,170,0,1.375416097528328,0.27423940375401606,6.041662366595527,-0.9952973082446965,-0.009460195541295863,0.09364813686323124,0.022886663435887095,0.0029052147874608636,0.0015671892506964717,6527.874021570896
1684378880960599660,168,1684378880960599660,camera_1,171,0,1.3773546211559196,0.2752640758210582,6.050412050176301,-0.9956709432526627,-0.009396361711878385,0.08952415565408665,0.02316261434629818,0.004947930166963488,0.0026750053730143224,6520.289175327636
1684378880967217683,169,1684378880967217683,camera_1,172,0,1.3771223816717026,0.277538520108963,6.050505367315662,-0.9958305651081937,-0.009462395874494408,0.08837120666026813,0.020554281646859154,0.004086534841917455,0.0022097311776500647,6524.709267650844
1684378880973945856,170,1684378880973945856,camera_1,173,0,1.3754095415131595,0.27862208546749423,6.043480568978937,-0.9949400641504653,-0.009011492813393522,0.09800500478641044,0.020201009439078762,0.006244657677598297,0.0033741391516619,6512.471613066153
1684378880980636358,171,1684378880980636358,camera_1,174,0,1.3751523574369215,0.28044608028320167,6.043158185266385,-0.9953032524671434,-0.009773924681512449,0.0939441162951734,0.021222842367727514,0.007337812683545053,0.003960695308845046,6524.16944338742
1684378880987581968,172,1684378880987581968,camera_1,175,0,1.3745365543674983,0.2843845226996767,6.0419607768865955,0.9950232184705013,0.009119828494667397,-0.09715373761286486,-0.020168656392618348,0.006129518325906247,0.0033091473913262302,6517.475289484488
1684378880994188070,173,1684378880994188070,camera_1,176,0,1.3752044024648897,0.2868703373259004,6.045797429606879,-0.9951804860739172,-0.009788731568436976,0.0955701065775499,0.019655421662199826,0.016684821981471032,0.009016890408492016,6513.748842614472
1684378881001033782,174,1684378881001033782,camera_1,177,0,1.3758473365073052,0.28904596648633285,6.049476756507757,0.9954640275769926,0.009359308497523835,-0.09193443023245412,-0.02262374156666084,0.012445452390238643,0.006726392277006899,6513.975166395072
1684378881007485628,175,1684378881007485628,camera_1,178,0,1.3729848223246859,0.2929743161740039,6.0386538182428975,-0.9949909772018948,-0.009317770653708864,0.09748651774795569,0.020062733967259352,0.005965673772152513,0.0032167281855978733,6522.14083142229
1684378881014001607,176,1684378881014001607,camera_1,179,0,1.3736059258132063,0.2950170477125333,6.042681891217252,-0.9952440767464211,-0.00964525734497908,0.09485072596068729,0.019988409057339198,6.602465873584151e-05,3.562959621088333e-05,6521.043068462979
1684378881020662784,177,1684378881020662784,camera_1,180,0,1.3759910096267458,0.2974659008344527,6.053439925161875,0.9958802938675735,0.00932537312801107,-0.08783808135215983,-0.02049266128715348,0.006636260135564953,0.003589687909684363,6516.483312792267
1684378881027282476,178,1684378881027282476,camera_1,181,0,1.3744357969534056,0.30002746971021915,6.0478575690314855,-0.9954748627542211,-0.00919386659721543,0.09219474108920758,0.02110450560783152,0.006917231774423271,0.0037367756087028814,6515.492891157508
1684378881033761501,179,1684378881033761501,camera_1,182,0,1.372476102286395,0.3007370009668223,6.039857743468511,-0.9950807095288106,-0.00936216949293199,0.09710691137117379,0.017233080687322475,0.0008612032397650182,0.0004646524250412652,6520.827719076771
1684378881040369987,180,1684378881040369987,camera_1,183,0,1.3737488569241358,0.3016905026974071,6.045512754819069,-0.9955343966043354,-0.010308294219337181,0.09148195727857393,0.02088194771592107,0.004505163407884538,0.002431465012967915,6522.264908558457
1684378881047163963,181,1684378881047163963,camera_1,184,0,1.373155327338464,0.30203156583545565,6.043073336702751,-0.9951869912900024,-0.009464608837827833,0.09532889664510558,0.02063189305726434,0.004431603534612805,0.002391466961778779,6516.625476671152
1684378881053879976,182,1684378881053879976,camera_1,185,0,1.3729772125739435,0.3016215357748274,6.04211999895539,0.9954072414425132,0.009930695031067678,-0.0928847872999417,-0.020933735171980532,0.0008629841031506658,0.0004653213068630516,6525.606817246411
1684378881060732603,183,1684378881060732603,camera_1,186,0,1.3736554713275315,0.3011635659164727,6.044901009008875,-0.9956310737291043,-0.00938757382097775,0.0906053734662225,0.02052571026378727,0.0029092401964589953,0.0015697580691888717,6526.384401835502
1684378881067293167,184,1684378881067293167,camera_1,187,0,1.3731905928703187,0.29879698635684077,6.042202690113425,-0.9954203530034912,-0.009461224491230635,0.09226024106400206,0.023170109545356553,0.005075444176327437,0.0027359035289469353,6526.362526117823
1684378881073907136,185,1684378881073907136,camera_1,188,0,1.373241821234504,0.2973036908963626,6.042096482480947,-0.995353212108119,-0.009621371527346942,0.09340393018941144,0.021333499036822443,0.0002572045777924359,0.0001387016486583694,6525.087513854025
1684378881080597162,186,1684378881080597162,camera_1,189,0,1.3742365510390957,0.2956665873465071,6.045204390653352,-0.9956094934276181,-0.00912975204603631,0.09096653136168445,0.02008667210872427,0.005570333101786673,0.003006787773630791,6526.2510086740385
1684378881087237119,187,1684378881087237119,camera_1,190,0,1.3750718172356706,0.29180845100348907,6.047105644164748,-0.9955707883220883,-0.010110599307679389,0.09106029510085926,0.021085632016128574,0.0021555627463385463,0.00116416561445913,6522.018125644071
1684378881093776941,188,1684378881093776941,camera_1,191,0,1.3752751559798566,0.2894425889612843,6.046978774358593,-0.9956990265688056,-0.0095334907306328,0.09021904056751283,0.01879057645468543,0.00837341119768098,0.004523509305085404,6526.426252070813
1684378881100672006,189,1684378881100672006,camera_1,192,0,1.375632978804062,0.2874697727647738,6.047958720262607,-0.9956284427622525,-0.009920277392789155,0.09070177873188622,0.019969461538414966,0.004879997111856937,0.0026369315389876426,6522.70079743594
1684378881107271909,190,1684378881107271909,camera_1,193,0,1.3767988411152534,0.2831779798971225,6.051207531445271,-0.995691325928116,-0.00938467723198512,0.08967462212183054,0.021660412093692648,0.009066609549336135,0.00490304057270937,6518.133973599875
1684378881113833665,191,1684378881113833665,camera_1,194,0,1.3768391029288705,0.28133342425965246,6.0508793991778305,-0.9957403275884276,-0.009589573293595187,0.08952820899644275,0.019847919085559825,0.003913686901796609,0.002116819818305669,6520.721996101087
1684378881120571136,192,1684378881120571136,camera_1,195,0,1.3757489057599577,0.2790808043330695,6.045129590854827,-0.9954568293142083,-0.009148875067663167,0.09195831049576872,0.02292745488412256,0.0024599451571702957,0.0013279737508093148,6524.640522006548
1684378881127157449,193,1684378881127157449,camera_1,196,0,1.375492052688985,0.27608176329090245,6.0424477182332454,-0.9953401535505173,-0.009504931264010738,0.09281602144106377,0.024347919326942434,0.005824374035000801,0.003141366776391326,6527.244030802046
1684378881134275913,194,1684378881134275913,camera_1,197,0,1.376251412601695,0.27517790754761046,6.045602566935204,-0.995596677651646,-0.009491000752658327,0.09041957496013743,0.022835866914698133,0.0007614478236064315,0.00041107090995334974,6528.415123496088
1684378881140480518,195,1684378881140480518,camera_1,198,0,1.3766120795552819,0.27454855735501643,6.046767018301923,-0.9954116277044079,-0.00981045075753045,0.09287958161463626,0.020804562141164256,0.003622552554588765,0.0019578261003070805,6520.310012427859
1684378881147125244,196,1684378881147125244,camera_1,199,0,1.3760059762331098,0.2740243526322697,6.044445219444824,-0.9954411699007605,-0.009865133603040479,0.0919708306473512,0.02325774528271807,0.0003346267039887607,0.0001806119427069412,6526.557079269318
1684378881153762340,197,1684378881153762340,camera_1,200,0,1.3757772285425163,0.2742718929719463,6.042983565366216,-0.9953254762475746,-0.009412107185455824,0.09343668274123619,0.022543178329193062,0.010911500838119537,0.005888811680992208,6525.746496826992
1684378881160468816,198,1684378881160468816,camera_1,201,0,1.376577564464549,0.2751394054806279,6.047012176406692,-0.9956223613295526,-0.009019756234592818,0.09014570311324939,0.022989341622852405,0.0016635708743706346,0.000898467302687048,6526.039179223591
1684378881167387247,199,1684378881167387247,camera_1,202,0,1.375371693408832,0.27719496680185607,6.042508045875937,-0.9951804435317518,-0.00943028185286865,0.09517268302350458,0.021659062819719927,0.006706283253151923,0.003619953899224096,6522.069174272942
1684378881174122571,200,1684378881174122571,camera_1,203,0,1.376774003607811,0.27902684911433,6.049619621090368,-0.9956334515776767,-0.009735588292555568,0.09003893167079664,0.022632702085736034,0.002562923647928983,0.001385271901270291,6520.566992295904
1684378881180607080,201,1684378881180607080,camera_1,204,0,1.3760885336103872,0.28069058938275826,6.047038104771382,-0.9954263821744165,-0.009764991838208094,0.09298984789786385,0.01959211049082125,0.012221226468682289,0.006605977524305912,6519.417788053399
1684378881187422275,202,1684378881187422275,camera_1,205,0,1.3764096055095956,0.28480701288090987,6.0502525079735285,-0.9954752229146149,-0.00953928248146782,0.09165577309906164,0.02317977373595042,0.00791839644080028,0.00428081286421726,6513.449958268554
1684378881193951606,203,1684378881193951606,camera_1,206,0,1.3747939527804998,0.28682141521802446,6.044009234112267,-0.9954870585215416,-0.009271178813853333,0.09247312681090494,0.019190684650230196,0.01043815939920023,0.005635348392282534,6526.765242244468
1684378881200750112,204,1684378881200750112,camera_1,207,0,1.3731961000725228,0.2886389333646059,6.037769492375511,-0.9948777077588158,-0.009298062431185644,0.09861798150427309,0.020159026851837514,0.01264909579185769,0.006820614375364288,6521.383426629825
1684378881207207441,205,1684378881207207441,camera_1,208,0,1.3747401220696467,0.29340702452107037,6.046283246846881,-0.9952035861502952,-0.00952020983670781,0.09542185421032878,0.019335393901335433,0.005795310076791793,0.003132092695925461,6512.152445051352
1684378881213786602,206,1684378881213786602,camera_1,209,0,1.3754191632809136,0.2955264449942956,6.0500791752057586,-0.9954769437418809,-0.009481662067402627,0.09206770977644607,0.02143103775564282,0.019375527801457793,0.010475275621138482,6511.778939875196
1684378881220690011,207,1684378881220690011,camera_1,210,0,1.373642793722969,0.2969909177131184,6.043400527240252,-0.9953769148740592,-0.009644648838552664,0.0935654858644809,0.019423643827164404,0.0005133804515935481,0.00027706605145667716,6523.035003016939
1684378881227380514,208,1684378881227380514,camera_1,211,0,1.3737007574009032,0.2999010944235808,6.044803367528421,0.9956681879225958,0.00913475900002047,-0.09030279889447083,-0.020169785541023454,0.0037924483767710626,0.002046270955059111,6528.031355367742
1684378881234055280,209,1684378881234055280,camera_1,212,0,1.3752245053005292,0.3014143196288532,6.051734959895054,-0.9958841823714584,-0.008796199083425224,0.08746172688980416,0.02208548196146318,0.004926317953504622,0.0026623454625967348,6519.1637347331225
1684378881240648031,210,1684378881240648031,camera_1,213,0,1.3731828580477636,0.3015433719073093,6.042830460092986,0.9953962557839748,0.009617011931120894,-0.09297921860764519,-0.021181878100683896,0.003317579918075353,0.0017892582005212346,6523.5967535823565
1684378881247532844,211,1684378881247532844,camera_1,214,0,1.371666142782841,0.30171931049972484,6.036557639595061,-0.9950717086790408,-0.009727057071004184,0.09648389989775695,0.020701111270438194,0.00011763517977669835,6.335210279256462e-05,6527.316656896728
1684378881253792524,212,1684378881253792524,camera_1,215,0,1.373363665346809,0.30175981517413764,6.043785707490532,-0.9954438282548423,-0.009702663010933215,0.09281767267931956,0.019553075416288854,0.003241634462028742,0.0017493156044533404,6523.037451254783
1684378881260580778,213,1684378881260580778,camera_1,216,0,1.373384752395276,0.30104895427879835,6.043749505477617,0.9955435065202242,0.009715597984434833,-0.09100780920407138,-0.022722509656646482,0.004903993685729802,0.002644229499743911,6526.2761877285075
1684378881267258644,214,1684378881267258644,camera_1,217,0,1.374239451390523,0.29897257346603184,6.046769466616081,-0.9956334960601286,-0.00964792085677967,0.09003717424966663,0.022675237581170432,0.005802496278192848,0.0031317235607058926,6523.052114945018
1684378881273883819,215,1684378881273883819,camera_1,218,0,1.3720348506211701,0.29701403870527776,6.036519149915226,-0.9950246563919685,-0.009518604499288728,0.09733729570586641,0.018994215043008637,0.002239687426481396,0.0012068512255436082,6527.139563791685
1684378881280602693,216,1684378881280602693,camera_1,219,0,1.3757880635191253,0.29599471639333386,6.052337804634067,-0.995885875037009,-0.009692447163550784,0.08713455996509231,0.0229117618144604,0.003984821843914688,0.0021537814397830342,6519.527754338222
1684378881287179946,217,1684378881287179946,camera_1,220,0,1.3746176640131953,0.29172332452757876,6.045094273744705,-0.9952671023842878,-0.009564222658034607,0.09438798798576202,0.021043485465357555,0.010526641039177775,0.0056846571954266055,6516.92323030089
1684378881293799638,218,1684378881293799638,camera_1,221,0,1.3740595945650325,0.28916955440877845,6.0415620371605945,-0.995360841108414,-0.009072901795294599,0.09380689508185626,0.01935832833860099,0.01985484891338274,0.010712154147008305,6527.64344956039
1684378881300907611,219,1684378881300907611,camera_1,222,0,1.3761277677850758,0.2875130624953942,6.050092272177985,-0.9954285214841304,-0.009471085802463594,0.09225362896192141,0.022839113227023713,0.0019852278055623174,0.001073252355087353,6511.9231050759545
1684378881307396888,220,1684378881307396888,camera_1,223,0,1.375994420810164,0.2829808970980216,6.048072642439879,-0.9956417943227568,-0.009323596741455506,0.09039296075646247,0.020966654173825563,0.004002071567811072,0.0021624179643118537,6523.507001329099
1684378881313899040,221,1684378881313899040,camera_1,224,0,1.3751909949836276,0.28097164753227805,6.043292835592226,-0.9953771904374168,-0.009323512543537407,0.09314111301047213,0.02149543993351639,0.0029362423229031265,0.0015846751511214528,6525.872935090676
1684378881320527791,222,1684378881320527791,camera_1,225,0,1.3767259647637948,0.27927922852423887,6.049438832932941,-0.9957377902776734,-0.009674532517510335,0.08960342388851715,0.019592928850959777,0.004129030101466924,0.002232550178335378,6523.98860840069
1684378881327382564,223,1684378881327382564,camera_1,226,0,1.3762862992113842,0.27625809471202306,6.046405205800037,-0.9953328880124501,-0.009711317211512648,0.09332151997920872,0.022566042355338465,0.004294814716558904,0.002320319329393461,6518.671512703879
1684378881333810091,224,1684378881333810091,camera_1,227,0,1.3756001264691038,0.275036991480478,6.04263771985484,0.9953487405494772,0.009613408299058416,-0.09381414905195858,-0.019681781044965048,0.0008744400693103671,0.00047209706185973325,6527.187544650978
1684378881340513467,225,1684378881340513467,camera_1,228,0,1.378375587361107,0.27494787698898804,6.054761353114645,-0.9960120520553116,-0.009218421342038877,0.08503057622624091,0.025393187573862542,0.0055520678288303316,0.0030031270491267456,6521.489703238942
1684378881347307443,226,1684378881347307443,camera_1,229,0,1.3765453307863185,0.2741473532547517,6.046801900162861,-0.9954472968896251,-0.010026892253515631,0.09225652400488388,0.021745673717114986,0.005399259680416435,0.0029174719912644156,6521.60435086256
1684378881353938102,227,1684378881353938102,camera_1,230,0,1.3767032262151435,0.2744742800467024,6.047419254560421,0.9953353221916507,0.009933990465167035,-0.09325728908579811,-0.022627201847530146,0.0038750545936636627,0.0020942068321531462,6516.780103240981
1684378881360731601,228,1684378881360731601,camera_1,231,0,1.3762551106931735,0.2751020050355372,6.045604801546291,-0.9955233666408837,-0.00947650089957057,0.09141639666763882,0.022055947565369164,6.150384433567524e-05,3.321231728781134e-05,6526.17554673669
1684378881367319583,229,1684378881367319583,camera_1,232,0,1.3774138595370122,0.2776741194192822,6.051866240358445,-0.9959178694824858,-0.009328058037409775,0.08711936882263853,0.021697929732164153,0.002289263589773327,0.0012379781436837863,6524.453701008109
1684378881373981714,230,1684378881373981714,camera_1,233,0,1.3746397769194343,0.2786640954962114,6.040617254478507,-0.9951898951781061,-0.009623938138658727,0.09537270329245254,0.020211378398902358,0.0023344202782027423,0.0012595503182055265,6526.516994799485
1684378881380914449,231,1684378881380914449,camera_1,234,0,1.376983889346748,0.28096788401469036,6.051362257774057,-0.9954916897011208,-0.009432829826162793,0.09226598697777261,0.019857117225212845,0.0028614673065021634,0.0015486718983824127,6512.138190816853
1684378881387289285,232,1684378881387289285,camera_1,235,0,1.3770967377430254,0.28502409920180904,6.053283701399907,-0.995390935633603,-0.009866525973914624,0.09328718893090028,0.019925794966245046,0.004138855030760169,0.002241478354503169,6504.449110145566
1684378881393995046,233,1684378881393995046,camera_1,236,0,1.3760349124840987,0.28715941397651373,6.049574531533751,-0.9957077787376764,-0.009000286493000963,0.08977478998514032,0.020627682551624747,0.010835013701580465,0.005856605755154312,6521.4131208949275
1684378881400895118,234,1684378881400895118,camera_1,237,0,1.3732268835623542,0.28864956276797954,6.038258478167426,-0.995090631841627,-0.009449519411668963,0.09545038037665425,0.024383721821577563,0.007258611440192908,0.003909648231117362,6526.925234747236
1684378881407254695,235,1684378881407254695,camera_1,238,0,1.3737244837963158,0.29314215125897064,6.042082190974817,0.9951530668160198,0.009370290834209033,-0.09611135560642711,-0.018578982206991237,0.003399635315872729,0.0018351216570058361,6519.770617565607
1684378881414409160,236,1684378881414409160,camera_1,239,0,1.373649486704771,0.2951184589249209,6.042345028737938,-0.9952095505790337,-0.009415976701738714,0.09546074852927405,0.01888214260249267,0.014016949804499745,0.007565896204691739,6520.409684117885
1684378881420830726,237,1684378881420830726,camera_1,240,0,1.3750748193799642,0.2973879902019621,6.049730100349516,-0.9957219176252726,-0.008618753324186632,0.08948323461787948,0.021361895377238926,0.0075787396053783596,0.0040952148118233,6519.487741593501
1684378881427480459,238,1684378881427480459,camera_1,241,0,1.3738445246743245,0.30001500806401715,6.045142829733753,-0.9954879513449318,-0.009526523412437102,0.09206714929986745,0.020895552123329546,0.015850367024540898,0.00855504104472923,6521.736420300207
1684378881434271574,239,1684378881434271574,camera_1,242,0,1.3724559143907122,0.30073436320271496,6.039271784146099,-0.9951218259685548,-0.009168205884812292,0.09631628683806778,0.01927870253907019,0.00801184494048357,0.0043200320800948514,6522.998142744187
1684378881440811634,240,1684378881440811634,camera_1,243,0,1.3740112042276893,0.3017674733294993,6.046532400408169,-0.9954790689421841,-0.010043390093306293,0.0920406808992242,0.02119119328974215,0.01277293753810227,0.006896405810405358,6518.214993405738
1684378881447127103,241,1684378881447127103,camera_1,244,0,1.3733168275045882,0.30206433238774927,6.043645300184064,-0.9955281387958966,-0.009454186815814255,0.0916746394180598,0.020738941747310023,0.021313228528015316,0.011497306235888549,6525.634735959351
1684378881453935623,242,1684378881453935623,camera_1,245,0,1.3737238752181984,0.3018274775357912,6.045533434433817,-0.9956259569695292,-0.009250491816283072,0.0912418659908189,0.01784107900827826,0.0008775744936428964,0.000473855414952542,6524.812621957383
1684378881460450887,243,1684378881460450887,camera_1,246,0,1.3730290969719916,0.30104576897415475,6.042153325718901,-0.995506747546494,-0.009005797878414289,0.09208945388217787,0.02011824240972443,0.005747852264903486,0.0030996153227090717,6528.421095623172
