%time,field.header.seq,field.header.stamp,field.header.frame_id,field.image_seq,field.transforms0.fiducial_id,field.transforms0.transform.translation.x,field.transforms0.transform.translation.y,field.transforms0.transform.translation.z,field.transforms0.transform.rotation.x,field.transforms0.transform.rotation.y,field.transforms0.transform.rotation.z,field.transforms0.transform.rotation.w,field.transforms0.image_error,field.transforms0.object_error,field.transforms0.fiducial_area
1683164471412953615,0,1683164471412953615,camera_1,1,1,-0.08415388947186934,-0.13786674531975115,1.0806936434879777,0.9950175708339707,-0.0314848774079795,0.05840629679072907,0.07441398202933376,0.47090289059633506,0.01333635605926047,73497.27782563101
1683164471431984663,1,1683164471431984663,camera_1,3,1,-0.08415039752876,-0.13789119157391044,1.0806958476738648,0.9950460774822275,-0.031530114234181915,0.059180525806490664,0.0733949654191596,0.46577586359126144,0.013190437069692402,73507.09814008337
1683164471441511154,2,1683164471441511154,camera_1,4,1,-0.084139806309595,-0.13788264821069138,1.080397901986423,0.9949036382367838,-0.03152033459712614,0.059205609618934535,0.07528555585068283,0.4624649800025509,0.013091029006851478,73510.62322349433
1683164471450739383,3,1683164471450739383,camera_1,5,1,-0.08416054746258711,-0.1379014493963438,1.0806850021939685,0.9949932253177856,-0.03140347658553522,0.05889837777229402,0.07438604926896232,0.4879891770578979,0.013819825017238102,73492.92747745365
1683164471460151433,4,1683164471460151433,camera_1,6,1,-0.08413998389634203,-0.1378567129332925,1.080554317615495,0.9949307402470325,-0.03152504000736888,0.059320150560915635,0.07483390743143277,0.46539501307415776,0.013177099528573313,73497.99103528427
1683164471469316720,5,1683164471469316720,camera_1,7,1,-0.08414411363939098,-0.13783257677814914,1.0807596615329864,0.994973010138519,-0.03146244251537175,0.058465205660983066,0.07497095126701213,0.548054589315143,0.015521913167164473,73478.42516759162
1683164471478812694,6,1683164471478812694,camera_1,8,1,-0.08416244201042866,-0.1378010165913679,1.080649033236979,0.9949200914268805,-0.03140255392998171,0.06025056388202275,0.07428163187289845,0.49402948718125117,0.013988336218590683,73486.81761631949
1683164471488173484,7,1683164471488173484,camera_1,9,1,-0.08413754597345938,-0.13778604229491795,1.08052869573069,0.9948765223929784,-0.03150513142755323,0.05954728880817286,0.07538071557488876,0.43918174528880627,0.012434673216914768,73489.97813857588
1683164471497132778,8,1683164471497132778,camera_1,10,1,-0.08414655593253847,-0.1377772491521028,1.0806607337265761,0.9949614451001015,-0.031471594317493544,0.05938335696361118,0.0743967635799109,0.45568505282426486,0.012904079545857053,73493.3831867303
1683164471506520509,9,1683164471506520509,camera_1,11,1,-0.0841361512635632,-0.13775760278657054,1.080792587466253,0.9950319550313939,-0.03150021440441148,0.05861724062303732,0.07404838999343027,0.48731798484004685,0.01380251443821511,73491.5067584117
1683164471515643835,10,1683164471515643835,camera_1,12,1,-0.08412273269127177,-0.137738969340278,1.080606825804915,0.9948435206219769,-0.031591745595373415,0.06000240325267806,0.075419113562881,0.4800743363521178,0.013593137340522107,73475.06240584796
1683164471524939060,11,1683164471524939060,camera_1,13,1,-0.08413964529210766,-0.13774779633854412,1.0808994010179294,0.9950750527939483,-0.031437046186798934,0.05921619416069025,0.07301228515321245,0.4737217788133421,0.013419112645259081,73490.34083286475
1683164471534496307,12,1683164471534496307,camera_1,14,1,-0.08415735990075551,-0.13773771957852732,1.0807735761290456,0.994998130941693,-0.03153570064763284,0.059545790146642776,0.07374630758900805,0.43112333311728435,0.012210933866747195,73489.8225008512
1683164471543654203,13,1683164471543654203,camera_1,15,1,-0.08413247967084406,-0.13770530401842762,1.0804990237164738,0.99493058285879,-0.03148238005152935,0.05946432484057762,0.07473947490994036,0.4696518257333082,0.01329551563675512,73509.12933996832
1683164471552379608,14,1683164471552379608,camera_1,16,1,-0.08414518945603192,-0.1377289006790312,1.0807172265468443,0.9950264585269477,-0.031425277102802025,0.05844595738264626,0.07428908975050424,0.4918078009795863,0.013928277954262814,73499.61846112412
1683164471561901330,15,1683164471561901330,camera_1,17,1,-0.08413756369979844,-0.13772383657757353,1.080642491103874,0.9950326502510788,-0.03154399167010291,0.05838400165639221,0.07420451384125629,0.44012156923417933,0.01246359648261238,73511.67692599772
1683164471571827173,16,1683164471571827173,camera_1,18,1,-0.0841464134436899,-0.13770854263501045,1.0806285228897312,0.9949896131258392,-0.031456866507038626,0.06032764775443215,0.07325783396789898,0.4446979706553975,0.012590928117903407,73509.88126613334
1683164471581448793,17,1683164471581448793,camera_1,19,1,-0.08410938610419061,-0.13770756816531912,1.0804366008952548,0.9948612441243001,-0.031571476273081656,0.05888216287745323,0.07607389644458168,0.45479078287098673,0.01287507255480762,73498.22545703838
1683164471590638399,18,1683164471590638399,camera_1,20,1,-0.08413306677023188,-0.13774885369211454,1.0807323747888893,0.9949740937489892,-0.031532134414068436,0.05907880275741768,0.07444442445489893,0.47297005455038743,0.013395026788099638,73487.14432199007
1683164471600128412,19,1683164471600128412,camera_1,21,1,-0.08413934498507254,-0.1377371129038783,1.080730539096444,0.9950041438375882,-0.031512990877357386,0.05871861982486694,0.07433578436967335,0.5294365585905325,0.014993072561250521,73493.76193740967
1683164471609463214,20,1683164471609463214,camera_1,22,1,-0.08414846258346773,-0.13776157376762557,1.0807118351215013,0.9950363020925325,-0.031486218404459136,0.0587334444865551,0.07390370807577905,0.4582746528649295,0.012978512434706223,73503.45251855117
1683164471618652105,21,1683164471618652105,camera_1,23,1,-0.08414880278528349,-0.13779401419347748,1.0807430345801337,0.9950489736407955,-0.03140414463498377,0.0589751452425227,0.07357480546877575,0.48189607287713443,0.013647623898635377,73502.17461345595
1683164471627754211,22,1683164471627754211,camera_1,24,1,-0.08414259768561677,-0.13782780388838806,1.0805986877338183,0.9949172556526679,-0.03145659868341207,0.059939010066450256,0.07454831906950675,0.5242710165475728,0.014843081095442292,73491.34975897512
1683164471637421369,23,1683164471637421369,camera_1,25,1,-0.08413014711405431,-0.13784559937210866,1.0805345452669217,0.9949728997852225,-0.031590248877309546,0.059246705166801715,0.07430217221409642,0.44712646190600935,0.01265926916845239,73511.65413282228
1683164471646612405,24,1683164471646612405,camera_1,26,1,-0.08416384644052818,-0.13788270063649444,1.0807561651327142,0.9950657160430479,-0.03131286705800684,0.05896085783761127,0.07339851739236282,0.531295179767767,0.015046214622847174,73501.8608954082
1683164471656011581,25,1683164471656011581,camera_1,27,1,-0.08415574008373586,-0.13789653198785953,1.0806543418679415,0.994949561512507,-0.031635925891389194,0.05923893657277403,0.07460084874042307,0.45169528215774335,0.012791783546638442,73489.09074218356
1683164471665516614,26,1683164471665516614,camera_1,28,1,-0.08416650740956627,-0.1379248705547057,1.0807532378949203,0.9949466936556007,-0.03141939501775418,0.0600278097653464,0.0740983161433644,0.464632171766425,0.013159417962530798,73476.03873716423
1683164471674684762,27,1683164471674684762,camera_1,29,1,-0.08415441469104486,-0.13788207967162186,1.0806034704970178,0.9949164732622141,-0.03151666535646696,0.05897986747762138,0.07529466294903465,0.49689026477426523,0.014070189823215711,73485.93755622797
1683164471684153079,28,1683164471684153079,camera_1,30,1,-0.0841326862518108,-0.13784435124703986,1.0804726675483367,0.994953095020925,-0.031586342387468935,0.059401854094880656,0.07444502275474481,0.46988135280116694,0.013301458384805263,73515.36789542015
1683164471693285465,29,1683164471693285465,camera_1,31,1,-0.08414767345563881,-0.13785026523251567,1.080742398214221,0.9949321888178461,-0.031602346738975766,0.05940782252971818,0.0747123949354929,0.5109154506244522,0.01446965918104274,73474.73780959239
1683164471702798843,30,1683164471702798843,camera_1,32,1,-0.08415458049773825,-0.13784545285139116,1.0807926590091448,0.9950734430921643,-0.031413246407040664,0.05874257826809197,0.07342588304741646,0.47254539525602013,0.013384229514169833,73499.62751564587
1683164471712045431,31,1683164471712045431,camera_1,33,1,-0.0841562952506204,-0.1378287031195829,1.080963608624088,0.9950760951719139,-0.03139422843300863,0.05861114356718926,0.07350306856355561,0.5172513095021714,0.01465426374393988,73477.6748860305
1683164471721226692,32,1683164471721226692,camera_1,34,1,-0.0841518174748207,-0.13777509654270848,1.080607279865223,0.9948601201516958,-0.031472107839924005,0.05910973100949303,0.07595319255864888,0.46480596502806293,0.013162520209835233,73473.93734223346
1683164471730288982,33,1683164471730288982,camera_1,35,1,-0.08413584924126342,-0.13774216575026213,1.0807853561053606,0.9950174991036616,-0.031560084306300654,0.05859987364710409,0.07423066997284797,0.45368539258561214,0.01285063193972056,73489.59248039708
1683164471740210533,34,1683164471740210533,camera_1,36,1,-0.08412445027325466,-0.13768203863429607,1.080323960518665,0.994919279225003,-0.03161221701041345,0.05920808734592886,0.07503797675126742,0.4363696462569351,0.012350489279997377,73529.9091124296
1683164471749131202,35,1683164471749131202,camera_1,37,1,-0.08414247523066126,-0.13773153571529206,1.0808735693143288,0.9950761950219502,-0.03135377351141093,0.05978999038380777,0.07256351725996428,0.4873803310947551,0.013804365066960807,73495.99232306686
1683164471758556604,36,1683164471758556604,camera_1,38,1,-0.08416389883271297,-0.13774076649568154,1.080886128892028,0.9950346901720238,-0.03152542416236835,0.05922865562965445,0.07351244342253459,0.445847218594281,0.012630179980294047,73482.79609628615
1683164471767694473,37,1683164471767694473,camera_1,39,1,-0.08413056430663124,-0.1377104850599053,1.0804749400963525,0.9948538607197185,-0.03152945559498601,0.059990258347132244,0.07531837853007198,0.45540548089775257,0.012892111062002935,73495.24070752697
1683164471777251958,38,1683164471777251958,camera_1,40,1,-0.08414473849591764,-0.1377382763898606,1.0808255848214807,0.995011446512311,-0.03144142393821375,0.05911192472559306,0.07395565242394947,0.41751237853895873,0.011827192818778993,73483.92978213224
1683164471786641836,39,1683164471786641836,camera_1,41,1,-0.08414461425709949,-0.13774233757505966,1.080749253672808,0.9949354673672526,-0.031416799346315236,0.059282379869422815,0.07484650914075944,0.47526949263192364,0.013460898852258608,73475.33373793648
1683164471795502662,40,1683164471795502662,camera_1,42,1,-0.08414300375110102,-0.13772082759582707,1.0805844993931841,0.9948973305431943,-0.031543530913575965,0.059432344573744154,0.0751804745528913,0.4179980952940241,0.011836392747838567,73489.36564252074
1683164471804899215,41,1683164471804899215,camera_1,43,1,-0.0841385371252114,-0.13772905782461659,1.0808322933730707,0.9949919442729641,-0.031477712124432046,0.05853519592158066,0.07465798892108146,0.42525174883485306,0.012047088678692988,73476.35116463485
1683164471814406156,42,1683164471814406156,camera_1,44,1,-0.08413325707508357,-0.1377307193650968,1.080646525450404,0.9950304121033401,-0.031555628505803374,0.05867126065796587,0.07400273286754956,0.4875687126077537,0.013805947880566782,73511.69653331928
1683164471823375940,43,1683164471823375940,camera_1,45,1,-0.08413256326671634,-0.1377539224509429,1.0807329662315277,0.9950520087080666,-0.03164087049062262,0.05797588541447457,0.07422366193502627,0.4594632858716068,0.013013154674577889,73502.96686149284
1683164471832899570,44,1683164471832899570,camera_1,46,1,-0.08414496005048472,-0.13775635865555236,1.080679720437684,0.9949676444494105,-0.0315375332535576,0.05893489683411803,0.07464213575604618,0.48105340869005886,0.013622901132163355,73491.78812091195
1683164471842106580,45,1683164471842106580,camera_1,47,1,-0.08414284158383437,-0.13778206239101565,1.0807169535812253,0.9949405912453121,-0.031315235691458804,0.05911729580558966,0.07495145924297823,0.5055313334923994,0.014316695031779104,73478.47387849356
1683164471851569652,46,1683164471851569652,camera_1,48,1,-0.08414536519802474,-0.1378255793582264,1.0809544245492777,0.9950601910426304,-0.03151262882707659,0.058897928399794804,0.07343843991278341,0.5434497051646758,0.015395278328230797,73477.00624692455
1683164471861220359,47,1683164471861220359,camera_1,49,1,-0.0841619514377451,-0.13785561120588954,1.080825005102058,0.9949963781998874,-0.0313936564255364,0.06037897673779138,0.07315069974674944,0.4338551799482957,0.012288924249013563,73481.90049020638
1683164471870268106,48,1683164471870268106,camera_1,50,1,-0.08414708519270371,-0.13785880325827,1.0806842224886972,0.9949979239609809,-0.031387121638857346,0.05959157616025503,0.07377549701155804,0.5315278782873065,0.015050782405532403,73497.94669350897
1683164471879709243,49,1683164471879709243,camera_1,51,1,-0.08414783322876786,-0.13787484381688983,1.0805310658905851,0.9948788988274914,-0.031562281332779996,0.05998982843311302,0.07497345896671868,0.4856880653533153,0.013750397997959143,73490.43201770552
1683164471889172554,50,1683164471889172554,camera_1,52,1,-0.08414974509336567,-0.13789528687515296,1.080761304604677,0.9950197316047161,-0.031499732545999866,0.059779233186341214,0.07327990069904733,0.46821118625302915,0.01326038482146871,73493.79870739646
1683164471898435831,51,1683164471898435831,camera_1,53,1,-0.08415746310068764,-0.13787649149052247,1.080571958664728,0.9949170614463491,-0.03140563230271818,0.06104757137297791,0.07366763965330526,0.46256640171122854,0.013095790619187756,73497.50482959533
1683164471907842397,52,1683164471907842397,camera_1,54,1,-0.0841456971245171,-0.1378650932425264,1.080591295856459,0.9949299912011782,-0.03141832259113737,0.05986524900304898,0.07445370088710068,0.4322623967345862,0.01223986416210837,73493.9663408708
1683164471916898012,53,1683164471916898012,camera_1,55,1,-0.08415874813092517,-0.13788492789281265,1.081010692211871,0.9950523325988636,-0.03142306926332874,0.05958236955528753,0.07303004413123265,0.5364334898476956,0.015197586866664841,73468.10757258056
1683164471926277399,54,1683164471926277399,camera_1,56,1,-0.08415934561174261,-0.13783497544687245,1.080922664976634,0.9950871735112736,-0.03144047536562449,0.05851918567035018,0.07340652920964981,0.5177724383138411,0.01466799218658307,73485.70330854841
1683164471935636758,55,1683164471935636758,camera_1,57,1,-0.08415625186048514,-0.13779104108893814,1.0807083706538445,0.9949696035102035,-0.03157788296802512,0.059615574021676034,0.07405611880237993,0.44572760121445754,0.0126230620820626,73490.5226488562
1683164471944780588,56,1683164471944780588,camera_1,58,1,-0.08413035155518031,-0.13773908854834754,1.0804524993184657,0.9948546929613241,-0.03148631877198096,0.05981186316980294,0.07546716270786591,0.4520384284296597,0.012796727783852336,73496.71133369148
1683164471954236745,57,1683164471954236745,camera_1,59,1,-0.08412027049665896,-0.13772681400532355,1.0805332998074955,0.9949200887412019,-0.03146457333999673,0.059035737320829625,0.0752248586752889,0.4742527828384482,0.01342705459158398,73499.59031905595
1683164471963704109,58,1683164471963704109,camera_1,60,1,-0.08413696374227261,-0.13770797251671182,1.0806846170815534,0.9949897017941189,-0.031442019132868086,0.059447118837931,0.07397927289699231,0.48820629394685966,0.01382467569377804,73499.24545918191
1683164471972761869,59,1683164471972761869,camera_1,61,1,-0.08413833635309417,-0.13772165345410628,1.0807948055995404,0.9949390039957531,-0.03156882395157763,0.05941838275448604,0.07462736410388947,0.4632888026899309,0.013122328237463907,73472.31261565912
1683164471982234477,60,1683164471982234477,camera_1,62,1,-0.08411711693709539,-0.13769391165758052,1.0804961910813347,0.9948810484100233,-0.031441038090320145,0.05910601404748649,0.07569438381937069,0.46487353693373734,0.013161308238897237,73495.62641878997
1683164471991275310,61,1683164471991275310,camera_1,63,1,-0.08415750732451366,-0.13770244043019964,1.0807840600343668,0.9950710851057961,-0.03145936899327217,0.05926782849984797,0.07301484913242942,0.46317815587462974,0.013117985977128436,73506.02038494196
1683164472000776529,62,1683164472000776529,camera_1,64,1,-0.08413684504827162,-0.13772355872235395,1.080866657328888,0.9950719005608071,-0.031552766930365,0.05894237582955492,0.07322657949753575,0.4741427844273858,0.013430583175767443,73494.32198653364
1683164472010318279,63,1683164472010318279,camera_1,65,1,-0.08415188116763238,-0.1377277446996539,1.0808460218675788,0.9949726639460293,-0.03146780020256391,0.0594485863926834,0.07419596435430335,0.4388486010757333,0.012431791049843693,73473.34476810205
1683164472019516229,64,1683164472019516229,camera_1,66,1,-0.08414633835452347,-0.13772229529753646,1.0808182995289195,0.994976287180909,-0.03157368700255829,0.058981031748854905,0.0744750168217392,0.4070133437817276,0.01153020044842058,73476.91178822875
1683164472028842687,65,1683164472028842687,camera_1,67,1,-0.08413746147982815,-0.13770311766972892,1.080596886539856,0.9948936935187562,-0.03159425161821905,0.06000864135922076,0.07474827639158227,0.3688791300301091,0.010445912246008597,73489.76523648792
1683164472038204669,66,1683164472038204669,camera_1,68,1,-0.08411304960872495,-0.1376997634473007,1.0805980544661618,0.9949078647349661,-0.031603290633646856,0.0590286373956405,0.07533387469691073,0.44715149733019643,0.012661713391039863,73489.62614425298
1683164472047362089,67,1683164472047362089,camera_1,69,1,-0.08412421418742405,-0.13772116074628993,1.0806621844602735,0.9949729666474413,-0.03144253453153812,0.058482406186692884,0.07496646470013987,0.41284326025197515,0.011692593163611325,73493.74671323138
1683164472056842565,68,1683164472056842565,camera_1,70,1,-0.08412968265289245,-0.13771654404890465,1.0805853017983245,0.9949002915139675,-0.03147185088981512,0.05904276426384349,0.07547770886212649,0.4887584002317453,0.013839057569996741,73488.1520557045
1683164472065958499,69,1683164472065958499,camera_1,71,1,-0.08413900903272721,-0.1377272300777338,1.0805626498276297,0.9949238522705754,-0.03151546063167566,0.05958957181961833,0.07471537227777335,0.42376658886496443,0.01199902253971195,73499.29050231067
1683164472076285123,70,1683164472076285123,camera_1,72,1,-0.08412550727555326,-0.13778187691740496,1.0807391428699302,0.9949613333200051,-0.03148094239975677,0.058911530861173546,0.0747684893206617,0.4744685502409993,0.013438268158854709,73481.30155442437
1683164472085572004,71,1683164472085572004,camera_1,73,1,-0.08415296501215945,-0.13782090825470003,1.080757605411002,0.9950032597012631,-0.03149989029256389,0.05909172859490594,0.07405698958966174,0.5135499381613045,0.014544323592349076,73489.37877321293
1683164472094959497,72,1683164472094959497,camera_1,74,1,-0.08416139499720915,-0.13784536080055107,1.0806963453752638,0.9949859473466274,-0.03140603998236047,0.060593851398025284,0.07310957808738257,0.5024905786995078,0.014228198661597309,73497.54768263322
1683164472104015111,73,1683164472104015111,camera_1,75,1,-0.08416131581031645,-0.13790279876850703,1.0805111393571913,0.9949256946906266,-0.03155853952013499,0.05963981452101447,0.07463252073747151,0.46657347100699553,0.01320908779494432,73502.6702739454
1683164472113581657,74,1683164472113581657,camera_1,76,1,-0.08411808622037009,-0.13788871379227427,1.080555932296598,0.9949516339136311,-0.031530222662313485,0.059054453155967225,0.07476404746875671,0.5070739188813604,0.014356365703445303,73501.2807890848
1683164472122846126,75,1683164472122846126,camera_1,77,1,-0.08415665244507714,-0.13788419029569013,1.0805890692177775,0.9949868084788045,-0.031539723234183976,0.05924291043614165,0.07414023451897939,0.43613789246956003,0.012349913547813838,73506.71074595727
1683164472132128238,76,1683164472132128238,camera_1,78,1,-0.0841437098738324,-0.13788878423752923,1.0807082225883267,0.9950316034899742,-0.031318063309430245,0.059754095765073977,0.07321704040737811,0.5432515463980963,0.015382650300067656,73502.65818227567
1683164472140933275,77,1683164472140933275,camera_1,79,1,-0.0841594009690883,-0.13789482775774353,1.0807747569893282,0.9950016572596443,-0.031422495776628846,0.058650729777754304,0.07446086694543835,0.5012021782749798,0.014196160466601826,73482.56660905019
1683164472150430440,78,1683164472150430440,camera_1,80,1,-0.0841580273204298,-0.13787304739901368,1.080781311227095,0.9950197813867271,-0.03156362747923897,0.057945599771661555,0.07471063871072287,0.5061084062981536,0.014335735414461058,73485.06837418218
1683164472160303115,79,1683164472160303115,camera_1,81,1,-0.08414846490387348,-0.1378289858288066,1.080742099884254,0.9950385637668466,-0.031523956969440756,0.05886624205885234,0.0737513545615848,0.48733904190157773,0.013801670940399425,73499.19813089902
1683164472169257640,80,1683164472169257640,camera_1,82,1,-0.08414849605838665,-0.13778881111586666,1.0805080536464726,0.9949603771267012,-0.03149079415254577,0.05930521931767107,0.07446521868105738,0.4511868740737554,0.012773460089945043,73512.78987839392
1683164472178716182,81,1683164472178716182,camera_1,83,1,-0.08416599821618376,-0.1377662616430292,1.0808621803175094,0.9950083135512614,-0.031420160294224994,0.05948379401429264,0.07370826100665435,0.4825983595001162,0.01367021016047483,73479.02362048815
1683164472188064336,82,1683164472188064336,camera_1,84,1,-0.0841445938324525,-0.13775350074797382,1.0807655497959276,0.9950253448162888,-0.03148574596999455,0.0590159020090453,0.07382637932336424,0.4537375390827947,0.012851315556801572,73495.00934874717
1683164472197147369,83,1683164472197147369,camera_1,85,1,-0.08410975291529116,-0.13768813544378303,1.0803740779767816,0.9948250154937376,-0.03156460014293159,0.05836601624354307,0.07694330843913652,0.444693494358944,0.012588864731367586,73495.59101748996
1683164472206687927,84,1683164472206687927,camera_1,86,1,-0.08414457093944647,-0.13771792660725574,1.0808250690232348,0.9950167395165482,-0.031379989973226635,0.059558588070557576,0.0735510632022362,0.44948209065478295,0.012731464783334976,73487.08842821533
1683164472216007471,85,1683164472216007471,camera_1,87,1,-0.08412733769380396,-0.1376773620911429,1.080426746650066,0.994927949033469,-0.03150086474581721,0.05968448651510055,0.07459111087622505,0.46502674570365343,0.013162730897816922,73519.70078046923
1683164472225413560,86,1683164472225413560,camera_1,88,1,-0.08414155658644461,-0.1377155262985074,1.0807272342709522,0.9949811016474271,-0.03147109514383687,0.05915925748429346,0.07431258163209599,0.48538471154824947,0.01374616256600618,73490.3133915243
1683164472234819889,87,1683164472234819889,camera_1,89,1,-0.08415930452704029,-0.1377250944701762,1.0808810908118174,0.9950580975263789,-0.03149044020548397,0.05904880134147638,0.07335512104129611,0.4818970535598055,0.013650624579512678,73488.87532676806
1683164472243401527,88,1683164472243401527,camera_1,90,1,-0.08413661447607892,-0.13774015899804126,1.080850744953432,0.9950150507751288,-0.031431710727467525,0.05877486689211478,0.07417958825396029,0.48942633958358783,0.01386344474508049,73480.02946617911
1683164472252777814,89,1683164472252777814,camera_1,91,1,-0.08413485292768705,-0.13769920163362628,1.0805568353889727,0.9949356694023119,-0.03148589109584303,0.0595402831452672,0.07460969840346283,0.45738087650534,0.012949470519318171,73503.2041153287
1683164472262717485,90,1683164472262717485,camera_1,92,1,-0.08412692591489708,-0.13767823462118264,1.0804125433451508,0.9948722867355779,-0.03148730767125481,0.05948282687182235,0.07549487299462619,0.44173172832961427,0.012504296612128592,73506.59628068823
1683164472271322250,91,1683164472271322250,camera_1,93,1,-0.08414642910016248,-0.13771300010332346,1.0807194420266015,0.9949774564596211,-0.031471961338685565,0.058273530114876834,0.0750571280731542,0.49115859968878794,0.013910960487625358,73487.12392910552
1683164472280816078,92,1683164472280816078,camera_1,94,1,-0.08415742801007721,-0.13773859713084582,1.0808643638387954,0.9949980968811631,-0.031497432883389916,0.05925726924368592,0.0739951009621667,0.4648296936211409,0.013167636091847007,73476.56346066826
1683164472289748430,93,1683164472289748430,camera_1,95,1,-0.08413834668198257,-0.13778565258044084,1.0809175038020291,0.9950994905056615,-0.03155242213518078,0.057951189874924425,0.0736417561228468,0.5195820081426064,0.014719397868869243,73489.3043750116
1683164472299401760,94,1683164472299401760,camera_1,96,1,-0.08414015296320121,-0.1377934023042314,1.0806353139569158,0.9949449388465068,-0.03153105804165572,0.05925569172629184,0.07469353412801816,0.4615680012284429,0.013070327629715375,73492.17056589184
1683164472308761596,95,1683164472308761596,camera_1,97,1,-0.08415183858138178,-0.13783068558478556,1.0808058778175735,0.9949988856626337,-0.0314873947627285,0.05964620812188913,0.07367558182907986,0.4955512904598436,0.014035385535709457,73483.65995203365
1683164472317986965,96,1683164472317986965,camera_1,98,1,-0.08414490418467505,-0.137835853079612,1.0804243028913187,0.9949098847233291,-0.03149719206973249,0.0594555871358882,0.07501520732398964,0.5257623048710229,0.014881541690010045,73510.75535871065
1683164472327327489,97,1683164472327327489,camera_1,99,1,-0.08414829585705694,-0.1378748240494403,1.0804849270446029,0.9949375119893272,-0.031460685223355586,0.0590369094303852,0.0749947721289471,0.48144435821814113,0.013629850957232586,73506.78740118624
1683164472336746692,98,1683164472336746692,camera_1,100,1,-0.08416101269345624,-0.13790334702872029,1.0806236163416645,0.994984938753012,-0.031466050998350384,0.058283741761569155,0.0749524164754208,0.4841012573488115,0.013709072143632983,73496.8794966091
1683164472345949411,99,1683164472345949411,camera_1,101,1,-0.08415484959816243,-0.13790735534211346,1.0805868283973732,0.9949863186531661,-0.03147788458973344,0.05910462562160183,0.07428332050269319,0.47602279544298653,0.013478488215892427,73505.29268836777
1683164472355313062,100,1683164472355313062,camera_1,102,1,-0.08416696080526594,-0.13790984475545992,1.0806369050753957,0.9949460393796782,-0.031485299744421776,0.0599497300219264,0.07414232592112405,0.44311073633798514,0.01254760508352262,73491.64772071158
1683164472364561319,101,1683164472364561319,camera_1,103,1,-0.08415191093087099,-0.13784803305179602,1.0803377211635539,0.9948743940729761,-0.03141668639877238,0.060005938228360076,0.0750814172148095,0.4576825927360915,0.012953735529861489,73514.36925488812
1683164472374115228,102,1683164472374115228,camera_1,104,1,-0.08414211486297443,-0.13784049644897353,1.0803843089386342,0.9948559845360171,-0.03138933305291264,0.06013118518961396,0.07523642981334162,0.4917561607217067,0.013918334675786318,73504.00883022168
1683164472383835554,103,1683164472383835554,camera_1,105,1,-0.08412632700879039,-0.13781666009599547,1.080381587603542,0.9948788589909829,-0.03154989786423804,0.05826616544055193,0.07632636400622342,0.46302323963391245,0.013107604016949452,73504.5990717695
1683164472392905473,104,1683164472392905473,camera_1,106,1,-0.08415076964871772,-0.1378366090173092,1.080860169594311,0.9950663210089076,-0.03144953004501719,0.05809344629180628,0.07402091158372993,0.4748141841009783,0.013450876525522916,73486.88738281411
1683164472402408599,105,1683164472402408599,camera_1,107,1,-0.0841433172283378,-0.13778390519671752,1.080621764396518,0.994959139221964,-0.03142274575057298,0.0590663724005295,0.07469997308985549,0.5347732982081652,0.015141358135772482,73496.268771701
1683164472411559343,106,1683164472411559343,camera_1,108,1,-0.08415368183369308,-0.13777598293322502,1.080716385888529,0.9950045871048231,-0.03146234421261224,0.05902779091548451,0.07410608906591491,0.48694260075717466,0.013789981130142206,73495.54303694761
1683164472420673131,107,1683164472420673131,camera_1,109,1,-0.08415561560726512,-0.13774323885536902,1.0806941824671639,0.9950082251401093,-0.03149506730180164,0.059988477343205074,0.07326714970045091,0.4575148836738663,0.01295544608397059,73504.10226125339
1683164472430043697,108,1683164472430043697,camera_1,110,1,-0.08414458968266292,-0.13773766565470197,1.0805659733770574,0.9949316023266126,-0.031402797033592916,0.05881765941753035,0.07526920997931134,0.4653523379311082,0.013176610737930092,73496.68813285002
1683164472439368009,109,1683164472439368009,camera_1,111,1,-0.08416350759863306,-0.1377356410666631,1.0806916518636633,0.9949744636782761,-0.0315250490916142,0.05944417106038905,0.07415105147495282,0.4483830661956745,0.0126981665441962,73494.33379290788
1683164472448720693,110,1683164472448720693,camera_1,112,1,-0.08414250326672658,-0.1377204950291916,1.0805704787979924,0.9949620668820709,-0.0315642369539655,0.05914779909403679,0.07453671762026368,0.41896610157346004,0.01186329832835354,73506.62614352134
1683164472458338260,111,1683164472458338260,camera_1,113,1,-0.0841449086296847,-0.13774235314924302,1.0806106170278769,0.9949119143461714,-0.031432517564882266,0.058460479056000304,0.07579348204240925,0.4498573009077518,0.012739527085111283,73484.39108452163
1683164472467363119,112,1683164472467363119,camera_1,114,1,-0.08415516423836146,-0.1377336984189806,1.080633208471353,0.9949350873608165,-0.03152282527344493,0.05961715194814144,0.0745404495471846,0.45998417027294636,0.013025018085534839,73492.75273145168
1683164472476763486,113,1683164472476763486,camera_1,115,1,-0.08415895621713704,-0.1377493121207347,1.0807837481119318,0.9949938389875806,-0.031478951519878035,0.05858265906171825,0.0745949599183752,0.46335545571128023,0.013124837889023537,73483.03293275145
1683164472486202716,114,1683164472486202716,camera_1,116,1,-0.08416199756795603,-0.13772342548193048,1.0806674179092526,0.9949444007714541,-0.03131901704683129,0.059784628157428577,0.07436771329569339,0.4756587676311028,0.013469460631747178,73490.06615160986
1683164472495341777,115,1683164472495341777,camera_1,117,1,-0.08412437000207484,-0.1377559863585564,1.0806913606698998,0.9950224787469556,-0.03150467527124874,0.05700057633881862,0.07542318291719044,0.4779117279831553,0.013536077622756274,73496.12068856265
1683164472504816532,116,1683164472504816532,camera_1,118,1,-0.08414954748285693,-0.13775569063214751,1.0806961323381838,0.9949414609773678,-0.031487324110196176,0.05929876746495261,0.07472411809943182,0.4852240281215927,0.013741322912231537,73484.14547758008
1683164472513876914,117,1683164472513876914,camera_1,119,1,-0.08414745827681253,-0.13774421620800942,1.080688326816928,0.9949794632082423,-0.031531148241352565,0.05887666321994221,0.07453316719760096,0.4722326244409487,0.01337343945274973,73493.64401348069
1683164472523297071,118,1683164472523297071,camera_1,120,1,-0.08415958539109732,-0.13777163627140618,1.0806400910254987,0.9949367793567964,-0.031439847082677996,0.06024376721167439,0.07404748213605099,0.4678892089432338,0.01324826093157191,73493.15232339551
1683164472532843351,119,1683164472532843351,camera_1,121,1,-0.08415864300884332,-0.1378089797585765,1.0808290500025148,0.9950030931927867,-0.03152869101320995,0.059089614388222786,0.07404865732227288,0.48949067260400625,0.013864846635189273,73480.24690999844
1683164472541951417,120,1683164472541951417,camera_1,122,1,-0.08415946927038373,-0.13785500997000089,1.0807448399897477,0.9949779338200345,-0.03145446157362988,0.05935909230183451,0.07420260251116935,0.490925709837029,0.013903664733616589,73484.45904219794
1683164472551289796,121,1683164472551289796,camera_1,123,1,-0.08416075519731997,-0.1378851692021736,1.0807109970399404,0.9949638479277739,-0.03161013270180916,0.05904342568989963,0.07457623421796589,0.4576566157520574,0.012961768500916172,73484.49181312713
1683164472560716629,122,1683164472560716629,camera_1,124,1,-0.08414641373673157,-0.13789073042701952,1.080469782230774,0.9948672709844795,-0.03148778649683106,0.05996664922965367,0.07517734635907204,0.466393160768348,0.013203457792272565,73494.56801121005
1683164472569369316,123,1683164472569369316,camera_1,125,1,-0.08416399715361314,-0.13791400587908345,1.0804543883600324,0.994845375507019,-0.031609880227327414,0.05933623080372174,0.07591248921172311,0.4351553004999005,0.012320357710043481,73488.86334932734
1683164472578624248,124,1683164472578624248,camera_1,126,1,-0.08417424010713045,-0.13793624757790815,1.0807505414545848,0.995014443404396,-0.031454741757267875,0.059342343745352084,0.07372477790018829,0.4375853090969031,0.012394260517479327,73490.85533361032
1683164472588287115,125,1683164472588287115,camera_1,127,1,-0.084164131918468,-0.13790331028195912,1.08068105233039,0.995053893714131,-0.031423299361345226,0.0592430878490187,0.07328425072078865,0.49539249896770343,0.014027824908390147,73510.04446466501
1683164472598132133,126,1683164472598132133,camera_1,128,1,-0.08414154425896969,-0.1378745600553326,1.0805476877148323,0.9949496289945315,-0.031361766757712975,0.059774074806620996,0.07428819105679955,0.48995020982692955,0.013870847832976242,73503.66275240952
1683164472608039617,127,1683164472608039617,camera_1,129,1,-0.084161014471403,-0.13788270661188318,1.0807592425478487,0.9949225670403973,-0.03144517569915299,0.05996436173155353,0.07446181465102121,0.477409096332849,0.013521195399568335,73470.07032353563
1683164472617030858,128,1683164472617030858,camera_1,130,1,-0.08415577493168223,-0.13782422930840418,1.080787364042569,0.9951478295001908,-0.03140712189381681,0.05871328093651711,0.07243715053117358,0.5310029769098037,0.015037816857441294,73519.51634612991
1683164472626490592,129,1683164472626490592,camera_1,131,1,-0.08414293529358963,-0.1377847318105327,1.0804857456716594,0.9949121792912895,-0.03152126124685696,0.0588108505514586,0.0754814509974373,0.46103029820369557,0.013052706882867441,73502.0719142614
1683164472635955572,130,1683164472635955572,camera_1,132,1,-0.08414288296207617,-0.13777079025173405,1.0806849904136235,0.9950306050298817,-0.03159728003437984,0.058889554553981996,0.073808721115665,0.4842443963752885,0.013712846006549177,73506.93150469771
1683164472644962072,131,1683164472644962072,camera_1,133,1,-0.08413029463311741,-0.13776645268737164,1.0806333290347578,0.9949415662620567,-0.03147979723876124,0.058652763242011186,0.07523400463811958,0.5043593496411631,0.014281830971249996,73489.53487365146
1683164472653628587,132,1683164472653628587,camera_1,134,1,-0.08413493177354556,-0.13775315801829802,1.0806620757599923,0.994913267686014,-0.031543002789730885,0.05900818962272941,0.0753038001351409,0.471484515881457,0.013352242489067224,73480.85083055135
1683164472663061141,133,1683164472663061141,camera_1,135,1,-0.08415691911571567,-0.13774951804018015,1.0808003471398877,0.9950236888184089,-0.03148144997441606,0.05921750225968069,0.0736889708425864,0.5060789365707024,0.014333133514333431,73490.84740100679
1683164472672636508,134,1683164472672636508,camera_1,136,1,-0.08413647748244545,-0.1377433011558675,1.0806027292808709,0.9949411425034955,-0.03152200541154537,0.05883178177948987,0.07508200570925266,0.49035334232394234,0.013884310121252151,73494.95457327674
1683164472682456731,135,1683164472682456731,camera_1,137,1,-0.0841229950790701,-0.13772584000657037,1.0805240948568506,0.9948690434719759,-0.031420005108371396,0.0595670131468894,0.0754992752607871,0.4647048582919524,0.013156717336879595,73489.73338618115
1683164472691541671,136,1683164472691541671,camera_1,138,1,-0.08414477782255637,-0.13776569718086942,1.0808714361981158,0.995050373998097,-0.031599470259536765,0.05870852330189048,0.07368538509959317,0.4958834906137781,0.014046621522037058,73486.68793897185
1683164472701003074,137,1683164472701003074,camera_1,139,1,-0.084148752155802,-0.13773330650547058,1.0806452068307295,0.9949918368781497,-0.03145141329066647,0.05963280112151796,0.07379689816155294,0.4555671228808933,0.012899868157794724,73505.0336042825
1683164472710436105,138,1683164472710436105,camera_1,140,1,-0.08413258831986281,-0.13771906064498693,1.0806060875755334,0.9949422957466819,-0.031475875489533726,0.05911319804372503,0.0748647260966943,0.4660967151903605,0.013197711025276532,73496.16579975633
1683164472719561100,139,1683164472719561100,camera_1,141,1,-0.08414149816546118,-0.13775689035815267,1.0807759638577488,0.994934709952903,-0.03157298208117949,0.05839349407557275,0.07548688351680961,0.4538170326013642,0.012855583001164555,73468.99687880898
1683164472729067802,140,1683164472729067802,camera_1,142,1,-0.084149493031422,-0.13773979848521162,1.0806786272651905,0.9949319091761835,-0.031588522751986585,0.05807336794786997,0.07576374640006481,0.49096588885367964,0.013904961514905948,73480.34230224819
1683164472738257646,141,1683164472738257646,camera_1,143,1,-0.08412387078717753,-0.13773603053491368,1.0805230996064894,0.994940175605539,-0.03166038869855692,0.05812213071623421,0.07558759603586129,0.47914717501043924,0.013566249703476667,73503.68455711464
1683164472747415781,142,1683164472747415781,camera_1,144,1,-0.08414249220564501,-0.13775634157672406,1.0806570506543378,0.9949165463104555,-0.03143324037997373,0.059626257278863205,0.07481795720149634,0.5042083217304025,0.014277147739528649,73483.7947158783
1683164472756345510,143,1683164472756345510,camera_1,145,1,-0.0841407580087931,-0.13777591136869738,1.0806201859488134,0.9949531535608096,-0.03144892966365793,0.058967964484075916,0.07484628385574787,0.49728285943274386,0.014080781574822657,73494.94357373947
1683164472765817880,144,1683164472765817880,camera_1,146,1,-0.08414667545778637,-0.13782127282557305,1.0807648893927546,0.995024275816329,-0.03149629548538544,0.05957831814514324,0.07338322637962437,0.4889932817459339,0.01384835434259253,73495.3753571556
1683164472775412321,145,1683164472775412321,camera_1,147,1,-0.08414339230254007,-0.13783868168168031,1.0806136139725533,0.9949747289480518,-0.03140684980542013,0.05914267253056643,0.07443818123780753,0.5013903948201914,0.014196644143443043,73500.11477202318
1683164472784854888,146,1683164472784854888,camera_1,148,1,-0.08415543028013665,-0.1378967749635681,1.080702112224514,0.9949996696132988,-0.0315764712068896,0.05856265254312557,0.0744916080015739,0.5360146804632677,0.01517939853669567,73492.41397688063
1683164472794091701,147,1683164472794091701,camera_1,149,1,-0.08413819511447435,-0.13791253019566543,1.0804359227591187,0.9949455244645787,-0.03151652214866164,0.0583033392346664,0.07543760874818918,0.45898029864838463,0.012994016973777008,73511.80553057582
1683164472803778886,148,1683164472803778886,camera_1,150,1,-0.0841602304598071,-0.13792969686938816,1.080623181321164,0.9949663723695958,-0.031464965848524616,0.05806370079182326,0.07536896196841011,0.47156938836269546,0.013355140820550176,73490.75833251659
1683164472812815189,149,1683164472812815189,camera_1,151,1,-0.08415279004508283,-0.13791828628323471,1.0804662707538246,0.9948673925266915,-0.03164804568575153,0.05892376947716249,0.07592932162226036,0.5111028555438679,0.01446944731590921,73491.49654738427
1683164472822245597,150,1683164472822245597,camera_1,152,1,-0.0841491905028206,-0.1378852870988518,1.0804630395731674,0.9949648326270126,-0.03169624985787747,0.058570964279363986,0.07489840935449332,0.49105014913948253,0.01390132720875187,73516.30576938676
1683164472831696748,151,1683164472831696748,camera_1,153,1,-0.08416412725524511,-0.13789878296555907,1.0807369121694832,0.9950411850299236,-0.031384003870654965,0.05871564225675485,0.07389558680779909,0.5044353936755215,0.014286067073883375,73497.31336692377
1683164472840913295,152,1683164472840913295,camera_1,154,1,-0.08416488265290914,-0.1378744215453181,1.0808690776518428,0.995070142630176,-0.03138004008698649,0.05873440654943114,0.07349131797285048,0.5286324767694168,0.014973832733879242,73487.82733483371
1683164472850488901,153,1683164472850488901,camera_1,155,1,-0.08415483471555193,-0.1378287986697977,1.0806503204048075,0.9949797933610723,-0.03158483358700894,0.058238135583562264,0.07500619077242514,0.4603432603908003,0.013037031854507455,73494.50507483474
1683164472858878135,154,1683164472858878135,camera_1,156,1,-0.08414873480224547,-0.13780090843565357,1.0806496404727943,0.9949904148265267,-0.03156825616865142,0.05821919726281383,0.07488687919709369,0.5030638648677268,0.014245715445905712,73497.7978758217
1683164472868417024,155,1683164472868417024,camera_1,157,1,-0.08415923551402042,-0.13778036128416785,1.0805238157048027,0.9949016490387075,-0.03140302024838748,0.059357087737607464,0.07524157889524961,0.4979381102748448,0.014097025239874134,73495.68619537649
1683164472878145456,156,1683164472878145456,camera_1,158,1,-0.08414744058446208,-0.13777612394205888,1.0807039701174384,0.9950399915002386,-0.03155500938908948,0.05815546079367851,0.07428081231068069,0.49988861168458243,0.014156737953134107,73503.40744166926
1683164472887341260,157,1683164472887341260,camera_1,159,1,-0.08414749546570616,-0.13777402882534925,1.0806827041758498,0.995019633954091,-0.03154929989858294,0.058670856920978044,0.07415052440768283,0.45004473705557757,0.012745208236764201,73503.0296167398
1683164472897052764,158,1683164472897052764,camera_1,160,1,-0.08414701805987039,-0.13775790481692293,1.080683793771306,0.9949734492057094,-0.0314144219514354,0.05868915102944228,0.07481011309037133,0.46254151630273554,0.01309938262503365,73490.71915293286
1683164472906517744,159,1683164472906517744,camera_1,161,1,-0.08415119343721195,-0.13772420349388326,1.0805861763077975,0.9949228321519358,-0.03135459245536782,0.059726188455572315,0.07468754921202499,0.4866052900797513,0.013777526068674679,73495.4072753599
1683164472914958238,160,1683164472914958238,camera_1,162,1,-0.08414527954774698,-0.13776548919335846,1.0806498308537416,0.9949592401635159,-0.03138124495592114,0.059075730606748,0.07470867373695435,0.49221327996929176,0.013937997948631002,73492.7735008538
1683164472924702644,161,1683164472924702644,camera_1,163,1,-0.08416080611535853,-0.13777324132676766,1.0806752573141878,0.9948972922259248,-0.03155053171163778,0.05983560792436887,0.07485747721208043,0.46980022684510914,0.013304143033099911,73477.8587222234
1683164472934283733,162,1683164472934283733,camera_1,164,1,-0.08415398491332768,-0.13779908501801774,1.0808258542811628,0.9949877616029281,-0.03143224814049926,0.05874590611126394,0.0745673289879377,0.44361674678657437,0.012566833386247627,73474.91047186131
1683164472943620920,163,1683164472943620920,camera_1,165,1,-0.0841477467076194,-0.13773514798687095,1.080547567509984,0.9948956582168057,-0.03158009803623131,0.05889181236728061,0.07561138211584256,0.48705523439275566,0.013790472280545508,73491.78743375035
1683164472952909231,164,1683164472952909231,camera_1,166,1,-0.08417312057795528,-0.13780369466329498,1.08121184130463,0.9952265679005879,-0.03137021980535991,0.05853749330187069,0.07150769002081808,0.4848027422740415,0.013739999505321846,73482.70203078761
1683164472961177825,165,1683164472961177825,camera_1,167,1,-0.08414360455248301,-0.13776089762684293,1.0807275291950744,0.9950024287067968,-0.03153163593658163,0.05878069900690184,0.07430176462910319,0.4515020965664007,0.012787390611756502,73493.3677270335
1683164472971132993,166,1683164472971132993,camera_1,168,1,-0.08414625243799571,-0.1377720789722969,1.0807369438335341,0.9950190523409763,-0.03133890022110083,0.05936464281454505,0.07369394815654048,0.5046052998841333,0.014289538821293161,73496.85177549714
1683164472980795383,167,1683164472980795383,camera_1,169,1,-0.08414156367010837,-0.13776531064015804,1.0806038756794547,0.9949105908668443,-0.03150323746212448,0.05894628278897554,0.07540423035714859,0.5060973482977715,0.014330322920519714,73486.99582319938
1683164472990292072,168,1683164472990292072,camera_1,170,1,-0.08413991045830133,-0.13779420319752303,1.0805225886564123,0.9949526651271355,-0.03129912204694297,0.05966133918265533,0.07436453269155183,0.49906903159353533,0.014128007524805137,73508.76769071125
1683164472999538421,169,1683164472999538421,camera_1,171,1,-0.0841486513321616,-0.13785836424941345,1.0807106330462293,0.9949751503042177,-0.031511270334625835,0.05872680073950493,0.07471715327754305,0.48417020135821076,0.013712314596248432,73486.08012839152
1683164473008981704,170,1683164473008981704,camera_1,172,1,-0.08415461440823081,-0.13789501648385202,1.0807536427509827,0.9950138045210333,-0.03151042002095756,0.05867012432447641,0.07424579957433566,0.47818047181499423,0.013543612876501902,73489.01665648074
1683164473018104076,171,1683164473018104076,camera_1,173,1,-0.08416504917359893,-0.13789417454055078,1.080627415131292,0.9949586871374748,-0.03141190352891428,0.05978529783899795,0.07413650496661604,0.4337787014665082,0.012283533428697481,73495.3640762053
1683164473027533292,172,1683164473027533292,camera_1,174,1,-0.08416790003148011,-0.13792254400706178,1.0807101624355526,0.9950209211606673,-0.0314765353117476,0.05884747176005607,0.07402411259039215,0.46913695112016285,0.013286794876806268,73496.42496483597
1683164473036918640,173,1683164473036918640,camera_1,175,1,-0.08415714922248996,-0.13793083234640865,1.0806343391712128,0.9949580564239607,-0.03149873725702608,0.0587365054822371,0.07494210053102769,0.43433226237903,0.01230075900237358,73490.03614666808
1683164473046199560,174,1683164473046199560,camera_1,176,1,-0.08415585892579863,-0.13787493212410257,1.0803288513548774,0.9948715473777183,-0.031530716648285925,0.059582412499582904,0.07540791899157322,0.4943259537103586,0.013990492322102413,73513.42888347249
1683164473054533481,175,1683164473054533481,camera_1,177,1,-0.08416949432192325,-0.13789064298570278,1.0807001396001747,0.9950100453893799,-0.03139797626588902,0.05930400026853833,0.07383909677657376,0.49660908400619524,0.014063170770499848,73496.87383467093
1683164473063594579,176,1683164473063594579,camera_1,178,1,-0.08415607061250335,-0.13783771542052325,1.0804753989033473,0.9949322740409684,-0.03142789776828358,0.06079829912644475,0.07365883610854233,0.4280916494935809,0.012118314142786076,73514.14219085692
1683164473073373079,177,1683164473073373079,camera_1,179,1,-0.0841546181705657,-0.13782040487244213,1.080695141066901,0.9950234718767205,-0.03151358253731098,0.05841512360348819,0.0743159327765643,0.521752313394245,0.01477540618898541,73500.13504325719
1683164473083343029,178,1683164473083343029,camera_1,180,1,-0.08415158811872539,-0.13780687484881032,1.0806819473920428,0.9950331711600314,-0.0314204509426222,0.058646038027367405,0.07404313457348062,0.559588001229713,0.015845077666060133,73504.86668787396
1683164473092777252,179,1683164473092777252,camera_1,181,1,-0.08414058911622613,-0.13779686887748543,1.0806648611182739,0.9949790756879122,-0.03146835920295025,0.05959910535757284,0.07398870152178022,0.5382588923130243,0.015240202124469745,73497.7423448851
1683164473102119207,180,1683164473102119207,camera_1,182,1,-0.08416723129579368,-0.13781165963784106,1.0809309182654412,0.9950470038379561,-0.03141736755594316,0.058747620694966064,0.0737775455788689,0.517953966078494,0.014673278108934472,73475.71927998308
1683164473110982894,181,1683164473110982894,camera_1,183,1,-0.08413756405071228,-0.13776950103136884,1.0806119505481093,0.9950049248008246,-0.03144766116752704,0.05803235868964922,0.07488984960669705,0.4904502346944355,0.013887793835948363,73505.48568859766
1683164473120350122,182,1683164473120350122,camera_1,184,1,-0.08415694186471151,-0.13778497937658246,1.0807409384590112,0.9950038952818319,-0.031597262433098336,0.0586875769151471,0.0743278527642506,0.4462383606150979,0.012638945482722335,73491.53335118262
1683164473130079030,183,1683164473130079030,camera_1,185,1,-0.0841358162954772,-0.13774689437515697,1.0803830916914225,0.9948559866471062,-0.031389434886243996,0.060191572814251144,0.07518805604670231,0.42307945731590735,0.011975307672788376,73506.5039970892
1683164473139359951,184,1683164473139359951,camera_1,186,1,-0.08413795519268827,-0.13774726517637434,1.0805789632525373,0.9948990615486243,-0.03149088191748805,0.05885602495852873,0.075631673337343,0.47109606170124607,0.013339407171628386,73487.2506606137
1683164473148244142,185,1683164473148244142,camera_1,187,1,-0.08414145347292315,-0.1377452542577018,1.0806676423009387,0.99487761452302,-0.031456504812681925,0.059099204410473005,0.07573839491304267,0.5059222335148661,0.014327289876378383,73471.07292317855
1683164473157207250,186,1683164473157207250,camera_1,188,1,-0.08413709173455203,-0.1377711467549665,1.0808232758711207,0.9950539846493367,-0.031510119571673885,0.05881605301533454,0.07358907463580278,0.4807335635559865,0.013616397416920887,73493.48251922778
1683164473166301250,187,1683164473166301250,camera_1,189,1,-0.08415734077333378,-0.13777241952086902,1.0807366921291024,0.9949849817108153,-0.031503709045195755,0.05980992126972861,0.07372364480974346,0.4845495430417941,0.013722009577634125,73491.3779706289
1683164473175745964,188,1683164473175745964,camera_1,190,1,-0.08414008266213872,-0.13773051538252362,1.0805150831243957,0.9949552763300861,-0.03156038750281124,0.05958824292005538,0.07427773118031403,0.4627904311346356,0.013101392960098324,73513.65685015541
1683164473184887647,189,1683164473184887647,camera_1,191,1,-0.08414368051789944,-0.1377426235219915,1.0805547650897205,0.9949349765593374,-0.03141788331271901,0.059654686364927295,0.07455620310692743,0.498556584425387,0.014114488608162373,73502.27689378487
1683164473194534063,190,1683164473194534063,camera_1,192,1,-0.08413905607963378,-0.13779413257515016,1.0808845865171115,0.9950598979450656,-0.03160617749333174,0.0591708807893286,0.07318234700001736,0.499013596392615,0.014134808144062176,73488.43213998093
1683164473204669952,191,1683164473204669952,camera_1,193,1,-0.08415382632451193,-0.13779229100801105,1.080758696331782,0.9949533425759954,-0.03147524177638313,0.05973923748596816,0.07421845293838483,0.5032118175768119,0.014251107131682341,73479.5459286218
1683164473214391469,192,1683164473214391469,camera_1,194,1,-0.08413664228966974,-0.13778226219376608,1.0805701845302373,0.9950165492044969,-0.03156800845166414,0.05959216953461068,0.07344590513928424,0.4620282471769315,0.013080680419775533,73520.65853796028
1683164473223711252,193,1683164473223711252,camera_1,195,1,-0.08412624942775626,-0.13780557035951368,1.0805487500945865,0.9949920104679721,-0.03153380091363689,0.05841615977790601,0.074726640374396,0.5029230220388854,0.014238782350161813,73511.88164169985
1683164473233097314,194,1683164473233097314,camera_1,196,1,-0.08415442621441806,-0.13787331780625253,1.0807926291214445,0.9950025848982553,-0.031434134331671235,0.058748370530046376,0.07436652610330358,0.5332431955976062,0.015103025835213713,73481.40824338378
1683164473242110967,195,1683164473242110967,camera_1,197,1,-0.08416474253734052,-0.13791597190247834,1.0805844191890637,0.9949153084605622,-0.03151706655832324,0.05970114942779078,0.07473938896848949,0.4181695832085097,0.011841386689768132,73489.99808304221
1683164473251571893,196,1683164473251571893,camera_1,198,1,-0.08417811373484246,-0.13794571183528492,1.0807498744411153,0.995044404552125,-0.03148711863697256,0.05909197407644789,0.07350736649613364,0.465328818798298,0.013179377986619336,73497.51540252652
1683164473260701656,197,1683164473260701656,camera_1,199,1,-0.08416957874132565,-0.13795977708518065,1.0806657152539023,0.9949144977106241,-0.0315493540192015,0.05915281949575182,0.07517130071969522,0.4513636533120007,0.012783435362526463,73476.21559336851
1683164473269510984,198,1683164473269510984,camera_1,200,1,-0.08417318376813519,-0.13792444042177457,1.0804970927581725,0.9948866084617014,-0.0315497536374778,0.0597142121639326,0.07509635287168485,0.4447093533271982,0.012590968762392888,73494.48587317998
1683164473279312133,199,1683164473279312133,camera_1,201,1,-0.084179780235439,-0.13794139549467063,1.0808757980635504,0.9950863494964967,-0.031389815214804405,0.05883455609149408,0.07318696301960907,0.5045365831210802,0.014291999007821013,73489.85034069032
1683164473288586139,200,1683164473288586139,camera_1,202,1,-0.08415414695024571,-0.13785763437156728,1.080346279355195,0.9948581616774088,-0.031443701031964526,0.06043625783353193,0.07493991291920586,0.4408666530252958,0.012477942017373157,73510.73782307404
1683164473298152446,201,1683164473298152446,camera_1,203,1,-0.08414916225021374,-0.1378467367343504,1.0804704825285465,0.9949284198469533,-0.03140366126200236,0.059477326807611336,0.07479102242920911,0.4720293677892188,0.01336269856816211,73508.38492547063
1683164473307491540,202,1683164473307491540,camera_1,204,1,-0.08414054191986461,-0.1378196980649607,1.0803647797993294,0.9949197116283934,-0.031369960535350155,0.05961831647262361,0.07480875169560841,0.5027990635207971,0.014230073779645525,73521.05285472014
1683164473316907167,203,1683164473316907167,camera_1,205,1,-0.08415039897216156,-0.1378158559759918,1.0806569294853907,0.9950028329601229,-0.03140954743798224,0.05901935966834087,0.07415873458608908,0.49277168334810995,0.0139535782359219,73501.52080484047
1683164473326254844,204,1683164473326254844,camera_1,206,1,-0.08414825208837326,-0.13780503079808645,1.0806589145672758,0.9949309940670574,-0.031640295876478826,0.0589582787688129,0.07506750352985408,0.49905414472232223,0.014132060662769886,73484.90438051498
1683164473335553169,205,1683164473335553169,camera_1,207,1,-0.08414911559354266,-0.13779914822510939,1.0807958098399852,0.9950782067300795,-0.03146680837257799,0.059046592509467435,0.07309379162906816,0.4537892434527748,0.012852797567920326,73503.05656186801
1683164473344873428,206,1683164473344873428,camera_1,208,1,-0.08414918762531531,-0.13778381498128267,1.0807370270196988,0.9949677341975327,-0.03146599757697302,0.059166573903118025,0.07448768646481706,0.46859133043471957,0.01327127063487898,73483.85331016201
1683164473354447364,207,1683164473354447364,camera_1,209,1,-0.08417209626216696,-0.13779381601098517,1.0809027479493898,0.9950865634119923,-0.031458988809229094,0.058604340463763706,0.07333890249260135,0.4535379253102292,0.012848888426321823,73489.51827300433
1683164473363413333,208,1683164473363413333,camera_1,210,1,-0.08412442321939784,-0.13778773975491299,1.080707683136933,0.9949647387560097,-0.03156561123842585,0.05895664162536111,0.0746518266862154,0.49935357391950674,0.014141308608128027,73486.85910220956
1683164473372092247,209,1683164473372092247,camera_1,211,1,-0.08413972890768356,-0.1377821550521614,1.0807435469682938,0.9950526564471719,-0.03136400906957917,0.05804968947612259,0.07427478296323546,0.4958838562051824,0.014044322533534959,73499.29178693471
1683164473381682157,210,1683164473381682157,camera_1,212,1,-0.08415273933932546,-0.13774349193872173,1.0805587504681882,0.9949309945144288,-0.03148412328503936,0.059403959328704174,0.07478125267455774,0.5018948912511405,0.014209906100129684,73500.40406691126
1683164473391196489,211,1683164473391196489,camera_1,213,1,-0.08415338272049742,-0.13778638350941594,1.080779433799963,0.9950105723019518,-0.03153879777163381,0.05939962617435523,0.07369497712062402,0.45960938551070285,0.013017404014738243,73490.47118992505
1683164473400687694,212,1683164473400687694,camera_1,214,1,-0.08412984026864764,-0.13776152768021996,1.0805274755810685,0.994939128323505,-0.03153494767446276,0.05885312374143221,0.07508653562329762,0.45727856201847317,0.012946723750768026,73504.04971719069
1683164473409842491,213,1683164473409842491,camera_1,215,1,-0.08415939756033664,-0.13776805556036095,1.0807169096180167,0.9949905431899043,-0.03152721063744802,0.05813820744769504,0.07496534390536747,0.4911927010289219,0.013911640463301452,73489.1584563363
1683164473419246912,214,1683164473419246912,camera_1,216,1,-0.08415215859446765,-0.13779075111811132,1.080788423827404,0.9949824489800008,-0.03154102085370979,0.05967758326028333,0.0738490100236832,0.5117927744176995,0.01449435009483173,73483.22459905175
1683164473428849458,215,1683164473428849458,camera_1,217,1,-0.08414267691969174,-0.13776250153573893,1.0806386930560328,0.9950480536480443,-0.03145350408226406,0.05875266355998692,0.07374396610430348,0.5028173421451356,0.014237138020730485,73515.97488321908
1683164473438051223,216,1683164473438051223,camera_1,218,1,-0.0841400232154513,-0.13778487437222287,1.0806203605203235,0.994995917608658,-0.03144707518007774,0.058582731083583965,0.07458062096491185,0.4674381617587642,0.01323630399800381,73503.87812900488
1683164473447397232,217,1683164473447397232,camera_1,219,1,-0.08413684487147484,-0.13779912356516816,1.0806184348363677,0.9950144948942112,-0.03147269620260767,0.058994556807136216,0.07399504450492468,0.5190044356349972,0.014694837621478222,73510.47139089243
1683164473456812858,218,1683164473456812858,camera_1,220,1,-0.08414408324870518,-0.1378408242737642,1.08062372382385,0.9950200496101657,-0.031527804137900774,0.05841476899534685,0.07435598969313795,0.4716457435461052,0.013355751046131448,73508.21155118354
1683164473465900897,219,1683164473465900897,camera_1,221,1,-0.08416458529510602,-0.13791827272560686,1.0808132021625427,0.9950292514247125,-0.03138725447855381,0.05987341765185289,0.07312183616514,0.46567954356214614,0.013189876388226678,73488.27107710039
1683164473474504709,220,1683164473474504709,camera_1,222,1,-0.08419363387824397,-0.13796052056970734,1.0809245211746543,0.9951073439943044,-0.03134462584963609,0.059247176552036075,0.07258553870819709,0.5148406979024003,0.014584431981056169,73489.56328423927
1683164473484461545,221,1683164473484461545,camera_1,223,1,-0.08418786463403972,-0.13795967510076168,1.0806409007225772,0.9949041499202984,-0.03146393120128239,0.059107149863907534,0.07537969447865311,0.4498795827967115,0.012741235659905313,73476.0605020793
1683164473493828296,222,1683164473493828296,camera_1,224,1,-0.08418463104901039,-0.13794133038014722,1.0805554495989271,0.9949172209445833,-0.03155663817157529,0.059920178792727256,0.07452163597682927,0.4280525867434335,0.012120370802478455,73494.87613633246
1683164473503307580,223,1683164473503307580,camera_1,225,1,-0.08417237020571003,-0.13792249130620243,1.0805191758483235,0.9949281054400609,-0.03146339653912406,0.05932833444926649,0.07488837303045671,0.45012873487212346,0.012744596637410838,73499.81719334162
1683164473512391567,224,1683164473512391567,camera_1,226,1,-0.08415285053838581,-0.13788332316164714,1.080504122448826,0.994949596320976,-0.031527791953515495,0.05948068104834616,0.07445366140954798,0.4767424616329663,0.01349662577013044,73509.34621895725
1683164473521985530,225,1683164473521985530,camera_1,227,1,-0.08416383647968875,-0.13787075211726238,1.0806414109836426,0.995036031239767,-0.03130072361857407,0.05929684339124268,0.07353533571965051,0.45581329857304803,0.012907241255491409,73510.88979328958
1683164473531397819,226,1683164473531397819,camera_1,228,1,-0.08414208141592494,-0.13783903021912508,1.0805026536878004,0.9949635876258363,-0.03159650286798783,0.05828891678028638,0.07517660863472597,0.5020920338720316,0.014214900575259431,73510.00880660277
1683164473540437936,227,1683164473540437936,camera_1,229,1,-0.08415105411058593,-0.1378277008531796,1.0806437826313504,0.9950087402821675,-0.031387724275059765,0.05950641796747971,0.07369805796360426,0.45168809386814246,0.01279028999506436,73506.18817110563
1683164473549605131,228,1683164473549605131,camera_1,230,1,-0.08416137960664766,-0.13782819644499572,1.0807045477941755,0.9949803365395182,-0.03136535316408694,0.05897646221721756,0.07451255884037783,0.4863144855517021,0.013772518551191172,73488.80300835382
1683164473559023380,229,1683164473559023380,camera_1,231,1,-0.08415777514187875,-0.13778280783667754,1.0805186672115978,0.9949196330007283,-0.03141705950310252,0.05960486137183565,0.07480075362400586,0.49248040328529896,0.013942402374391274,73502.07062342635
1683164473568090915,230,1683164473568090915,camera_1,232,1,-0.08416785241572675,-0.13779980776475087,1.0808488014166988,0.9950811809523014,-0.03151973267942758,0.05907717614397663,0.07300573282451624,0.48404729257163126,0.013710324058788864,73497.29431517093
1683164473577725172,231,1683164473577725172,camera_1,233,1,-0.08414848161739966,-0.13779517253786866,1.080760399185541,0.9950974639899269,-0.031397255821097966,0.05807691186234029,0.07363641623717568,0.4736189560244384,0.013414181551470823,73508.38211706904
