%time,field.header.seq,field.header.stamp,field.header.frame_id,field.image_seq,field.transforms0.fiducial_id,field.transforms0.transform.translation.x,field.transforms0.transform.translation.y,field.transforms0.transform.translation.z,field.transforms0.transform.rotation.x,field.transforms0.transform.rotation.y,field.transforms0.transform.rotation.z,field.transforms0.transform.rotation.w,field.transforms0.image_error,field.transforms0.object_error,field.transforms0.fiducial_area
1685421846874438285,3,1685421846874438285,camera_1,4,0,-0.20267797828839768,0.03724936593560436,0.47539093797377774,0.9810158101602547,-0.033283058217220475,0.19026392349608734,-0.01731639879430641,1.1798879879061133,0.0872940422094,40277.00437381444
1685421846884703636,4,1685421846884703636,camera_1,5,0,-0.20250397385901883,0.037888322175108,0.475020041216112,0.9808606594918408,-0.033454951470244576,0.1910874522273156,-0.01669486401945694,1.3217920961324126,0.09771298363248182,40302.620715422076
1685421846894152879,5,1685421846894152879,camera_1,6,0,-0.20252896615706717,0.0385235177268044,0.47507578332041117,0.9810671087322353,-0.033407676983862156,0.190114761332239,-0.01573635300506349,1.242078527866397,0.09180810507275046,40318.817775665324
1685421846904595375,6,1685421846904595375,camera_1,7,0,-0.20210880521260752,0.0392974276408612,0.4746638380536038,0.9756337182274616,-0.03699039323597628,-0.21263626620762435,0.03945094370463881,1.4430907224887048,0.1065228508283786,40379.26715073941
1685421846913496255,7,1685421846913496255,camera_1,8,0,-0.20212166261321618,0.03949029182557026,0.4746972318567074,0.9757429108347571,-0.03720449083412444,-0.21206803308844474,0.03960741293605467,1.3775632034521548,0.10168153438636149,40390.49050530023
1685421846923598051,8,1685421846923598051,camera_1,9,0,-0.20211765293633782,0.03950034039891736,0.47465228901805745,0.9756844389695974,-0.03696367524126651,-0.21248962437293029,0.03900925273690063,1.41730592638487,0.10458641551057454,40385.35679152423
1685421846933376312,9,1685421846933376312,camera_1,10,0,-0.20218599946754198,0.03933751420375977,0.4747832269080031,0.975731671101487,-0.03717237970628774,-0.2122101116865429,0.039150845386224216,1.4388138824724592,0.10622710595784854,40373.80039611715
1685421846943332672,10,1685421846943332672,camera_1,11,0,-0.202351213502584,0.038526745623045464,0.4751033725551803,0.9757884388316056,-0.036697420533785975,-0.21205631576745262,0.03901718739067442,1.4197201855131425,0.10494209891335593,40333.92445071577
1685421846953567743,11,1685421846953567743,camera_1,12,0,-0.20264208649516605,0.037957182091885755,0.47519141896955336,0.9811219524873517,-0.03321690180888177,0.18977889493428288,-0.01674284381903167,1.2318975108209997,0.09108879896520818,40311.184513226384
1685421846963567972,12,1685421846963567972,camera_1,13,0,-0.20265735225530185,0.0372570465880821,0.4751792916302461,0.9810517037019949,-0.03352842803637118,0.18994086607538152,-0.01832666285381079,1.2563005055417307,0.09291352023175733,40311.48537804886
1685421846973355770,13,1685421846973355770,camera_1,14,0,-0.20273768154222893,0.03653207980659706,0.47533524900991414,0.9810724633233334,-0.03349627492450323,0.18976509001899394,-0.01907961962282942,1.230521107558161,0.09103214874860681,40299.535264616374
1685421846983415126,14,1685421846983415126,camera_1,15,0,-0.20277510010877753,0.035134415377957987,0.4753964013519742,0.9811204174492884,-0.03374613766931904,0.18936234822259407,-0.020145116831695915,1.196700272615999,0.08847236217749849,40319.90421217191
1685421846993363142,15,1685421846993363142,camera_1,16,0,-0.2025376664084607,0.03451204187944142,0.4753821264341035,0.9759992491959735,-0.035885865516486024,-0.21190430352988893,0.03513170036507627,1.33523519692244,0.09864485839685032,40336.42557277648
1685421847003616571,16,1685421847003616571,camera_1,17,0,-0.2026297770709247,0.03409217950972657,0.47503284513595756,0.9810423930061598,-0.0338658376040399,0.1897131318473584,-0.02044152080426702,1.263335049210582,0.09321144346294373,40380.830275493456
1685421847013509988,17,1685421847013509988,camera_1,18,0,-0.20237071424248068,0.03378173235545668,0.4749996641967066,0.9759275599090053,-0.03571705029540963,-0.2124556598931523,0.03394528991797533,1.337522103334777,0.0986306882929224,40389.68379154894
1685421847023610353,18,1685421847023610353,camera_1,19,0,-0.20232230343211977,0.03379182767964866,0.4749186120140924,0.9758433050102627,-0.0358008634803465,-0.21283184689097404,0.03392266483762401,1.3382766405120492,0.09867045761162527,40390.928644189145
1685421847033360958,19,1685421847033360958,camera_1,20,0,-0.20235355547061112,0.034074683923782156,0.47502266025033424,0.9758531751101422,-0.03599732567838646,-0.21271739933169637,0.03414793102104099,1.3762837069807574,0.10151695473631288,40376.173640653506
1685421847043463468,20,1685421847043463468,camera_1,21,0,-0.20234263805161434,0.03451371158629806,0.47502751280776656,0.9757313362336344,-0.0357823370408823,-0.21322606475784758,0.03467894397903818,1.4030472438316792,0.10353743747164212,40354.12198955008
1685421847053479671,21,1685421847053479671,camera_1,22,0,-0.20269445172384098,0.035146475805908246,0.4753311174995737,0.9809873723380463,-0.03356795730950429,0.19014814369004368,-0.01951027951089404,1.1802129821153358,0.08722904595904214,40311.691157592446
1685421847063757658,22,1685421847063757658,camera_1,23,0,-0.20273947878249113,0.036520737019847614,0.47553051977692634,0.9811372564144764,-0.03337707320986434,0.1896018271720498,-0.01751576982143656,1.284341603750363,0.09499413374407009,40289.03376057813
1685421847074065446,23,1685421847074065446,camera_1,24,0,-0.20277765462489072,0.037275515837101585,0.4756532236447286,0.9812518425616237,-0.03361218071605556,0.18891913965563362,-0.01801669916230295,1.2572621983708814,0.09309192904189889,40277.998281085864
1685421847084528684,24,1685421847084528684,camera_1,25,0,-0.2023307880259588,0.03785962682317436,0.4751557107125197,0.9757330796034851,-0.036543432122192736,-0.2125228883056691,0.037994169058501344,1.4380129976198077,0.10628327053874999,40322.62582848898
1685421847094581842,25,1685421847094581842,camera_1,26,0,-0.20257190374552192,0.038528553218579786,0.4751803239784546,0.981108184122673,-0.03312446521927837,0.18989148083441046,-0.016453764249037158,1.2127474225708283,0.08969830822205933,40305.67100379221
1685421847104738235,26,1685421847104738235,camera_1,27,0,-0.2020531874535382,0.039289674827690205,0.4745370060175879,0.975559874612754,-0.03712942759884712,-0.21291968286253266,0.03961748731871326,1.3302512015798131,0.09816439370941211,40389.797895692536
1685421847114669084,27,1685421847114669084,camera_1,28,0,-0.20214142098866644,0.039495836143659695,0.47474601998984434,0.975674871268272,-0.03717953676006736,-0.21248422125830857,0.03907279537220212,1.3231925834552385,0.09768459620019308,40370.1768794167
1685421847124576330,28,1685421847124576330,camera_1,29,0,-0.20211538031166265,0.039497081722645405,0.4746482622592779,0.9755959707237186,-0.03691768794315259,-0.21288330847917636,0.039118834281417166,1.4027692874078639,0.10353633068058397,40371.61650533696
1685421847134563922,29,1685421847134563922,camera_1,30,0,-0.20212602887848147,0.03933120744857937,0.47464371515934706,0.9756486285296734,-0.03697925007955285,-0.21262149918394047,0.039171249616203274,1.2919091593939809,0.09534645393979652,40382.76536180081
1685421847144270896,30,1685421847144270896,camera_1,31,0,-0.2022925069025193,0.03852321706253235,0.47496763784568846,0.975685108924788,-0.03672926149272068,-0.21259783817116615,0.03862238699990891,1.305211445200257,0.09643407390080376,40339.69924685755
1685421847154414176,31,1685421847154414176,camera_1,32,0,-0.20256586343142471,0.03794814445377856,0.4750106175521498,0.9809737664162167,-0.03364123567526864,0.19042350006726813,-0.017251883594392895,1.2466005299356766,0.09216283386011132,40316.61090392223
1685421847164255857,32,1685421847164255857,camera_1,33,0,-0.2025670495564318,0.03724137349131231,0.47496732897929067,0.980913707379815,-0.033429023974575436,0.19073786286182176,-0.01760303102874337,1.2049471010104753,0.08903860384196137,40322.60597697948
1685421847174815416,33,1685421847174815416,camera_1,34,0,-0.20282990164705889,0.036556766607968416,0.47556690747146985,0.9812774743259882,-0.03337194320798375,0.1888058171232147,-0.0182536354562048,1.2032016682205722,0.0890183504457544,40298.411182219155
1685421847184626579,34,1685421847184626579,camera_1,35,0,-0.20247871742406306,0.035077676640297886,0.4752563703127134,0.9758716494791407,-0.03604255380876215,-0.21249761024060573,0.034931700500193716,1.3788238655542955,0.10182581195040726,40335.80687603659
1685421847194395065,35,1685421847194395065,camera_1,36,0,-0.20249997839439943,0.0345105330181653,0.4752969793664661,0.9759772670046838,-0.03577230556790691,-0.212063522401851,0.034896689111492414,1.2717018721741626,0.09391427605858237,40346.441078258686
1685421847204410552,36,1685421847204410552,camera_1,37,0,-0.20264418393289133,0.03409790364541897,0.47506311343988683,0.9810517103591064,-0.0338221033500704,0.18964084160571762,-0.020735431549025074,1.2714281429653056,0.09383079866397491,40376.6413639493
1685421847214226484,37,1685421847214226484,camera_1,38,0,-0.20239591430686843,0.033787128684520856,0.475049994020239,0.9759576136526174,-0.035726022805988356,-0.2122929531486641,0.03408943665379841,1.4011833114200272,0.10334513567922114,40386.02217934047
1685421847224674463,38,1685421847224674463,camera_1,39,0,-0.2022883934993925,0.033786959019581536,0.474855637462256,0.9757875440665069,-0.03573517070761124,-0.2130805808363389,0.034034284032445294,1.309407131804619,0.09653204624782286,40392.56901245518
1685421847234606742,39,1685421847234606742,camera_1,40,0,-0.20251934322601178,0.03410521687136832,0.4748665045799963,0.9809205199315297,-0.033792108983771316,0.1903775724442119,-0.020233804830904478,1.2620435145800002,0.09306415385533076,40390.73782735342
1685421847244669914,40,1685421847244669914,camera_1,41,0,-0.202359160922527,0.0345190695093427,0.4750833113523898,0.9757361247380435,-0.03608543908185968,-0.2131859194615232,0.0344763645241187,1.3979627092485316,0.10317400436854615,40347.30826860991
1685421847254504680,41,1685421847254504680,camera_1,42,0,-0.2026804920593508,0.03514746982210542,0.47529177528902744,0.9809557471051598,-0.03374462731314335,0.1902468250461233,-0.019830983554145195,1.0927279571769757,0.08076718249681769,40312.87678749324
1685421847264405727,42,1685421847264405727,camera_1,43,0,-0.20288746382800113,0.036571332436601794,0.47586094669970774,0.9813629085015626,-0.03369045229253819,0.18824127273832134,-0.0188949326417085,1.1049926149426028,0.08184560185565726,40272.77264476406
1685421847274320125,43,1685421847274320125,camera_1,44,0,-0.2027054240838268,0.03726621931274237,0.4754594010516695,0.9811168164030035,-0.0332946470504115,0.18973050802025948,-0.017423931112056278,1.0888054734678008,0.08056087961068274,40283.49769297872
1685421847284577846,44,1685421847284577846,camera_1,45,0,-0.20252292388180088,0.037895874700429134,0.47506461212817575,0.980920664890864,-0.03330174433849936,0.19081393891054815,-0.016603726434753475,1.2806710138102062,0.0946720776896609,40305.00248252301
1685421847293740510,45,1685421847293740510,camera_1,46,0,-0.20246397053224036,0.03850953503597501,0.4749267276314033,0.9809871679400409,-0.03320555479973708,0.19057938359764728,-0.015526300749384143,1.2976281081791967,0.09586555982632944,40328.809319096144
1685421847303781986,46,1685421847303781986,camera_1,47,0,-0.20209948786115914,0.039290802047175125,0.4746439661628467,0.9754495460089794,-0.03703286521860775,-0.21345035615423935,0.03956887087351298,1.4615132557810284,0.10792186492536984,40353.23140526145
1685421847313452005,47,1685421847313452005,camera_1,48,0,-0.20207519480373548,0.0394818209644163,0.47456544527433714,0.9755282032162044,-0.03707002992091679,-0.21313342285569467,0.03930243851521024,1.4142037008423358,0.10436789814439217,40376.22542695351
1685421847343776464,48,1685421847343776464,camera_1,50,0,-0.20231033989416333,0.03852675030723262,0.47500757250687736,0.9758043289133308,-0.03691769543633397,-0.2119604450625012,0.03893282890544774,1.4070925610139966,0.10396140871230018,40353.82630488183
1685421847354370594,49,1685421847354370594,camera_1,51,0,-0.20261761132055406,0.03796322622111118,0.47513155560537895,0.9811272232786458,-0.0330952228903398,0.18976204862243864,-0.016865434058705386,1.2216130553861149,0.09031042434926567,40320.92388319108
1685421847363852739,50,1685421847363852739,camera_1,52,0,-0.20267253238551206,0.037267688818437346,0.47521761887520414,0.9810934230068826,-0.033550843251493594,0.18981782843744338,-0.017298215429499112,1.2126338887610473,0.08964761652803699,40314.19526510991
1685421847373845577,51,1685421847373845577,camera_1,53,0,-0.2027042548138867,0.03653221845266849,0.47526176809499776,0.9810695046320083,-0.03362465925978759,0.18977973122311476,-0.01885902934011644,1.0892851054668427,0.08055171565395247,40312.30269627947
1685421847384123802,52,1685421847384123802,camera_1,54,0,-0.2027033260272402,0.035114165991940935,0.4752402880505557,0.981028747074151,-0.03383450773254349,0.1898492099260705,-0.019877147457941082,1.2381045831134543,0.09148509955500798,40331.169259659946
1685421847394051074,53,1685421847394051074,camera_1,55,0,-0.20264441558851398,0.03453563348516779,0.47506346744679856,0.9809636783685881,-0.03382367681009737,0.19015379242408254,-0.020192964996612,1.159229253535159,0.08558097795320446,40354.962185194716
1685421847404305458,54,1685421847404305458,camera_1,56,0,-0.20264574531228252,0.03410228435054051,0.47506688710304534,0.9809817645284965,-0.033782583199756785,0.19007063218781742,-0.020166048562680908,1.251580802781973,0.09235960407763924,40363.62005086198
1685421847413555383,55,1685421847413555383,camera_1,57,0,-0.2023438271103008,0.03378383043393081,0.4749362615675752,0.9758964173202512,-0.035701781210070886,-0.2125940344092918,0.03399032235073583,1.322901999403257,0.09753639622038861,40395.32843267126
1685421847423538923,56,1685421847423538923,camera_1,58,0,-0.20234062300346017,0.033791263529067896,0.4749621990214838,0.9758403947582232,-0.03570601195373023,-0.2128190208276492,0.03418580176675551,1.3762763438862748,0.10149970751185264,40382.684518887894
1685421847433492422,57,1685421847433492422,camera_1,59,0,-0.20265235628519745,0.034126085279328026,0.47517213684246556,0.9810476080931113,-0.033941653337269555,0.1896408099677751,-0.020734464504392532,1.2756411031004975,0.09417960255059252,40362.187568176305
1685421847444306612,58,1685421847444306612,camera_1,60,0,-0.2026184957634115,0.034561120651854176,0.47513515022434216,0.9809071451017818,-0.033832458415506556,0.190442330327166,-0.020205352394692483,1.3066931944922544,0.09650223745989593,40338.86030909465
1685421847454160690,59,1685421847454160690,camera_1,61,0,-0.20265495468785952,0.03514094910115501,0.4752523321303934,0.9810577111916834,-0.033887255688808404,0.1896535168592716,-0.020222877048706137,1.2529335234430616,0.09258426697929907,40339.872105745606
1685421847464530467,60,1685421847464530467,camera_1,62,0,-0.20276112844762612,0.03653894179669554,0.4755712166655454,0.9812039791158755,-0.03360940512558297,0.18910890718013568,-0.0186274120427839,1.1013964256853797,0.08150317626912912,40293.137429418755
1685421847474260568,61,1685421847474260568,camera_1,63,0,-0.20272940950540258,0.037267144839996026,0.47551211342005567,0.9811858530175,-0.033159127039562857,0.1893924129699652,-0.017473066179377248,1.1981369145796634,0.0886580795722477,40286.21658468715
1685421847484266757,62,1685421847484266757,camera_1,64,0,-0.20246290414606777,0.037889521923690904,0.47490245253842894,0.9809246760732627,-0.0333793312312677,0.19072647368525578,-0.017205009523551206,1.3589493390754797,0.10041875962775583,40331.76626512919
1685421847493919372,63,1685421847493919372,camera_1,65,0,-0.20257091480002215,0.038536256906077364,0.47518593672183645,0.9812172751056868,-0.03316049957647702,0.18933829751345685,-0.01624959681700035,1.3026579018332995,0.09631548332865644,40325.51725336815
1685421847504520177,64,1685421847504520177,camera_1,66,0,-0.2020989051982795,0.03929220158527874,0.4746398774903248,0.9755119567837912,-0.03713961295077106,-0.21319675381332584,0.03929650728990791,1.3837324226042256,0.10215116402929028,40364.07718319889
1685421847513737440,65,1685421847513737440,camera_1,67,0,-0.20203719471659565,0.039472047984348835,0.4744867196090811,0.9754790426351935,-0.03707373443529077,-0.21340280564333547,0.039056601722383434,1.516461197170429,0.11187603184558564,40381.518219217425
1685421847523798227,66,1685421847523798227,camera_1,68,0,-0.20209616927213309,0.03949712296932591,0.47459694744862624,0.9756708765692342,-0.037120948826131525,-0.21246171571054018,0.03934965222468349,1.3482276057475246,0.09948164979594903,40393.79101791093
1685421847533806800,67,1685421847533806800,camera_1,69,0,-0.20210444589723994,0.03932742721546129,0.4746018598582082,0.9756693285226108,-0.037089869411326574,-0.21249357602832,0.03924516675955469,1.4124837937415577,0.10422125352790193,40394.21877654456
1685421847544056653,68,1685421847544056653,camera_1,70,0,-0.20260400001006096,0.03858235389138456,0.47515636173092735,0.9812121193971627,-0.03318643375092733,0.18937026750271382,-0.016135028632579988,1.2298357338295318,0.09092778921936413,40323.862002996044
1685421847554255962,69,1685421847554255962,camera_1,71,0,-0.20266514054583548,0.03796977572479412,0.47524362364054096,0.9812491011654938,-0.033344130630006616,0.1890273769315204,-0.01752201999852359,1.2031274911132641,0.0889846338082368,40324.59183922991
1685421847573287487,70,1685421847573287487,camera_1,73,0,-0.20248916403524803,0.03648900944744844,0.47530532706726214,0.9758857439959148,-0.03629815396403025,-0.2120569362056933,0.03689599560111896,1.3539874503621832,0.10007783030906944,40325.89108737302
1685421847583514928,71,1685421847583514928,camera_1,74,0,-0.20246579209440546,0.035081932113412345,0.4752280672996515,0.97585655601036,-0.035802758730434876,-0.21257117155788502,0.035151693862424414,1.321947482705582,0.09762593899494947,40336.93944061431
1685421847593334197,72,1685421847593334197,camera_1,75,0,-0.20249498339054556,0.034505385002378285,0.47528810999173576,0.9758881122649047,-0.035756284063930825,-0.2124626210537879,0.03497878135291178,1.4249797713127919,0.10525126444058482,40333.590491337454
1685421847603379487,73,1685421847603379487,camera_1,76,0,-0.2025889960024451,0.03409486911779638,0.47494191304714417,0.9808397121759235,-0.03387995414404972,0.19075374760406316,-0.02046009532856931,1.2749902590294369,0.09408357406581526,40359.719614023794
1685421847613600730,74,1685421847613600730,camera_1,77,0,-0.20246721308538593,0.03379895445208677,0.47522261207022615,0.9761290072409675,-0.035754648640474,-0.21140896430473322,0.03464124903867482,1.399936926085502,0.1033107423465175,40385.28953331453
1685421847623773097,75,1685421847623773097,camera_1,78,0,-0.2023554271001929,0.03379457732751017,0.4750013885512058,0.9759148078473519,-0.035607208395140776,-0.2125093803475229,0.03409072892859943,1.3625554086174816,0.10048261249290467,40387.54532803875
1685421847634040594,76,1685421847634040594,camera_1,79,0,-0.20256254203666565,0.03410465326263522,0.47495396212301844,0.9809188136494658,-0.03388678923477955,0.19031031719530633,-0.02078339993611366,1.2819292320054956,0.09458922207523598,40375.16268699269
1685421847644125223,77,1685421847644125223,camera_1,80,0,-0.2026091035191602,0.034556916599805074,0.475112603836447,0.9809625534986505,-0.03359389107708038,0.19024003726022604,-0.019815330906562102,1.283045108197257,0.09471758890361,40351.51509131516
1685421847653778791,78,1685421847653778791,camera_1,81,0,-0.20266835887156398,0.035143045370819796,0.47527782079743325,0.9810597953778822,-0.03359702902558153,0.18974509297887057,-0.01974125690532371,1.186300951638259,0.08764985202835165,40334.26910425305
1685421847663887023,79,1685421847663887023,camera_1,82,0,-0.20269269482663582,0.03653951125542168,0.4754078359149327,0.9810892307671685,-0.03367413847481233,0.18969653752110074,-0.01857948662289893,1.0633187294588424,0.07865243850912619,40300.086223356906
1685421847674373388,80,1685421847674373388,camera_1,83,0,-0.20267989793111918,0.037258375964295494,0.4754019914810297,0.9810937768096328,-0.03316708158351714,0.18987310194757315,-0.017411230899888303,1.2464139061630704,0.09220663409459155,40288.65861134535
1685421847684266328,81,1685421847684266328,camera_1,84,0,-0.20240002801724283,0.037884161920332005,0.47533150454618917,0.9757961264411789,-0.03667221689540485,-0.21206407640528818,0.038805871060182004,1.3236041528289206,0.0979179054888897,40305.08697260404
1685421847694303035,82,1685421847694303035,camera_1,85,0,-0.2024824411460184,0.03851302216354054,0.4749747007626935,0.9810259009744444,-0.0333902815985872,0.19028741870777902,-0.016247122624551087,1.1584946676739492,0.08562145485025954,40327.63720220885
1685421847704785346,83,1685421847704785346,camera_1,86,0,-0.20210921268164078,0.03930618948659227,0.4746694721055047,0.9754998744694855,-0.0371181155684209,-0.21327906566184132,0.039169893503549214,1.3000025309738703,0.0959821610777802,40356.73416134527
1685421847714923620,84,1685421847714923620,camera_1,87,0,-0.20208646494759044,0.03948070501066917,0.47459137161314574,0.9755908714575449,-0.036983406287538656,-0.2128374753550312,0.039432071624194556,1.4800285455421545,0.10922666055599321,40381.78929111734
1685421847724691152,85,1685421847724691152,camera_1,88,0,-0.2020953802407594,0.03949183004426325,0.4746176933197592,0.9756029557788688,-0.03716186377182633,-0.21281562145667043,0.03908170698101681,1.340846429229714,0.09894964381782657,40379.60877540242
1685421847734174728,86,1685421847734174728,camera_1,89,0,-0.20210788343308858,0.03932552451137543,0.47459424921922544,0.9755935711930431,-0.036838568575577914,-0.21294068659863993,0.038940566290270116,1.4081985336961225,0.10390948047996205,40380.983606321024
1685421847744565963,87,1685421847744565963,camera_1,90,0,-0.20231683573431924,0.038529866092701634,0.4750080957372311,0.9757438144360763,-0.03676266944791352,-0.21236947412611817,0.03836301844479108,1.3646791007486172,0.10082149821866365,40341.839961457525
1685421847755093812,88,1685421847755093812,camera_1,91,0,-0.20262951878835891,0.03796596201796568,0.475163417738325,0.9811810253657606,-0.03318948014230709,0.18946098584904963,-0.01693483720572318,1.2291516345576383,0.0908694414333475,40326.02525375411
1685421847764746665,89,1685421847764746665,camera_1,92,0,-0.20265076050788214,0.03727287213479092,0.4751801004228115,0.9810649479254682,-0.03341531490285406,0.19001543040820082,-0.017003555179078186,1.2356264542322606,0.09132749824731327,40315.459514374146
1685421847774276494,90,1685421847774276494,camera_1,93,0,-0.20277008345088027,0.03654455559166247,0.47542175555479893,0.9811562654627475,-0.03340032880051728,0.1893915248246714,-0.018645404361337117,1.1256044949986972,0.08326726548585649,40300.16099170501
1685421847784532546,91,1685421847784532546,camera_1,94,0,-0.20277326950791527,0.035140936544825516,0.47538675078769477,0.9811550328937725,-0.03378271170923592,0.18923178963034804,-0.019617839077908934,1.1737151044071652,0.08674440776807768,40328.124406481846
1685421847794596910,92,1685421847794596910,camera_1,95,0,-0.20267551242563603,0.03454205465268346,0.4751478531763186,0.9809505665073227,-0.03370647138384356,0.19027013064015397,-0.01992830253663187,1.2464269791380502,0.09204213851289725,40338.60941493814
1685421847804954528,93,1685421847804954528,camera_1,96,0,-0.20247858383478323,0.03407769127831346,0.4746748558944404,0.9807931381794143,-0.03387447778629096,0.1909683982906247,-0.02069808467457793,1.2031433960655704,0.08870219033858226,40395.70689843083
1685421847814209461,94,1685421847814209461,camera_1,97,0,-0.20240624398989943,0.03379078381914216,0.47507981148794665,0.9759969709144534,-0.03584274376308568,-0.21204592105052045,0.03437641416992214,1.394671471090987,0.10288048546849074,40388.36834151369
1685421847823726892,95,1685421847823726892,camera_1,98,0,-0.2023294869484137,0.03378964330835603,0.47492694558290216,0.9757725865405725,-0.035791974750427016,-0.2131275640176753,0.03410916819972712,1.337796806707047,0.09866065787548887,40377.87481161229
1685421847833994865,96,1685421847833994865,camera_1,99,0,-0.20249805723430397,0.034097836620811575,0.47479806918139844,0.9807746218521767,-0.03381857882583327,0.19107677155866132,-0.02066669367944155,1.3034014742006548,0.09614129528002409,40374.85522039374
1685421847844005107,97,1685421847844005107,camera_1,100,0,-0.20277231014051217,0.034587400426019724,0.47548208227897165,0.9811552616364583,-0.03351363838170066,0.18927637313315268,-0.01963779975133482,1.2825071199331433,0.09477326697846752,40322.93263796298
1685421847854435920,98,1685421847854435920,camera_1,101,0,-0.2026602211724998,0.035134802833560214,0.4752677740859816,0.9810644543410783,-0.033706826810456,0.1897415055398573,-0.019353225319845888,1.201083139050752,0.08872188191133688,40338.46714304597
1685421847864934444,99,1685421847864934444,camera_1,102,0,-0.20291904794598475,0.036569829667042926,0.4759489774389783,0.9813761825310167,-0.033438962295518376,0.18824563644679543,-0.018606571962306792,1.19080319639761,0.08821973985276749,40260.006072756136
1685421847874370813,100,1685421847874370813,camera_1,103,0,-0.20260585066376247,0.03724478214911313,0.4758006113355922,0.9761441721929048,-0.036144084319360004,-0.21085058005138055,0.03712402395403665,1.2418673856300302,0.09192043486793183,40282.51935131034
1685421847884387731,101,1685421847884387731,camera_1,104,0,-0.2025274198450216,0.03790676575835454,0.4750642980493486,0.9810120609839372,-0.03314441226004002,0.19034307527630523,-0.01692033789092795,1.2203531473642215,0.09020450334187541,40319.3817919679
1685421847894057989,102,1685421847894057989,camera_1,105,0,-0.20227378037468688,0.03848013963158157,0.4750500493272535,0.975730477414288,-0.03657269133142661,-0.21250365619562095,0.038140133680354,1.2765275809215382,0.09431190324954376,40334.61442485871
1685421847904450893,103,1685421847904450893,camera_1,106,0,-0.20208372737189656,0.03929040618998787,0.47461149774452,0.9755297552951182,-0.03706131335345141,-0.21319231505560893,0.03895115386729801,1.4347590383258648,0.10588749268425092,40371.00487837521
1685421847913969993,104,1685421847913969993,camera_1,107,0,-0.2021004780563972,0.03948538603128961,0.47464725762268883,0.9756826110271537,-0.03714207288379144,-0.21243501103318768,0.03918258603589933,1.3698627087869681,0.10108817161761628,40388.092593592126
1685421847923990011,105,1685421847923990011,camera_1,108,0,-0.20207658393837516,0.03948776879873854,0.4745603916970164,0.9755772886444792,-0.0369403459913427,-0.212906231592477,0.039437308075184266,1.353039721143432,0.0998464199512462,40384.200897103176
1685421847933888673,106,1685421847933888673,camera_1,109,0,-0.202365180382338,0.03936914973907732,0.47464545543907133,0.9810432355306952,-0.03312033215660803,0.19034905914519024,-0.014981632082050483,1.4188539610477164,0.10475296053334063,40365.721810530624
1685421847944484949,107,1685421847944484949,camera_1,110,0,-0.20251578520273938,0.03856934869562273,0.47493938633126553,0.9811130451190603,-0.03314704538686568,0.1899207706437966,-0.015766006386915526,1.2747048017336056,0.09416984298678087,40342.464487983394
1685421847954330205,108,1685421847954330205,camera_1,111,0,-0.2025436785100786,0.03795263392024824,0.4749642025030084,0.9809801678505421,-0.03318975557808171,0.1905016676747047,-0.016895710158089328,1.2088148676557466,0.08933568095950715,40323.31762223692
1685421847964447259,109,1685421847964447259,camera_1,112,0,-0.20256301947846156,0.0372531838243418,0.4749659932678363,0.9809262919440416,-0.0334081755541435,0.1907250816906225,-0.01707181282588399,1.1920172194950283,0.08805823195882591,40325.98331373419
1685421847974170684,110,1685421847974170684,camera_1,113,0,-0.20277746496565904,0.03655023594523481,0.47543295988371126,0.9810939833309028,-0.03354172111478421,0.18972352814748245,-0.018290207320640003,1.202659496862907,0.088973569786649,40288.15076798688
1685421847984308004,111,1685421847984308004,camera_1,114,0,-0.202737221528684,0.035137333832238035,0.475297914213506,0.9811149415519167,-0.03368657407231418,0.18946768499518102,-0.019511087448330567,1.161803208582569,0.08583895283143764,40334.97004884855
1685421847994526624,112,1685421847994526624,camera_1,115,0,-0.20244807779830037,0.03450280147188407,0.47517399042938857,0.9759185988067807,-0.035801769151640274,-0.21236024371752127,0.03470228691106063,1.3840843309881166,0.102164486078304,40357.76393613521
1685421848004398345,113,1685421848004398345,camera_1,116,0,-0.2023616574487451,0.0340515040598262,0.4749839694250999,0.9757820237345284,-0.03580563654153339,-0.21301281003477351,0.03453898246175993,1.3700474645593204,0.10107543535008094,40369.16017631836
1685421848013968467,114,1685421848013968467,camera_1,117,0,-0.20252760465739222,0.03381115917881177,0.47481631488926124,0.9807896878745477,-0.03405474232494924,0.1909795346708472,-0.02046167199999445,1.328681493003387,0.09798419200898896,40377.41358699742
1685421848024135112,115,1685421848024135112,camera_1,118,0,-0.20239518755832678,0.03380528489205606,0.47510284960851,0.9759710333776072,-0.03586363728581487,-0.21224892125584005,0.03383396155062854,1.3522772582946345,0.09974591847610602,40381.013167016674
1685421848034228086,116,1685421848034228086,camera_1,119,0,-0.20237095932478322,0.03407891417379943,0.47506574590742795,0.9758827614877779,-0.035650817182156284,-0.21264827170131306,0.034096445675145186,1.3463941850350238,0.09932307981544879,40371.717302641606
1685421848044205904,117,1685421848044205904,camera_1,120,0,-0.20242865756011097,0.03453250527822834,0.4752290436276784,0.9759418948941225,-0.036053182508699363,-0.21220995619975158,0.03470619989517252,1.3575517661520278,0.10021899837578296,40355.72776543907
1685421848054153203,118,1685421848054153203,camera_1,121,0,-0.20272774373758448,0.03515251976382821,0.47540496853047387,0.981078958447143,-0.033687472332877284,0.18969966925370965,-0.01905956413782976,1.24700752022909,0.09215576022933948,40317.02754800649
1685421848063917636,119,1685421848063917636,camera_1,122,0,-0.2027834400612337,0.03654567400778113,0.4756209041912796,0.9811985497667676,-0.03376872806074767,0.18902444515167688,-0.019463763147250242,1.1030561791849323,0.08167270849112329,40283.63207010344
1685421848074826955,120,1685421848074826955,camera_1,123,0,-0.20264172321884416,0.03725365809201325,0.47531719214784385,0.9810188083345369,-0.03341697205362221,0.19019623216317597,-0.0176294340120151,1.181596376991365,0.0874025936424338,40290.901807495145
1685421848084741115,121,1685421848084741115,camera_1,124,0,-0.20273977185660394,0.03794821969401223,0.4755606212536087,0.9813422712003396,-0.03347487900139286,0.18853202683624076,-0.01739120720997809,1.1503009736770764,0.0851509184466887,40296.38620669326
1685421848094396829,122,1685421848094396829,camera_1,125,0,-0.2024788966025285,0.03851135364875993,0.47495031485445843,0.981010782593376,-0.03306378485898011,0.1904989897222304,-0.015322058645641946,1.2482865637284704,0.09221450291173587,40328.0198720286
1685421848104723930,123,1685421848104723930,camera_1,126,0,-0.2020757791129667,0.039292732244964296,0.4745947793186429,0.9754741356327861,-0.03707344229804259,-0.21333803539708135,0.03953040906133316,1.4208185668685474,0.10488874256620374,40365.79636387198
1685421848114838123,124,1685421848114838123,camera_1,127,0,-0.2020731625338475,0.03948372704323808,0.4745650858466118,0.9755278748726631,-0.03716050545514937,-0.21307668988016337,0.03953209342365018,1.3522464745328762,0.09980577914675276,40377.18101145467
1685421848125003576,125,1685421848125003576,camera_1,128,0,-0.20211100348035008,0.03949317330066155,0.47464222261380296,0.9756712599288332,-0.03709786928810696,-0.21249670825087885,0.0391725621539691,1.3250717870541848,0.09778446947993945,40386.04856997471
1685421848134744405,126,1685421848134744405,camera_1,129,0,-0.20231692658180367,0.03936752888291621,0.47451375863069434,0.9810273573749203,-0.03311508006577207,0.19040718604070186,-0.015291143131875908,1.2389120865263976,0.09143223576872778,40383.297651190085
1685421848144783496,127,1685421848144783496,camera_1,130,0,-0.20235815867985107,0.03854335351602842,0.47512793105051215,0.9757056699964073,-0.03697856286326347,-0.21241980317207945,0.038844029731282696,1.348912263812963,0.09973403190867312,40317.78976853566
1685421848154421567,128,1685421848154421567,camera_1,131,0,-0.2025744710088693,0.03795717526100261,0.4750389474180444,0.9810512497035415,-0.03333194537677421,0.19009131367016888,-0.017109042628635066,1.248142565251328,0.09226396535203417,40324.31837654323
1685421848164474964,129,1685421848164474964,camera_1,132,0,-0.20239769354692472,0.037231542552034584,0.4751428888685387,0.9757634471898171,-0.03640466834567741,-0.2124757339235811,0.03760927737303943,1.3163376842276193,0.09727826655541112,40330.38374066727
1685421848174224376,130,1685421848174224376,camera_1,133,0,-0.20255793654975007,0.03651409191980849,0.47493852586272045,0.9808511570880085,-0.03343624215969441,0.19104009572555472,-0.01779626855618997,1.2772359632654116,0.09432922682908486,40328.9066880932
1685421848184085130,131,1685421848184085130,camera_1,134,0,-0.20269368206789598,0.035127345378450865,0.47519851174646455,0.9809828169408451,-0.0338204973724799,0.19011517583589968,-0.019624136698654503,1.202938593691215,0.08887384428544268,40328.902984626344
1685421848193908691,132,1685421848193908691,camera_1,135,0,-0.20263637010256935,0.0345354852095311,0.4750571801691547,0.9808548373887134,-0.03371743427965472,0.19081009288943415,-0.019453304302446545,1.2993056495324709,0.09591434794989386,40337.274510018775
1685421848204128026,133,1685421848204128026,camera_1,136,0,-0.20243289274720316,0.03406653178959526,0.4751338237489574,0.9760007118221266,-0.03583314185379746,-0.21197731769159062,0.03470177591804648,1.3194640162400901,0.09736578295840811,40379.20897253463
1685421848214036941,134,1685421848214036941,camera_1,137,0,-0.2025402168307051,0.033816308201936644,0.4748338902459696,0.9808246240366029,-0.033973725051217214,0.19080189671326747,-0.020578607829990707,1.2935728883603588,0.09539786387188523,40379.59774962881
1685421848224565029,135,1685421848224565029,camera_1,138,0,-0.20256990615204873,0.033834104004043436,0.4749424057191737,0.9809545187212262,-0.033904269486868026,0.19017817084909003,-0.020273037351706102,1.2748762471601367,0.0940159869674153,40386.292277375
1685421848234834909,136,1685421848234834909,camera_1,139,0,-0.2024554151108805,0.03409151325331686,0.4752744336405089,0.9760282296330153,-0.03593238081201422,-0.21187541752773734,0.03444657335743847,1.394044449320063,0.10290544736174738,40362.060776889775
1685421848244892597,137,1685421848244892597,camera_1,140,0,-0.20263289490989894,0.03456643001111066,0.4751455138752537,0.9809760346028443,-0.03383874091093008,0.1901390909461041,-0.01969987925422872,1.1418716752086766,0.08430105854076125,40348.6825736512
1685421848253902435,138,1685421848253902435,camera_1,141,0,-0.20268283461127654,0.03514986853016741,0.47529887441298413,0.9810377205917074,-0.03362296547270197,0.18990603790475455,-0.019240159468326613,1.1094826421467587,0.08196988990674585,40326.51296980423
1685421848263801336,139,1685421848263801336,camera_1,142,0,-0.2026996555185546,0.03654325398406652,0.4754259108497144,0.9811062259977018,-0.03360991652913075,0.18962877569095096,-0.018489841789542712,1.1306616042857058,0.08363278198920472,40300.069883556585
1685421848273772954,140,1685421848273772954,camera_1,143,0,-0.20280408252723203,0.037288277650781805,0.4757024667839867,0.981343542797248,-0.03303969493004454,0.18864103818596675,-0.016964323776564347,1.2603955111117102,0.09328168289942991,40283.31445973134
1685421848283650636,141,1685421848283650636,camera_1,144,0,-0.20269441519400921,0.037939714452091766,0.47545406471400103,0.9812285020311526,-0.03313817103884338,0.1892206326838493,-0.016971758560160453,1.223102837917395,0.0905100063599238,40292.37948412704
1685421848293793678,142,1685421848293793678,camera_1,145,0,-0.20255073788935385,0.03852820930598443,0.47513738851769033,0.9811361805904688,-0.03338024934887164,0.18974381677034044,-0.015963648930538598,1.2490164192859083,0.0923371945928448,40320.86095935061
1685421848303845882,143,1685421848303845882,camera_1,146,0,-0.2020597207860489,0.03929045947527159,0.47455955024366014,0.9755666713976536,-0.03713547470697983,-0.21301745804140715,0.03891257824877533,1.3793122783536091,0.1017652336482766,40386.22642145725
1685421848313747644,144,1685421848313747644,camera_1,147,0,-0.2020927914876037,0.03948564686547115,0.47462438997603873,0.9757059843933878,-0.03713198587966031,-0.21226813592213736,0.03951311321199438,1.4129227381199598,0.10426402725704552,40396.16848760657
1685421848324248552,145,1685421848324248552,camera_1,148,0,-0.20208367593383947,0.03948871671266757,0.4745700190654845,0.9756723919674691,-0.03710979379560862,-0.21240683217342285,0.03961798080387487,1.3670526696951129,0.10087033760649224,40399.15712767421
1685421848333656549,146,1685421848333656549,camera_1,149,0,-0.20229160265777688,0.03936166115955942,0.47447086340502287,0.9809635955450069,-0.033006897764236404,0.19077512522224108,-0.01502732550495446,1.2198981417459436,0.09001454063818752,40379.590693966005
1685421848343595266,147,1685421848343595266,camera_1,150,0,-0.20245547383519896,0.03856290926327873,0.4748049460462683,0.9809902213645048,-0.03322434575154968,0.19048145051755164,-0.0164664946279102,1.2630358206806704,0.09331172063381281,40342.51928292541
1685421848353590726,148,1685421848353590726,camera_1,151,0,-0.20258738428801687,0.037962995139966774,0.47505999195698756,0.9811064736816538,-0.03323093865191583,0.18985152680399633,-0.01679850548277258,1.1958936327719127,0.08838415572664851,40330.10538788511
1685421848363571882,149,1685421848363571882,camera_1,152,0,-0.20269599167773603,0.03727809238575969,0.4752649354622093,0.9811492316435523,-0.03334706639405438,0.18950630551539724,-0.017930939129962048,1.1547066997736692,0.08539708222402327,40313.246921989135
1685421848373576641,150,1685421848373576641,camera_1,153,0,-0.20243183228943246,0.036481016735559826,0.4751790239904463,0.9757832894674598,-0.036343249475541496,-0.2123969896372147,0.037598656979617937,1.416113924991805,0.10466581863450487,40331.89362483844
1685421848383579492,151,1685421848383579492,camera_1,154,0,-0.20273007092363693,0.035132409212831964,0.47529274712145747,0.9810780116374809,-0.03359455551769472,0.18965607572557824,-0.01969552896952391,1.1605450561037287,0.08575652568749188,40329.051649995614
1685421848393672943,152,1685421848393672943,camera_1,155,0,-0.20252217092499414,0.0345197136824625,0.47534999216022167,0.9759683949659506,-0.03589220864823456,-0.21215003553622763,0.03449353284190228,1.3801565755275078,0.1019286098614894,40336.38947431649
1685421848404409885,153,1685421848404409885,camera_1,156,0,-0.2024819212601492,0.03407802414719468,0.4752427636868933,0.9760027647755275,-0.0356654849662279,-0.2120356583713842,0.0344594821734743,1.3008996241842397,0.09603069648231614,40359.7969328733
1685421848414033174,154,1685421848414033174,camera_1,157,0,-0.20238812544992932,0.033789341088045655,0.4750421750972644,0.9759566475102579,-0.035856200036174186,-0.21237132323018407,0.03348695520594302,1.2721766860922799,0.09380492639355599,40387.609327658065
1685421848424195528,155,1685421848424195528,camera_1,158,0,-0.20255872799056218,0.033825823101295,0.4749138925359522,0.9808658953338798,-0.03394692233169329,0.19066435905834758,-0.019919940259506035,1.2845709620742127,0.09472665025760565,40375.5687731474
1685421848433835506,156,1685421848433835506,camera_1,159,0,-0.20259146015027163,0.034114644666328534,0.47502573011446697,0.9809801053952764,-0.034121818639624345,0.19001152421548137,-0.020232522746969066,1.2195491226157174,0.08997813516813664,40376.14932000916
1685421848443474531,157,1685421848443474531,camera_1,160,0,-0.2024802088584603,0.034546202631473656,0.47536437837155177,0.9760422552756246,-0.035814441508054295,-0.21174595265594556,0.03496417065747534,1.252763760392554,0.092526582665149,40348.24309095928
1685421848453446865,158,1685421848453446865,camera_1,161,0,-0.20263854074822707,0.035134299033096575,0.4752149242958209,0.9810197940124747,-0.03354326510417657,0.19000120542958326,-0.019353424946970565,1.1496896232129075,0.08491597700373403,40338.02566310532
1685421848464131355,159,1685421848464131355,camera_1,162,0,-0.2027513501398038,0.036549703034814224,0.4755435639913799,0.9811768613494785,-0.033550711397558025,0.18925221092171035,-0.01870607330116547,1.0601603654795326,0.0784511814800942,40291.91471061089
1685421848474369525,160,1685421848474369525,camera_1,163,0,-0.202742759842579,0.03727058685676769,0.47553387448093626,0.9812378256365694,-0.03336377157729046,0.18907413050288796,-0.01761140144147137,1.0694821715005671,0.07914043809262573,40292.24688348944
1685421848484134912,161,1685421848484134912,camera_1,164,0,-0.20254502083067705,0.03790636728711767,0.4751246264596117,0.9810130219517974,-0.03336924438820925,0.19031465751919063,-0.0167414283535013,1.2602090777363628,0.09316430912460208,40312.20246889884
1685421848493941307,162,1685421848493941307,camera_1,165,0,-0.20222443804082937,0.0384725218918045,0.474924904530297,0.9755900961809133,-0.036855736009961546,-0.2130503676259661,0.038407809249176444,1.3655302169499919,0.10087740699601064,40334.912761559484
1685421848504071712,163,1685421848504071712,camera_1,166,0,-0.20211910346303227,0.03930429355942919,0.4746879081682807,0.9755732746436466,-0.03714079468491378,-0.2129789472532319,0.03895273030417972,1.4113433026359417,0.10418334771904753,40365.33480021685
1685421848514612436,164,1685421848514612436,camera_1,167,0,-0.20207704671533652,0.03948081373690281,0.47458560833218016,0.9756788251390737,-0.037060692289860024,-0.21247073172538855,0.0391602275569423,1.3540288407821208,0.09989419437953242,40397.26361451321
1685421848524441242,165,1685421848524441242,camera_1,168,0,-0.2021545186621222,0.039505287260334795,0.47474159584796366,0.9756861736949629,-0.037191807786092254,-0.2123515132877832,0.03949803410897136,1.332551353261806,0.09838763676543447,40372.6218633619
1685421848534255027,166,1685421848534255027,camera_1,169,0,-0.20211273065817273,0.03932859498615983,0.47461803310317646,0.9755802181325903,-0.037061138282761,-0.2128708263094377,0.03944263332855335,1.3768167768721469,0.10162882816030985,40377.15675044547
1685421848544765233,167,1685421848544765233,camera_1,170,0,-0.2024964299490704,0.03856027136037632,0.4748827202811381,0.9810959808099141,-0.03341540366536231,0.1898907783599245,-0.016600588253909802,1.3170573271927424,0.09731815455560097,40348.826338556595
1685421848554355859,168,1685421848554355859,camera_1,171,0,-0.20263486892820962,0.03796775292729254,0.4751758055314331,0.9811436728115033,-0.03325206777137537,0.18964089395931252,-0.01696244761803864,1.2056786523316987,0.08914972715046045,40317.337642597035
1685421848564239025,169,1685421848564239025,camera_1,172,0,-0.20256471396146863,0.037255895532054675,0.47496752453125984,0.9809801532204554,-0.03324116405056065,0.1904806397096641,-0.017032025596877817,1.2411344925058074,0.09167557955643597,40334.303476343164
1685421848574049711,170,1685421848574049711,camera_1,173,0,-0.20240603750335248,0.036491328775672,0.4751354660620124,0.9757036024797017,-0.036313970177898766,-0.212865716604477,0.037040010428095085,1.3436191832297482,0.09928631858949143,40325.777941568755
1685421848584247827,171,1685421848584247827,camera_1,174,0,-0.2025062809853533,0.03509837434711176,0.475332305180542,0.9759605684073717,-0.0356796646407792,-0.21210966902536071,0.03517696335719422,1.3170621159952134,0.09728523668726492,40335.64616032295
1685421848594554662,172,1685421848594554662,camera_1,175,0,-0.20266579907457083,0.034542397625852796,0.4751230436380709,0.9810276933488528,-0.03380342757807369,0.18982259458326475,-0.02023303616072087,1.2771041330415756,0.09429280129082811,40357.02444769257
1685421848604373455,173,1685421848604373455,camera_1,176,0,-0.20243510551502994,0.034068296143291266,0.47512344210357976,0.975900029873602,-0.03552576908993806,-0.21252876616635322,0.03447571572975553,1.3912567753577605,0.1026730793365034,40362.39161293302
1685421848613935470,174,1685421848613935470,camera_1,177,0,-0.2023643912740785,0.03378686086676351,0.4749761006629688,0.9758793114361733,-0.035703819142718626,-0.2126415201908451,0.03418173050638139,1.3817082692985423,0.10190003728765018,40385.781132886426
1685421848623823881,175,1685421848623823881,camera_1,178,0,-0.20234609339685147,0.033789555738603864,0.47498502660836095,0.9759237012926935,-0.035834589971144755,-0.2125010063380375,0.03364719486214365,1.370788553613238,0.10106239528281347,40392.87615111053
1685421848633999347,176,1685421848633999347,camera_1,179,0,-0.2026787047604991,0.034124037206197756,0.4752327169018208,0.981142758094386,-0.03415965975618734,0.1891424693555249,-0.020423813805869214,1.256055757694412,0.0927217440134255,40370.91237762152
1685421848653831243,177,1685421848653831243,camera_1,181,0,-0.20269924122265473,0.035145037496640566,0.47535682281240904,0.9810602830399192,-0.03369163159507832,0.18976869735562035,-0.019324505324744643,1.1661750373896211,0.08617736256681867,40322.19970725104
1685421848664032697,178,1685421848664032697,camera_1,182,0,-0.2028100860431378,0.03656049672512294,0.47568053879922373,0.981258750293838,-0.033259465457775535,0.18896140246061116,-0.017851087063741947,1.095811385952402,0.08108773682731989,40283.04942524037
1685421848674299716,179,1685421848674299716,camera_1,183,0,-0.20244084213360838,0.03722510848787742,0.4754047859603532,0.9757987067124223,-0.0363453993474502,-0.212316388030434,0.03765165731210838,1.3363070813938975,0.0988461982536748,40295.118431986295
1685421848684715509,180,1685421848684715509,camera_1,184,0,-0.20244135409105496,0.037898992500200436,0.4754285713775889,0.9758402072154966,-0.036944708107956054,-0.21193318228392904,0.038148456999484756,1.3795957439579072,0.10206549492899968,40296.51625381129
1685421848694480180,181,1685421848694480180,camera_1,185,0,-0.20255365828622823,0.03853786532860652,0.47513556513391075,0.9810896445339246,-0.033130762981393364,0.19003219591022677,-0.015913090526530636,1.1983016069279984,0.0885957156238653,40310.5634502098
1685421848704100608,182,1685421848704100608,camera_1,186,0,-0.20205951140206282,0.03929377456995028,0.4745619093197575,0.975482427607545,-0.037012670119993825,-0.2134592500559423,0.03872007547815584,1.3201089581125416,0.09740697011301605,40371.00350411075
1685421848714148283,183,1685421848714148283,camera_1,187,0,-0.20203791079970576,0.039472419114825213,0.47447977830862165,0.9754761253168533,-0.037197547260548684,-0.21340907766837258,0.038977390668853015,1.436667491972912,0.10598490062862385,40382.555128037464
1685421848723896265,184,1685421848723896265,camera_1,188,0,-0.20207311475660028,0.03949300629503809,0.47454934413063826,0.9756180940058699,-0.037197820587214346,-0.21271070202986975,0.03924046424133377,1.3068712354288436,0.09641931157354795,40393.700500050334
1685421848733750581,185,1685421848733750581,camera_1,189,0,-0.20228326879571126,0.03934617395789063,0.4744457547200347,0.9809651054537086,-0.03306972664665483,0.1907366366168927,-0.01527712387151105,1.4563114597112872,0.10746391686935668,40384.3774430093
1685421848744470596,186,1685421848744470596,camera_1,190,0,-0.20229949239681233,0.03852834385196041,0.47498615016604123,0.9756955271325946,-0.03693380476023803,-0.21247179479181064,0.038857030474903326,1.236918437643908,0.09140111167615508,40339.69792192544
1685421848754396438,187,1685421848754396438,camera_1,191,0,-0.20240084830961935,0.03793025245253477,0.47518819365954695,0.9757205281953261,-0.03688259618544611,-0.21239202728878717,0.03871371463725021,1.2574017904698849,0.09298649683210486,40314.5493364418
1685421848764210700,188,1685421848764210700,camera_1,192,0,-0.2026601195486773,0.03727101370662279,0.4751995030633634,0.9810524519879871,-0.033316409070792835,0.19002072213523016,-0.017838960008691503,1.2556463864748366,0.09285201767931622,40308.010378443636
1685421848773914098,189,1685421848773914098,camera_1,193,0,-0.20278870403612584,0.03654518302840235,0.47545612083353295,0.9811740800505558,-0.03341646530494211,0.18925346357344838,-0.019075927472147557,1.117891134112142,0.08272408804605867,40296.380437251166
1685421848784174680,190,1685421848784174680,camera_1,194,0,-0.20268561937547488,0.035123740954170576,0.4751885326188223,0.9810487887171686,-0.03373044510831291,0.1898197267283066,-0.019339146159091002,1.249869485909585,0.09230983465781709,40342.84648633562
1685421848794006824,191,1685421848794006824,camera_1,195,0,-0.2023708589361545,0.034493538850231445,0.47499876464278484,0.9757601986688075,-0.03567444543119935,-0.21312042860866728,0.03462732370028178,1.3050037802313454,0.09628769820795717,40360.95845297538
1685421848804296731,192,1685421848804296731,camera_1,196,0,-0.20253739688389766,0.034089667982685895,0.4748210966360615,0.9808367785318646,-0.03377689260404085,0.19078351744529332,-0.020493532551775353,1.236604235949926,0.09120626843330218,40378.872306556674
1685421848814185619,193,1685421848814185619,camera_1,197,0,-0.20230703978100775,0.03377375656039531,0.4748410268334924,0.9757126713374422,-0.03564609530704049,-0.21337113715074824,0.034451367344571805,1.3658532545086928,0.10072157043149879,40381.40086625772
1685421848824000835,194,1685421848824000835,camera_1,198,0,-0.20226592155929612,0.03377524371553799,0.4747843055149722,0.9756965769012461,-0.03576766157143842,-0.2135655325822284,0.03356527225825568,1.4233623520703986,0.10489977352932921,40389.285404900096
1685421848834472894,195,1685421848834472894,camera_1,199,0,-0.20258529796047134,0.03411501267654292,0.4749981733374142,0.9809194712203484,-0.033831268646218035,0.19036920079848443,-0.020297872546795524,1.2362649763235822,0.09121885586193147,40367.2389926645
1685421848844386577,196,1685421848844386577,camera_1,200,0,-0.20260914273590175,0.03455667084557747,0.4751016576843365,0.9808420549208321,-0.03388744591820645,0.19077312062933538,-0.020152437896318796,1.2200131810386665,0.09010096003549665,40332.44025556464
1685421848854147672,197,1685421848854147672,camera_1,201,0,-0.20257392798431045,0.03512653352766469,0.4750495157798898,0.9808463906933979,-0.03375391559378369,0.19084520479849065,-0.019471488162035554,1.2125688763917424,0.08954432033206018,40335.16408275653
1685421848863824129,198,1685421848863824129,camera_1,202,0,-0.20286238621601901,0.036568223086098715,0.47581732319727743,0.9813479354627642,-0.03343299727201645,0.1883815504840216,-0.018731142346790353,1.205597901775036,0.08927717131394182,40276.92202510359
1685421848874456167,199,1685421848874456167,camera_1,203,0,-0.20243712163813746,0.03722701209564863,0.47540498706934775,0.9758174497776698,-0.03614716319760323,-0.21244996985588113,0.03658821682462517,1.3508378058322705,0.09987269145203598,40295.77401859335
1685421848884147882,200,1685421848884147882,camera_1,204,0,-0.20251966599077184,0.03790868731765945,0.4750411304181059,0.9809369765790369,-0.03323413081091947,0.19070859171659302,-0.016981565731534684,1.2760304867988452,0.09433238725857233,40309.978783990024
1685421848894168138,201,1685421848894168138,camera_1,205,0,-0.20228662309620685,0.038488088786327375,0.47507367103878667,0.9757251349117768,-0.036846416578136185,-0.21249172011390163,0.03807980527498235,1.4199463273980655,0.10491632510205257,40331.161432347726
1685421848904341459,202,1685421848904341459,camera_1,206,0,-0.2022118771674414,0.039318020930898916,0.47490281020497105,0.9758074222386335,-0.03700090866808621,-0.21187560235289227,0.03923692889776229,1.3900632355944254,0.10266358249136805,40366.56378366286
1685421848914587736,203,1685421848914587736,camera_1,207,0,-0.20207257033151582,0.03947510343916581,0.4745767899072409,0.9755512049753008,-0.036923114952704686,-0.21306022757322907,0.039266645895367575,1.3302461756393313,0.09816778746284323,40377.46136195513
1685421848924686670,204,1685421848924686670,camera_1,208,0,-0.2020857951731103,0.039488353272727664,0.4745917751575295,0.9755365949479746,-0.036837303801045884,-0.21305774890725548,0.039721034686345934,1.3405725040938705,0.09895872109875238,40372.343128515895
1685421848934240341,205,1685421848934240341,camera_1,209,0,-0.20212468520768292,0.039330197276321574,0.4746433725341364,0.9755567186176218,-0.03686449514192069,-0.2130036574652803,0.03949100738602836,1.3755906259757467,0.10155620925582592,40367.92039847933
1685421848944021701,206,1685421848944021701,camera_1,210,0,-0.20229467487148173,0.03853288552507058,0.47498148819740366,0.9756437710203534,-0.03654893195141025,-0.21287972708726172,0.03828354003548301,1.2993566339137033,0.09600386851487935,40329.230443699744
1685421848954420566,207,1685421848954420566,camera_1,211,0,-0.20257304471982704,0.037959540110773966,0.47503525435226646,0.9810729037240727,-0.03333250805991512,0.18995551490184673,-0.017372502503279638,1.192461724160239,0.08815168437280485,40328.28185236991
1685421848964242458,208,1685421848964242458,camera_1,212,0,-0.20248982204124943,0.03724419442119713,0.47535679872700964,0.9758700314854991,-0.036507367416534174,-0.21192813488871293,0.03783331092300414,1.340894773718901,0.09916621932669828,40312.34542677692
1685421848973989725,209,1685421848973989725,camera_1,213,0,-0.2024094267778473,0.0364925348585997,0.4751421653593768,0.9756631972211917,-0.036150367396470116,-0.21307755495439876,0.03704635069581846,1.334298298752401,0.09861039118999373,40317.13937536535
1685421848984137535,210,1685421848984137535,camera_1,214,0,-0.20273447113567156,0.03513547770295109,0.47529519904185924,0.9811002069521838,-0.033651148312770295,0.18955062516370835,-0.01950755329766575,1.1632299211923964,0.08594426766964794,40332.87132232357
1685421848994368553,211,1685421848994368553,camera_1,215,0,-0.20249448130952555,0.03450877008731511,0.47526897322633377,0.9759334105325628,-0.03573400503009143,-0.21221995348799788,0.03521008992237513,1.4053746006102301,0.10379468785979412,40343.819994068486
1685421849004295587,212,1685421849004295587,camera_1,216,0,-0.20237909210861804,0.034067027631698645,0.47500807639638887,0.9758887168890067,-0.03576677969129244,-0.21258257067013678,0.03421403756529014,1.2828449205262586,0.09462014257339635,40381.55981929158
1685421849014208793,213,1685421849014208793,camera_1,217,0,-0.20232339678370223,0.03377514629395548,0.4748856583755807,0.975835620604838,-0.03584221708557387,-0.21276322837366288,0.034525145693796354,1.2643001190153884,0.09322850534828848,40395.099811906686
1685421849024655342,214,1685421849024655342,camera_1,218,0,-0.20232590738037443,0.03378149601528872,0.4749247474033705,0.9757908582769893,-0.0356497377891506,-0.2131362004576808,0.03367873443412861,1.3926091552712023,0.10267701014513268,40380.18436612981
1685421849034612417,215,1685421849034612417,camera_1,219,0,-0.20261036504116783,0.034118741613919576,0.4750765627865249,0.9810583841702937,-0.03394612176055488,0.1896292212411969,-0.02031910721580647,1.2353729190072045,0.09115018289850763,40380.84704890825
1685421849044652462,216,1685421849044652462,camera_1,220,0,-0.20259198946461715,0.03455544869706997,0.4750702011443964,0.9808850499331049,-0.033897701237480767,0.19056000462299608,-0.020058646679889453,1.305591190524865,0.09639401767767945,40346.29226237256
1685421849054067134,217,1685421849054067134,camera_1,221,0,-0.20278110754906137,0.03516195933503883,0.4755295458652233,0.9811408618801182,-0.033549005499851306,0.18941152081251747,-0.018982864973416537,1.1793478992767632,0.08718551680386545,40306.11909022786
1685421849064144134,218,1685421849064144134,camera_1,222,0,-0.2027796135507158,0.03655740620374458,0.47559951855805416,0.9811670484904733,-0.03337965619397816,0.1893571187358204,-0.018463561220237196,1.074150225496851,0.07949913403272366,40279.45179085526
1685421849074511051,219,1685421849074511051,camera_1,223,0,-0.20256761117094382,0.03725163172741354,0.4751514647380045,0.9809630237624245,-0.033080536440715416,0.19058077034553725,-0.01721029035714094,1.1904463430983014,0.08799126381379042,40307.516745085835
1685421849084392547,220,1685421849084392547,camera_1,224,0,-0.20242738877266386,0.03790172661235341,0.47483343081793916,0.9807959651906067,-0.03345068394198976,0.1914157557728356,-0.016743203144964414,1.1695762293529697,0.08640853074084578,40321.30955260036
1685421849094198465,221,1685421849094198465,camera_1,225,0,-0.20266879221120082,0.038551810947179396,0.47542107031432485,0.9813655232180375,-0.033111251106996795,0.18857376496608286,-0.016287727147571086,1.273857431486249,0.0942439998493246,40312.53874329616
1685421849104514360,222,1685421849104514360,camera_1,226,0,-0.20215891645804177,0.03930363145292619,0.4747932817737355,0.9756873023952207,-0.03698038736833371,-0.21241928768794016,0.039303754438643805,1.3546330410172231,0.10002810355872031,40365.90676141973
1685421849114670038,223,1685421849114670038,camera_1,227,0,-0.20210586537326067,0.03948483406062007,0.4746555640431949,0.9755895031974375,-0.037205351525231294,-0.21279871480322513,0.03946631534558209,1.3975014368188567,0.10316500456743945,40372.355026936646
1685421849124509811,224,1685421849124509811,camera_1,228,0,-0.20209743223919438,0.0394910716116582,0.4746085310768244,0.975576777506204,-0.03701368536549131,-0.21293321912090946,0.039234965032246,1.3255515712080523,0.0978308429643747,40376.02852743842
1685421849134208440,225,1685421849134208440,camera_1,229,0,-0.2020556944889151,0.039315739304838476,0.4744810885632956,0.9755149469486211,-0.036946914968480245,-0.2132508971790778,0.03910969964675543,1.4211923841503449,0.10484421103081293,40388.54100393341
1685421849144528865,226,1685421849144528865,camera_1,230,0,-0.2022813026918498,0.03852429970633909,0.47494268637184905,0.9756668009354834,-0.03669224741294211,-0.21269746899759923,0.03857148187615716,1.3841337723424658,0.10225507438922381,40340.70410692063
1685421849154707193,227,1685421849154707193,camera_1,231,0,-0.2026790661927806,0.037977124131021354,0.4752770720777307,0.9811763548907607,-0.03319755366281028,0.18944932480347845,-0.017315783712868318,1.2078030773554929,0.08935114491903844,40305.123717268696
1685421849164264440,228,1685421849164264440,camera_1,232,0,-0.20270592851870503,0.037278648867503456,0.47529709825580096,0.981146654731832,-0.033448806054766876,0.1895589451344021,-0.017315472895031464,1.2403262293664739,0.09171536294230785,40309.673356229905
1685421849174111843,229,1685421849174111843,camera_1,233,0,-0.2027697478390296,0.03655373156437572,0.4754115824387696,0.9811787015211141,-0.03367321260045662,0.189142862198945,-0.019479427961203832,1.0884048366569914,0.08053648004059949,40306.0055309087
1685421849184530735,230,1685421849184530735,camera_1,234,0,-0.20281895035955572,0.035147210877981505,0.47550738334954884,0.9812293414986103,-0.03359985262516482,0.18891280263668322,-0.019286842295319722,1.2182790695806034,0.09005453476360979,40321.02527783111
1685421849194275856,231,1685421849194275856,camera_1,235,0,-0.20265427952511866,0.03454810912849366,0.4751133788402508,0.9810318150543409,-0.03372749875629759,0.1898265795542609,-0.02012221095107013,1.2907421931740828,0.09528904626116634,40359.81094416976
1685421849204300403,232,1685421849204300403,camera_1,236,0,-0.20259408751638333,0.034095282779878076,0.47493515775803347,0.9809393393909291,-0.03394318884104123,0.19022094051987073,-0.020539380573056404,1.1743602713104337,0.08663762571428761,40378.18169280051
1685421849213943243,233,1685421849213943243,camera_1,237,0,-0.2023159290112776,0.0337767897485876,0.4748527027894511,0.9757701660821851,-0.035528968005100435,-0.21316425464520614,0.03422390915706539,1.3588311251369305,0.10018833677658365,40387.778104651734
1685421849224223375,234,1685421849224223375,camera_1,238,0,-0.2024027230736243,0.03379464207647338,0.4751089583202652,0.9759959816647029,-0.03569214280723878,-0.21211283335267914,0.034147630126836345,1.3832606736104935,0.1020392011231106,40382.98429308623
