%time,field.header.seq,field.header.stamp,field.header.frame_id,field.image_seq,field.transforms0.fiducial_id,field.transforms0.transform.translation.x,field.transforms0.transform.translation.y,field.transforms0.transform.translation.z,field.transforms0.transform.rotation.x,field.transforms0.transform.rotation.y,field.transforms0.transform.rotation.z,field.transforms0.transform.rotation.w,field.transforms0.image_error,field.transforms0.object_error,field.transforms0.fiducial_area
1683654612926907300,9,1683654612926907300,camera_1,12,0,-0.21855817574268388,-0.47044851210563654,3.4287191899834606,-0.7810815612947308,-0.6212270283712242,-0.06308965048597238,-0.0028757308639428764,0.007526340079493821,0.0021378045592142024,7398.149626414756
1683654612936369180,10,1683654612936369180,camera_1,13
1683654612945795774,11,1683654612945795774,camera_1,14
1683654612954914569,12,1683654612954914569,camera_1,15
1683654612964341402,13,1683654612964341402,camera_1,16,0,-0.2184657014502121,-0.4701426564361997,3.4251155785269813,0.7817303048199742,0.6206088370365762,0.060779683436611005,0.006944926171243628,0.027078080573119223,0.007679388504262823,7416.319038477027
1683654612973543643,14,1683654612973543643,camera_1,17,0,-0.21843898008082557,-0.4702529966372051,3.425579506259241,0.7812866386042264,0.6207967144076849,0.06199973559601618,0.018938334276180992,0.015323988045565784,0.00434848799030017,7405.327045269314
1683654612983068943,15,1683654612983068943,camera_1,18
1683654612992698669,16,1683654612992698669,camera_1,19,0,-0.2180755169419464,-0.46959985151327455,3.421218004962052,0.7806156536053854,0.6209012125890433,0.06337168014320455,0.033240272374334454,0.01326390850590542,0.003759945329532446,7408.076979457164
1683654613002705335,17,1683654613002705335,camera_1,20
1683654613011826992,18,1683654613011826992,camera_1,21
1683654613020873546,19,1683654613020873546,camera_1,22
1683654613029695034,20,1683654613029695034,camera_1,23
1683654613038940668,21,1683654613038940668,camera_1,24,0,-0.21889314303710192,-0.4712511474591538,3.4322424571545587,0.78221642767747,0.6206687148095937,0.05312533195390931,0.00924693640573287,0.036261754808947444,0.01032937377642387,7397.427765509114
1683654613048065423,22,1683654613048065423,camera_1,25
1683654613058366298,23,1683654613058366298,camera_1,26
1683654613067106485,24,1683654613067106485,camera_1,27,0,-0.21845499833767323,-0.47027482189860803,3.4257344265010707,0.7811530911680027,0.6208169403081091,0.05932588346384018,0.029438314088731717,0.017003671790007505,0.004831091073572493,7400.09686062718
1683654613076338768,25,1683654613076338768,camera_1,28
1683654613085757970,26,1683654613085757970,camera_1,29
1683654613094995975,27,1683654613094995975,camera_1,30
1683654613104292392,28,1683654613104292392,camera_1,31
1683654613113679170,29,1683654613113679170,camera_1,32,0,-0.2175150145258825,-0.46910638961477963,3.4189582605582722,-0.7811536623608218,-0.6197107509713696,0.06711463518436672,0.035400093994874086,0.0007704382878728211,0.00021780745496606725,7420.190320219843
1683654613122884273,30,1683654613122884273,camera_1,33
1683654613132064104,31,1683654613132064104,camera_1,34
1683654613141553401,32,1683654613141553401,camera_1,35,0,-0.218606386229108,-0.4709799197403419,3.430826283383845,-0.7810469122396108,-0.6217352260107589,-0.058214238539953514,0.004704471227854544,0.01365113037172705,0.0038841791466299666,7398.66092332825
1683654613150800943,33,1683654613150800943,camera_1,36
1683654613160179138,34,1683654613160179138,camera_1,37
1683654613169803857,35,1683654613169803857,camera_1,38
1683654613179004907,36,1683654613179004907,camera_1,39
1683654613188195228,37,1683654613188195228,camera_1,40,0,-0.21848217767437791,-0.47056338367849937,3.4283179991007837,0.7806545904438796,0.6220844960105544,0.059787820062850744,0.003834946456655516,0.03719530958915129,0.010566389138795653,7405.369721031748
1683654613197806596,38,1683654613197806596,camera_1,41
1683654613206872224,39,1683654613206872224,camera_1,42,0,-0.2184197348499778,-0.47050387707641234,3.4273996906849846,0.781704493180324,0.6209486216192073,0.05401012999219479,0.021066573264904454,0.009923381090629846,0.002819664115902117,7409.646717813565
1683654613216525316,40,1683654613216525316,camera_1,43,0,-0.21814442501002623,-0.47008747550489666,3.4246202207144454,0.7809463640856315,0.6215340818365926,0.0606415311389763,0.011864494852159825,0.004083445412106812,0.001157699768318907,7416.559859568486
1683654613225421428,41,1683654613225421428,camera_1,44
1683654613234987974,42,1683654613234987974,camera_1,45
1683654613244262456,43,1683654613244262456,camera_1,46
1683654613253405332,44,1683654613253405332,camera_1,47,0,-0.2184154858268385,-0.47075968730458667,3.428612003272171,0.7811599208108623,0.6216049098769092,0.056342731894647335,0.014900023434040146,0.02731281577143818,0.007762290903285331,7404.860788457559
1683654613263186216,45,1683654613263186216,camera_1,48
1683654613272333145,46,1683654613272333145,camera_1,49
1683654613281408786,47,1683654613281408786,camera_1,50
1683654613290903568,48,1683654613290903568,camera_1,51,0,-0.21850770916406048,-0.4705721500610625,3.4280890330351665,0.7817008317427767,0.6211242841692434,0.05354516272822574,0.016773455705494968,0.0234155377256684,0.0066546298554813555,7410.589144898111
1683654613300029277,49,1683654613300029277,camera_1,52
1683654613309451103,50,1683654613309451103,camera_1,53
1683654613319055557,51,1683654613319055557,camera_1,54
1683654613328049659,52,1683654613328049659,camera_1,55
1683654613337491989,53,1683654613337491989,camera_1,56
1683654613346958398,54,1683654613346958398,camera_1,57
1683654613356019258,55,1683654613356019258,camera_1,58,0,-0.21864903590325419,-0.4709485671589298,3.4309791600422974,0.781150441525739,0.6216188741404618,0.05820532796086608,-0.0024703873088614244,0.0014247869839891794,0.0004052891513404887,7397.9408410554715
1683654613365510940,56,1683654613365510940,camera_1,59,0,-0.2181229252563553,-0.4700088181406184,3.4237768637982566,0.7828114758366649,0.6189828513591757,0.06263459105032125,0.011972093620004018,0.0026072393520735204,0.0007387787514444259,7416.40693117073
1683654613374761104,57,1683654613374761104,camera_1,60
1683654613384239912,58,1683654613384239912,camera_1,61
1683654613393655300,59,1683654613393655300,camera_1,62
1683654613402742624,60,1683654613402742624,camera_1,63
1683654613412172317,61,1683654613412172317,camera_1,64
1683654613421576499,62,1683654613421576499,camera_1,65
1683654613430670499,63,1683654613430670499,camera_1,66
1683654613440291166,64,1683654613440291166,camera_1,67,0,-0.21833461236415572,-0.4704174962889883,3.4267924486622636,0.7813836418392859,0.6209348068780445,0.06198136473040831,-0.006154697348901079,0.018839541415218264,0.00534746183538945,7409.339185343124
1683654613449469089,65,1683654613449469089,camera_1,68
1683654613458685636,66,1683654613458685636,camera_1,69
1683654613467974185,67,1683654613467974185,camera_1,70,0,-0.2183272079976573,-0.4702615407550678,3.425815335062415,-0.7816806572128535,-0.6202380534873484,-0.06537047986554595,-0.00260912009204623,0.011060022108722478,0.003136621848665726,7406.136337505655
1683654613477212905,68,1683654613477212905,camera_1,71
1683654613486793279,69,1683654613486793279,camera_1,72
1683654613496274948,70,1683654613496274948,camera_1,73
1683654613505500316,71,1683654613505500316,camera_1,74,0,-0.21862960328998518,-0.47086230813232915,3.430083172224082,0.7819821633388901,0.6201405513468863,0.05777040104494532,0.02433461645712394,0.004739581665489823,0.0013491480463973151,7389.067513189981
1683654613514851808,72,1683654613514851808,camera_1,75,0,-0.2180088091823878,-0.46976180125594336,3.422269156991029,0.7814689257395553,0.6197863647173802,0.06484153884376888,0.03109268489937805,0.0030426495941355824,0.0008624683853979504,7403.175924113955
1683654613524143934,73,1683654613524143934,camera_1,76
1683654613533349990,74,1683654613533349990,camera_1,77
1683654613542892217,75,1683654613542892217,camera_1,78,0,-0.21872280380203057,-0.4709186524425841,3.431168061389095,0.7810971735882225,0.6215289890767582,0.05936862309261804,0.00801796369410937,0.014645599585492164,0.0041680714734109395,7392.4123849764
1683654613552015542,76,1683654613552015542,camera_1,79
1683654613561360120,77,1683654613561360120,camera_1,80
1683654613570903062,78,1683654613570903062,camera_1,81
1683654613580046176,79,1683654613580046176,camera_1,82
1683654613598899364,80,1683654613598899364,camera_1,84
1683654613608152866,81,1683654613608152866,camera_1,85,0,-0.21834464804364961,-0.47036022790015786,3.4266057877426057,0.7815640152641208,0.6202519747661125,0.06491660945950871,0.015199067709718428,0.00913550128461793,0.0025935203967009687,7398.018579839267
1683654613617475748,82,1683654613617475748,camera_1,86
1683654613626574516,83,1683654613626574516,camera_1,87
1683654613636138677,84,1683654613636138677,camera_1,88
1683654613645371675,85,1683654613645371675,camera_1,89
1683654613654642581,86,1683654613654642581,camera_1,90,0,-0.21854507889236582,-0.47060196477659405,3.4291087631380672,-0.7817415352807153,-0.6207700422833263,-0.059368856568571715,0.0002559106242855342,0.0020828107954002917,0.0005917636457217452,7403.783250125125
1683654613664010286,87,1683654613664010286,camera_1,91
1683654613673694610,88,1683654613673694610,camera_1,92
1683654613682709455,89,1683654613682709455,camera_1,93
1683654613692166805,90,1683654613692166805,camera_1,94,0,-0.2182007824994799,-0.4700354266443721,3.423725809382011,-0.7819025817103231,-0.6202727213661924,-0.0622661507200535,0.0036097532071916365,0.017669346882030368,0.005006694509968413,7421.949507394807
1683654613701243400,91,1683654613701243400,camera_1,95
1683654613710808753,92,1683654613710808753,camera_1,96
1683654613720219612,93,1683654613720219612,camera_1,97
1683654613729281425,94,1683654613729281425,camera_1,98
1683654613738698720,95,1683654613738698720,camera_1,99,0,-0.21800114826289027,-0.469646363438676,3.421068837378107,0.781473837446838,0.6201770120368293,0.06170276597181102,0.0295276785171384,0.010752413771115243,0.0030459189829586636,7415.859395424841
1683654613748057603,96,1683654613748057603,camera_1,100
1683654613757278680,97,1683654613757278680,camera_1,101,0,-0.21843145431741962,-0.47093770125551615,3.429761733197176,0.7815899512065593,0.621312694997121,0.05155779992057343,0.020723814216815645,0.03457026381511241,0.009837247200960247,7403.422461718091
1683654613766659498,98,1683654613766659498,camera_1,102
1683654613775716543,99,1683654613775716543,camera_1,103
1683654613785476922,100,1683654613785476922,camera_1,104
1683654613794805765,101,1683654613794805765,camera_1,105
1683654613803710699,102,1683654613803710699,camera_1,106,0,-0.2185401973061107,-0.4709731184893666,3.4305829710945055,0.7814741299383723,0.620928305108621,0.05814289968289771,0.019121385108400037,0.008725360792595893,0.002483215418976019,7390.511820439713
1683654613813287496,103,1683654613813287496,camera_1,107
1683654613822825431,104,1683654613822825431,camera_1,108
1683654613831901788,105,1683654613831901788,camera_1,109
1683654613841562986,106,1683654613841562986,camera_1,110,0,-0.21824127176259334,-0.47020586498800837,3.424936930155947,0.7812867049292339,0.6210695028574735,0.05678830426935397,0.025275399490459965,0.011796103150118142,0.003348444040051155,7412.022219329603
1683654613850859880,107,1683654613850859880,camera_1,111
1683654613860025167,108,1683654613860025167,camera_1,112
1683654613869506835,109,1683654613869506835,camera_1,113
1683654613878466367,110,1683654613878466367,camera_1,114
1683654613887902021,111,1683654613887902021,camera_1,115
1683654613897408008,112,1683654613897408008,camera_1,116
1683654613906537771,113,1683654613906537771,camera_1,117,0,-0.21778259047360324,-0.46930875429315133,3.4186382923048915,0.7805220843231757,0.6212302314858256,0.061404021462257694,0.03298213941113834,0.02009061729768291,0.005685554810980017,7423.108018911911
1683654613915944337,114,1683654613915944337,camera_1,118
1683654613925462007,115,1683654613925462007,camera_1,119
1683654613934610843,116,1683654613934610843,camera_1,120
1683654613944001436,117,1683654613944001436,camera_1,121
1683654613953144788,118,1683654613953144788,camera_1,122
1683654613962663650,119,1683654613962663650,camera_1,123
1683654613972029209,120,1683654613972029209,camera_1,124
1683654613981195449,121,1683654613981195449,camera_1,125,0,-0.2185208943145966,-0.47078250493056284,3.429907603701264,0.7818849987333378,0.6201075193082877,0.059569519918684165,0.023957995528581532,0.003896801790688187,0.0011090518933532384,7387.098615708296
1683654613990749120,122,1683654613990749120,camera_1,126,0,-0.21812915876875305,-0.46995465987219864,3.4225680143425574,0.780988107729098,0.6203193144032816,0.06042794650020174,0.040124643870499264,0.012976491707377136,0.0036845619978673003,7398.677119420845
1683654614001096487,123,1683654614001096487,camera_1,127
1683654614010123491,124,1683654614010123491,camera_1,128
1683654614019420146,125,1683654614019420146,camera_1,129
1683654614028634309,126,1683654614028634309,camera_1,130
1683654614038003206,127,1683654614038003206,camera_1,131
1683654614046758174,128,1683654614046758174,camera_1,132
1683654614055907726,129,1683654614055907726,camera_1,133,0,-0.21825956144625192,-0.47038895441508266,3.42599838164274,0.7811702174228915,0.6212641893754705,0.05896037792534248,0.0180989570421324,0.016793172108009458,0.004765564518176922,7409.553442262577
1683654614066064357,130,1683654614066064357,camera_1,134
1683654614074701309,131,1683654614074701309,camera_1,135
1683654614083892583,132,1683654614083892583,camera_1,136
1683654614093295335,133,1683654614093295335,camera_1,137,0,-0.21831052979547624,-0.47078573363193477,3.430586738277374,0.7805685207070052,0.6224788748365898,-0.05682881277329585,0.0018223342801263049,0.011062278295867145,0.003146278862554159,7401.025360296944
1683654614102448225,134,1683654614102448225,camera_1,138
1683654614112051486,135,1683654614112051486,camera_1,139
1683654614121424198,136,1683654614121424198,camera_1,140
1683654614130587339,137,1683654614130587339,camera_1,141,0,-0.21820939384342516,-0.4698797913652448,3.4233201931489177,-0.7820126511568465,-0.620119236536946,-0.06143193593798988,-0.011595824868740523,0.0037697903462685645,0.001067915525646163,7420.894931503106
1683654614139745235,138,1683654614139745235,camera_1,142,0,-0.21802130781434448,-0.47021082181200047,3.4243159283281153,0.7816356647930588,0.6203153215887751,0.06174629122968423,0.021023435616157212,0.03452524507883936,0.009790639833428597,7409.497898864096
1683654614149102926,139,1683654614149102926,camera_1,143
1683654614158491134,140,1683654614158491134,camera_1,144
1683654614167879819,141,1683654614167879819,camera_1,145
1683654614177157402,142,1683654614177157402,camera_1,146
1683654614186450958,143,1683654614186450958,camera_1,147
1683654614195956230,144,1683654614195956230,camera_1,148
1683654614205118656,145,1683654614205118656,camera_1,149,0,-0.21813176921949504,-0.4697091890195353,3.4225188136381672,-0.7808271131118085,-0.6215014442029081,-0.06151439745429406,-0.016154045592774776,0.0026227323105558753,0.0007427637144022271,7421.628189469458
1683654614214721441,146,1683654614214721441,camera_1,150
1683654614223953723,147,1683654614223953723,camera_1,151
1683654614233129978,148,1683654614233129978,camera_1,152,0,-0.21873634503901146,-0.4711345226452568,3.432134836008003,0.7811546657571212,0.6216223122308082,0.05719377947328216,-0.010581147965393806,0.0453873936785385,0.012929619516672458,7394.4334889357
1683654614242531061,149,1683654614242531061,camera_1,153,0,-0.21849740673728982,-0.47077349302625515,3.4297653508882138,0.7820878182744497,0.6204074292398207,0.05790527619064536,-0.00895797075422002,0.010715268726926297,0.0030460536290998334,7403.733258903025
1683654614251843929,150,1683654614251843929,camera_1,154
1683654614261111497,151,1683654614261111497,camera_1,155
1683654614270467042,152,1683654614270467042,camera_1,156
1683654614279747724,153,1683654614279747724,camera_1,157,0,-0.21898414710790648,-0.47141822760218866,3.434602133194621,0.7816160574146656,0.6214911552172736,0.052971621060535795,-0.0043692265301892115,0.04573891480686143,0.013047042160737338,7391.060396923448
1683654614289201259,154,1683654614289201259,camera_1,158
1683654614298625707,155,1683654614298625707,camera_1,159
1683654614307839155,156,1683654614307839155,camera_1,160,0,-0.2186923023969921,-0.47093267345009404,3.430481396678164,0.7811331229187144,0.6216518225198069,0.05517137354693389,0.018335085982996678,0.037405463051982224,0.010646074324063923,7396.502688537816
1683654614317127943,157,1683654614317127943,camera_1,161
1683654614326422214,158,1683654614326422214,camera_1,162
1683654614335721254,159,1683654614335721254,camera_1,163
1683654614345228433,160,1683654614345228433,camera_1,164
1683654614354408264,161,1683654614354408264,camera_1,165,0,-0.21835382908607603,-0.47049048328515164,3.4262373556636647,0.7815596623862312,0.6205396303591908,0.0614557862383684,0.017839496131423663,0.04447862022789195,0.012628076172210786,7404.077809787352
1683654614363775968,162,1683654614363775968,camera_1,166
1683654614373169183,163,1683654614373169183,camera_1,167
1683654614382328271,164,1683654614382328271,camera_1,168,0,-0.2190632667415487,-0.4717547959066605,3.4356206056385936,0.7811849972273868,0.6216209799982088,0.05701849920984545,-0.009286984482121601,0.052380256121978164,0.014952712423849877,7379.733790349446
1683654614391743898,165,1683654614391743898,camera_1,169
1683654614401068449,166,1683654614401068449,camera_1,170
1683654614410296678,167,1683654614410296678,camera_1,171
1683654614419853925,168,1683654614419853925,camera_1,172
1683654614429043292,169,1683654614429043292,camera_1,173,0,-0.21840491466268777,-0.4703650596667527,3.424271437811866,0.7813758906045363,0.6203346348306814,0.059259708672682494,0.03354020482170625,0.07367362093646079,0.020927165982211525,7401.507794718487
1683654614438484668,170,1683654614438484668,camera_1,174
1683654614447877407,171,1683654614447877407,camera_1,175
1683654614457123041,172,1683654614457123041,camera_1,176,0,-0.21846184858610634,-0.4703931829188727,3.4277627466151017,0.7820073746079673,0.6202488273928403,0.061192497830232666,0.003366954983054036,0.01451218716101721,0.004121260365505801,7405.471280052791
1683654614475421428,173,1683654614475421428,camera_1,178
1683654614485117197,174,1683654614485117197,camera_1,179
1683654614494501352,175,1683654614494501352,camera_1,180
1683654614503888368,176,1683654614503888368,camera_1,181,0,-0.21817148596085364,-0.4701705746627577,3.4250804965327504,0.7813565575207787,0.6209634044289315,0.05770699190547275,0.02358566226611339,0.011269244889263064,0.0031976160575990565,7411.435165204337
1683654614513134241,177,1683654614513134241,camera_1,182
1683654614522494554,178,1683654614522494554,camera_1,183
1683654614531735658,179,1683654614531735658,camera_1,184,0,-0.2184705890814644,-0.4708800527940669,3.4307456904069626,0.7827838460024691,0.6196068004799284,0.057764798677653356,0.00030210981267330875,0.005769657786004245,0.001640704033663635,7399.359327283455
1683654614541247129,180,1683654614541247129,camera_1,185
1683654614550216436,181,1683654614550216436,camera_1,186
1683654614559622287,182,1683654614559622287,camera_1,187
1683654614569357395,183,1683654614569357395,camera_1,188
1683654614578486680,184,1683654614578486680,camera_1,189
1683654614587719440,185,1683654614587719440,camera_1,190
1683654614597023248,186,1683654614597023248,camera_1,191
1683654614606328010,187,1683654614606328010,camera_1,192,0,-0.21822990797358183,-0.47058856577752145,3.4267867285781373,0.7819109292709905,0.6202056944728938,0.058333705345031704,0.023608770630649787,0.018115133105311543,0.005146600522035098,7402.715767979156
1683654614615800142,188,1683654614615800142,camera_1,193
1683654614625029087,189,1683654614625029087,camera_1,194
1683654614634461164,190,1683654614634461164,camera_1,195
1683654614643986225,191,1683654614643986225,camera_1,196
1683654614653043985,192,1683654614653043985,camera_1,197
1683654614662494659,193,1683654614662494659,camera_1,198
1683654614671979427,194,1683654614671979427,camera_1,199
1683654614680959463,195,1683654614680959463,camera_1,200,0,-0.21797167360135558,-0.469918089453472,3.4226949016488035,0.7793850632350631,0.622147984358475,0.06801993616937568,0.02939552769177118,0.0024129149969667196,0.0006841323197174913,7396.751223019326
1683654614690385341,196,1683654614690385341,camera_1,201
1683654614699730634,197,1683654614699730634,camera_1,202
1683654614708861112,198,1683654614708861112,camera_1,203
1683654614718281030,199,1683654614718281030,camera_1,204
1683654614727657556,200,1683654614727657556,camera_1,205
1683654614736971855,201,1683654614736971855,camera_1,206
1683654614746379852,202,1683654614746379852,camera_1,207
1683654614755631685,203,1683654614755631685,camera_1,208,0,-0.21808875531968921,-0.469771809858564,3.422040475361983,0.7822444071367927,0.6192973882242276,0.06442629151199877,0.020339257702016753,0.0027547954814508557,0.000780150235977713,7415.009712390367
1683654614764905214,204,1683654614764905214,camera_1,209
1683654614774117231,205,1683654614774117231,camera_1,210
1683654614783588409,206,1683654614783588409,camera_1,211,0,-0.21823477817554493,-0.4701424675091861,3.4254329956995804,0.781325304112496,0.6207350466149335,0.05922748548410621,0.026662258357120702,0.011852213297970593,0.0033657280328150763,7404.514411627775
1683654614793098449,207,1683654614793098449,camera_1,212
1683654614802218675,208,1683654614802218675,camera_1,213
1683654614811542749,209,1683654614811542749,camera_1,214
1683654614820858001,210,1683654614820858001,camera_1,215,0,-0.21807368982179187,-0.46990540155038585,3.423690928833536,0.7819056444409928,0.6204385297859288,0.05453981999372501,0.026551873445074325,0.007318911899346858,0.002075736627675182,7420.086784670595
1683654614830041408,211,1683654614830041408,camera_1,216,0,-0.21809885028632928,-0.4703182396217398,3.425761530069934,0.781224167471819,0.6205423233976894,0.06193105311150702,0.0279386773248203,0.0031184913241304457,0.0008857232666218529,7396.821200834356
1683654614839522838,212,1683654614839522838,camera_1,217
1683654614848924875,213,1683654614848924875,camera_1,218
1683654614858249664,214,1683654614858249664,camera_1,219,0,-0.21864109742631982,-0.47097790426625763,3.4313242664519823,0.7820212895876478,0.6205135106005003,0.05792888803507579,0.0070660968670782235,0.005009795364458114,0.0014256791892367112,7394.601485051913
1683654614867709636,215,1683654614867709636,camera_1,220
1683654614876689434,216,1683654614876689434,camera_1,221
1683654614886482954,217,1683654614886482954,camera_1,222
1683654614895744323,218,1683654614895744323,camera_1,223
1683654614904545783,219,1683654614904545783,camera_1,224,0,-0.218921842603394,-0.47148250732917946,3.4358708505846947,0.781699721727208,0.621795706992483,0.04721876112112782,0.009275366057985098,0.005209510505665094,0.0014864645481636747,7390.957885446496
1683654614914433002,220,1683654614914433002,camera_1,225
1683654614932615518,221,1683654614932615518,camera_1,227
1683654614942019701,222,1683654614942019701,camera_1,228
1683654614951462030,223,1683654614951462030,camera_1,229
1683654614960638761,224,1683654614960638761,camera_1,230
1683654614970318317,225,1683654614970318317,camera_1,231,0,-0.21816122233351837,-0.4700206915520372,3.4240334678715136,0.7812730541398988,0.6213110694567199,0.05431901264485189,0.02518759041175519,0.019963280705269426,0.005663863386620451,7420.153045276878
1683654614979440212,226,1683654614979440212,camera_1,232,0,-0.21822952553847474,-0.4705253245797016,3.4278112018734315,0.7821450441491576,0.6208393363482624,0.05226205265871009,0.008736487134976842,0.02966150938300416,0.008421593718837682,7418.328353472053
1683654614988989114,227,1683654614988989114,camera_1,233
1683654614998693466,228,1683654614998693466,camera_1,234
1683654615008583068,229,1683654615008583068,camera_1,235,0,-0.21917597240717054,-0.4714608453419339,3.435689512255798,0.7813573264620465,0.6217749333228184,0.05143692413194749,0.015195509577900375,0.023745619982946664,0.006779020557089914,7382.364162692327
1683654615017371654,230,1683654615017371654,camera_1,236
1683654615026195287,231,1683654615026195287,camera_1,237
1683654615036420822,232,1683654615036420822,camera_1,238
1683654615045868396,233,1683654615045868396,camera_1,239
1683654615054154157,234,1683654615054154157,camera_1,240,0,-0.2178559078079265,-0.46990630431961844,3.422267822550502,0.7811506999385558,0.6205318570538813,0.06819032892324291,0.009689035457983598,0.02959177817683667,0.008376473186846027,7413.119914252309
1683654615063606977,235,1683654615063606977,camera_1,241
1683654615072998762,236,1683654615072998762,camera_1,242,0,-0.21856216507403406,-0.4709854178597902,3.4309858682853447,0.7821865413801177,0.620208276070476,0.05936976555162045,0.0010675747483350657,0.003926999284885824,0.0011171951807798538,7395.271300717723
1683654615082239627,237,1683654615082239627,camera_1,243,0,-0.21842172977292273,-0.4710303117991615,3.430744525624259,0.7814912894413629,0.6210145837865043,0.059146401857727335,0.010674942577599413,0.02119813277386129,0.00603159849095018,7393.243504592918
1683654615091861724,238,1683654615091861724,camera_1,244
1683654615100740432,239,1683654615100740432,camera_1,245
1683654615109947443,240,1683654615109947443,camera_1,246
1683654615119617223,241,1683654615119617223,camera_1,247,0,-0.21853043352650406,-0.4708639577917331,3.4295837386946175,0.7808178166783996,0.622192707541432,0.056464183303158284,0.003401153296545482,0.0812241005478427,0.023098626957656968,7405.593181800565
1683654615128705501,242,1683654615128705501,camera_1,248
1683654615138243436,243,1683654615138243436,camera_1,249
1683654615147314071,244,1683654615147314071,camera_1,250
1683654615156439304,245,1683654615156439304,camera_1,251,0,-0.2183329414474395,-0.4701672061503599,3.425001528609295,0.7796619700603279,0.6220104810096774,0.06644284432700731,0.028557352704606555,0.053526682138908654,0.015201876541728639,7390.832658589585
1683654615166152715,246,1683654615166152715,camera_1,252
1683654615175376415,247,1683654615175376415,camera_1,253
1683654615184780836,248,1683654615184780836,camera_1,254
1683654615194147825,249,1683654615194147825,camera_1,255
1683654615203459739,250,1683654615203459739,camera_1,256
1683654615212823629,251,1683654615212823629,camera_1,257
1683654615222059965,252,1683654615222059965,camera_1,258,0,-0.21788907783997466,-0.46924513914488797,3.4200410098801717,-0.7798982247689529,-0.6212809028055866,-0.06429514972003163,-0.04043429897735152,0.010978341626469046,0.0031121803460745596,7402.553823453375
1683654615231348991,253,1683654615231348991,camera_1,259
1683654615241005897,254,1683654615241005897,camera_1,260
1683654615250022411,255,1683654615250022411,camera_1,261
1683654615259393930,256,1683654615259393930,camera_1,262
1683654615268835783,257,1683654615268835783,camera_1,263
1683654615278081893,258,1683654615278081893,camera_1,264
1683654615287500858,259,1683654615287500858,camera_1,265
1683654615296892642,260,1683654615296892642,camera_1,266
1683654615305974483,261,1683654615305974483,camera_1,267,0,-0.21821165046977528,-0.47099830999856446,3.4326421816301176,-0.7818641962084254,-0.621431350705586,0.04832751849448426,0.013262956071303613,0.0005155910039320588,0.00014681037637788994,7405.572609971279
1683654615315460920,262,1683654615315460920,camera_1,268
1683654615324680566,263,1683654615324680566,camera_1,269
1683654615334094047,264,1683654615334094047,camera_1,270
1683654615343546628,265,1683654615343546628,camera_1,271
1683654615352465391,266,1683654615352465391,camera_1,272
1683654615362005949,267,1683654615362005949,camera_1,273
1683654615371250152,268,1683654615371250152,camera_1,274,0,-0.2178998523200022,-0.46959132439664975,3.420310977872237,0.7815966116198394,0.6202067110776274,0.061082454353709036,0.026819880849577867,0.027741121710278094,0.007854775139642748,7422.962804793845
1683654615380589246,269,1683654615380589246,camera_1,275
1683654615389905691,270,1683654615389905691,camera_1,276
1683654615399208307,271,1683654615399208307,camera_1,277
1683654615408697843,272,1683654615408697843,camera_1,278,0,-0.21812942710959823,-0.47017823597727076,3.4253479158219085,-0.7817063333470992,-0.620022234848077,-0.06176953976015074,-0.02630894632723198,0.03985246818047017,0.011316689940671412,7400.640717523638
1683654615418096542,273,1683654615418096542,camera_1,279
1683654615427423238,274,1683654615427423238,camera_1,280
1683654615436773300,275,1683654615436773300,camera_1,281
1683654615445993661,276,1683654615445993661,camera_1,282
1683654615455145359,277,1683654615455145359,camera_1,283,0,-0.21861877908111726,-0.4717067488278927,3.433749293481142,0.782464292391692,0.6203981116566807,0.05279474297109093,0.008278242531492336,0.07791962497867642,0.022222383391869993,7391.633448783772
1683654615464526891,278,1683654615464526891,camera_1,284
1683654615473978996,279,1683654615473978996,camera_1,285,0,-0.21844667295112843,-0.4689102141609836,3.419608535218839,-0.7810232018331831,-0.6201809832066887,-0.0646194514455237,-0.034678995976059314,0.0056113547761924565,0.0015891041905493285,7411.511697033886
1683654615483027458,280,1683654615483027458,camera_1,286
1683654615492573499,281,1683654615492573499,camera_1,287
1683654615501638650,282,1683654615501638650,camera_1,288
1683654615511563539,283,1683654615511563539,camera_1,289
1683654615520756483,284,1683654615520756483,camera_1,290,0,-0.2184528574121942,-0.4704510876780816,3.428504344630216,0.7816225035764803,0.6213834353982254,0.05365512187793691,0.00836755709860829,0.014219172589946538,0.0040406709656294814,7413.472772313748
1683654615530038356,285,1683654615530038356,camera_1,291
1683654615539492607,286,1683654615539492607,camera_1,292
1683654615548505067,287,1683654615548505067,camera_1,293
1683654615558063983,288,1683654615558063983,camera_1,294,0,-0.21766095405891683,-0.4706201872493384,3.4265054685422114,0.7826342632779415,0.6198319073058733,0.0512073605195274,0.02588093618052506,0.01981411100132391,0.00562705925555667,7413.47071323753
1683654615567408561,289,1683654615567408561,camera_1,295
1683654615576523065,290,1683654615576523065,camera_1,296
1683654615586134195,291,1683654615586134195,camera_1,297
1683654615595423698,292,1683654615595423698,camera_1,298
1683654615604765892,293,1683654615604765892,camera_1,299,0,-0.2182289744719865,-0.469804704449005,3.423220067387604,0.7815747817351804,0.6204174516630622,0.06470677553783673,0.006006615270967147,0.0062102064257487655,0.0017588955360396323,7417.6604780131
1683654615613864421,294,1683654615613864421,camera_1,300
1683654615623108386,295,1683654615623108386,camera_1,301,0,-0.2185362555768894,-0.469979809507291,3.4259286565289506,-0.7810589418921838,-0.6209067355062327,-0.06450304041112731,-0.016158987312820443,0.027833737374749035,0.007899855821826202,7401.451695273866
1683654615632561206,296,1683654615632561206,camera_1,302
1683654615641984939,297,1683654615641984939,camera_1,303
1683654615651293039,298,1683654615651293039,camera_1,304
1683654615660566806,299,1683654615660566806,camera_1,305
1683654615670023441,300,1683654615670023441,camera_1,306,0,-0.21815703408700088,-0.4704539145010198,3.4268495945504305,0.7810661172691521,0.621376022370936,0.06176895061417136,0.003486547947371432,0.013447142904624343,0.003817081221552147,7408.183551908005
1683654615679262161,301,1683654615679262161,camera_1,307
1683654615688565969,302,1683654615688565969,camera_1,308
1683654615697947502,303,1683654615697947502,camera_1,309
1683654615707150697,304,1683654615707150697,camera_1,310,0,-0.21805299795866107,-0.47002765149079573,3.4239305432888987,0.7819940830543174,0.6203226095687343,0.05959661964234465,0.011548032433225454,0.019570642267353833,0.005547174944914937,7421.492370443415
1683654615725806236,305,1683654615725806236,camera_1,312
1683654615735310792,306,1683654615735310792,camera_1,313
1683654615744705200,307,1683654615744705200,camera_1,314,0,-0.2191185491751957,-0.4711924719451572,3.4326598619819886,0.7809828174039319,0.6215532608219666,0.061086605203920265,-0.0024102999932617774,0.08888878003926946,0.025327298963540183,7385.410271228759
1683654615753855943,308,1683654615753855943,camera_1,315
1683654615763293266,309,1683654615763293266,camera_1,316
1683654615772220849,310,1683654615772220849,camera_1,317,0,-0.21821425348248086,-0.47024974350876403,3.4259642404506807,0.7822152068477912,0.6202653140324894,0.05839483545699686,-0.00059462273308802,0.014184856205247343,0.004024220848536635,7418.985997970683
1683654615782093286,311,1683654615782093286,camera_1,318
1683654615791569709,312,1683654615791569709,camera_1,319
1683654615800160408,313,1683654615800160408,camera_1,320
1683654615809892892,314,1683654615809892892,camera_1,321
1683654615818909883,315,1683654615818909883,camera_1,322
1683654615828201532,316,1683654615828201532,camera_1,323
1683654615837789297,317,1683654615837789297,camera_1,324
1683654615847115755,318,1683654615847115755,camera_1,325,0,-0.21844099983111506,-0.47018255086168576,3.426016133622934,0.7816598091570822,0.6204641758706501,0.06240437414740075,0.011740668504825703,0.029950178344734013,0.00849839766706389,7407.369300534486
1683654615856363058,319,1683654615856363058,camera_1,326
1683654615865907430,320,1683654615865907430,camera_1,327
1683654615875123500,321,1683654615875123500,camera_1,328
1683654615884517192,322,1683654615884517192,camera_1,329
1683654615893801212,323,1683654615893801212,camera_1,330
1683654615903069734,324,1683654615903069734,camera_1,331
1683654615912173986,325,1683654615912173986,camera_1,332
1683654615921704769,326,1683654615921704769,camera_1,333,0,-0.21796558539166916,-0.47034859507237464,3.426407769226677,0.7811719335629622,0.6211228315197301,0.061342806928783994,0.014625266374115252,0.004008179123047739,0.0011376880739358741,7405.995138627244
1683654615931052446,327,1683654615931052446,camera_1,334
1683654615940524339,328,1683654615940524339,camera_1,335
1683654615949686288,329,1683654615949686288,camera_1,336
1683654615959078550,330,1683654615959078550,camera_1,337
1683654615968693494,331,1683654615968693494,camera_1,338
1683654615977619886,332,1683654615977619886,camera_1,339
1683654615987142086,333,1683654615987142086,camera_1,340
1683654615996375560,334,1683654615996375560,camera_1,341,0,-0.21825600256017832,-0.4711638048310068,3.4313693090764783,0.7809512871028094,0.6220667691385696,0.056069988255061154,-0.0020440946759556215,0.014936983934603633,0.0042514259659290395,7399.68809762923
1683654616006286859,335,1683654616006286859,camera_1,342
1683654616015463352,336,1683654616015463352,camera_1,343
1683654616024519681,337,1683654616024519681,camera_1,344,0,-0.21812871263638128,-0.4710851543618391,3.431141084166794,0.7821707807809801,0.6210232387201987,0.04948911601457686,-0.00947808303629201,0.016535029222723097,0.0047065600038308526,7411.061487678669
1683654616033594369,338,1683654616033594369,camera_1,345
1683654616043130636,339,1683654616043130636,camera_1,346
1683654616052600860,340,1683654616052600860,camera_1,347
1683654616061842441,341,1683654616061842441,camera_1,348
1683654616070951461,342,1683654616070951461,camera_1,349,0,-0.21868344769416131,-0.4713917972998189,3.4330791412173207,0.7812625044877285,0.6216929191509628,0.05586818639867872,-0.0023577759942154373,0.046704710519406945,0.013310273323800203,7392.627950379392
1683654616080326557,343,1683654616080326557,camera_1,350
1683654616089763164,344,1683654616089763164,camera_1,351
1683654616098928928,345,1683654616098928928,camera_1,352,0,-0.21799629383745514,-0.47089307922542145,3.429871777917592,0.7828446804484972,0.6204827766527979,0.04501663295501643,0.011350459379161267,0.007803387765306979,0.002218772753275528,7418.590192609236
1683654616108387947,346,1683654616108387947,camera_1,353
1683654616117865562,347,1683654616117865562,camera_1,354
1683654616126987457,348,1683654616126987457,camera_1,355
1683654616136298656,349,1683654616136298656,camera_1,356
1683654616145796537,350,1683654616145796537,camera_1,357,0,-0.2181303583821332,-0.47038148547040814,3.427505789554999,-0.7834434519993206,-0.6188119760736192,-0.05699259802028018,-0.00631977516609239,0.003627141530159861,0.0010295376608127436,7413.090538266347
1683654616154921054,351,1683654616154921054,camera_1,358
1683654616164071798,352,1683654616164071798,camera_1,359
1683654616173314332,353,1683654616173314332,camera_1,360,0,-0.2183891535257519,-0.47023336357420653,3.4266981770288947,0.7816067228065297,0.6209770960644382,0.05887842180630674,0.0034217645466933567,0.004575872560963035,0.0012984909246555704,7414.238474936688
1683654616182953119,354,1683654616182953119,camera_1,361
1683654616192396879,355,1683654616192396879,camera_1,362
1683654616201508760,356,1683654616201508760,camera_1,363
1683654616210955619,357,1683654616210955619,camera_1,364
1683654616220440626,358,1683654616220440626,camera_1,365,0,-0.21828055807009664,-0.47018506739284965,3.42516140148377,0.7805291187697978,0.6220505462915321,0.058697293123060726,0.019545853546850105,0.011137386260088533,0.003160009414474347,7412.666303219741
1683654616229558467,359,1683654616229558467,camera_1,366
1683654616238874912,360,1683654616238874912,camera_1,367
1683654616248353242,361,1683654616248353242,camera_1,368,0,-0.21837705430100007,-0.4704160796034349,3.4279183334709162,0.7814042415746709,0.621602508506942,0.0547810724304489,0.004094724698984197,0.000103773083537817,2.9466826630027296e-05,7415.723045550752
1683654616257586479,362,1683654616257586479,camera_1,369
1683654616267087221,363,1683654616267087221,camera_1,370
1683654616276147603,364,1683654616276147603,camera_1,371
1683654616285377740,365,1683654616285377740,camera_1,372,0,-0.21828201272158632,-0.46979584197442803,3.423367769849716,0.7812324795770078,0.6211006599165492,0.058961997953706415,0.020815040295282864,0.003790429967921227,0.0010744054199539781,7419.157434154533
1683654616294838666,366,1683654616294838666,camera_1,373,0,-0.2189165258013226,-0.47135968953661733,3.4347049734181976,0.781533305066278,0.6217775707503541,0.04950369256488232,0.012154423326922232,0.002556433202698827,0.0007289983194933901,7391.245208231732
1683654616303944587,367,1683654616303944587,camera_1,374
1683654616313324451,368,1683654616313324451,camera_1,375
1683654616323142766,369,1683654616323142766,camera_1,376,0,-0.21835407726083764,-0.4697488034647725,3.4219408873840282,0.7810197437424693,0.6203714352457997,0.06561153071211764,0.02902704347891785,0.09172469173790887,0.02600729908125266,7405.0988010424135
1683654616332378149,370,1683654616332378149,camera_1,377
1683654616341719388,371,1683654616341719388,camera_1,378
1683654616350963830,372,1683654616350963830,camera_1,379
1683654616360216617,373,1683654616360216617,camera_1,380
1683654616369547843,374,1683654616369547843,camera_1,381
1683654616378913164,375,1683654616378913164,camera_1,382
1683654616388258218,376,1683654616388258218,camera_1,383,0,-0.21817503181573006,-0.4697731284796881,3.422782700330439,0.7812606283997405,0.6199055859230107,0.0688574443238193,0.024648476932328488,0.0086149736889638,0.0024410512217371855,7399.462166259999
1683654616397787570,377,1683654616397787570,camera_1,384,0,-0.21865866233554992,-0.47063056253170327,3.4291459182960873,0.7810262196856093,0.6219357640117773,0.05479037474905722,0.013855123296141386,0.028166678093839437,0.0080092819802246,7405.9588615212115
1683654616406934022,378,1683654616406934022,camera_1,385
1683654616416320562,379,1683654616416320562,camera_1,386
1683654616425420284,380,1683654616425420284,camera_1,387
1683654616434980154,381,1683654616434980154,camera_1,388,0,-0.21852762469633513,-0.4701936606772651,3.425740198884204,0.7809040242041206,0.622221012540991,0.05500914094284456,0.001977611439191571,0.010100478888489308,0.002864772782141176,7425.187996780267
1683654616444311141,382,1683654616444311141,camera_1,389
1683654616453645706,383,1683654616453645706,camera_1,390
1683654616462996244,384,1683654616462996244,camera_1,391
1683654616472372055,385,1683654616472372055,camera_1,392,0,-0.21845006444310922,-0.47035784401104125,3.4264554606534423,0.7813005182026368,0.620740653675976,0.06405774412334293,0.012130397686871706,0.03896930941846222,0.01106320102017405,7402.022047626318
1683654616481662511,386,1683654616481662511,camera_1,393
1683654616490970373,387,1683654616490970373,camera_1,394
1683654616500015258,388,1683654616500015258,camera_1,395
1683654616509544372,389,1683654616509544372,camera_1,396
1683654616518838167,390,1683654616518838167,camera_1,397
1683654616528288364,391,1683654616528288364,camera_1,398
1683654616537617444,392,1683654616537617444,camera_1,399,0,-0.218895978884468,-0.47097263823378865,3.4317902667357214,0.7813288475547429,0.6213266210826607,0.05704864121897793,0.014963771177401029,0.06009206041926518,0.01711900554077283,7390.142223292494
1683654616546807050,393,1683654616546807050,camera_1,400
1683654616555868625,394,1683654616555868625,camera_1,401
1683654616565644741,395,1683654616565644741,camera_1,402
1683654616574748277,396,1683654616574748277,camera_1,403
1683654616583936929,397,1683654616583936929,camera_1,404
1683654616593343973,398,1683654616593343973,camera_1,405
1683654616602682828,399,1683654616602682828,camera_1,406
1683654616612144708,400,1683654616612144708,camera_1,407
1683654616621570825,401,1683654616621570825,camera_1,408,0,-0.218687163015513,-0.47083668172487164,3.430291470766806,0.7813992364015929,0.6214546987629243,0.054665912868006525,0.014863670704047866,0.011622116668149829,0.0033069189575228334,7400.59369713231
1683654616630765199,402,1683654616630765199,camera_1,409
1683654616640046119,403,1683654616640046119,camera_1,410
1683654616649413585,404,1683654616649413585,camera_1,411
1683654616658703565,405,1683654616658703565,camera_1,412
1683654616668291568,406,1683654616668291568,camera_1,413
1683654616677452325,407,1683654616677452325,camera_1,414
1683654616686876058,408,1683654616686876058,camera_1,415,0,-0.21844820574669718,-0.4701647539958326,3.4259048207203846,0.7814844494917018,0.6208356511091183,0.05557457883831763,0.027506648314770742,0.002592546632513404,0.0007363477736535996,7407.932609414915
1683654616696047544,409,1683654616696047544,camera_1,416
1683654616705731630,410,1683654616705731630,camera_1,417
1683654616714984416,411,1683654616714984416,camera_1,418
1683654616723898649,412,1683654616723898649,camera_1,419,0,-0.21852203175781743,-0.4707056422340671,3.4289977565876515,0.7828085843355811,0.6199341165531748,0.05197545375174796,0.013818959123536227,0.017853021330665797,0.00507363986161267,7411.00349462568
1683654616733493566,413,1683654616733493566,camera_1,420
1683654616742869853,414,1683654616742869853,camera_1,421
1683654616752024173,415,1683654616752024173,camera_1,422
1683654616770868778,416,1683654616770868778,camera_1,424,0,-0.21835999359384564,-0.470275427589374,3.4264344672116738,0.7806917146231608,0.6216729069001637,0.05812261976192653,0.025787683437253413,0.007286372885573655,0.002069817309553005,7402.956910529409
1683654616789546728,417,1683654616789546728,camera_1,426,0,-0.21831552319784614,-0.4703598240652113,3.4270636541367736,0.7830089244359981,0.6197330343549731,0.04977052037404087,0.01873194289059115,0.007073240238241851,0.002008485442415818,7419.567322601564
1683654616808063983,418,1683654616808063983,camera_1,428
1683654616826738357,419,1683654616826738357,camera_1,430
1683654616845496892,420,1683654616845496892,camera_1,432
1683654616854527235,421,1683654616854527235,camera_1,433
1683654616863919973,422,1683654616863919973,camera_1,434
1683654616873359441,423,1683654616873359441,camera_1,435,0,-0.2184342101929875,-0.470149475789779,3.4259907392459183,0.7807133126802127,0.621060261973703,0.06902901714300567,-0.002422641804831035,0.00393446977250278,0.0011160707796302879,7399.047709759554
1683654616882618427,424,1683654616882618427,camera_1,436
1683654616892155647,425,1683654616892155647,camera_1,437
1683654616901350975,426,1683654616901350975,camera_1,438
1683654616910768747,427,1683654616910768747,camera_1,439
1683654616920170068,428,1683654616920170068,camera_1,440
1683654616929360151,429,1683654616929360151,camera_1,441
1683654616938806056,430,1683654616938806056,camera_1,442,0,-0.21805638305627345,-0.4698774611198268,3.4236210720300018,0.7813837439517406,0.6203002108634745,0.061893692722097444,0.028918227675850717,0.007770538446493448,0.0022037964068261774,7405.349447741174
1683654616948080301,431,1683654616948080301,camera_1,443
1683654616957292795,432,1683654616957292795,camera_1,444
1683654616966736316,433,1683654616966736316,camera_1,445
1683654616975911617,434,1683654616975911617,camera_1,446
1683654616985190868,435,1683654616985190868,camera_1,447,0,-0.2186998377075244,-0.4709117982891342,3.4309207730765037,0.781378932596076,0.6219016080783907,0.04954882723931428,0.015174560413313744,0.017398980213329196,0.004952956741131131,7405.609789957987
1683654616994763612,436,1683654616994763612,camera_1,448
1683654617004488945,437,1683654617004488945,camera_1,449
1683654617013406753,438,1683654617013406753,camera_1,450,0,-0.2182556395236542,-0.4698963692666735,3.42335279481027,0.7812540534762675,0.6211575443530494,0.0592611121651504,0.017132705715690377,0.028405474789906293,0.008049995361173267,7421.241280154791
1683654617031990289,439,1683654617031990289,camera_1,452
1683654617041938781,440,1683654617041938781,camera_1,453
1683654617050658702,441,1683654617050658702,camera_1,454
1683654617060656785,442,1683654617060656785,camera_1,455
1683654617069655656,443,1683654617069655656,camera_1,456
1683654617078600645,444,1683654617078600645,camera_1,457
1683654617088191747,445,1683654617088191747,camera_1,458,0,-0.21864179757642926,-0.4703584079153673,3.4284588113414616,-0.7806555730762152,-0.6210188445607255,-0.06997126747838354,0.004061114745482549,0.006076106044929475,0.0017261974756015786,7386.724095074926
1683654617097201108,446,1683654617097201108,camera_1,459
1683654617106529951,447,1683654617106529951,camera_1,460
1683654617115947484,448,1683654617115947484,camera_1,461
1683654617125236034,449,1683654617125236034,camera_1,462
1683654617134556770,450,1683654617134556770,camera_1,463
1683654617144013404,451,1683654617144013404,camera_1,464
1683654617153155803,452,1683654617153155803,camera_1,465
1683654617162614822,453,1683654617162614822,camera_1,466,0,-0.21878714102269256,-0.4706277923319074,3.4297102694694104,0.7810897528156174,0.6213678471716846,0.059666594147444026,0.015514318886370027,0.010316089494153857,0.0029341279033781903,7394.325257110643
1683654617171954393,454,1683654617171954393,camera_1,467,0,-0.2181192764145346,-0.46989790698123923,3.4229450130222308,0.7828434182890086,0.6191593648908433,0.05345060728371688,0.03067402631787614,0.007961873488966376,0.0022583540506499297,7420.68491029367
1683654617181202888,455,1683654617181202888,camera_1,468
1683654617190743446,456,1683654617190743446,camera_1,469
1683654617199876070,457,1683654617199876070,camera_1,470
1683654617209317684,458,1683654617209317684,camera_1,471
1683654617218609809,459,1683654617218609809,camera_1,472
1683654617227749586,460,1683654617227749586,camera_1,473
1683654617237120866,461,1683654617237120866,camera_1,474,0,-0.21864834157260005,-0.47025832295961234,3.428382405132416,-0.7824646785720553,-0.620926314414446,-0.0462862860813776,-0.00755768321748664,0.02454354806104675,0.006971798891649585,7425.527007702272
1683654617246492624,462,1683654617246492624,camera_1,475
1683654617255745172,463,1683654617255745172,camera_1,476
1683654617265423536,464,1683654617265423536,camera_1,477
1683654617274503946,465,1683654617274503946,camera_1,478,0,-0.21883070125317375,-0.4707820042793693,3.430248081001776,0.7805610422612012,0.6223703109940365,0.057827991917078235,-0.00596478399709508,0.038721100019756705,0.011016034090813757,7401.885419521015
1683654617283995628,466,1683654617283995628,camera_1,479
1683654617293371915,467,1683654617293371915,camera_1,480
1683654617302563190,468,1683654617302563190,camera_1,481
1683654617311993598,469,1683654617311993598,camera_1,482,0,-0.21781804302303298,-0.46907065827961747,3.417353541417337,0.7811284152653601,0.6207213573812635,0.06378351466596886,0.02179583934252423,0.00907860801089555,0.002564258321952326,7435.460572414103
1683654617320931673,470,1683654617320931673,camera_1,483,0,-0.21810216486342948,-0.46983067198097,3.422083423119318,0.7816494681143189,0.61988466703997,0.06668010907422445,0.017912889750043813,0.02509690006263554,0.007108065991610163,7412.129595067818
1683654617330323934,471,1683654617330323934,camera_1,484
1683654617339811801,472,1683654617339811801,camera_1,485,0,-0.21853953037455928,-0.4701916516643279,3.4260206785965477,0.7816373796540315,0.6212596112564098,0.05356238162172676,0.014511148270300853,0.0343369065085426,0.009747618684228042,7421.0506097190055
1683654617348909139,473,1683654617348909139,camera_1,486
1683654617358239412,474,1683654617358239412,camera_1,487
1683654617368165016,475,1683654617368165016,camera_1,488
1683654617377124786,476,1683654617377124786,camera_1,489
1683654617386562347,477,1683654617386562347,camera_1,490,0,-0.21849017993499226,-0.4701213811897957,3.424872020522933,0.7809647274547528,0.6209717713246404,0.065638611248097,0.013406207624967146,0.05008617753628641,0.014207002894954943,7405.084435579134
1683654617395817756,478,1683654617395817756,camera_1,491
1683654617404928922,479,1683654617404928922,camera_1,492
1683654617423696994,480,1683654617423696994,camera_1,494
1683654617433136463,481,1683654617433136463,camera_1,495
1683654617442536592,482,1683654617442536592,camera_1,496
1683654617451780080,483,1683654617451780080,camera_1,497
1683654617461275100,484,1683654617461275100,camera_1,498,0,-0.2187116434893032,-0.4709075304669886,3.4318454807091836,0.7825837530139651,0.6206740649737872,0.04308548519079512,0.021679842097354046,0.008002508315257728,0.0022792250325186203,7405.977230004504
1683654617470563888,485,1683654617470563888,camera_1,499
1683654617479777812,486,1683654617479777812,camera_1,500
1683654617489061594,487,1683654617489061594,camera_1,501,0,-0.2183914641049939,-0.4700318477034608,3.4246157300610425,-0.7811314650421503,-0.6206195795074675,-0.0656345593323239,-0.018896467244698414,0.04881521436618641,0.013848719887328515,7402.735079739476
1683654617498317241,488,1683654617498317241,camera_1,502
1683654617507908105,489,1683654617507908105,camera_1,503
1683654617517216682,490,1683654617517216682,camera_1,504
1683654617536005735,491,1683654617536005735,camera_1,506,0,-0.2184402774243431,-0.4703010257877748,3.426307705029703,0.7803990247996453,0.6219286470967146,0.06234959212047833,0.0171653247747651,0.018938639492262155,0.005376974031392987,7402.90102742985
1683654617545482158,492,1683654617545482158,camera_1,507
1683654617554716110,493,1683654617554716110,camera_1,508
1683654617573112010,494,1683654617573112010,camera_1,510
1683654617582720994,495,1683654617582720994,camera_1,511
1683654617591785192,496,1683654617591785192,camera_1,512
1683654617600997686,497,1683654617600997686,camera_1,513
1683654617610450506,498,1683654617610450506,camera_1,514
1683654617619971752,499,1683654617619971752,camera_1,515
1683654617628988742,500,1683654617628988742,camera_1,516
1683654617638515710,501,1683654617638515710,camera_1,517,0,-0.2183856965312172,-0.47036439443208733,3.4270746663865697,0.7811348462701423,0.6210493545037642,0.0640158198579106,0.0052939607949504495,0.0036310124560259283,0.0010305292309916313,7402.575194116678
1683654617647461891,502,1683654617647461891,camera_1,518
1683654617657075643,503,1683654617657075643,camera_1,519
1683654617666519880,504,1683654617666519880,camera_1,520
1683654617676001787,505,1683654617676001787,camera_1,521
1683654617685228586,506,1683654617685228586,camera_1,522
1683654617694504022,507,1683654617694504022,camera_1,523
1683654617703654766,508,1683654617703654766,camera_1,524
1683654617713010787,509,1683654617713010787,camera_1,525,0,-0.2187670128703129,-0.4706199607637182,3.4291285442417565,0.7816037079869498,0.6213315074961445,0.05389316716938084,0.011761291853900577,0.028342753241304308,0.008058155745139819,7408.635474644603
1683654617722287416,510,1683654617722287416,camera_1,526
1683654617731821537,511,1683654617731821537,camera_1,527
1683654617741120815,512,1683654617741120815,camera_1,528
1683654617750220775,513,1683654617750220775,camera_1,529
1683654617759684324,514,1683654617759684324,camera_1,530
1683654617769139289,515,1683654617769139289,camera_1,531
1683654617778245210,516,1683654617778245210,camera_1,532
1683654617787650108,517,1683654617787650108,camera_1,533,0,-0.21820518519519247,-0.46961153964953267,3.421877845945058,-0.7805596796932184,-0.6213752094211462,-0.06691075513788626,-0.011932577295996361,0.0056183417327702045,0.001590228192344263,7416.559989928268
1683654617797062635,518,1683654617797062635,camera_1,534
1683654617806252241,519,1683654617806252241,camera_1,535
1683654617815837144,520,1683654617815837144,camera_1,536
1683654617824818611,521,1683654617824818611,camera_1,537
1683654617834216594,522,1683654617834216594,camera_1,538
1683654617843786239,523,1683654617843786239,camera_1,539
1683654617852876186,524,1683654617852876186,camera_1,540,0,-0.21838375888583172,-0.4696977769387802,3.423077255309128,-0.7807917686622146,-0.6208405051157518,-0.06315750354060756,-0.0305354047536141,0.0367370504536666,0.010423375559883909,7403.673800442833
1683654617862390518,525,1683654617862390518,camera_1,541,0,-0.21845770339175433,-0.4698634549879032,3.423005815994591,0.7807422496638072,0.6210695514875999,0.06690546448340864,0.015421109789772292,0.0490835978416726,0.013909300490617118,7409.4373099913355
1683654617871493577,526,1683654617871493577,camera_1,542
1683654617881129264,527,1683654617881129264,camera_1,543
1683654617890425443,528,1683654617890425443,camera_1,544,0,-0.2180412678265374,-0.4694280465005116,3.4198787357196023,0.7809113680297952,0.6204632180179483,0.06645135408950499,0.028054374138745487,0.016536448965780437,0.00468008842995767,7413.499076547565
1683654617899736166,529,1683654617899736166,camera_1,545
1683654617908829927,530,1683654617908829927,camera_1,546
1683654617918278932,531,1683654617918278932,camera_1,547
1683654617927319049,532,1683654617927319049,camera_1,548
1683654617937013387,533,1683654617937013387,camera_1,549,0,-0.21789066493836032,-0.4692965003828415,3.41858071402179,0.7813691919818269,0.6197649640107452,0.06806546668177382,0.026845250079280993,0.012269007158465683,0.003469365140895722,7417.029344833456
1683654617946138143,534,1683654617946138143,camera_1,550
1683654617955581426,535,1683654617955581426,camera_1,551,0,-0.21805406157750873,-0.46919861989236844,3.4189905215266405,-0.7804630970128859,-0.6208097034771575,-0.065868092806009,-0.03367581654181392,0.011002826679032296,0.0031147185988274735,7412.532544452464
1683654617964929580,536,1683654617964929580,camera_1,552
1683654617974229812,537,1683654617974229812,camera_1,553
1683654617983640670,538,1683654617983640670,camera_1,554
1683654617993111610,539,1683654617993111610,camera_1,555
1683654618002566099,540,1683654618002566099,camera_1,556,0,-0.21831351051447673,-0.4700606090846262,3.4248889762933383,0.7817514600377089,0.6208895965814752,0.056350795795105595,0.013614382066829077,0.010936597711406648,0.0031006154958130865,7421.94139734376
1683654618012351274,541,1683654618012351274,camera_1,557
1683654618021561861,542,1683654618021561861,camera_1,558
1683654618030231714,543,1683654618030231714,camera_1,559
1683654618039940118,544,1683654618039940118,camera_1,560,0,-0.2185241383364693,-0.4704299962874783,3.42874530136762,0.7809685428811236,0.6215905809437859,0.06088994731845514,-0.0023872636337883223,0.00301611190661788,0.0008569258418790803,7403.023408017587
1683654618048790693,545,1683654618048790693,camera_1,561
1683654618058274507,546,1683654618058274507,camera_1,562
1683654618067764043,547,1683654618067764043,camera_1,563
1683654618076804399,548,1683654618076804399,camera_1,564
1683654618086307764,549,1683654618086307764,camera_1,565,0,-0.21859653480090505,-0.4703412177576884,3.427152705129796,0.7805326287336053,0.621511789811484,0.06698701642298655,0.0021564411144586967,0.029698884114623073,0.008432014770345428,7397.2944115176815
1683654618095375776,550,1683654618095375776,camera_1,566
1683654618104902029,551,1683654618104902029,camera_1,567,0,-0.21873969609463753,-0.47064186195143864,3.429600054005555,0.7824100450674006,0.6197410867984199,0.06088971918632904,0.006924507849056589,0.02862759935669601,0.008140639136803659,7396.9028335155435
1683654618114232063,552,1683654618114232063,camera_1,568
1683654618123546600,553,1683654618123546600,camera_1,569
1683654618132966041,554,1683654618132966041,camera_1,570
1683654618142370223,555,1683654618142370223,camera_1,571
1683654618151460886,556,1683654618151460886,camera_1,572,0,-0.2185700375523365,-0.4703309573774118,3.427355163322862,0.7815026792033789,0.620175354556225,0.06604135751364744,0.01657199736773058,0.002119898214004934,0.0006020480987041331,7391.851017046722
1683654618160914421,557,1683654618160914421,camera_1,573
1683654618169993162,558,1683654618169993162,camera_1,574
1683654618179623842,559,1683654618179623842,camera_1,575
1683654618189013242,560,1683654618189013242,camera_1,576,0,-0.21877208752074237,-0.47084640903386826,3.4310388192604604,0.7812303058726884,0.6213154142649183,0.0579045947736824,0.017129596812953715,0.0019238315289840102,0.0005474752362717558,7390.633583264891
1683654618198102474,561,1683654618198102474,camera_1,577
1683654618207585811,562,1683654618207585811,camera_1,578
1683654618217077493,563,1683654618217077493,camera_1,579
1683654618226154088,564,1683654618226154088,camera_1,580
1683654618235521793,565,1683654618235521793,camera_1,581
1683654618244765520,566,1683654618244765520,camera_1,582
1683654618254035949,567,1683654618254035949,camera_1,583
1683654618263565301,568,1683654618263565301,camera_1,584
1683654618272625684,569,1683654618272625684,camera_1,585
1683654618282110691,570,1683654618282110691,camera_1,586
1683654618291737318,571,1683654618291737318,camera_1,587
1683654618300803661,572,1683654618300803661,camera_1,588
1683654618310233592,573,1683654618310233592,camera_1,589
1683654618319314241,574,1683654618319314241,camera_1,590
1683654618338336229,575,1683654618338336229,camera_1,592,0,-0.2185648014225226,-0.4704730918147557,3.427711765595694,0.7813475032435231,0.6208903708238611,0.06311363549386316,-0.002809912466447283,0.013070528395473957,0.0037120209213500695,7403.170350756496
1683654618347223997,576,1683654618347223997,camera_1,593
1683654618356860637,577,1683654618356860637,camera_1,594
1683654618366251468,578,1683654618366251468,camera_1,595
1683654618375456571,579,1683654618375456571,camera_1,596
1683654618384822845,580,1683654618384822845,camera_1,597
1683654618393967628,581,1683654618393967628,camera_1,598
1683654618403468608,582,1683654618403468608,camera_1,599,0,-0.21884348582261978,-0.47075730862524057,3.4308509626216224,0.7817459919241997,0.6212083920862486,0.05382382617399692,-0.008736901513602962,0.01137408590875566,0.003236618085404744,7405.943980800221
1683654618412866592,583,1683654618412866592,camera_1,600
1683654618421930074,584,1683654618421930074,camera_1,601
1683654618431573867,585,1683654618431573867,camera_1,602
1683654618449763298,586,1683654618449763298,camera_1,604
1683654618459345340,587,1683654618459345340,camera_1,605
1683654618468626022,588,1683654618468626022,camera_1,606
1683654618477984905,589,1683654618477984905,camera_1,607
1683654618487605571,590,1683654618487605571,camera_1,608,0,-0.21835971033644774,-0.47004215711935315,3.425189057490154,0.7809738814369285,0.6208721053926219,0.06498083422749786,0.019367923011257393,0.0023498782538808882,0.0006666527324459496,7401.28634287743
1683654618496477603,591,1683654618496477603,camera_1,609
1683654618505997657,592,1683654618505997657,camera_1,610
1683654618515554666,593,1683654618515554666,camera_1,611
