%time,field.header.seq,field.header.stamp,field.header.frame_id,field.image_seq,field.transforms0.fiducial_id,field.transforms0.transform.translation.x,field.transforms0.transform.translation.y,field.transforms0.transform.translation.z,field.transforms0.transform.rotation.x,field.transforms0.transform.rotation.y,field.transforms0.transform.rotation.z,field.transforms0.transform.rotation.w,field.transforms0.image_error,field.transforms0.object_error,field.transforms0.fiducial_area
1683662782026393890,164,1683662782026393890,camera_1,178,0,-0.07642500316366295,-0.18646333965556416,1.6757862581365222,-0.07795845187265339,-0.9936608362184397,-0.0786837526528155,0.019222107474495473,0.00877614270302729,0.0005938116306106621,30898.14976002974
1683662782033085346,165,1683662782033085346,camera_1,179,0,-0.07649188294171998,-0.18656837043169622,1.6767536487941186,-0.0776830259429158,-0.9941631946579269,-0.07271494661836495,0.017816464469300006,0.006149613665911602,0.0004164901117404717,30907.973201175562
1683662782040076494,166,1683662782040076494,camera_1,180,0,-0.0765160507953326,-0.18663236690302124,1.6774548854791362,-0.07772692123512893,-0.9944589460154944,-0.06780688649794997,0.020301639059799287,0.000120707194582792,8.177297768766778e-06,30906.908166325204
1683662782046450614,167,1683662782046450614,camera_1,181,0,-0.07638372892205664,-0.18651859529587533,1.676222631105351,-0.07805888959484798,-0.9940855706913023,-0.07259559514931893,0.020750119601662304,0.01324269420820201,0.0008960206071474069,30920.85777116652
1683662782053122043,168,1683662782053122043,camera_1,182,0,-0.07649207343530098,-0.18642575165144962,1.6756521668095852,-0.0777783159042362,-0.9938666411398629,-0.07524780119174142,0.022746463907077744,0.0023226517741932184,0.00015705922553149534,30917.518139462107
1683662782059700489,169,1683662782059700489,camera_1,183,0,-0.07655990212063686,-0.18663904009838345,1.6774059037761375,-0.07805986854352098,-0.9940353035621349,-0.07323683313321211,0.020900681034850273,0.007583319711557124,0.0005139113092655973,30872.37596447382
1683662782066532611,170,1683662782066532611,camera_1,184,0,-0.07649985648964544,-0.18657146367037486,1.6769236387192143,-0.07773101401464894,-0.9939782906037881,-0.07467037616486823,0.019732769497032322,0.016652991457704047,0.001128123926805999,30883.49601189207
1683662782073066473,171,1683662782073066473,camera_1,185,0,-0.07645622501432649,-0.18645964135697646,1.676007835432684,-0.07813462293915699,-0.9936819208152756,-0.07897175254381755,0.015958798299939115,0.008331475456543558,0.0005640346637225984,30895.64877182468
1683662782079926729,172,1683662782079926729,camera_1,186,0,-0.07643984630341165,-0.18664493671603488,1.6766940829515384,-0.07660678297630354,-0.9938651005660039,-0.07715580317247796,0.02026190306359396,0.02127298401319422,0.001440582770853863,30873.296439481222
1683662782086633682,173,1683662782086633682,camera_1,187,0,-0.07646026817917354,-0.18659848924391942,1.6766929913569066,-0.07810167341885872,-0.9934206358201295,-0.08265868384370437,0.013531848400355673,0.0003788594340221607,2.567424152010264e-05,30847.37878913333
1683662782093194484,174,1683662782093194484,camera_1,188,0,-0.0764647207235317,-0.18653584646627086,1.6764401032414251,-0.07791630860196311,-0.994002831913831,-0.07425406545821901,0.01933268641587481,0.004542857048363658,0.0003075367251084696,30905.26351265241
1683662782099967956,175,1683662782099967956,camera_1,189,0,-0.07651232170890403,-0.18664413282369186,1.6778240367408634,-0.07722334756946565,-0.9943994331710012,-0.06702575517751763,0.026718346547653468,0.0028933716712344903,0.00019607672893487903,30877.823341768555
1683662782106421947,176,1683662782106421947,camera_1,190,0,-0.07647034612737398,-0.18666251874513834,1.6781703675000823,-0.07687804723735991,-0.9946439380306343,-0.06599900660879676,0.02042874246091091,0.014638393525274296,0.0009923924521780517,30891.176819829172
1683662782113095283,177,1683662782113095283,camera_1,191,0,-0.07648799702364772,-0.18663376004196536,1.6774652799989884,-0.0771214835888697,-0.994447960837601,-0.06511375919560966,0.02976118812153122,0.005308908312144922,0.0003595183858984308,30890.876341518888
1683662782119886636,178,1683662782119886636,camera_1,192,0,-0.07643180302044421,-0.18668472280867876,1.6763916639039176,-0.07727775619268668,-0.993265311315169,-0.08506378031306575,0.014707923533070306,0.026526058712079248,0.0017973871397067185,30836.952126806493
1683662782126414299,179,1683662782126414299,camera_1,193,0,-0.07657476128545092,-0.18663963481858142,1.6779293144178267,-0.07742518886755836,-0.9942775886751203,-0.0691432093387283,0.02523159506555088,0.010425997360471229,0.0007067929210868592,30866.137696309823
1683662782133108139,180,1683662782133108139,camera_1,194,0,-0.07657304919591476,-0.18680520870073802,1.6795496806138284,-0.07785194964758888,-0.9950074835524277,-0.05844514307183649,0.021985150944379764,0.006157359349344915,0.00041798702245986305,30876.40022474192
1683662782139918565,181,1683662782139918565,camera_1,195,0,-0.07651147680838256,-0.1866042939283361,1.6772544299570256,-0.07791693465070891,-0.9942282580506006,-0.07122720315770134,0.01912610045558501,0.012194009153063234,0.0008262981615842149,30896.040777104405
1683662782153202533,182,1683662782153202533,camera_1,197,0,-0.07658156851494752,-0.18649667766164846,1.6769842018353072,-0.07757732224272357,-0.9944048415824546,-0.06603095952988239,0.027940696029003065,0.015552082739304751,0.0010530230450551666,30909.82337867112
1683662782159908533,183,1683662782159908533,camera_1,198,0,-0.07662551928402267,-0.18673016934033743,1.6779712751413092,-0.07746583355432676,-0.9941459950236186,-0.07209005294676904,0.02181305747402296,0.06502934774198366,0.004410933717646503,30856.88844291563
1683662782166483402,184,1683662782166483402,camera_1,199,0,-0.07645788129554779,-0.18666623808668387,1.6783225780601094,0.07779764287639532,0.9943611928780043,0.07061947743178996,-0.014360858900848997,0.00971501035746769,0.0006589205820636765,30871.777636541636
1683662782173284769,185,1683662782173284769,camera_1,200,0,-0.07639079777595523,-0.18652042939265545,1.6759196481884413,-0.07752509111748067,-0.9937002799049809,-0.0792722096617092,0.016295113971341632,0.007478396531951148,0.0005060223856753971,30896.01560770814
1683662782179903984,186,1683662782179903984,camera_1,201,0,-0.07652705395088286,-0.18662135078415132,1.677150488934598,-0.0771925289827082,-0.9939549079080359,-0.07553131597304828,0.019747780183129286,0.005075197296719125,0.0003438796943236937,30869.269377352655
1683662782186544895,187,1683662782186544895,camera_1,202,0,-0.07641554700182036,-0.18643284634692522,1.6758813927870981,-0.07786441841884627,-0.9939066296869488,-0.07494414408720261,0.021682229490114974,0.003298155879747355,0.00022307159784970885,30914.59024467234
1683662782193669080,188,1683662782193669080,camera_1,203,0,-0.07653446762762127,-0.1867076747228562,1.67835705825263,-0.07786346055174208,-0.9946221272686466,-0.06559412144477512,0.019013592253637475,0.0018696370898396708,0.00012680325555365973,30890.26968035264
1683662782200168609,189,1683662782200168609,camera_1,204,0,-0.0765619746751305,-0.18679232067595464,1.6796070456193877,-0.07751799893837114,-0.9949199935086244,-0.060561110394942996,0.021389676601599114,0.009723300977384497,0.0006600411769841667,30865.190571316743
1683662782206786632,190,1683662782206786632,camera_1,205,0,-0.07649493548894723,-0.18646316252802175,1.6769487523155155,-0.07754573866301259,-0.9943833731044841,-0.06835508817591371,0.022714480602018482,0.013001480638195062,0.0008803403308861075,30914.891343604282
1683662782213342666,191,1683662782213342666,camera_1,206,0,-0.07652687918796812,-0.18649012379439744,1.6757999446182146,-0.07786101331138667,-0.9939056308100569,-0.07471426128801119,0.022517522296507744,0.025501486642497184,0.0017252123073865303,30916.584513556234
1683662782219810485,192,1683662782219810485,camera_1,207,0,-0.07662574303950866,-0.1866138736889471,1.677487714702178,-0.07736563834314449,-0.9940980041198725,-0.07225072029186569,0.023739200196094195,0.03738175663329457,0.0025338683636092385,30867.25537012425
1683662782226688861,193,1683662782226688861,camera_1,208,0,-0.07651710020624936,-0.18664706786745577,1.6781832650787054,-0.07752316697113214,-0.994633854043356,-0.06444183529389777,0.023257360933262472,0.0004394855905047734,2.979098596216605e-05,30891.027555500186
1683662782233297824,194,1683662782233297824,camera_1,209,0,-0.07647574685691763,-0.1865351622705424,1.6767686974934115,-0.07741251718200705,-0.9941701434526417,-0.07216035801655284,0.02063760600996349,0.012959150871211023,0.0008775066818832642,30903.816505258674
1683662782240045785,195,1683662782240045785,camera_1,210,0,-0.07650085232926936,-0.18660424858703678,1.677269050733075,-0.07781018606383228,-0.9941732591865095,-0.07188830279083501,0.019929314715727706,0.009357872107102594,0.0006340521938339483,30889.005846244683
1683662782246670007,196,1683662782246670007,camera_1,211,0,-0.07646327042885351,-0.18642096338040645,1.6757044021995975,-0.07789673462710271,-0.9939192794006603,-0.07393447522295123,0.024295228824069797,0.008180937067663763,0.0005531807054471884,30919.915802555104
1683662782253080368,197,1683662782253080368,camera_1,212,0,-0.07647525446865185,-0.18660587309418136,1.678007936156586,-0.07751195255778422,-0.9946226149462091,-0.0642882561511879,0.024182042289357702,0.00621679013420362,0.00042124172520436134,30895.483676344877
1683662782259964466,198,1683662782259964466,camera_1,213,0,-0.07634493236062301,-0.18637245902445926,1.6745265634124027,-0.07763182328556505,-0.9932243693810948,-0.08489436064454793,0.016480279476964184,0.02062536108223867,0.0013941843039015597,30902.882824036307
1683662782266447782,199,1683662782266447782,camera_1,214,0,-0.07646589825897804,-0.18656047131165598,1.6766580247004257,-0.07782203318088553,-0.9939234980425029,-0.07558684581363105,0.018612896886146545,0.007992336993083882,0.0005412919015874996,30889.974837046764
1683662782273414850,200,1683662782273414850,camera_1,215,0,-0.0764107378945961,-0.18664922023760994,1.6765842395242212,0.07717254539629191,0.9935875448743917,0.08113510430788087,-0.015661537487919392,0.03475841464023688,0.002354363097789535,30859.097755424147
1683662782279944896,201,1683662782279944896,camera_1,216,0,-0.07654449422564895,-0.18652927135438557,1.6772281403084222,-0.07803345167663528,-0.9942561512934945,-0.0686189216645401,0.025630638385995698,0.0021805766418765415,0.00014766280113982167,30893.682651608433
1683662782286371231,202,1683662782286371231,camera_1,217,0,-0.07636759463179857,-0.1863742257900854,1.6750248513158255,-0.077661115237877,-0.993559787777625,-0.08076442414315024,0.016876228373529176,0.0038112882830318995,0.0002576356468797077,30916.152256079033
1683662782293053150,203,1683662782293053150,camera_1,218,0,-0.0764353096021061,-0.186488253560586,1.6761258226186873,-0.07723991648112594,-0.9940093799451153,-0.07440772143325833,0.021043737173488376,0.006938759900549485,0.00046949566211020954,30911.1500205539
1683662782299825429,204,1683662782299825429,camera_1,219,0,-0.07655451303312162,-0.18666501113690276,1.6778966121642607,-0.07793038715261852,-0.9942387111486175,-0.06986964949902001,0.023118652440463728,0.0011658057919703424,7.902215914525286e-05,30869.75214916281
1683662782306349992,205,1683662782306349992,camera_1,220,0,-0.07647589643107744,-0.18662551534404181,1.6778039403010205,0.07736444884238006,0.9944398402603168,0.06977654658333513,-0.015342089337959056,0.009071428245079005,0.0006149022966032277,30894.177549308755
1683662782313477277,206,1683662782313477277,camera_1,221,0,-0.07660863667616358,-0.186818660018005,1.6790123036733955,-0.07726114809211994,-0.9944910264982512,-0.06729808367912603,0.022119700338378002,0.03433222831245075,0.002331201375710086,30847.704494689104
1683662782320000410,207,1683662782320000410,camera_1,222,0,-0.07659955878447479,-0.18666604509381848,1.6793158116346787,-0.07759451204603655,-0.9952337689608749,-0.0554830637958017,0.020259971670771797,0.003063998167817772,0.00020792865114891497,30903.29766123845
1683662782326756238,208,1683662782326756238,camera_1,223,0,-0.07645034666293721,-0.18668061495779467,1.678193621266145,-0.0775462604926371,-0.9942415630906022,-0.07109162394321823,0.02040276235906319,0.0033627507737037377,0.00022801286154186648,30859.198250515365
1683662782333196878,209,1683662782333196878,camera_1,224,0,-0.07649166146644462,-0.18662355115460724,1.6768885182490485,-0.07766617471570367,-0.9939588394895398,-0.07422418165909787,0.022462447833541056,0.0086528440742768,0.0005859802043363924,30880.299005783672
1683662782339914560,210,1683662782339914560,camera_1,225,0,-0.07642938691931092,-0.18666255603023538,1.6771785006556368,-0.07802655950099432,-0.9940541203122084,-0.07459721794171975,0.014265937687900928,0.0021355011349442066,0.00014473607446324367,30887.740853493975
1683662782346621751,211,1683662782346621751,camera_1,226,0,-0.07655212645082653,-0.1865207147753185,1.6764437249389241,-0.07734164221408807,-0.9941306406665463,-0.07032346899894924,0.02787739900894916,0.02672168299977784,0.0018084685500916052,30903.986979710688
1683662782353040933,212,1683662782353040933,camera_1,227,0,-0.0764423335854127,-0.18644058411390496,1.6759828993731973,-0.07774949716710117,-0.9938040942717656,-0.07672246457130706,0.02054510474646453,0.004067997917445609,0.00027523444627908597,30901.411629343063
1683662782359968662,213,1683662782359968662,camera_1,228,0,-0.07656553592040748,-0.1866423384535002,1.6772887183459217,-0.07746861692462513,-0.9938633654248606,-0.07626295565864633,0.02044959296326514,0.01797190577872243,0.0012180842557473466,30857.17318668868
1683662782366560220,214,1683662782366560220,camera_1,229,0,-0.07647248917799175,-0.1865604310476374,1.677033028751033,-0.077554465328679,-0.9941713123025387,-0.07046996950276958,0.025351333308318704,0.0059500104007383925,0.00040279339839762764,30890.476894269043
1683662782373062610,215,1683662782373062610,camera_1,230,0,-0.0764012470539119,-0.18638116273652677,1.6749138189922887,-0.07709823082032781,-0.9934115505926526,-0.08243419782607246,0.019848349610203254,0.023059557120177487,0.0015591501904988392,30899.845326191746
1683662782379874467,216,1683662782379874467,camera_1,231,0,-0.07639690431244388,-0.18651300976719068,1.6767489623048717,-0.07801631110191211,-0.9939530479107486,-0.0758603125543186,0.014697167419059675,0.0004540325435300474,3.075348119997805e-05,30893.753012887275
1683662782386404275,217,1683662782386404275,camera_1,232,0,-0.07651671808787877,-0.18651687064592637,1.6764651892291729,-0.0770860065017319,-0.9940895798086702,-0.07389474339340685,0.01957605211116861,0.0194915597421641,0.0013198035419268194,30906.0473648381
1683662782393308401,218,1683662782393308401,camera_1,233,0,-0.07643017026841295,-0.1865482547840872,1.6759600828168024,-0.0773893828164076,-0.9936007553827227,-0.0802867137465721,0.017957336271128457,0.010379401142017741,0.0007024510695909762,30882.760319710833
1683662782399958610,219,1683662782399958610,camera_1,234,0,-0.07647512347554596,-0.18651349726975447,1.6761713068293171,-0.07774170035492728,-0.9937320656072757,-0.07796439888004278,0.019348444823694366,0.002173393605517049,0.00014709482996113932,30888.888688428877
1683662782406662464,220,1683662782406662464,camera_1,235,0,-0.07649757423232872,-0.18653015096788494,1.676497809315518,-0.07770254153568053,-0.993989442529572,-0.07446077391310701,0.020072277571507105,0.011839689072985491,0.0008016374927375153,30899.714724303652
1683662782413495063,221,1683662782413495063,camera_1,236,0,-0.07642485336557041,-0.18643920531330627,1.6759051517064976,-0.07764676867620876,-0.9939406060381957,-0.07577483166110371,0.017641594862682804,0.0003852766758427606,2.6067014873490395e-05,30918.621346292166
1683662782419980764,222,1683662782419980764,camera_1,237,0,-0.07650280376364679,-0.1866160385006525,1.677301563491853,-0.0774255011858585,-0.9941692644327996,-0.07152781845785855,0.0227274417813467,0.010555400705925422,0.0007150682958514605,30882.303287662573
1683662782426948547,223,1683662782426948547,camera_1,238,0,-0.07656061258403803,-0.18659955586005794,1.6770918385114022,-0.07717334822180165,-0.9943181201338914,-0.06794937250254969,0.027543294540609043,0.024069096148195968,0.0016298787484638711,30896.27927310628
1683662782433452844,224,1683662782433452844,camera_1,239,0,-0.07643703687184535,-0.1865521430152267,1.676552003210549,-0.077752808930208,-0.99389170529893,-0.07682880528640931,0.015202418219170831,0.007245644716931565,0.0004908058464291828,30893.03936075995
1683662782440067291,225,1683662782440067291,camera_1,240,0,-0.07663641702966023,-0.1865969587164165,1.6781008047135921,-0.0773624261232098,-0.9946779027342141,-0.06102394336358634,0.030116493370807743,0.018821291014319286,0.0012759761236828414,30887.978474212898
1683662782446805238,226,1683662782446805238,camera_1,241,0,-0.07650550918711586,-0.18666590962416024,1.677753428796237,-0.07719568943732943,-0.9943815350944615,-0.06862064382680595,0.02318179104971376,0.01713074278904969,0.001160828064216417,30882.75417738206
1683662782453209877,227,1683662782453209877,camera_1,242,0,-0.07646072715267137,-0.18649675112660105,1.6760319443533638,-0.07748909636886632,-0.9939124263453093,-0.07651407859984909,0.01670701877453514,0.012860711380199064,0.0008705262215571363,30911.05664833499
1683662782459865093,228,1683662782459865093,camera_1,243,0,-0.07644384259083337,-0.18654669585169173,1.6761423514918334,-0.0777558383636538,-0.993711115215895,-0.07851027493654845,0.018121418987908595,0.0015684886939197895,0.00010616883669188745,30889.073678720095
1683662782466696023,229,1683662782466696023,camera_1,244,0,-0.07643600143022637,-0.1865509266101453,1.6766692391393172,-0.07779925746697042,-0.9940541612783924,-0.0736362200588334,0.019527085756635067,0.0026217115237159305,0.00017751505251586148,30900.580134798787
1683662782473078966,230,1683662782473078966,camera_1,245,0,-0.0763621102443236,-0.18643363184130807,1.67476148938192,-0.0775406683534404,-0.9928616467387403,-0.08953464353399325,0.014026503262737166,0.017560758330546378,0.0011880971707142543,30859.922406765036
1683662782479970216,231,1683662782479970216,camera_1,246,0,-0.07659067884300758,-0.18666635177812738,1.678180292604931,-0.07744346420109852,-0.9945685161537279,-0.06491042578422128,0.02495221739277973,0.01847422749051475,0.001252760958994674,30883.126251816844
1683662782486860752,232,1683662782486860752,camera_1,247,0,-0.0763990526707671,-0.18649469102057725,1.6763733193001042,-0.07757923821004238,-0.9942901144487948,-0.07023837294267563,0.020861473450305566,0.01623971958179027,0.0010988501822084763,30930.250782989446
1683662782493596315,233,1683662782493596315,camera_1,248,0,-0.07638924981394825,-0.18639397091899743,1.6747130683502336,-0.07792614357113338,-0.9934975943994678,-0.08077950986641896,0.01909756152871221,0.013223212697084819,0.0008937720947274627,30922.08059170214
1683662782500023841,234,1683662782500023841,camera_1,249,0,-0.07642368080344306,-0.18669181365977386,1.6773604469127683,-0.07750929516574748,-0.9940448154701618,-0.07550782799167957,0.012875632480790692,0.007954694629916048,0.0005392223033248482,30877.462552352932
1683662782506483316,235,1683662782506483316,camera_1,250,0,-0.07640343153213415,-0.18655660185320755,1.6754908536854964,-0.07705056143015117,-0.9933306648315815,-0.08470643514673563,0.01349893081983968,0.03589501357419067,0.0024301130217157345,30875.289396014563
1683662782513115882,236,1683662782513115882,camera_1,251,0,-0.07646571333104946,-0.1865997703297353,1.6764061279711424,-0.07810839545916483,-0.9936811196433848,-0.07872003376874447,0.017322450938358304,0.04879287229414331,0.003304414720390554,30880.10402702143
1683662782519813060,237,1683662782519813060,camera_1,252,0,-0.07644341408649787,-0.1863526292199377,1.6748291483146633,-0.07739644724447946,-0.9935217637758751,-0.08003307082695182,0.02278162486775668,0.04948889616935048,0.0033449963976539404,30912.717651257506
1683662782526355981,238,1683662782526355981,camera_1,253,0,-0.07648026167735225,-0.186562193074279,1.6769451111721183,-0.07699296439744129,-0.9942790977875844,-0.07160591799170583,0.018808286593059262,0.003272486134846986,0.00022163679557756728,30905.78191688792
1683662782533423423,239,1683662782533423423,camera_1,254,0,-0.07648774544416893,-0.1866069673909302,1.6770849378340422,-0.07757017052210674,-0.9941998189846994,-0.07172565724495508,0.020125075620762465,0.020471099622227484,0.0013869475581071344,30896.489353524572
1683662782539724349,240,1683662782539724349,camera_1,255,0,-0.07650231492056267,-0.18664504164338375,1.6766829045647798,-0.07724961009478208,-0.9935752026148218,-0.08016921878983083,0.020339883179312526,0.02039016191429255,0.0013812682374398657,30851.12930962165
1683662782546590089,241,1683662782546590089,camera_1,256,0,-0.07655404655140095,-0.1866743431573568,1.6778953455886598,-0.07812882252604893,-0.9943083265482651,-0.07017661664899146,0.017946624283763552,0.003860555208120786,0.0002617709277760497,30882.267379288605
1683662782553308963,242,1683662782553308963,camera_1,257,0,-0.07651296956593179,-0.1865948967532927,1.6779499914291938,-0.07736492659094779,-0.9945487947735949,-0.06586911852707471,0.023422684996243955,0.00252433695277432,0.00017110025697390487,30890.979524826693
1683662782559679746,243,1683662782559679746,camera_1,258,0,-0.07648747053145395,-0.1865311571470143,1.6767951964016832,-0.07818114537314565,-0.9943690252613512,-0.06776480485658352,0.022932102644169713,0.015951493802276673,0.0010800448202294805,30923.715543949547
1683662782566493034,244,1683662782566493034,camera_1,259,0,-0.07654498196296708,-0.18661154424640697,1.6772235951046444,-0.07791272993105224,-0.9940090004044644,-0.07259490779411754,0.02461083078590238,0.009114484132624057,0.0006173923554248193,30871.940404995228
1683662782573246955,245,1683662782573246955,camera_1,260,0,-0.07643096481821196,-0.18660838268835891,1.6764988721522256,-0.07771377414534428,-0.9937301106206665,-0.07927993354025092,0.013256269904374621,0.023361208837741287,0.0015825530453793609,30881.153707118683
1683662782579695940,246,1683662782579695940,camera_1,261,0,-0.07654931361758709,-0.18658954743970163,1.6778396273981,-0.07755024104271972,-0.9944500200925258,-0.06842113531361664,0.019330439585973403,0.016347837737157533,0.001108477230365515,30891.61541080888
1683662782586529254,247,1683662782586529254,camera_1,262,0,-0.07645700806692723,-0.1865538495515085,1.6763674163638067,-0.07806685000115597,-0.9936710255993351,-0.07908104654233153,0.016420958955925852,0.0037590763677144423,0.0002545255966706672,30880.72708043422
1683662782593166589,248,1683662782593166589,camera_1,263,0,-0.07631424297596343,-0.1864902030043893,1.6760320750268876,0.07743419426689686,0.9938924271773824,0.07738281117057653,-0.013917230077391738,0.006524011067995161,0.0004415303832120048,30910.85327319012
1683662782600036382,249,1683662782600036382,camera_1,264,0,-0.07636210802950708,-0.1863914514109989,1.675491701507632,0.0778603698704143,0.9939131739264663,0.0756165183904619,-0.018881410052355007,0.03154488256859622,0.002132118341134981,30931.993999323764
1683662782606620788,250,1683662782606620788,camera_1,265,0,-0.07632143747347798,-0.18638740272971557,1.6746079943802155,-0.07749595717356382,-0.9934423216721718,-0.08243205715271544,0.016482902836874883,0.004613725384842837,0.000311798674688677,30919.584852871303
1683662782613129377,251,1683662782613129377,camera_1,266,0,-0.07643549900246832,-0.186615729382802,1.6763819378061269,-0.07761883679992439,-0.9935182586195499,-0.08140230801643393,0.01644537056443621,0.04614069240142271,0.00312576749873715,30862.723596592252
1683662782619894742,252,1683662782619894742,camera_1,267,0,-0.0764650582282615,-0.18647164057349636,1.6760513297545288,-0.0780446353342452,-0.9939700612177089,-0.07431664860664268,0.020238281505246557,0.0038904889079276472,0.00026323589763078314,30916.70084861185
1683662782626566171,253,1683662782626566171,camera_1,268,0,-0.0763465170531334,-0.18654791810691573,1.6762531120784663,0.07716072341149414,0.9935405600632273,0.08221789204174922,-0.012790484747451578,0.02166280306482804,0.001466879180276826,30868.41274479877
1683662782633313894,254,1683662782633313894,camera_1,269,0,-0.07629713250729554,-0.1863851771067843,1.6750161148102785,0.07763492017228868,0.9933326803351176,0.0839442199616057,-0.014709632324804335,0.020764701327607327,0.0014039337019037931,30896.29672767705
1683662782639964103,255,1683662782639964103,camera_1,270,0,-0.07654789712041364,-0.18671857594574945,1.677477744622328,-0.07741437363811865,-0.9939121926533927,-0.07534918226893411,0.02163489728530942,0.005907934454626229,0.00040039949992376386,30853.33914869113
1683662782646595001,256,1683662782646595001,camera_1,271,0,-0.0765312770748389,-0.1866033597478543,1.6768055803911057,-0.0778941225699205,-0.9942081812592629,-0.07109787378040235,0.02068067528193491,0.03940112445070554,0.0026689225791040817,30909.24459383297
1683662782653166770,257,1683662782653166770,camera_1,272,0,-0.07644745419223009,-0.1866490453060513,1.677894323655534,-0.07729326373946493,-0.9943665611005096,-0.0698462797066427,0.019554814158915627,0.002494201079571212,0.00016909302285461343,30880.362614450278
1683662782659867048,258,1683662782659867048,camera_1,273,0,-0.07643274541519102,-0.18651158226348952,1.6756683873586011,-0.0773927696567255,-0.993458348188784,-0.08256807442815532,0.01527686826873933,0.013401586432337353,0.0009070005852717644,30882.215195007113
1683662782666367530,259,1683662782666367530,camera_1,274,0,-0.07653884989424468,-0.18662601282105618,1.6769768869466086,-0.07721634696098373,-0.9939967332153892,-0.07522123668649688,0.01870549840259452,0.06313264803338825,0.004279157396349793,30880.57782589006
1683662782673105716,260,1683662782673105716,camera_1,275,0,-0.07647435321824614,-0.18661794053720987,1.6770282766012532,-0.07771411445034822,-0.9940287371617577,-0.07467881451492447,0.017042909799826124,0.008415577602136182,0.0005701613940433119,30886.6329542512
1683662782679738044,261,1683662782679738044,camera_1,276,0,-0.07649823896018676,-0.18666195191685953,1.6772777472290392,-0.07770697203310074,-0.9942099369401481,-0.07144062766721655,0.02011130292715704,0.025630407300923252,0.0017367573237907752,30891.429069924976
1683662782686350822,262,1683662782686350822,camera_1,277,0,-0.07653053509939248,-0.18657422744755975,1.6770118983945586,-0.07783933683290645,-0.994144027618606,-0.07036880401527211,0.0258248216475886,0.01884268360754504,0.0012760846943677638,30890.098921294142
1683662782693268537,263,1683662782693268537,camera_1,278,0,-0.07652313186666579,-0.18660390950283223,1.6775622908157006,-0.07768060657796484,-0.9941237529160112,-0.0722019597671363,0.021692493071329602,0.0019155750960635487,0.00012980670080160094,30871.202912098237
1683662782700078964,264,1683662782700078964,camera_1,279,0,-0.07646574235394159,-0.18647594673448797,1.6761791822378636,-0.07742218173483921,-0.9941565825806399,-0.07044497398834106,0.026381825690861026,0.0144764410551943,0.0009793624703353918,30918.39725838737
1683662782706429958,265,1683662782706429958,camera_1,280,0,-0.07636636976519694,-0.18645237103578527,1.6754673567779768,-0.07764719158456726,-0.9935991232186798,-0.07981852482011198,0.018992079234288466,0.003521227525197901,0.00023811948355764796,30902.000292915618
1683662782713238477,266,1683662782713238477,camera_1,281,0,-0.07656787441929393,-0.18663847431789315,1.677435590901899,-0.07804916603900765,-0.9942715733217399,-0.06992871417548899,0.021031906682237447,0.01765502432408539,0.001196433880672475,30892.589973975293
1683662782719972372,267,1683662782719972372,camera_1,282,0,-0.07644406277000738,-0.18652173309095385,1.6765483032272424,-0.07711762744099476,-0.9940528057331779,-0.07313375129612744,0.023734897792598172,0.0024090553779387847,0.0001630285044165139,30896.120779981648
1683662782726640701,268,1683662782726640701,camera_1,283,0,-0.07637237810372503,-0.18648316254428798,1.6757147556786733,-0.07727646303561875,-0.9936608649016466,-0.08039896805768001,0.014228132655981085,0.006758516759873601,0.0004574310463778507,30899.502116948363
1683662782733045339,269,1683662782733045339,camera_1,284,0,-0.07651173851582091,-0.1865715335478205,1.6767901080990502,-0.0776540234552961,-0.9942289515090892,-0.07185461917532915,0.017763961425031952,0.011912857285096834,0.0008067614597092669,30912.56087803305
1683662782739874839,270,1683662782739874839,camera_1,285,0,-0.07643891030715633,-0.18653262359460954,1.676731521579136,-0.07806159793045589,-0.9938693448261156,-0.07655889011586349,0.01639660598047307,0.002241243892967759,0.00015181175360052366,30885.778629277782
1683662782746410608,271,1683662782746410608,camera_1,286,0,-0.07653426575361133,-0.18665554902804363,1.6775977429956699,-0.07731817841124938,-0.994454989063287,-0.06818391325992165,0.02078768834833878,0.016450491038995096,0.0011149944531065414,30898.115231714604
1683662782753058671,272,1683662782753058671,camera_1,287,0,-0.07650699472487903,-0.18646610190785126,1.6766341398185718,-0.07788543772883938,-0.9942954179052916,-0.0683360266527675,0.025311420024188364,0.000345003370057384,2.3346209507850304e-05,30918.381767606814
1683662782759981870,273,1683662782759981870,camera_1,288,0,-0.07631885707943795,-0.18635649164895582,1.6741669510543455,-0.07795956917317196,-0.9928719925851637,-0.08871228575719475,0.016051238894052827,0.004095716227311641,0.0002767966024509158,30884.860474580237
1683662782766690254,274,1683662782766690254,camera_1,289,0,-0.07656676119018702,-0.18684989870266067,1.6792512168999507,-0.07835539249699151,-0.9946053722872578,-0.06531241705962584,0.018838101332074093,0.010525669583330455,0.0007147468533222146,30859.834544319405
1683662782773302078,275,1683662782773302078,camera_1,290,0,-0.07646015143473875,-0.18659075039656695,1.6768994235868644,-0.07747248152466242,-0.9937150489047337,-0.08012124041557232,0.01044045118487016,0.0006894398402437218,4.674228766966515e-05,30864.705499423144
1683662782779845237,276,1683662782779845237,camera_1,291,0,-0.07646816393843635,-0.18663279325662424,1.6775519033363058,-0.07766933711840734,-0.9940322066853587,-0.07522726005870635,0.01443279210281647,0.0007756938075544895,5.259630544430356e-05,30869.2395428716
1683662782786501884,277,1683662782786501884,camera_1,292,0,-0.07641312754184666,-0.18645316988638014,1.6751936630501694,-0.07782426038813225,-0.9935297487100657,-0.08068695076891158,0.018210955460086217,0.0033395859145457507,0.00022580086426854707,30907.411489183854
1683662782793251752,278,1683662782793251752,camera_1,293,0,-0.07641225481068718,-0.18658186591515047,1.6768825688548419,-0.0778924875424424,-0.99412425492189,-0.0727362656205092,0.01895156521319787,0.009770115593710216,0.0006614755187877367,30900.428113258917
1683662782799785375,279,1683662782799785375,camera_1,294,0,-0.0765027510586333,-0.18658383751412871,1.677447527637427,-0.07758110554783752,-0.994529299320178,-0.06605557977751607,0.023006634607161784,0.017154377743281657,0.001162152003444177,30909.808968216756
1683662782806530237,280,1683662782806530237,camera_1,295,0,-0.07646824369332209,-0.1866105644260004,1.6773638962912119,-0.0774638076000635,-0.9939242895926651,-0.07696315893104011,0.013803522636332494,0.0017632830422371626,0.00011955211936315307,30865.055502885778
1683662782813118934,281,1683662782813118934,camera_1,296,0,-0.0764184002286109,-0.18648906052499714,1.6759569502828002,-0.0783105826245321,-0.9938178811782226,-0.07766854066893257,0.012691315526512741,0.0226065807401028,0.0015306779846739223,30913.92898371933
1683662782819696664,282,1683662782819696664,camera_1,297,0,-0.07651045126163437,-0.1867409987311781,1.6789292646957452,-0.07792037537170664,-0.9945879814882232,-0.06683143248907474,0.016022540765195492,0.00964768998983345,0.0006547695323437891,30869.47428218888
1683662782826585769,283,1683662782826585769,camera_1,298,0,-0.07645459377862583,-0.18655828993974857,1.6773233847329365,-0.0773734155110295,-0.9940816924838252,-0.07401801219994988,0.018337860033810622,0.005402408904956246,0.0003660133191976569,30876.92273829829
1683662782833058834,284,1683662782833058834,camera_1,299,0,-0.07652593887454683,-0.18652241928032723,1.6764735512875542,-0.07739663347117075,-0.9940410040721799,-0.0736750528948423,0.021545995717163074,0.0016592673246123013,0.00011230810138133164,30901.718070940333
1683662782839768409,285,1683662782839768409,camera_1,300,0,-0.07650360356424749,-0.18658331644813547,1.676675484167406,-0.07771631092020141,-0.9940371381307705,-0.07427059445754647,0.01828173494678539,0.001795142187802412,0.0001215609915448104,30899.219095047538
1683662782846498250,286,1683662782846498250,camera_1,301,0,-0.07645669170308082,-0.1866018895211965,1.6773022358500944,-0.07858106458874381,-0.9942246099360575,-0.0714370950337812,0.015465533897290966,0.00882727206499112,0.0005981221747652115,30901.857480351544
1683662782853090524,287,1683662782853090524,camera_1,302,0,-0.07652021229883998,-0.1865620112970948,1.676765673170647,-0.0775877187722441,-0.9939701611563416,-0.07509306826478669,0.01909177113668439,0.00040824256302585127,2.7644431744480348e-05,30888.12614131839
1683662782859717130,288,1683662782859717130,camera_1,303,0,-0.07644077805082516,-0.18650365139277672,1.6756996269523357,-0.0776535235516546,-0.9938222537361997,-0.07581509110811487,0.023223484212787644,0.005319222816069669,0.00035970673620719764,30910.539170511263
1683662782866440773,289,1683662782866440773,camera_1,304,0,-0.07652407963147252,-0.18660581109690835,1.6775195004934964,-0.07740340539622119,-0.9942753810157612,-0.07068085204157605,0.020721889240800522,0.008691587954672286,0.0005890403836266379,30885.397568540728
1683662782873122215,290,1683662782873122215,camera_1,305,0,-0.07652460666123086,-0.1867040039870585,1.6776298723669223,-0.07768971333285994,-0.9940127404549493,-0.07468164044221047,0.018045299564159716,0.039588529794855276,0.0026845155682684017,30862.25503596379
1683662782879689931,291,1683662782879689931,camera_1,306,0,-0.07653211662983178,-0.1866122382555285,1.67698732561597,-0.07802337776142543,-0.9937835743702527,-0.07748021496760271,0.01741769569020925,0.02118160441477812,0.0014355961200106225,30867.314328470144
1683662782886452913,292,1683662782886452913,camera_1,307,0,-0.0765368661567064,-0.18663625889668506,1.6782085531286706,-0.07782224454673212,-0.9943494075692145,-0.07013424475350588,0.017150557813557316,0.0009624315907785785,6.527550961494002e-05,30872.93913674372
1683662782893027067,293,1683662782893027067,camera_1,308,0,-0.07651231380152097,-0.18663456547022952,1.6772429775997244,-0.0778045620454633,-0.9937167525192488,-0.07931488275672902,0.013513521406275314,0.02471936645451933,0.0016766237494680047,30852.905272569682
1683662782899755239,294,1683662782899755239,camera_1,309,0,-0.07655664211297894,-0.18658794120356398,1.6765835879124065,-0.07762028400508879,-0.9937131494500355,-0.07781667122754407,0.021303375322357196,0.03957785683815018,0.0026808436662224848,30869.323995321967
1683662782906403779,295,1683662782906403779,camera_1,310,0,-0.076351061642866,-0.18637123643727926,1.6744309953038838,-0.07718348769123529,-0.993071631203851,-0.08691577063240258,0.01723639583309379,0.0025599252121537575,0.00017303271143878667,30887.692870281862
1683662782913082838,296,1683662782913082838,camera_1,311,0,-0.07648986451246213,-0.18657210187683426,1.6774865530738943,-0.07791603647549673,-0.9943264448115342,-0.06935309213714187,0.02083653088738973,0.0037890838548264583,0.0002567043498120123,30894.84375988112
1683662782919902801,297,1683662782919902801,camera_1,312,0,-0.076460405592123,-0.1865515503457381,1.6764406989592047,-0.07798447378246053,-0.9938126511414899,-0.0775046728257603,0.01574363268651941,0.01894314006494824,0.0012831499432182194,30891.14125206177
1683662782926606893,298,1683662782926606893,camera_1,313,0,-0.0765603150801555,-0.18667273607048346,1.677999847782651,-0.07720280752770681,-0.9944763425577458,-0.06730287159613346,0.02295330210935855,0.03881784036366298,0.002632514947059081,30882.29788408945
1683662782933216333,299,1683662782933216333,camera_1,314,0,-0.07651880414068572,-0.18659670424892932,1.6765352702822136,-0.0774444308105166,-0.9939778956477836,-0.07443478381763935,0.021674087248610134,0.015415948499139631,0.0010437360803864759,30894.091973369796
1683662782939969539,300,1683662782939969539,camera_1,315,0,-0.07645908678843649,-0.18661908808652777,1.6760346228807508,-0.07777531356400055,-0.993893544986875,-0.07608311817181124,0.018384258557209408,0.0470496769703459,0.0031840574899159348,30910.23640299382
1683662782946590900,301,1683662782946590900,camera_1,316,0,-0.0765123068040551,-0.18658189318514046,1.6768993129935665,-0.07770192428709898,-0.9941098191107577,-0.07294418099402854,0.01967803264478242,0.0031929340220813174,0.0002162394564713422,30896.37713518736
1683662782953178882,302,1683662782953178882,camera_1,317,0,-0.0764714817687771,-0.18663507654218592,1.677518499014117,-0.07764400707513112,-0.9939807238775928,-0.07566440506868546,0.01576789556965878,0.019042564735173073,0.0012912967667632314,30864.7430757042
1683662782959878921,303,1683662782959878921,camera_1,318,0,-0.07641591520788531,-0.18669767902729534,1.6771744080028714,0.07648320152861805,0.9937885950584244,0.07923244890384244,-0.016023958825325504,0.02018924019375845,0.0013682605866597196,30851.017063259605
1683662782966562032,304,1683662782966562032,camera_1,319,0,-0.07651318321494695,-0.1866162807046974,1.6771606071872567,-0.07772070842274811,-0.9941682706767744,-0.07268930465585195,0.017470147408274732,0.008313046771945665,0.0005633151418651238,30894.05392694405
1683662782973056793,305,1683662782973056793,camera_1,320,0,-0.07647885447975687,-0.18661849464832672,1.676954711768344,-0.07786075336094031,-0.9939823205164288,-0.07508347500332833,0.017300906573558855,0.020455730977118947,0.0013860251715620043,30885.96804051216
1683662782979894638,306,1683662782979894638,camera_1,321,0,-0.0765052423970524,-0.18669763549335386,1.6778495088786696,-0.07813962008375522,-0.9943847387847919,-0.06611998520042947,0.026857747525852987,0.0058814387339225505,0.00039847579205186525,30881.93649810554
1683662782986538410,307,1683662782986538410,camera_1,322,0,-0.07645490981463303,-0.18666594792705182,1.6771617188559063,-0.07728000046100805,-0.9940364160948272,-0.07534655839537227,0.015566025313844111,0.002160085437935777,0.00014636750606683945,30880.392630371152
1683662782993143081,308,1683662782993143081,camera_1,323,0,-0.0764127667564997,-0.18656040561832365,1.6767042547627458,-0.07770576749989598,-0.9939977712605409,-0.07562243019903116,0.014542780928081814,0.001744188329212193,0.00011814264995299742,30897.419051585443
1683662782999930858,309,1683662782999930858,camera_1,324,0,-0.07642619748737302,-0.18652841533838038,1.6760866434593507,-0.077933983400508,-0.9939618530406148,-0.0757315618855853,0.015194060213341678,0.004745063925838622,0.0003212086324278056,30917.93979333601
1683662783006471872,310,1683662783006471872,camera_1,325,0,-0.07653315841281733,-0.18653668405891038,1.6770965035033927,-0.07798045153169304,-0.9942413114286487,-0.07004442715326788,0.022294439941939307,0.01920363738463493,0.0013008269332101248,30900.363075465444
1683662783013165712,311,1683662783013165712,camera_1,326,0,-0.07647880952268975,-0.18641473348185078,1.6758969088692333,-0.07832290903855196,-0.9941356291178881,-0.07104183354131786,0.022647973975773696,0.017910953659338702,0.0012115512093840456,30937.04343043967
1683662783019778728,312,1683662783019778728,camera_1,327,0,-0.07643353758550274,-0.18667054822671014,1.677656057862543,0.07764007850508492,0.99433904255968,0.07108077203306903,-0.014471022714588899,0.00881709085751936,0.0005975951523186288,30893.188127163794
1683662783026482105,313,1683662783026482105,camera_1,328,0,-0.07661441129537482,-0.18661309110661664,1.6781366704468899,-0.07767120153365004,-0.9944676628955881,-0.06495528992864487,0.027965375334362618,0.013453039130581601,0.0009121081919752496,30873.67795652209
1683662783033022642,314,1683662783033022642,camera_1,329,0,-0.07649045811305344,-0.18663238595054873,1.6765413863385816,-0.07712856138922879,-0.993879550105315,-0.07614607646960572,0.021363518876101422,0.025237747960090928,0.0017087344763307055,30882.975669789193
1683662783039753913,315,1683662783039753913,camera_1,330,0,-0.0764171900933265,-0.1864694770180113,1.675147420125945,-0.07823048942268514,-0.9936510377011324,-0.07867278830907634,0.018660069127026176,0.016075551309768343,0.0010870012186576252,30923.21824682656
1683662783046777248,316,1683662783046777248,camera_1,331,0,-0.07654930359430527,-0.186669292905477,1.6783472930653403,-0.07764478380253731,-0.9945362135403715,-0.06581432597675947,0.023183658064741458,0.0022244663305173162,0.00015084923796610593,30877.451373750286
1683662783053312540,317,1683662783053312540,camera_1,332,0,-0.07637542947153156,-0.18648771192537703,1.6758723019494262,-0.07799575015618937,-0.9934501538820216,-0.08234905553144573,0.013859572953003456,0.01621849948514864,0.0010981094560110524,30879.180758495742
1683662783059721469,318,1683662783059721469,camera_1,333,0,-0.0764558199188224,-0.1863545574919745,1.6752786920586786,-0.07786915222378636,-0.9938003927703822,-0.07620434098981514,0.02213758965404384,0.011773785186960595,0.0007959453745666362,30926.31850829542
1683662783066613912,319,1683662783066613912,camera_1,334,0,-0.07642865652208894,-0.18660806937113483,1.676686059922603,-0.07745615054539885,-0.9938518851910358,-0.0771756036916623,0.01740405813999477,0.0027680004031935823,0.0001874359609589791,30880.630480269734
1683662783073035478,320,1683662783073035478,camera_1,335,0,-0.07652586324170724,-0.18664488265078139,1.6777858040564066,-0.07818646565844438,-0.9942750151499035,-0.07013404755247292,0.019628708831903194,0.00312545166889322,0.00021183241442561775,30882.2934000305
1683662783080032110,321,1683662783080032110,camera_1,336,0,-0.07661237138990892,-0.18661402015461603,1.6779669484605093,-0.07847750225955151,-0.9945437795123145,-0.06210156014257283,0.029450780979819277,0.014746864242624724,0.0009995866741479514,30890.070213819352
1683662783086642503,322,1683662783086642503,camera_1,337,0,-0.0763995468031862,-0.18670498479226233,1.676780831196763,0.07723656662029277,0.9935192355389827,0.08204936129369172,-0.014897775070198425,0.030699352519150125,0.002080221318156863,30846.46407713635
1683662783093337059,323,1683662783093337059,camera_1,338,0,-0.07647410618226169,-0.1865151305249434,1.6766039549067602,-0.07702952700642422,-0.9942789155128312,-0.06862785631314519,0.027678646528636875,0.0015065840125316754,0.00010193160042214794,30909.436624014932
1683662783099908590,324,1683662783099908590,camera_1,339,0,-0.07640218228063024,-0.1865203588605494,1.6769120774610549,-0.0777337119666518,-0.9941419413001418,-0.07313874654788685,0.017029219749450368,0.0010944500036202953,7.412452857102485e-05,30901.229851543918
1683662783106688737,325,1683662783106688737,camera_1,340,0,-0.07640971309480338,-0.18642238206284228,1.675356057598313,-0.07790597636239055,-0.9933412857583777,-0.08288605658970027,0.018266101880937476,0.005545731409256405,0.0003751225131499979,30884.041844952557
1683662783113157272,326,1683662783113157272,camera_1,341,0,-0.0764209430074124,-0.1864764351315013,1.6753567036644146,-0.0779738536461384,-0.9938773594958734,-0.07621964415301662,0.017844838869226214,0.018288997998752166,0.001236941354307733,30935.16189215021
1683662783120054006,327,1683662783120054006,camera_1,342,0,-0.07651359610893989,-0.18659643114851332,1.6765561154772686,-0.0771044976302511,-0.9938746017666452,-0.07718504452171562,0.017625019448500638,0.011930440094147343,0.0008080823610384831,30884.747039778973
1683662783126641035,328,1683662783126641035,camera_1,343,0,-0.07638619797707742,-0.18663969924472656,1.6769746364014366,0.0769538411436585,0.9939606761152429,0.07675699836357189,-0.015120974571116342,0.046105392438221315,0.0031225647596733034,30878.350239795385
1683662783133078336,329,1683662783133078336,camera_1,344,0,-0.07648382602334483,-0.1865386460924578,1.6768939096599662,-0.07736823024526399,-0.9940182413039044,-0.07402495760338344,0.021498803585923782,0.009889980724437919,0.0006697824304041395,30884.25508754596
1683662783140050888,330,1683662783140050888,camera_1,345,0,-0.07656993302594144,-0.1867774040923066,1.6794013607125864,-0.0780039090232461,-0.9946416398043364,-0.06526023775505908,0.018560708838484295,0.025803333472140366,0.0017522313025069654,30854.856207599798
1683662783146432399,331,1683662783146432399,camera_1,346,0,-0.07641691569491821,-0.18661082565608011,1.6768098634864905,-0.07736091019549453,-0.9943655847079363,-0.06979839723955479,0.019507876997717145,0.03336323604253266,0.0022588741938564306,30920.83279994929
1683662783153012275,332,1683662783153012275,camera_1,347,0,-0.07642524150686233,-0.1866333809259232,1.6777455652724176,-0.07766057293739226,-0.9940627470335452,-0.07521062124115907,0.012306617068743348,0.0032355095172533765,0.0002194196064177496,30866.267624756474
1683662783159764528,333,1683662783159764528,camera_1,348,0,-0.07642026956207058,-0.18662293449988246,1.6770216153288053,-0.07738157281962918,-0.9942596768903696,-0.0707487457145206,0.02131670888388233,0.0007807889714968042,5.28746775720595e-05,30901.77312982586
1683662783166353225,334,1683662783166353225,camera_1,349,0,-0.07655032344568667,-0.18662620676089808,1.6775978133520209,-0.07823976242082169,-0.9942213301056412,-0.07087296651399108,0.019480989626042142,0.00612696217285702,0.0004152965911326291,30884.771804058506
1683662783173136234,335,1683662783173136234,camera_1,350,0,-0.07641285788702895,-0.18654387504596093,1.6762268864578524,-0.07809005252290788,-0.9934384024300424,-0.08255930866159003,0.012885838255030828,0.01681965132956975,0.001139622594242493,30866.588653991486
1683662783179702043,336,1683662783179702043,camera_1,351,0,-0.07650788494178755,-0.18660187503592174,1.67682431188054,-0.07767113088655882,-0.9941267014790658,-0.0718138327947601,0.022848856699663692,0.06101158621095237,0.004132378636144727,30897.73013825431
1683662783186874151,337,1683662783186874151,camera_1,352,0,-0.07640795190900065,-0.1864293832515575,1.6754541763627566,-0.07668596771682214,-0.9938636668668945,-0.07653818158453728,0.022275116093019926,0.01888366791899898,0.0012766279341726466,30917.356213246625
1683662783193375587,338,1683662783193375587,camera_1,353,0,-0.07657487887662995,-0.186458929781018,1.6761656799892928,-0.07772131161015351,-0.9940221352184376,-0.07106799258815923,0.02878772041800277,0.048664962967450265,0.003292768011076326,30905.732787147266
1683662783199858903,339,1683662783199858903,camera_1,354,0,-0.07653928499246651,-0.18652707830454063,1.676647157407033,-0.07740457612508489,-0.9940459656936077,-0.07180951428329661,0.02691734276550904,0.014713078628119547,0.0009959611720817701,30890.41195010784
1683662783206501483,340,1683662783206501483,camera_1,355,0,-0.07647994415874988,-0.18644305897604113,1.6758924380697218,-0.0775721200860853,-0.9936561140314636,-0.07820008582944767,0.02269008174308846,0.007046535094559658,0.00047670669879966595,30887.700824240674
1683662783213065624,341,1683662783213065624,camera_1,356,0,-0.07648045306297521,-0.18666927692115903,1.6777009744883804,0.07737762913466432,0.9942585785945631,0.07084644041106997,-0.0210561934284957,0.025841779064649018,0.0017510012706904842,30877.08606074549
1683662783219981193,342,1683662783219981193,camera_1,357,0,-0.07654549670205296,-0.18666729729369744,1.677957943170071,-0.07930531427209714,-0.9944296200979986,-0.06516757888802086,0.023949623417240426,0.009520457054350118,0.0006453596562152331,30893.26885393427
1683662783226421833,343,1683662783226421833,camera_1,358,0,-0.07654113111883737,-0.18661487116578793,1.6773125759872909,-0.07799268726645943,-0.9945130069486013,-0.06650915238518192,0.020917753034495553,0.019487039600790013,0.001320332327193399,30918.235342410804
1683662783233096361,344,1683662783233096361,camera_1,359,0,-0.0764806972863349,-0.1865465086300263,1.677032574854064,-0.07757782537031764,-0.9941264234292813,-0.0733241803766448,0.017829745444376127,0.01191082342484151,0.0008070264730787014,30893.604348585475
1683662783239655017,345,1683662783239655017,camera_1,360,0,-0.07648567753363017,-0.18657401416614391,1.6758152146642114,-0.07748829103030314,-0.9936690136096404,-0.07932613183150691,0.018022789847793843,0.03723691882714775,0.0025202501724113716,30895.44641786629
1683662783246294498,346,1683662783246294498,camera_1,361,0,-0.07653320999827946,-0.18674226411755893,1.6790590529622373,-0.07698243474798078,-0.9946491184142937,-0.06448145051627883,0.02426887960450809,0.0009416345028512296,6.390259383194033e-05,30855.56584410299
1683662783253140449,347,1683662783253140449,camera_1,362,0,-0.07644164848503295,-0.1865410663324076,1.6765436261788491,-0.07784260536073283,-0.9940004894526072,-0.0743859667089198,0.019242757479376975,0.008067258740084071,0.0005461437464623725,30900.963031890504
1683662783260082483,348,1683662783260082483,camera_1,363,0,-0.07645680255055118,-0.18653743363630715,1.6763285583845307,-0.07747655021773009,-0.9939744599109858,-0.07484899134116671,0.02024316443231745,0.034651940161893435,0.002345737964409342,30903.053628948313
1683662783266402006,349,1683662783266402006,camera_1,364,0,-0.07642267342397627,-0.18650857860069542,1.6760492680717194,-0.07777516603830575,-0.9936323612687114,-0.08005448485009779,0.015395896942514663,0.0028479275506470003,0.00019281740145474883,30887.2949207247
1683662783273119211,350,1683662783273119211,camera_1,365,0,-0.07633836280050317,-0.18635256188606117,1.6747144702091479,-0.07719714508133134,-0.9936576362781058,-0.08002853239669358,0.01674922863688922,0.008880266570486128,0.0006001048915207045,30933.601073696704
1683662783280008792,351,1683662783280008792,camera_1,366,0,-0.07653720308563201,-0.18661706128585065,1.6773233629828865,-0.07741609123215273,-0.9943033775975435,-0.07133177655248271,0.01671286242146257,0.020571012821164913,0.0013939095457002513,30898.91647659245
1683662783286553382,352,1683662783286553382,camera_1,367,0,-0.07637431221501706,-0.18635067267722052,1.6751568576898375,-0.07748145309568978,-0.9937966093914876,-0.07740959314095029,0.019304882230042283,0.005809544541989453,0.0003927585708485704,30930.31970910803
1683662783293021202,353,1683662783293021202,camera_1,368,0,-0.07655605949519426,-0.18659606824881847,1.6764226858285678,-0.07715917637772586,-0.9934818943183014,-0.08144663722501419,0.020165129485512127,0.015477309982998122,0.0010482555547130712,30851.119090924738
1683662783299764156,354,1683662783299764156,camera_1,369,0,-0.07631402775304313,-0.18629645338558634,1.6741518220969152,-0.0781572542005909,-0.9933297058666867,-0.0837511797376976,0.01316354629915667,0.0030838792090435167,0.0002083976250948522,30932.771597669584
1683662783306411504,355,1683662783306411504,camera_1,370,0,-0.07654816557879425,-0.1866035412173276,1.6767379325012255,-0.07751302274934127,-0.9940417765610283,-0.07333970078884554,0.022225346878231068,0.03690137272133143,0.0024993373235371254,30892.296215897728
1683662783313201904,356,1683662783313201904,camera_1,371,0,-0.07642969108748904,-0.1865229033523802,1.6766101594965663,-0.07786985719506927,-0.9939772829565966,-0.07350510308806156,0.023290472873150326,0.009568086315994151,0.0006476879915930878,30892.893482852207
1683662783320197820,357,1683662783320197820,camera_1,372,0,-0.0764775174149055,-0.18659113321583823,1.676673615679472,-0.07758913971437502,-0.9940853337841766,-0.0732454670812997,0.02023304489264421,0.01181264585829922,0.0007999195842316176,30901.188941738197
1683662783326556205,358,1683662783326556205,camera_1,373,0,-0.07642622900113696,-0.18666735479926888,1.6771372315105182,-0.07743652320812447,-0.993605653226979,-0.08113890010413329,0.012956451625248942,0.0018148454983020201,0.00012304325211856347,30844.08944540429
1683662783333146333,359,1683662783333146333,camera_1,374,0,-0.07650403303706373,-0.18657201404218754,1.676686559862994,-0.07789290221792768,-0.9939826520111251,-0.07428984012361876,0.020302781568198102,0.019620755327196093,0.0013288522640380357,30893.356904608856
1683662783339742183,360,1683662783339742183,camera_1,375,0,-0.07644755501673614,-0.18653898018411566,1.6767220927043105,-0.07792964009460886,-0.9941872172264596,-0.07063491871411434,0.023009923000388743,0.010233998656076437,0.0006928542753434063,30908.4652879704
1683662783346420526,361,1683662783346420526,camera_1,376,0,-0.07638288924263249,-0.18643598953845075,1.6748274454069223,-0.07764747833192,-0.9934093903865225,-0.08233433970480103,0.018157882749544423,0.028135403162195875,0.001902342065938644,30908.32856127638
1683662783353079795,362,1683662783353079795,camera_1,377,0,-0.07642101539695655,-0.18656598097467136,1.676456863269387,-0.07638464031858924,-0.9935959544707755,-0.08145524593874585,0.017248446068175726,0.007524876794377633,0.000509542779476694,30857.429203017
1683662783359699249,363,1683662783359699249,camera_1,378,0,-0.0764815225476807,-0.1864300556403159,1.6759522247463672,-0.07800838569171754,-0.9938117734662367,-0.07578047077322045,0.022586963741391637,0.002896202877309406,0.00019591791267318753,30903.337488263795
1683662783366483449,364,1683662783366483449,camera_1,379,0,-0.07645508362303378,-0.18645883939189445,1.6758408870878891,-0.07768868646467258,-0.9940408860867486,-0.07312292916013267,0.02236564361488051,3.3639321372902486e-05,2.274810096674369e-06,30926.337609060454
1683662783373003959,365,1683662783373003959,camera_1,380,0,-0.07640229147649985,-0.1864725474532481,1.6755303580199556,-0.07760895461554819,-0.9936443612660577,-0.08012471527127288,0.015091835221315766,0.016834758488585067,0.001139109551153314,30906.616725871045
1683662783380089521,366,1683662783380089521,camera_1,381,0,-0.07646740742767352,-0.1865916670547154,1.6771796331424151,-0.07799120566687295,-0.9939969431877373,-0.07514609181399962,0.015508502737001344,0.002819940423250955,0.0001910960077482576,30881.256463264057
1683662783386422872,367,1683662783386422872,camera_1,382,0,-0.07644401293552718,-0.18667104147045993,1.6777090984289715,-0.07843784012000894,-0.9944825906051769,-0.06729569110032825,0.01797699028906821,0.02078219369650469,0.0014087145822511968,30907.071546462204
1683662783393144845,368,1683662783393144845,camera_1,383,0,-0.07660719205754585,-0.18678350664595889,1.6790081947335933,-0.07739328280673485,-0.994490928252561,-0.06747370326107258,0.021103856708977506,0.012360237062239321,0.0008390310420600914,30849.560909732216
1683662783399885416,369,1683662783399885416,camera_1,384,0,-0.07641049695610114,-0.18655883146179988,1.6767407777192629,0.07829758901095109,0.9938785796689263,0.07647594332759261,-0.015042822956632678,0.013129810468853973,0.0008891845615708995,30889.073286856707
1683662783406403303,370,1683662783406403303,camera_1,385,0,-0.07640416543529438,-0.1864532122218877,1.6758946899876344,-0.0776147459292258,-0.993901138055632,-0.07680345421845938,0.015417795113911241,0.0007016606914476142,4.747804399135355e-05,30916.854639573605
1683662783413047552,371,1683662783413047552,camera_1,386,0,-0.07659193969462973,-0.18666287405278073,1.6776034238656565,-0.07829020078420659,-0.9943784042536588,-0.06671935434764598,0.025114963080783672,0.054738301001634695,0.003710279612538929,30893.471876472002
1683662783419844865,372,1683662783419844865,camera_1,387,0,-0.07649358371174582,-0.18663900712114018,1.6771871366357933,-0.07737575580526569,-0.9939830206687915,-0.07516592887710856,0.018995530309796275,0.01114665958812111,0.0007552057792759672,30872.59903075356
1683662783426383256,373,1683662783426383256,camera_1,388,0,-0.07648149561742763,-0.18661959442529413,1.677146845372847,-0.07802725147226372,-0.9940092255536419,-0.07417831423396501,0.018841051970112238,0.005084689885734406,0.00034452293014476,30881.19755446496
1683662783433223485,374,1683662783433223485,camera_1,389,0,-0.07655345373055217,-0.1865988067941729,1.6773895572100688,-0.07744379032302713,-0.9941439484928881,-0.07282933251338468,0.019394776127297737,0.0018281906313859508,0.00012388453733275917,30879.7466380597
1683662783439761638,375,1683662783439761638,camera_1,390,0,-0.07654328518106183,-0.18673588509013178,1.6781046521168193,-0.07677789957910415,-0.9944411590449798,-0.06800157041668556,0.0238269123967593,0.023284222971597046,0.0015789373218126465,30871.59280644417
1683662783446466445,376,1683662783446466445,camera_1,391,0,-0.0764831911099969,-0.1866624343555509,1.6771213878195894,-0.07735910720416565,-0.993785211519631,-0.07847412346777191,0.015758611722535718,0.0009188705271299114,6.227965681278525e-05,30858.989565208205
1683662783453127145,377,1683662783453127145,camera_1,392,0,-0.0764379941033315,-0.18648557434286867,1.676550317068029,-0.07767793572594048,-0.99407358604743,-0.07207722681778599,0.024263495181382197,0.003303653994407796,0.00022354854411314623,30901.387054745064
1683662783459821224,378,1683662783459821224,camera_1,393,0,-0.07648181097757058,-0.18648562937139657,1.6756570156147066,-0.0774375037306085,-0.993684972931902,-0.07910807125253164,0.01831722271528809,0.007779262367876072,0.0005263338831856941,30901.848115054032
1683662783466581821,379,1683662783466581821,camera_1,394,0,-0.0764776269191614,-0.18657844702877585,1.6763977167090072,-0.07676001271018479,-0.9940533988648044,-0.07393225129425425,0.022355376816901893,0.01205716114873212,0.000816073344907693,30900.572854787424
1683662783473302364,380,1683662783473302364,camera_1,395,0,-0.07650358740809411,-0.1865737080459075,1.6774429452890085,-0.07819572908951845,-0.9944112439865994,-0.06659731499388354,0.024423419514635242,0.0022785092778576654,0.0001543366351373006,30902.212499366062
1683662783479769945,381,1683662783479769945,camera_1,396,0,-0.07648222912777192,-0.18665461378964154,1.67767975613594,-0.0782484094303116,-0.9941283420078402,-0.07334496199277653,0.014371589635375095,0.0006968965499254409,4.7255041292936864e-05,30877.555921326148
1683662783486422300,382,1683662783486422300,camera_1,397,0,-0.07645703374573191,-0.18658591884252507,1.6768561666039574,-0.07806065218086987,-0.9940090029481222,-0.07503917825182263,0.014891553527710362,0.007140197198168607,0.0004837317754017006,30895.23323605907
1683662783493080139,383,1683662783493080139,camera_1,398,0,-0.07647635291923317,-0.18656851945503825,1.6764662991803632,-0.07798828965471175,-0.9935223962739338,-0.08125556763205324,0.01511977207586796,0.009701660078462737,0.0006572192396467922,30863.508120822687
1683662783499850034,384,1683662783499850034,camera_1,399,0,-0.07632690972598036,-0.1863920451713911,1.6749768550935384,-0.07723831418206469,-0.9930949517661638,-0.08689265135842589,0.015694799736740175,0.003030164985830197,0.00020494286416332893,30871.391285496822
1683662783506621599,385,1683662783506621599,camera_1,400,0,-0.07656446272215942,-0.18665966265795458,1.678404322847471,-0.0776957836595742,-0.9946432657808175,-0.06343760326025895,0.02497617927123314,0.0027247562729826313,0.0001847713098338047,30882.974827622544
1683662783513103961,386,1683662783513103961,camera_1,401,0,-0.0766246909266548,-0.18676838426076364,1.6788771663734576,-0.07807318082297812,-0.9945205490375881,-0.06650257491472338,0.020269768323011174,0.0042248189565725625,0.00028672101946531,30862.645988719072
1683662783520062446,387,1683662783520062446,camera_1,402,0,-0.07644513473086761,-0.18662359406197096,1.6770445216850758,-0.07725100677172929,-0.9940099667191773,-0.07514894347353994,0.018141232331493007,0.005077941522358742,0.00034404120078891784,30880.097730241247
1683662783526704788,388,1683662783526704788,camera_1,403,0,-0.07640290071780717,-0.186401758826086,1.6753978007790793,-0.07749424153604012,-0.9937623211180445,-0.0773275706915885,0.021249434481132867,0.007303967065126926,0.0004938499518861368,30916.735854029845
1683662783533776521,389,1683662783533776521,camera_1,404,0,-0.07645225672299077,-0.186623989905628,1.6768297169709105,-0.07792792997237351,-0.9938949743828213,-0.07638584830650222,0.0162855704624626,0.008320000506500946,0.0005637085424750552,30883.70704702315
