%time,field.header.seq,field.header.stamp,field.header.frame_id,field.image_seq,field.transforms0.fiducial_id,field.transforms0.transform.translation.x,field.transforms0.transform.translation.y,field.transforms0.transform.translation.z,field.transforms0.transform.rotation.x,field.transforms0.transform.rotation.y,field.transforms0.transform.rotation.z,field.transforms0.transform.rotation.w,field.transforms0.image_error,field.transforms0.object_error,field.transforms0.fiducial_area
1684307360820466279,0,1684307360820466279,camera_1,1,0,0.13146994605114054,-0.866618026534874,5.253563834167622,-0.6973721600490669,0.7132357867441766,0.06611859710689373,-0.024394958752381835,0.010613545455271378,0.007177060491215551,3095.8564535930063
1684307360840201139,1,1684307360840201139,camera_1,3,0,0.12841626796025973,-0.8646260409906509,5.240965508497219,-0.6974619515550496,0.7123056036323187,0.07294557585572087,-0.029094606546527863,0.007820170634659007,0.005273049278747707,3101.2245918366834
1684307360846463203,2,1684307360846463203,camera_1,4,0,0.12818632167481978,-0.8655368833026147,5.2463618612821445,-0.6973002083891651,0.7125438471272658,0.07270146904394373,-0.027716091000630775,0.00805692771973554,0.005443472049112124,3095.922254412144
1684307360853955268,3,1684307360853955268,camera_1,5,0,0.12813705098239708,-0.8676906212255328,5.2592122877418195,-0.6976902204550092,0.7130775821776084,0.06421005748131083,-0.0250157269617231,0.008066243390203454,0.005463623794580726,3089.7894407335552
1684307360860883712,4,1684307360860883712,camera_1,6,0,0.12781075222560195,-0.8678677218239053,5.260175667702145,-0.6977797310154306,0.7131505949452572,0.06491421495228059,-0.017487727422062248,0.006385564833180979,0.004327871836089732,3092.285151621908
1684307360867414474,5,1684307360867414474,camera_1,7,0,0.12784886801436524,-0.8680832185232541,5.261489083100513,-0.6975576563564858,0.7131308002052776,0.06642684454048645,-0.021100999536072525,0.009311726287705824,0.006316432489523292,3087.536341529223
1684307360873845338,6,1684307360873845338,camera_1,8,0,0.1278203031562102,-0.8672680034958683,5.256669831885014,-0.6976207918878419,0.7129485537763187,0.0667191806369828,-0.02404456963985552,0.013011078262934461,0.008809974442735631,3091.2563547769096
1684307360880408287,7,1684307360880408287,camera_1,9,0,0.1283454646344297,-0.8671475325659898,5.255915886670155,-0.6971828381711435,0.7134858967820755,0.065470259316507,-0.024240676511523094,0.014775954899960198,0.0099984933348327,3093.162743418711
1684307360887024641,8,1684307360887024641,camera_1,10,0,0.1284975848997024,-0.8657051323715763,5.247417838130747,-0.6975420714066514,0.7124180115876914,0.07253357436172937,-0.02518960050238468,0.01087767789431382,0.007351865554896911,3096.479592438438
1684307360893461704,9,1684307360893461704,camera_1,11,0,0.12888229840351764,-0.8653063369047883,5.244829815201626,-0.6973517149561262,0.7126991356842561,0.06952625587343811,-0.030440554970063594,0.012337324558757246,0.008322593067212043,3098.9018768480164
1684307360900155544,10,1684307360900155544,camera_1,12,0,0.1304175464008625,-0.8674825998566058,5.258728785012083,-0.6978148996171945,0.7131184694145231,0.06371267498215505,-0.021380119240807113,0.009133076848229393,0.006184456374987437,3093.3308431172613
1684307360906876325,11,1684307360906876325,camera_1,13,0,0.1312018929896816,-0.8681704486738009,5.262789211376884,-0.6978158939294757,0.71299449835773,0.06660316690787561,-0.01599505076132593,0.00922551259282045,0.006261444461759942,3089.1137171403398
1684307360913540363,12,1684307360913540363,camera_1,14,0,0.13171236947206882,-0.8656532487163775,5.247841173626794,-0.6972399500140054,0.713164763198099,0.067082031177701,-0.027431254622066,0.006997252756264061,0.004722722137031944,3099.9688288569446
1684307360920400381,13,1684307360920400381,camera_1,15,0,0.1339862312623733,-0.8678746099844054,5.262096450761151,-0.6977821822920584,0.7134354803278354,0.06028601673575816,-0.02180453327313729,0.00974734072224237,0.0066030872872262,3092.447209055653
1684307360927098512,14,1684307360927098512,camera_1,16,0,0.13488107438065772,-0.8660762247621774,5.251355278067519,-0.697402948813938,0.7137590375130556,0.05870478905523884,-0.02703536750333318,0.004266316784196533,0.0028772902431913753,3103.3587453034133
1684307360933775424,15,1684307360933775424,camera_1,17,0,0.1359200048492734,-0.8660263488711123,5.252030300355373,-0.6940000258667977,0.7134223246568994,-0.06280874718701798,0.0738079403237028,0.010658970597432926,0.007195715027178774,3101.5431918406402
1684307360940296411,16,1684307360940296411,camera_1,18,0,0.1387017492956524,-0.8661540319727665,5.252882054145038,-0.6974687789436823,0.7139754210882652,0.05514540176680329,-0.027117985629858458,0.0052453343669185415,0.0035366430856682606,3104.7841406958178
1684307360947014331,17,1684307360947014331,camera_1,19,0,0.14025990660655768,-0.8681038146785515,5.264896775030867,-0.6982959859436109,0.713734663048315,0.052741916284966175,-0.013558652032497025,0.011050221233745106,0.00748040849412914,3099.8567611802714
1684307360953544616,18,1684307360953544616,camera_1,20,0,0.14144134227647476,-0.8656982470980153,5.2507282853548105,-0.6981055116302303,0.7132446761817003,0.05888696580108535,-0.021518638170150827,0.00798373507859651,0.005383250513534734,3108.3725507353665
1684307360959961652,19,1684307360959961652,camera_1,21,0,0.1442623479248238,-0.8649504577509127,5.247412833056295,-0.6976486875644472,0.7133146939964506,0.06120236406403349,-0.026883576795653025,0.01619331253459677,0.010910224693185621,3107.849376725264
1684307360966810226,20,1684307360966810226,camera_1,22,0,0.146022467328706,-0.8665135569856358,5.257014034873848,-0.6977794180147311,0.7138726409980635,0.05497861632464582,-0.021612218222587052,0.009562734587234445,0.0064574955978143195,3104.530280277191
1684307360973618507,21,1684307360973618507,camera_1,23,0,0.14754903866492378,-0.8665014321367976,5.257407988662301,-0.6979948914986639,0.7137432219646364,0.05284540323209792,-0.024106179675452682,0.005718403976061381,0.0038603145541131474,3104.378615391208
1684307360980464220,22,1684307360980464220,camera_1,24,0,0.15048794142858213,-0.8649506060655882,5.248720570192755,-0.6977698462424547,0.7132662461581867,0.05912020437471773,-0.029551737696481784,0.008541343690012582,0.0057551685269541025,3107.229366426298
1684307360986980915,23,1684307360986980915,camera_1,25,0,0.15239493283069863,-0.8663291590881176,5.258344869976323,-0.6948307505523339,0.7135761247417494,-0.05778112084809036,0.06841552717743368,0.003973935861722566,0.0026846904274524376,3103.9298755185455
1684307360993219852,24,1684307360993219852,camera_1,26,0,0.15400413511364594,-0.8656861663317781,5.2542354067560035,0.6980477139043764,-0.7130513988833146,-0.060467660154887456,0.025114811144326152,0.0004888603580184281,0.00033025442774527755,3102.949900070671
1684307360999805212,25,1684307360999805212,camera_1,27,0,0.1573078020967613,-0.865493729786728,5.25419992453554,-0.6976516730994813,0.7132846455124082,0.061101264388783744,-0.02781713478819788,0.001015010115224868,0.000685783058390518,3101.3811950634686
1684307361006681203,26,1684307361006681203,camera_1,28,0,0.15898813332454942,-0.8667702333205576,5.263102108795054,-0.6945474789718842,0.7138463026958631,-0.061401836400049696,0.06524622646519705,0.001611620537005365,0.0010913548677311542,3098.583053942769
1684307361013437032,27,1684307361013437032,camera_1,29,0,0.16031035966465845,-0.8648340885303694,5.250704687295425,0.6973184739011066,-0.7135590306945555,-0.05871433948782397,0.03366128353147823,0.0017377288895659149,0.0011718014336728425,3103.9980624007294
1684307361020252704,28,1684307361020252704,camera_1,30,0,0.1633478784570934,-0.8649114986202334,5.252159910514279,-0.6974104924269444,0.7137602796194846,0.058422216108967764,-0.0274173841793694,0.002856517967302352,0.0019271961635823377,3107.0712327857027
1684307361026824235,29,1684307361026824235,camera_1,31,0,0.164969670967148,-0.8652012901827253,5.25509537011972,-0.6941105699104275,0.7134277031545642,-0.06476780666894125,0.07096872782796253,0.0025362488231621683,0.0017134548309869445,3103.131736026844
1684307361033603429,30,1684307361033603429,camera_1,32,0,0.16647241260659973,-0.8654022884140784,5.255735428226769,-0.6970513107620971,0.7137943616463942,0.06104901616258058,-0.029834494670431536,0.005619189527351409,0.0037985951129940617,3099.6945496106064
1684307361040453433,31,1684307361040453433,camera_1,33,0,0.1694213284031956,-0.8657968280500138,5.258757110303178,-0.696976521237184,0.7138986387680717,0.06166416458386367,-0.027748751600420327,0.006637645943555981,0.00449301115286985,3097.33254176029
1684307361046711206,32,1684307361046711206,camera_1,34,0,0.17015893507950672,-0.8638278618810513,5.247224563770148,-0.6970299771854995,0.7133516957315883,0.06448205407481153,-0.03347586897964814,0.013348128704819828,0.00900215068000228,3105.0591377561223
1684307361053256988,33,1684307361053256988,camera_1,35,0,0.17178085747031666,-0.8658619164261809,5.259483506668222,-0.6972127987076511,0.7136347447638158,0.06350133940511365,-0.02423518677222508,0.006090679322369397,0.004126171153467651,3097.330022201524
1684307361059744596,34,1684307361059744596,camera_1,36,0,0.17360944881545418,-0.8643585404308356,5.250851535060732,-0.6969306064638865,0.7139885290624269,0.05995056446335666,-0.030233093815823092,0.013539703970309347,0.009133370864612968,3107.103588482715
1684307361066574811,35,1684307361066574811,camera_1,37,0,0.17507993984518622,-0.8667292210080662,5.265396352106323,-0.6972826781795254,0.7141280015259396,0.05631997913178484,-0.025418971221348688,0.012793555855751038,0.008670456902783645,3095.8192153479904
1684307361072972297,36,1684307361072972297,camera_1,38,0,0.17589961616656333,-0.8662924823849869,5.262813444241987,-0.6975408480234095,0.7135487543710809,0.0625892958668331,-0.019170824634214354,0.017972743837162852,0.012187401675774782,3097.3444618971535
1684307361079622507,37,1684307361079622507,camera_1,39,0,0.17663871744472096,-0.8630401562694476,5.243602183602519,-0.6968622805194643,0.7132830426898413,0.06464829276174616,-0.037826726574277436,0.013659096031915396,0.009199897253711729,3106.9882678025174
1684307361086503982,38,1684307361086503982,camera_1,40,0,0.17770028494458243,-0.8650455157522746,5.25678381751191,-0.6940257823208429,0.7135316214017569,-0.06143436090793119,0.07366585391859548,0.013900279358495027,0.009388234354730112,3103.7414110018876
1684307361093135833,39,1684307361093135833,camera_1,41,0,0.17864187547156363,-0.8667921345274371,5.267502790974691,-0.6945730749997001,0.7141268833505765,-0.05402813313670802,0.06835202112019334,0.01621581352083012,0.010980123121831557,3099.5721253232323
1684307361099831342,40,1684307361099831342,camera_1,42,0,0.1790783534715483,-0.8650598717325872,5.256318044285226,-0.6977504614393507,0.7134867215903936,0.05871105381503872,-0.02517943278338553,0.02177441242383793,0.014714032703496959,3105.3582455253945
1684307361107199907,41,1684307361107199907,camera_1,43,0,0.17900945491834397,-0.8640800760687147,5.250551652265371,-0.6975482895964502,0.7131898764108033,0.06247879728750154,-0.0297150425831334,0.013291005161590874,0.008971024409201353,3106.4232496595932
1684307361113678216,42,1684307361113678216,camera_1,44,0,0.1791417144549835,-0.8641911002403904,5.251013310313945,-0.6973893156266422,0.7136157476452099,0.05932716847569027,-0.029681547183882318,0.0108269028714858,0.007303228583071848,3108.4701649773633
1684307361119874000,43,1684307361119874000,camera_1,45,0,0.17910394950129002,-0.8645102882256479,5.2530642301158625,-0.6974477749904615,0.7135394751411027,0.06026626577483632,-0.02821339727454481,0.015962679288350046,0.01077804515134131,3106.1932761920625
1684307361126776456,44,1684307361126776456,camera_1,46,0,0.17898757675732613,-0.8648374182444454,5.254845010794317,-0.6976263222865985,0.7132297842046271,0.06111836607555988,-0.029754574514686608,0.01565246906829998,0.010578190654774907,3102.4079433807638
1684307361133433341,45,1684307361133433341,camera_1,47,0,0.17876739653155915,-0.8652651358752562,5.257298102238947,-0.6975271545360937,0.7137209253164662,0.059004929210279014,-0.024015157277809028,0.015517490508500487,0.010491091462388087,3104.5754802719466
1684307361140158653,46,1684307361140158653,camera_1,48,0,0.17789933495583923,-0.8656287950222464,5.260160695041281,-0.6942209304278569,0.7138188220981835,-0.06064496661243189,0.06958575284366574,0.012502465571742505,0.008453586232137659,3102.953961344204
1684307361146823406,47,1684307361146823406,camera_1,49,0,0.17697314347641874,-0.8640022709220108,5.249419446504516,-0.6966871922431864,0.7138842060962602,0.061632311781314564,-0.0346085913482244,0.011017447570338845,0.007431437074566483,3104.9737003110345
1684307361153383493,48,1684307361153383493,camera_1,50,0,0.1762654548494571,-0.8640474171949701,5.2495045379798535,-0.6969755814960381,0.7136739515813567,0.05944082729406306,-0.036896038853898624,0.012122095329687,0.008172039740488286,3104.9235249968488
1684307361160084486,49,1684307361160084486,camera_1,51,0,0.17516369484736963,-0.8668607793250503,5.266528050526485,-0.6972104951239728,0.7144619457589746,0.054075318541834075,-0.02274892252138482,0.011752082966268063,0.007963850908314649,3097.6630621983195
1684307361166755437,50,1684307361166755437,camera_1,52,0,0.1736368006377147,-0.8638271058888182,5.248644134306612,-0.6935768762524045,0.7131881221655771,-0.06919045196904582,0.07434043641393275,0.008272624225355685,0.005580672179974378,3106.3527860470367
1684307361173562049,51,1684307361173562049,camera_1,53,0,0.17293186485345044,-0.8650078331519794,5.254431835773333,-0.6970021818880027,0.7139850101809342,0.05937679461453594,-0.029795300662994562,0.009112031199038029,0.0061542028648494266,3103.468318036291
1684307361180301666,52,1684307361180301666,camera_1,54,0,0.17050544266409573,-0.8641911694126778,5.250036276622037,-0.6934704832960211,0.7136492379986507,-0.06417677851223651,0.07539757954284478,0.007479694846551865,0.005042382988719197,3107.508566964301
1684307361187023878,53,1684307361187023878,camera_1,55,0,0.16950001786275537,-0.8654545033761745,5.2565714336121765,-0.6968466908518752,0.7138692569490936,0.06281418477780297,-0.029150499522998682,0.006719105353113264,0.004545724009212074,3098.107131909578
1684307361193531274,54,1684307361193531274,camera_1,56,0,0.16799946421201825,-0.8648522865695434,5.252480014788952,-0.6971972431072486,0.7136939453244858,0.058701710192414006,-0.03333265412936702,0.006102235289290547,0.004117674315724555,3103.296866278164
1684307361200513839,55,1684307361200513839,camera_1,57,0,0.16528023182415583,-0.8655915636377212,5.257135936699776,-0.693651953304188,0.713716066996969,-0.0664101234367073,0.07103547629729705,0.0012589737889356911,0.0008515381401494005,3099.4053099085572
1684307361207153558,56,1684307361207153558,camera_1,58,0,0.1636789851577825,-0.8642606457540001,5.247712228376568,-0.6966963999374876,0.7139651404852311,0.06134508017860337,-0.033236811277998754,0.0008605368784628808,0.0005800281652168665,3106.271068760893
1684307361213986396,57,1684307361213986396,camera_1,59,0,0.16256885410907584,-0.8669183925476801,5.263820693841837,-0.6973720166357493,0.7140713058168369,0.05609382398599486,-0.02505840244417341,0.0008337129256688058,0.0005646978794238759,3096.305076990043
1684307361220436334,58,1684307361220436334,camera_1,60,0,0.15956936812764771,-0.866640702175329,5.261256449837522,-0.6978659230732827,0.7133485266717304,0.05953243019607035,-0.023935802959098744,0.0013231249176897109,0.0008960320910682355,3096.9072034233245
1684307361226893424,59,1684307361226893424,camera_1,61,0,0.15765775494879725,-0.8654024652332757,5.252936497541457,-0.6977740950760208,0.7131270784711125,0.06233209790679059,-0.025995995126832927,0.005595392140094191,0.0037796155358830377,3103.002109183347
1684307361233591079,60,1684307361233591079,camera_1,62,0,0.15647278117368804,-0.8673477418875908,5.264592394431522,-0.6980396759561724,0.7138175908233702,0.054439887972342234,-0.015535649960025374,0.003794800373725593,0.002569906550059218,3100.672306533437
1684307361240458488,61,1684307361240458488,camera_1,63,0,0.15312112255208493,-0.867337347999976,5.263295628432665,-0.6980009405800117,0.7140298397080495,0.05065039570971037,-0.01976391586618787,0.014886253062286414,0.01006617624306358,3102.175863562502
1684307361247107028,62,1684307361247107028,camera_1,64,0,0.1510511168581908,-0.8644597189315654,5.245838823712038,-0.6973691269289527,0.7136099137514395,0.05852256253358355,-0.03181668550487822,0.007098198591847904,0.004776951611873256,3109.706276359037
1684307361253474712,63,1684307361253474712,camera_1,65,0,0.1497512328822629,-0.8669547256080725,5.2605991140416055,-0.6979703818390048,0.7141014334551433,0.04940185401338466,-0.02135288347890101,0.011665923710097559,0.00787863705542767,3104.818712456444
1684307361260455369,64,1684307361260455369,camera_1,66,0,0.146609133144001,-0.8672976938866479,5.261660280028886,-0.6981578281296383,0.7138024616615163,0.050432053024285856,-0.02276622004246497,0.0066452735918574035,0.004490920783918845,3101.557648593328
1684307361267034053,65,1684307361267034053,camera_1,67,0,0.14477006084530752,-0.8653222988368805,5.249362480634241,-0.6978381834291466,0.7131992109813886,0.0604531652558856,-0.02672395955651512,0.007153304482926615,0.004822713179938738,3106.279172203503
1684307361273893833,66,1684307361273893833,camera_1,68,0,0.14385083451088032,-0.8680372657880722,5.265566283874612,-0.6983898493297443,0.7135221664651851,0.053563757796584635,-0.01639085619223698,0.016298180999001488,0.011037159727878517,3097.758239889694
1684307361280525922,67,1684307361280525922,camera_1,69,0,0.14069024060877686,-0.8669016273038368,5.257502597490171,-0.6980595441379212,0.7135191224802734,0.05480654578853212,-0.02448626618470427,0.010281798924552277,0.006943781779860558,3101.468692510564
1684307361287279367,68,1684307361287279367,camera_1,70,0,0.13903698810546183,-0.8658580043559165,5.250888031370799,-0.697613134803949,0.7136034815301004,0.0577632785719514,-0.027737861232372086,0.006518242793390527,0.004394225030711748,3104.894197621965
1684307361293807029,69,1684307361293807029,camera_1,71,0,0.1377792038568491,-0.8659483792419024,5.251328923356873,-0.6980753615957738,0.7130256894453489,0.06132422691606113,-0.02290185400926987,0.009337098832475021,0.006300857698168158,3104.368623145391
1684307361300481081,70,1684307361300481081,camera_1,72,0,0.13504171662030598,-0.8647624191148656,5.243314675245106,-0.6969742612166558,0.7134780873845313,0.06461025626222265,-0.03164510719428183,0.007705245530814864,0.00518822288010504,3105.2179984493996
1684307361307099819,71,1684307361307099819,camera_1,73,0,0.13425398032173777,-0.8661816071609776,5.251420370166481,-0.698022002695139,0.7126697410003318,0.06574692079016177,-0.023333804289045797,0.010356717408285476,0.0069971389063864554,3099.7778559786393
1684307361313620328,72,1684307361313620328,camera_1,74,0,0.13310577097660406,-0.8665383187207916,5.253248589861606,-0.6972645570758139,0.7134181565063412,0.0638696906181353,-0.0278807107747703,0.008300969551783055,0.005609566659683548,3096.201650178409
1684307361320359706,73,1684307361320359706,camera_1,75,0,0.13147132401010922,-0.8674133816664602,5.258151052318013,-0.6975196815119165,0.713449929567665,0.06286820240389593,-0.022429467891845016,0.003844372244202532,0.002602174425349267,3094.242356095405
1684307361326705217,74,1684307361326705217,camera_1,76,0,0.13051967565553585,-0.8669636999250024,5.2552297620627915,-0.6976111535509795,0.712946601169163,0.06826458074125151,-0.019641011654993535,0.01052990255993791,0.007129675665155712,3094.6117362687364
1684307361333411931,75,1684307361333411931,camera_1,77,0,0.12972112177687845,-0.8661774989091313,5.2513718852597435,-0.6932434744144255,0.7130541764979396,-0.06907627438184337,0.07871273644198477,0.005992895283270626,0.004051694888125378,3092.7835278051202
1684307361340099096,76,1684307361340099096,camera_1,78,0,0.1287486204521345,-0.8661872955095247,5.250263997437368,-0.6976882157286389,0.7125053154219294,0.07087268195920823,-0.023332211228126835,0.007524367101723328,0.005088791374625479,3095.7805170837673
1684307361346230506,77,1684307361346230506,camera_1,79,0,0.12832463501016397,-0.8659407026276253,5.248939812556283,-0.697420284539485,0.7126854310477171,0.07016726161218644,-0.027585838450924674,0.009169308032141998,0.006196483348462409,3095.2847405069033
1684307361352892637,78,1684307361352892637,camera_1,80,0,0.12816025171093404,-0.8676081056211105,5.258667573156616,-0.6974437434309702,0.7129579109304905,0.06814952747492013,-0.02487737718432202,0.006171273198560812,0.004183722069132535,3087.2230264434465
1684307361359841585,79,1684307361359841585,camera_1,81,0,0.12791563172879278,-0.8684973624376369,5.264068700974686,-0.6977769139607205,0.7130710057605787,0.06519946843147525,-0.01965065910607784,0.006901604079757817,0.004684738713601877,3086.328614774742
1684307361366588354,80,1684307361366588354,camera_1,82,0,0.12789040852246106,-0.8681846455356937,5.261989245561875,-0.6974400050778998,0.7133302976217012,0.06555719567977093,-0.020966160985706375,0.010907101415796205,0.0073981162055343904,3087.743125937995
1684307361373143196,81,1684307361373143196,camera_1,83,0,0.12790105601816715,-0.8674143013940164,5.2574759273218135,-0.6973988783733647,0.7134032307068018,0.06518384311560707,-0.021016694729441322,0.012171723719802685,0.00824082326432129,3093.3617352079013
1684307361379621744,82,1684307361379621744,camera_1,84,0,0.12820266953448242,-0.8665637462897251,5.2521940041476585,-0.6974082319926245,0.7129837845506567,0.06891227686444372,-0.022956023481922407,0.009065332968020812,0.0061317421394213355,3095.347881009453
1684307361393036365,83,1684307361393036365,camera_1,86,0,0.1289909596157729,-0.8660325181107416,5.249220801436252,-0.6974344762027088,0.7127278853201466,0.07051440265752269,-0.025136266802731067,0.010302627240889706,0.006964119307708298,3096.2902579733636
1684307361399596452,84,1684307361399596452,camera_1,87,0,0.13049858677128134,-0.867669966633858,5.259911273540119,-0.6976624172097098,0.7130192950466142,0.0669325728268637,-0.019765302909660814,0.008313137295772322,0.005636859302271806,3090.186980659024
1684307361406484842,85,1684307361406484842,camera_1,88,0,0.13114666882763043,-0.8675527017938667,5.259131063342,-0.6979520249188704,0.7125445335346621,0.06916982317166899,-0.018941863792119852,0.0036914318043272947,0.0025039011242478436,3089.69022461091
1684307361420093297,86,1684307361420093297,camera_1,90,0,0.13401990133737796,-0.8678780071435435,5.261863057402207,-0.6978029787341744,0.7133346627883577,0.060850243042859804,-0.022845342106394984,0.006518331661936827,0.004415994367403074,3091.6723393636057
1684307361426707506,87,1684307361426707506,camera_1,91,0,0.1349304024678752,-0.8658829159397227,5.249913248835555,-0.6972759442807058,0.7137263318563679,0.06046239441308099,-0.027299809598981845,0.00949803956609685,0.006404572830992785,3103.561049375683
1684307361433847188,88,1684307361433847188,camera_1,92,0,0.13598246946875805,-0.8662093705959638,5.252045872195928,-0.6976367633819065,0.7135755866319532,0.05850702248774853,-0.02626322258406164,0.009436057953280397,0.00636508103248427,3103.350374265573
1684307361440382003,89,1684307361440382003,camera_1,93,0,0.1387524883361058,-0.8662189580375594,5.252938004651252,-0.6974908445153282,0.713865208718393,0.05607625215788269,-0.0275397810932683,0.008698249002918601,0.005865918377684758,3103.773603518262
1684307361447223186,90,1684307361447223186,camera_1,94,0,0.14032678464636708,-0.8680676312980777,5.264418453627699,-0.6982329781600296,0.7135221937146908,0.05562358986702872,-0.016211216384206365,0.010459568657097407,0.007083961833420979,3097.15204755281
1684307361453711271,91,1684307361453711271,camera_1,95,0,0.14153134500301676,-0.8657765625680816,5.251128643299681,-0.6981218061911494,0.713082892173734,0.058947925141516325,-0.02576576664996104,0.006394985903170891,0.0043127633626346504,3105.3693561491664
1684307361460211277,92,1684307361460211277,camera_1,96,0,0.14447161157431085,-0.8656330400286454,5.251101777839694,-0.698016129748371,0.7134652343598189,0.05541242644040814,-0.025890248492053455,0.009829398419242352,0.006623057448837517,3108.4460624560597
1684307361466651678,93,1684307361466651678,camera_1,97,0,0.14635430881687672,-0.8676310857705514,5.264717418835902,-0.6953298358322105,0.7137896336350589,-0.04935935661813124,0.06770843544879608,0.008459909717203118,0.005720711735282372,3101.2296517979694
1684307361473284959,94,1684307361473284959,camera_1,98,0,0.14759774454686275,-0.8661919584038953,5.255303269890526,-0.6980176877918921,0.7134998220994491,0.055614377791192084,-0.024420327119305023,0.009136652632150799,0.006166512423690906,3104.724590804719
1684307361479678153,95,1684307361479678153,camera_1,99,0,0.1507635736783758,-0.8659295831600897,5.254527571407004,-0.6978593582873708,0.713699671354575,0.05315937634766429,-0.028269698715027602,0.004015427330159582,0.002707980457510032,3105.557252739672
1684307361486194610,96,1684307361486194610,camera_1,100,0,0.15245776932099278,-0.8664034169445509,5.2587891966485865,-0.6947074138033396,0.7133232712270839,-0.060104059244804595,0.07027817580774776,0.005371040679165162,0.0036310751499660726,3100.6628063379903
1684307361493368625,97,1684307361493368625,camera_1,101,0,0.15407815104652134,-0.8652937931881461,5.25168722022271,-0.6978272932327652,0.7129682142030507,0.061526917601974485,-0.030460347436378366,0.004019954940304161,0.0027135369808987046,3101.784146094578
1684307361500357866,98,1684307361500357866,camera_1,102,0,0.15735653371597477,-0.8651891701766237,5.2519302865176165,-0.6976856350648027,0.7132580164822153,0.061671853073472414,-0.026350314733656115,0.0008488690946251154,0.0005731294111761535,3104.495535094174
1684307361506994724,99,1684307361506994724,camera_1,103,0,0.15896820632203884,-0.8661304572296016,5.259170838022501,-0.694346109146492,0.7136502278201032,-0.06456298801988153,0.06647144968621746,0.00110661395592615,0.0007487988633285865,3100.1538360926793
1684307361513492822,100,1684307361513492822,camera_1,104,0,0.16033271567180712,-0.8644079710504674,5.248185348307113,-0.696933767788973,0.7135365369413785,0.06380240692392264,-0.03283575240320703,0.0008003563852980733,0.0005399089266135885,3103.482643888099
1684307361520197391,101,1684307361520197391,camera_1,105,0,0.1634860278845462,-0.8649655550442663,5.252458220408255,-0.6966750125734479,0.7143641604250155,0.05848209568989255,-0.030126693143577354,0.003268516156822443,0.0022054090917301736,3104.9957171763526
1684307361526809692,102,1684307361526809692,camera_1,106,0,0.16507865245645453,-0.8654132043053177,5.256168003833986,-0.6939075261924083,0.7137013774664155,-0.06380149790021646,0.0710778289043928,0.0007952435989864171,0.0005373310435950974,3102.5353489416875
1684307361533431053,103,1684307361533431053,camera_1,107,0,0.16651910320519678,-0.8652742638888511,5.25496985521311,-0.6975520919526174,0.7135363332850623,0.05774671098778633,-0.030859317308213806,0.004583443806041032,0.0030950472723110757,3102.529058835819
1684307361540015220,104,1684307361540015220,camera_1,108,0,0.16968275600215807,-0.866754477210078,5.264651341759221,-0.6973970743335511,0.7138296932472689,0.05861935385288971,-0.025460972160998015,0.005892227811273187,0.003994400597243066,3094.2008293051044
1684307361546741247,105,1684307361546741247,camera_1,109,0,0.17016029282600895,-0.8635283275648136,5.244898564628742,-0.6967144220290129,0.713522380913855,0.06504461906678097,-0.03527071876584668,0.014202707097865641,0.009571410909800083,3106.0617224491425
1684307361553732395,106,1684307361553732395,camera_1,110,0,0.17188485804934184,-0.8660063243531684,5.2604221374718385,-0.6973879679439922,0.7135928792665194,0.06229700869359199,-0.023543736638408214,0.008265098964329809,0.005599424968205368,3097.6290361837023
1684307361560753583,107,1684307361560753583,camera_1,111,0,0.17360453670381396,-0.8640998397581239,5.2492808340311345,-0.6970224250162128,0.7136661590791488,0.06300985506788925,-0.029497636753756,0.00910391187062487,0.006142803759386434,3106.9292998180017
1684307361567287921,108,1684307361567287921,camera_1,112,0,0.17496945290739224,-0.8660696951100298,5.262276259992364,-0.694307495806319,0.7135926086806372,-0.06259661817440358,0.06931344383775269,0.009977068461012095,0.006754689360258776,3098.793010088847
1684307361574069499,109,1684307361574069499,camera_1,113,0,0.17591362982286537,-0.8661519437343657,5.262106696837463,-0.6978193862579601,0.7132942244425731,0.06069197897413809,-0.023998692206767407,0.015577626647427678,0.010555328989062465,3097.190949865732
1684307361580678224,110,1684307361580678224,camera_1,114,0,0.1769104021199772,-0.8641923794682302,5.250692667176548,-0.6971311999177374,0.7137786858887168,0.05969982858523744,-0.031048480464034724,0.0073499068967066705,0.004957821566968429,3107.409779026988
1684307361587332010,111,1684307361587332010,camera_1,115,0,0.17762977803957325,-0.8645320280054773,5.253570443944097,-0.6936709710029908,0.7132349693863759,-0.06751347772359077,0.0745546293522387,0.008506341837346554,0.005746159561118928,3102.2919556061975
1684307361593585491,112,1684307361593585491,camera_1,116,0,0.17856496845113298,-0.8664939828483808,5.264829975005018,-0.697338043685637,0.7145192436547149,0.049246704364148845,-0.02750755141871292,0.01181199465645477,0.007990780793479316,3100.734110867139
1684307361600389003,113,1684307361600389003,camera_1,117,0,0.17904319975256144,-0.8648753813957042,5.255015484537055,-0.6975157614391337,0.713572724217445,0.05920803261382413,-0.027930962584204078,0.010671043302863836,0.007208882678927843,3104.874152035919
1684307361606812238,114,1684307361606812238,camera_1,118,0,0.1791776046200082,-0.864853973179929,5.254720859720762,-0.6976642847712012,0.7134449508885446,0.05895394005151211,-0.028022861358771682,0.012925960880238563,0.008730597082045334,3105.3747492635143
1684307361613467216,115,1684307361613467216,camera_1,119,0,0.17919746202585007,-0.8642970820554179,5.251664303297586,-0.6973403146884232,0.7136224200066105,0.060071175728555595,-0.02917157898964172,0.012103706889320165,0.008168014132410034,3107.4312408397673
1684307361620202779,116,1684307361620202779,camera_1,120,0,0.17914658311417966,-0.8644489073884926,5.252697501080421,-0.6976563472712343,0.7135668555511059,0.059048708570020945,-0.024722738264175946,0.01542222109856084,0.010408604362061636,3109.660775540396
1684307361626895666,117,1684307361626895666,camera_1,121,0,0.17924411263988152,-0.8661947098966918,5.262967626959452,-0.6976801820270666,0.7139073236648682,0.05613909038817563,-0.02066638223619605,0.01720666402252391,0.011649839005265786,3101.9223691110956
1684307361633348703,118,1684307361633348703,camera_1,122,0,0.17878820436198573,-0.8655469434307101,5.25897237967934,-0.697021630476365,0.7139912258541486,0.059719776583023666,-0.0284767332437189,0.013527633214835078,0.009153229065720442,3099.421851917403
1684307361640031576,119,1684307361640031576,camera_1,123,0,0.17762653974303202,-0.8646483345153141,5.254413967630952,-0.693643253444165,0.713405388835871,-0.06656350948020098,0.07403436591889696,0.014501605881378055,0.00979744543242677,3102.407132280641
1684307361646979808,120,1684307361646979808,camera_1,124,0,0.1766769188691856,-0.8630567764976543,5.243250809558895,-0.696885183206848,0.7136470752633208,0.06237050551701532,-0.03418791360141689,0.01024620165117085,0.006896480987335001,3111.9166021575224
1684307361653922080,121,1684307361653922080,camera_1,125,0,0.17616386422531757,-0.8635957244108907,5.246831180546487,-0.6965885783837936,0.7139135534715514,0.06287454235702376,-0.03374288900290943,0.009847426204942167,0.00663791572200646,3107.507574794348
1684307361660785675,122,1684307361660785675,camera_1,126,0,0.17495992029813773,-0.8661056504730407,5.261498618595518,-0.6968440016593989,0.7141877758248901,0.060184138344662436,-0.026872433930015063,0.01509491796605289,0.010224528403009352,3096.557908234652
1684307361667001962,123,1684307361667001962,camera_1,127,0,0.17371773385149125,-0.8644831119865696,5.251456208657757,-0.697218026288594,0.7136346239641944,0.060057196540621915,-0.03171404170713006,0.010512331791687757,0.007093256315173719,3105.332737996243
1684307361673205137,124,1684307361673205137,camera_1,128,0,0.17285468606390977,-0.8646176954219099,5.252064119548219,-0.6966066643362044,0.7139084444375655,0.0629702521070783,-0.033296178650007655,0.010988519119564444,0.007421548205305273,3101.049886606983
1684307361679769515,125,1684307361679769515,camera_1,129,0,0.17031869932749147,-0.8635231231271987,5.246345543063265,-0.6929087960804619,0.7132703992338997,-0.07330204524022539,0.0758257743424918,0.0074811221566051245,0.005048132456699078,3104.0580276036626
1684307361686690807,126,1684307361686690807,camera_1,130,0,0.16929443777641595,-0.8648215322806226,5.252695737765598,-0.6966580353202436,0.7138147572323753,0.06478196799654576,-0.03064915665263546,0.0056182839325629175,0.003797405332030519,3100.0515510180267
1684307361693230867,127,1684307361693230867,camera_1,131,0,0.16788693167106603,-0.8649363345435186,5.253092054964289,-0.6970682930229117,0.7137358405690886,0.05979911858122122,-0.03318147323688008,0.00654757849406451,0.004420394167686702,3101.808603785466
1684307361699692964,128,1684307361699692964,camera_1,132,0,0.16509627682141356,-0.8653105343168533,5.255668885356833,-0.6940719227928713,0.713448793750599,-0.06480465089371312,0.07110092762380896,0.0013425542856566608,0.0009072006350854776,3102.352810961892
1684307361706498622,129,1684307361706498622,camera_1,133,0,0.16362171694275032,-0.8645173067523015,5.249589763144851,-0.6968030082699948,0.7140817203458046,0.05846248376951393,-0.03368979556722055,0.002490855462383479,0.0016788924575940453,3106.030904824962
1684307361713431119,130,1684307361713431119,camera_1,134,0,0.16247033160558425,-0.8671454002285715,5.264888836170835,-0.6975045366166306,0.7141412461544786,0.05509114486844204,-0.021322938287964385,0.000709102489054203,0.00048040765508062833,3097.8345835176297
1684307361719872713,131,1684307361719872713,camera_1,135,0,0.1594173537793793,-0.8664138796304218,5.260234277181998,-0.6977408190997672,0.7134589116325941,0.058784489007236575,-0.026048313307742814,0.0005725049413740634,0.0003874957925205373,3097.464042203035
1684307361727022409,132,1684307361727022409,camera_1,136,0,0.1575679345408567,-0.8652058798044845,5.25220650154613,-0.6976488511762842,0.7134217931120315,0.05965302272355337,-0.027512587031540338,0.0015074939001351595,0.0010173793565040677,3105.104434706387
1684307361734075069,133,1684307361734075069,camera_1,137,0,0.15619008098266499,-0.8663771611660904,5.258684788231098,-0.6979738019151017,0.7132347309829948,0.059730302755708356,-0.023687154588614184,0.0035951114841736853,0.002432240024001139,3099.4219551840806
1684307361740430831,134,1684307361740430831,camera_1,138,0,0.1530812394392375,-0.868047131245526,5.268194404571664,-0.6979086502079759,0.7141436437933129,0.0514552548539054,-0.01657494320987888,0.0012733489274978638,0.0008629665166664875,3097.4879630859946
1684307361746556997,135,1684307361746556997,camera_1,139,0,0.15092488102961282,-0.864336441468577,5.245133805522215,-0.6974353945996972,0.7135947376858527,0.05783620438761792,-0.03195925794910288,0.004094713774975389,0.002754554058954004,3110.947825747252
1684307361753673791,136,1684307361753673791,camera_1,140,0,0.14970163175720938,-0.8674874345012809,5.264791652709676,-0.6949908581504238,0.713988838952735,-0.05003451128057283,0.06858711700587142,0.009476882303715684,0.006408949511963909,3100.7892352595222
1684307361760971069,137,1684307361760971069,camera_1,141,0,0.14655745451451335,-0.8674441702057248,5.262595692700423,-0.6982419223705092,0.7137955053666252,0.05118548690426425,-0.018282239827590124,0.00738780212122947,0.004995349070143274,3102.374291826972
1684307361766930103,138,1684307361766930103,camera_1,142,0,0.14466475503492554,-0.8653293211286762,5.2492776604107165,-0.6976480085320389,0.7135374650477255,0.058299388186756444,-0.027435806924456907,0.00636153768573422,0.004286485588627043,3107.563840234011
1684307361773385524,139,1684307361773385524,camera_1,143,0,0.1436147333793883,-0.8673523971289279,5.2612559656460745,-0.6984769532765477,0.7135118972196572,0.053072410690752324,-0.014630020197822557,0.010727979097282514,0.007252815783478802,3103.9891543611884
1684307361780555248,140,1684307361780555248,camera_1,144,0,0.1406865734359654,-0.8671025744627479,5.259081946383861,-0.6981183124185403,0.7137100004391521,0.053127276886149384,-0.020648234541897723,0.016260263917502016,0.010983203248573022,3102.990481211103
1684307361786919832,141,1684307361786919832,camera_1,145,0,0.13898890723394003,-0.866181277465335,5.25278277196926,-0.6977208782569542,0.7136400972721714,0.05516819264297428,-0.029323337637756235,0.006901933884364553,0.004653495689935601,3103.4952657723916
1684307361793427228,142,1684307361793427228,camera_1,146,0,0.13779448508496334,-0.8663839947253807,5.253615168591967,-0.6979445434273359,0.7134120909188647,0.05835804293677194,-0.022604018566860236,0.020407030096976086,0.013771644447475008,3104.0888334148904
1684307361800593852,143,1684307361800593852,camera_1,147,0,0.1351095392235242,-0.8656311169913444,5.248631264084854,-0.6970300536321253,0.7138580091539733,0.05965003947600759,-0.03158670433636295,0.008327923424076289,0.005611660059899553,3102.909083578503
1684307361807571649,144,1684307361807571649,camera_1,148,0,0.13441252913237883,-0.8676978715199329,5.260763614040646,-0.6977878999516466,0.7134345387960449,0.06162061032589633,-0.017495882858824693,0.008895667459000833,0.006025041967318474,3095.3424784155804
1684307361813885927,145,1684307361813885927,camera_1,149,0,0.1330451587427502,-0.8663772578263922,5.253262792943884,-0.6940666710207045,0.7132565381979401,-0.06440139092745395,0.07340999756665964,0.009094923399970867,0.006145613528615266,3098.5452383006923
1684307361820559263,146,1684307361820559263,camera_1,150,0,0.13137861424113223,-0.8670671190451444,5.256313905197157,-0.6976298260460335,0.7129741945743168,0.0663936430368626,-0.02392295647236638,0.008831974657368846,0.005979163753495612,3092.639096291096
1684307361827047109,147,1684307361827047109,camera_1,151,0,0.13063861847050626,-0.8678537534416928,5.260339662254499,-0.6977756764946492,0.7129525562755048,0.06637821078966247,-0.020042228544270308,0.011133378036902286,0.007548778491841636,3089.966232829377
1684307361833731889,148,1684307361833731889,camera_1,152,0,0.1299065001654732,-0.8676682723910816,5.259604059848219,-0.6976185000682275,0.7135112322764687,0.06022755020045938,-0.024551822228149115,0.005539218444027938,0.0037489693459707187,3093.091080651445
1684307361840361356,149,1684307361840361356,camera_1,153,0,0.12855213885806735,-0.8654396075418795,5.245702806003532,-0.6975160879011015,0.7123867094956485,0.07225721364627341,-0.02748414687019397,0.013268936105305329,0.008961238402952976,3097.320359625155
1684307361846861839,150,1684307361846861839,camera_1,154,0,0.12825382368183139,-0.8660056832616635,5.248965716853627,-0.6972269209844854,0.7131142240839009,0.06790553491822193,-0.027047410064191094,0.004793211817741394,0.0032373200412262487,3097.5535063954876
1684307361853702545,151,1684307361853702545,camera_1,155,0,0.1280499769101519,-0.8668643943677068,5.254244261476424,-0.6974120093998842,0.7130380076792913,0.06814947367031236,-0.023429425686987974,0.006627641414524987,0.00448554444057995,3093.301655231975
1684307361860214710,152,1684307361860214710,camera_1,156,0,0.12770815601854973,-0.867415187284436,5.2574799900639615,-0.6977409630535821,0.7127092614303413,0.06807176520548176,-0.023859839276224076,0.006928441551281139,0.004694801487696029,3089.2220673062247
1684307361866650819,153,1684307361866650819,camera_1,157,0,0.1278350069655832,-0.8679838163107374,5.261033368514165,-0.6975301092128353,0.7129545235902627,0.06857682285638761,-0.021090599816871496,0.00872970158525277,0.005924102153929559,3086.2480874541798
1684307361873546600,154,1684307361873546600,camera_1,158,0,0.12789905698387757,-0.8676451813148363,5.258693798427072,-0.6974676287605138,0.7131300003647685,0.06723520116272345,-0.021539199974454734,0.008135593627230264,0.005514036111881559,3089.896747394697
1684307361880276918,155,1684307361880276918,camera_1,159,0,0.12817409920298198,-0.8661367215285888,5.250097088809277,-0.6973949758728725,0.7129149164705731,0.06805432230773764,-0.027589467487900324,0.012738801844534464,0.008607084244970474,3095.7449341651527
1684307361886468648,156,1684307361886468648,camera_1,160,0,0.12843203936060096,-0.8653411037659653,5.245198752217283,-0.6972835991961477,0.7126773746718054,0.07143109334537968,-0.028002514645168713,0.009253905809600838,0.006247005585549538,3098.3187118831556
1684307361893418788,157,1684307361893418788,camera_1,161,0,0.12885781972251678,-0.8651382825616654,5.244132222530084,-0.6973198219180959,0.7127455984085976,0.07012839319220267,-0.0286493695840729,0.009179108674288727,0.006191811198088528,3100.422232968791
1684307361900309085,158,1684307361900309085,camera_1,162,0,0.13063147458401247,-0.8682673850926336,5.263042419371221,-0.6981316770509575,0.7129185443828416,0.06453581583625216,-0.013944140253785388,0.011637422954663634,0.007895038935459408,3091.4268607684644
1684307361906992912,159,1684307361906992912,camera_1,163,0,0.131168852947102,-0.8671008788674308,5.256335711100139,-0.6977876889828604,0.7129501074581123,0.06616289439721056,-0.02041951969093691,0.01125779993890319,0.00762091068893227,3094.7714308658633
1684307361912822246,160,1684307361912822246,camera_1,164,0,0.13176935830838177,-0.8650258734386175,5.24433104443665,-0.6975680749636706,0.7126222442421346,0.06887246963638174,-0.028721085093849436,0.010691147486795671,0.007209628890005893,3101.7644993553977
1684307361919395685,161,1684307361919395685,camera_1,165,0,0.13408486919470636,-0.8678721493965854,5.261800560393446,-0.6977694598664791,0.7133632858474983,0.062094176775959915,-0.019362760469996007,0.008040793196414597,0.005448949287907787,3092.725242805784
1684307361926409959,162,1684307361926409959,camera_1,166,0,0.13486407895887143,-0.8653163185482725,5.246834087463787,-0.697360308571843,0.7134623206411161,0.059739947909289055,-0.03303415925633396,0.004790083054103889,0.0032257246802178375,3103.9131106995046
1684307361933696269,163,1684307361933696269,camera_1,167,0,0.13602168823417304,-0.8660039935968808,5.250728031465008,-0.6977395574792831,0.7132084838150107,0.06107138874492355,-0.027630671719566843,0.006615449514356442,0.0044631258474223,3102.077838999045
1684307361940727233,164,1684307361940727233,camera_1,168,0,0.1386753170270174,-0.8654499620178568,5.248514894860193,-0.697272535634204,0.7136117714259752,0.059754940674293426,-0.031600598056705335,0.007880707576987334,0.005310283785065669,3103.595846394367
1684307361946977853,165,1684307361946977853,camera_1,169,0,0.14038824446905535,-0.8680355988903727,5.264574494550423,-0.6984385703577942,0.7135943265260608,0.0519807799066076,-0.016269576106314368,0.008523851181962527,0.005768824494808552,3099.488252682204
1684307361953810214,166,1684307361953810214,camera_1,170,0,0.14161864412846223,-0.8658395268741501,5.2513355910102275,-0.6982506611251846,0.7132852625306493,0.05578969540823659,-0.023614791573960923,0.012269786922843195,0.00826890238625832,3108.764412561839
1684307361960285663,167,1684307361960285663,camera_1,171,0,0.1444256634037172,-0.8650249586969415,5.247730202141957,-0.6977105996638171,0.7132867791138862,0.06006926758777188,-0.028523200198499594,0.014016314249602146,0.009442112315878657,3107.3360005320283
1684307361966784238,168,1684307361966784238,camera_1,172,0,0.14628353424347706,-0.8670328006937137,5.261385395347853,-0.6945987138375267,0.7136927228043606,-0.05367590456495549,0.07276140062207102,0.006091551447752863,0.004117192251534606,3099.4620794482767
1684307361973535537,169,1684307361973535537,camera_1,173,0,0.14766223323625682,-0.8662008093850713,5.255577967097107,-0.6978024233988861,0.7138896036634416,0.05477322686408573,-0.020815986615855524,0.009253592244931497,0.006244872436843988,3107.076412181893
1684307361979637145,170,1684307361979637145,camera_1,174,0,0.150989579188838,-0.8664237376408389,5.257501126995449,-0.6978943200042517,0.7136584531783234,0.05320379067061409,-0.028363479532727852,0.005993553786538541,0.004046518188193004,3101.9767996411533
1684307361986392498,171,1684307361986392498,camera_1,175,0,0.15263211063129345,-0.8666026257564948,5.260434291282137,-0.6946376073689269,0.7139459311550793,-0.05720280724957281,0.06698985489346573,0.004960814389050938,0.0033537146130224967,3102.718907316449
1684307361992850542,172,1684307361992850542,camera_1,176,0,0.15396880433609678,-0.8644387270869449,5.246647676195169,-0.6973434981447709,0.7132138932881373,0.06303889919635586,-0.032620318884142935,0.002293025085236877,0.001545495032085468,3105.084746641921
1684307361999734878,173,1684307361999734878,camera_1,177,0,0.15751570537617132,-0.865597797540717,5.254798743581686,-0.69765825258186,0.7135124798085994,0.058666967977521293,-0.027038687655532995,0.001769895723555237,0.0011953760650940403,3103.1002775785764
1684307362006886959,174,1684307362006886959,camera_1,178,0,0.15914072751812586,-0.8668339204602694,5.263474369083649,-0.6944812620126797,0.7138983364741179,-0.06193193595728721,0.06487971332662681,0.0013370761298574507,0.0009056790265338106,3097.9720247826767
1684307362013810396,175,1684307362013810396,camera_1,179,0,0.16041274413072615,-0.8644614505803119,5.2487858813863,-0.6971052743500412,0.7135943777616327,0.06252752588730645,-0.030292061777871682,0.0025726601597853005,0.0017352086818545553,3105.5572954807417
1684307362020606279,176,1684307362020606279,camera_1,180,0,0.16340370185521802,-0.8644579139465992,5.249056697270299,-0.6969585486545873,0.713746170499222,0.06187037933733182,-0.031420402856135496,0.0022357702255249023,0.0015079286032981059,3105.44995750999
1684307362027427911,177,1684307362027427911,camera_1,181,0,0.16509604241819342,-0.8652553671503189,5.255350515274913,-0.6940469606417936,0.7136303272677313,-0.06315377526689232,0.0710082607671689,0.0021812148625031114,0.001473180095812932,3104.053050644463
1684307362033364057,178,1684307362033364057,camera_1,182,0,0.16647390343396526,-0.8646398863499446,5.251041144142083,-0.6971606334115068,0.7135784134581623,0.062037797757510456,-0.030400834152980467,0.004512206418439746,0.003045663923811926,3104.078519253759
1684307362040410041,179,1684307362040410041,camera_1,183,0,0.1696753748420455,-0.86651077673694,5.263203466742129,-0.6976348592462535,0.7137234742055076,0.05677008740049107,-0.026106756003397954,0.007630809384863824,0.005167692032187564,3096.9297381425263
1684307362047687053,180,1684307362047687053,camera_1,184,0,0.17024242422991345,-0.8636965931151612,5.24635676585456,-0.6969339058538861,0.7135277407340345,0.06401349913273653,-0.03261235966645719,0.009106856305152178,0.006139308204962321,3107.084558877862
1684307362053636312,181,1684307362053636312,camera_1,185,0,0.172023381970369,-0.8662861178609296,5.263359609149376,-0.6941501908401009,0.7137455144449705,-0.06476162185292092,0.06729625176274917,0.01414145075250417,0.009584026794000984,3096.668176463456
1684307362059481382,182,1684307362059481382,camera_1,186,0,0.1735011720544846,-0.8633902238724285,5.244827136005532,-0.697276510962342,0.7129466990628931,0.06762520073202392,-0.030648063257912837,0.011876239615958184,0.008009904992138264,3107.447903258493
1684307362066301584,183,1684307362066301584,camera_1,187,0,0.17502162087105957,-0.8661292921505057,5.261906171303217,-0.6972713579291403,0.7139461864210636,0.05846281588652418,-0.02599221931830902,0.012753649440128356,0.008636378676342598,3097.967067462741
1684307362073114633,184,1684307362073114633,camera_1,188,0,0.17583182682822746,-0.8655680977570446,5.258439300025214,-0.6970392405766551,0.7138270807847932,0.06280453050905943,-0.02535324007138,0.015623169427271932,0.010577194276432198,3099.01972158614
1684307362079869508,185,1684307362079869508,camera_1,189,0,0.17692538265403815,-0.8643172935626001,5.251352607464321,-0.6971123982539704,0.7139484354763385,0.05780620630563365,-0.031150893952451193,0.007590516994241625,0.00511889430295337,3108.0429196745376
1684307362086700439,186,1684307362086700439,camera_1,190,0,0.1777590289760608,-0.864896301443214,5.256070806609609,-0.6939755876964342,0.7133529508861972,-0.0653102257137923,0.07252603367451503,0.019754450651817024,0.013351297792745428,3102.457835959968
1684307362093463659,187,1684307362093463659,camera_1,191,0,0.1786426116701534,-0.8667079290375014,5.267222288090593,-0.6941088068834854,0.7143258653593857,-0.05767812055691679,0.06800556370159125,0.010784023615997285,0.007306333870060637,3097.7333337148893
1684307362100056648,188,1684307362100056648,camera_1,192,0,0.17900653987739285,-0.8648430482066755,5.255194074761069,-0.6976740713589347,0.7134481995426395,0.05854471640489712,-0.02854948167453568,0.014239030191674829,0.009617968260686244,3104.8278605805235
1684307362107124567,189,1684307362107124567,camera_1,193,0,0.17918066582267606,-0.8647278401479765,5.254289626574604,-0.6974553640106221,0.7134989021879204,0.0607229278568287,-0.028072367586962705,0.016992149408906698,0.011479790477222454,3104.4581576418122
1684307362113666296,190,1684307362113666296,camera_1,194,0,0.1793287727435977,-0.8650339211642852,5.256150698744083,-0.6973459789134663,0.7140147007231741,0.056187162407753156,-0.027103424598757076,0.014208098116796464,0.00959495881782068,3106.4076727712536
1684307362120177507,191,1684307362120177507,camera_1,195,0,0.1791782981236622,-0.8648593502171932,5.255202238535562,-0.697420329251109,0.7138278569416696,0.058147182617392074,-0.02595342279927277,0.015543994144536555,0.01049829365584984,3106.6988730111625
1684307362126935720,192,1684307362126935720,camera_1,196,0,0.17902073846693303,-0.865154579791102,5.256808320648961,-0.6976743934124127,0.7134786601278482,0.05906686232307968,-0.02664109783959689,0.011994594533462077,0.00810815457861033,3103.629999057389
1684307362133976936,193,1684307362133976936,camera_1,197,0,0.1789195433201675,-0.8660552206588731,5.262318930233228,-0.6977022894548126,0.7136257761568641,0.05763332024059037,-0.025063265790236024,0.01904531370382756,0.012895956863049982,3099.1460384069937
1684307362140626668,194,1684307362140626668,camera_1,198,0,0.17754999058996734,-0.8644655838667945,5.253204989544358,-0.6939973935437532,0.7134084907191857,-0.06513284249216766,0.0719281304716102,0.015590756782330573,0.010525013478323306,3106.3424263427746
1684307362147193193,195,1684307362147193193,camera_1,199,0,0.1770256323211986,-0.8647341362586023,5.253679088936767,-0.6973253273276506,0.7137218456967901,0.05880775471393702,-0.02966753828779607,0.01109929516678676,0.007493728663785366,3105.4535763954054
1684307362153957366,196,1684307362153957366,camera_1,200,0,0.17613582030910802,-0.863595618306633,5.246782018767485,-0.696804528444812,0.7137137567025199,0.06206427112047187,-0.03498783906822451,0.014413555210921913,0.009713121821668525,3107.3700715763252
1684307362160653114,197,1684307362160653114,camera_1,201,0,0.17490687898201862,-0.8659823577922946,5.261899650214995,-0.6937888151228379,0.7139485311761472,-0.06429773932796087,0.06928474261469328,0.013828614726662636,0.00936501901771485,3097.9714238831066
1684307362167090892,198,1684307362167090892,camera_1,202,0,0.17355613614069082,-0.8640551822965368,5.24908436032048,-0.6967846213195157,0.7138523658189433,0.062092977853083334,-0.032410698984336475,0.011208766838535666,0.007560047359839738,3106.024274553988
1684307362173654556,199,1684307362173654556,camera_1,203,0,0.17282937296568174,-0.8649181852493568,5.253810712078383,-0.6969624044801144,0.7137224591666017,0.061191108510460564,-0.033155787756242075,0.011108216189313682,0.007503926119095936,3100.525583628565
1684307362180261135,200,1684307362180261135,camera_1,204,0,0.17030897502217923,-0.864091023434541,5.248276187295478,-0.6970265991483995,0.7140423937073669,0.058467688153669706,-0.02964640804946808,0.004504406650085002,0.0030345749249454726,3111.2295899237506
1684307362186422586,201,1684307362186422586,camera_1,205,0,0.16948717176171316,-0.8660163931280844,5.2597787746748494,-0.6969350681725979,0.7141260217806151,0.060493780347161456,-0.025417283614857268,0.009266629989724606,0.006272965149817407,3098.4529436222497
1684307362193774700,202,1684307362193774700,camera_1,206,0,0.16778004988549114,-0.8646667421306758,5.251630167531377,-0.6970053646908544,0.7138132221668635,0.05993448842205614,-0.032589301151077894,0.003133213089313358,0.00211428181044416,3103.8313836789457
1684307362200786828,203,1684307362200786828,camera_1,207,0,0.16499950818323392,-0.8650702881154495,5.25426926345683,-0.693657224528724,0.7136180260811097,-0.06634406801002833,0.07202383182731294,0.0003186344401910901,0.00021526965095784508,3102.1940755213145
1684307362207312107,204,1684307362207312107,camera_1,208,0,0.16364596799470824,-0.8647612022332813,5.252184058358164,-0.6934408238837159,0.7136774133433516,-0.06117929870821115,0.07785542283352972,0.0034104567603208125,0.0022995448660194065,3104.4862560823085
1684307362214144229,205,1684307362214144229,camera_1,209,0,0.16228365029974834,-0.8662361226908462,5.259640219032805,-0.6974041625089498,0.7138615313175432,0.058107442224403276,-0.025547473031605848,0.0009198986226692796,0.0006224212442763853,3099.4027903894885
1684307362220631837,206,1684307362220631837,camera_1,210,0,0.15938429910387694,-0.8666865109455093,5.261623188444323,-0.6980607673291767,0.7132225930834419,0.05906717547591877,-0.023146632852952327,0.001156524522230029,0.0007832434389109119,3097.2625313940234
1684307362227135181,207,1684307362227135181,camera_1,211,0,0.1574302096715535,-0.8652585660247871,5.252331276633242,-0.6976910101098943,0.7133670255267567,0.06011956996521898,-0.02683986978620041,0.0006592269637621939,0.0004449916305282143,3104.9727479802673
1684307362233834028,208,1684307362233834028,camera_1,212,0,0.1562317510575007,-0.8671188389046115,5.2634506485933334,-0.6980020237105156,0.7134357956283672,0.05790553789333434,-0.02120115783223283,0.0011199533473700285,0.0007587649625113055,3096.594486074522
1684307362240542650,209,1684307362240542650,camera_1,213,0,0.1526714477536812,-0.8662817430174621,5.257037475225812,-0.6977843733758877,0.7136138019552385,0.056039016687331224,-0.026682176450329144,0.002746638099779375,0.0018553797362848492,3101.8301999240657
1684307362247260332,210,1684307362247260332,camera_1,214,0,0.15097069458146842,-0.8650397802112196,5.249345688781211,-0.697416241872971,0.7135231224751085,0.05837758366326064,-0.03297570303711352,0.005530897760763764,0.0037270305885222735,3104.832789140055
1684307362253641366,211,1684307362253641366,camera_1,215,0,0.14963147709552055,-0.8672116671997423,5.26314438595911,-0.6948442642243952,0.7139955010561966,-0.051654486384537956,0.06880179490623407,0.010484449230716564,0.007088127762772305,3101.6140775053054
1684307362259625911,212,1684307362259625911,camera_1,216,0,0.1465704184392561,-0.867635638991641,5.2649491876775905,-0.695165330548784,0.7136743948987975,-0.05222405977200681,0.06845924955595925,0.010069131996715441,0.006813317135784587,3098.817235410097
1684307362266224384,213,1684307362266224384,camera_1,217,0,0.14475685569116997,-0.8659138902302328,5.253315674850493,-0.6980614931693443,0.7132376626857762,0.058004063184950896,-0.025253057928750048,0.009215929196216166,0.006218826713528888,3104.3874710810505
1684307362273014545,214,1684307362273014545,camera_1,218,0,0.1436579798262528,-0.8681243401638246,5.265709725661567,-0.6986134256576667,0.7134829821234202,0.05202721186117411,-0.013209274661533562,0.009501921376795508,0.006433445279586428,3100.0757284038127
1684307362279715776,215,1684307362279715776,camera_1,219,0,0.1408400608547803,-0.868646169337101,5.268098727166071,-0.6981644382736928,0.7140800189118329,0.04840114470768558,-0.017705166247200744,0.0073565782076912,0.004981662298582899,3096.9721170386765
1684307362286575555,216,1684307362286575555,camera_1,220,0,0.13880267767316198,-0.8653318663938383,5.247670967152146,-0.6971547625081633,0.713672075959089,0.059770875193836115,-0.03278486826256394,0.00447905327018816,0.0030172756595250433,3103.7703437495516
1684307362293134927,217,1684307362293134927,camera_1,221,0,0.1376026527475906,-0.8660811748994917,5.252185847248121,-0.6975819227060256,0.7134203611419938,0.06134589264259755,-0.025446628021697712,0.006335087542538531,0.004276539728340812,3101.8064004943
1684307362299762487,218,1684307362299762487,camera_1,222,0,0.13500613219100974,-0.8652336698624709,5.245916534610959,-0.6972727655712128,0.7133835385734002,0.06252805166540297,-0.03138247982705389,0.0075844581733690575,0.005109238976396027,3103.976795182156
1684307362306312799,219,1684307362306312799,camera_1,223,0,0.13426909113188093,-0.8670400301752301,5.2568701081188705,-0.6981186217258171,0.7126751315511404,0.06446705382417907,-0.02384419928286289,0.010602701644529589,0.007175851872347918,3094.127291875834
1684307362313087463,220,1684307362313087463,camera_1,224,0,0.13298510108673045,-0.8663724369274739,5.253477922112826,-0.6936722031746825,0.7132842309120756,-0.06645451383506051,0.07502185058965558,0.005164713453268632,0.0034917942739063484,3095.5910154186986
1684307362319984197,221,1684307362319984197,camera_1,225,0,0.13137336261212723,-0.866895305595061,5.254907439485482,-0.6976200930792334,0.7127927804863411,0.06705893834173826,-0.027491027757280344,0.009620787255698815,0.006510792939745466,3091.497710301307
1684307362326346635,222,1684307362326346635,camera_1,226,0,0.1306657730030559,-0.8679298604321125,5.261279538398036,-0.6977323980118922,0.7131605922657426,0.06539962011574894,-0.017156925495714643,0.009479693268076517,0.0064283163846100165,3091.244182976371
1684307362333131074,223,1684307362333131074,camera_1,227,0,0.12965959042467617,-0.8663516590485558,5.252376370676254,-0.6935627026223692,0.7135472789918642,-0.06574445185909722,0.07415338983626128,0.008044048401643522,0.005436024487922837,3097.3918520826273
1684307362339815855,224,1684307362339815855,camera_1,228,0,0.12844915080014319,-0.865236263583282,5.244604983470478,-0.6974432795756974,0.7125535716693138,0.07088956555068783,-0.028547307614459772,0.007261623759404756,0.004900352036341747,3099.162358823348
1684307362346339702,225,1684307362346339702,camera_1,229,0,0.12811976557936894,-0.8652466808764216,5.244407865445404,-0.6970692784643481,0.7125990246631392,0.07406006702556757,-0.028498377892511337,0.01459479374170769,0.009856691367287191,3096.432753157861
1684307362353449106,226,1684307362353449106,camera_1,230,0,0.1280885133590559,-0.8675688224487929,5.258297485591073,-0.697383003718955,0.7132567442886121,0.06673834244974289,-0.02162767897390735,0.005993932718411088,0.004061457759454752,3090.774203347333
1684307362360014438,227,1684307362360014438,camera_1,231,0,0.1277874435205513,-0.8679510378623115,5.260379087426704,-0.6975270662542487,0.7130174916900324,0.06843312913811696,-0.01946677228411646,0.008814989021630026,0.005980283424068717,3087.995925345341
1684307362366318702,228,1684307362366318702,camera_1,232,0,0.1278152248039504,-0.8680941859601463,5.2614372095979105,-0.6975713318500907,0.7131881118975637,0.06625548739191822,-0.019161534889935394,0.005708186319679953,0.0038719891423552445,3088.7971176425335
1684307362372916460,229,1684307362372916460,camera_1,233,0,0.1278096766130938,-0.8672725215429664,5.256389816889467,-0.6972410787471489,0.7133045945133575,0.06653750524770055,-0.024983873780086308,0.008003417242434807,0.00541857863307463,3091.1489604105586
1684307362379886388,230,1684307362379886388,camera_1,234,0,0.12805390298846475,-0.8653059736788571,5.244678641906756,-0.6972259882042446,0.7124757546270915,0.07255266091570498,-0.031469538211125865,0.006173041096189991,0.004167866609140709,3095.4924066393287
