%time,field.header.seq,field.header.stamp,field.header.frame_id,field.image_seq,field.transforms0.fiducial_id,field.transforms0.transform.translation.x,field.transforms0.transform.translation.y,field.transforms0.transform.translation.z,field.transforms0.transform.rotation.x,field.transforms0.transform.rotation.y,field.transforms0.transform.rotation.z,field.transforms0.transform.rotation.w,field.transforms0.image_error,field.transforms0.object_error,field.transforms0.fiducial_area
1684965863416337728,4,1684965863416337728,camera_1,5,0,0.22898281219659988,-0.09625441430245682,0.5213507176421248,0.9756004958559137,0.04273763376218875,-0.19127778579620386,0.09894430659217383,0.5259516149526462,0.049693189808826733,32044.628191219876
1684965863426476716,5,1684965863426476716,camera_1,6,0,0.22895721308952108,-0.09660639257931314,0.5212826622763663,0.9757098191526733,0.04285442128711594,-0.1913194476382713,0.09772776647703943,0.5027822969132103,0.047476145109071034,32056.407216742504
1684965863436355829,6,1684965863436355829,camera_1,7,0,0.22885430259263395,-0.09680399051215183,0.5210408707380274,0.9757297337354122,0.042834937391261346,-0.1913597183399445,0.09745826306766293,0.5350970960571431,0.05048813600079936,32080.871630408787
1684965863446260213,7,1684965863446260213,camera_1,8,0,0.22893679172012976,-0.0967300647457175,0.5212124589077632,0.9757241265180638,0.04279817893253907,-0.1914410051500782,0.09737087017043401,0.47772303206147626,0.04509845480270574,32061.254154212525
1684965863456500291,8,1684965863456500291,camera_1,9,0,0.22901285487934522,-0.09644676606765967,0.5213745697195179,0.9757072782429411,0.04272729151323319,-0.1910741684175214,0.09828706887097544,0.4963939011795446,0.04689128545846302,32048.862220514115
1684965863466603994,9,1684965863466603994,camera_1,10,0,0.22903823358070877,-0.09601687228552126,0.5214339297614712,0.9756494832384709,0.04271838764855772,-0.1910624092245592,0.09888569661239958,0.546065678296145,0.05158844842166987,32047.51645366163
1684965863476551532,10,1684965863476551532,camera_1,11,0,0.22912859926102533,-0.09556367940447441,0.5216252641085386,0.9756027597085526,0.04275776263277241,-0.19108005015771287,0.09929473004858655,0.4743039478780702,0.04482790668482513,32032.01324152073
1684965863486649513,11,1684965863486649513,camera_1,12,0,0.22903579615414646,-0.09506488581740287,0.521428712767063,0.97542427553036,0.04258127301243493,-0.1917424808361783,0.09984557545279811,0.5083098692120984,0.048015571742082645,32044.27112634584
1684965863496510028,12,1684965863496510028,camera_1,13,0,0.2290596304276036,-0.09472167310586,0.5215064293578491,0.975383864959345,0.04277156347687111,-0.19205440624140696,0.09955909992549648,0.47947929811198264,0.045284706374077235,32040.72316237226
1684965863506486892,13,1684965863506486892,camera_1,14,0,0.2289817464506775,-0.0944907156234295,0.5213695203547265,0.9753294399005185,0.04280019073348427,-0.19212623379876273,0.09994067051416895,0.5825844972277991,0.05499489284698169,32057.856752363736
1684965863516520023,14,1684965863516520023,camera_1,15,0,0.2290296204548017,-0.09469746940068322,0.5214749931685553,0.9753909700668694,0.0427257460087538,-0.19186919111731002,0.0998658081627347,0.5239504826022312,0.04948151270245661,32047.551354803618
1684965863526241064,15,1684965863526241064,camera_1,16,0,0.2290886298329661,-0.0950722231045286,0.5216080503967837,0.975558657089567,0.0426366745373071,-0.1909421004798986,0.10004266503009898,0.5203518886701204,0.049166612371104444,32044.748270072858
1684965863536504268,16,1684965863536504268,camera_1,17,0,0.22897572418009635,-0.09548321297174261,0.5213550093366318,0.975434632222808,0.04266486601002438,-0.19160413208115992,0.09997421686678744,0.49569709750358015,0.046832371597815475,32044.90565605776
1684965863546185016,17,1684965863546185016,camera_1,18,0,0.22896912388314106,-0.09641544275240291,0.521327133547735,0.9756772921320219,0.0427255799163177,-0.19130177449018135,0.09814263862179101,0.5052651370642707,0.047718553989824185,32052.56703789858
1684965863557275533,18,1684965863557275533,camera_1,19,0,0.2288403643615466,-0.09683379275566738,0.5210024067724633,0.9756630880459202,0.042877535525705786,-0.19173483471270625,0.09736944453796713,0.5084138638922013,0.04797295167576057,32074.831022305523
1684965863566354751,19,1684965863566354751,camera_1,20,0,0.22888841397200047,-0.09682515834662313,0.5211092505009913,0.9757729828671211,0.042830077498346414,-0.1911323836338532,0.09747349534375166,0.5103011428145692,0.0481560832759311,32078.00857811748
1684965863576417684,20,1684965863576417684,camera_1,21,0,0.22899359990374996,-0.09663418793947348,0.5213330725560154,0.9756834677861654,0.04283921273824783,-0.19134012410780585,0.09795677336018824,0.5261836560093798,0.04970564211265014,32045.088417217954
1684965863586390972,21,1684965863586390972,camera_1,22,0,0.22900962750697793,-0.09625093048222182,0.5213664982744454,0.975697213092342,0.04268036654147595,-0.19071472494155933,0.09910211080591422,0.5432580881169997,0.05132269747526954,32055.125766488018
1684965863596415519,22,1684965863596415519,camera_1,23,0,0.2291189828530524,-0.09583298470599816,0.5216018676337315,0.9756403939974051,0.04262379753970141,-0.19096513976904453,0.09920357290376146,0.4891712222015485,0.0462397266394354,32031.196011254673
1684965863606481313,23,1684965863606481313,camera_1,24,0,0.22916819906499072,-0.09536788171419157,0.5217009756919221,0.9756266645533928,0.04259888621347898,-0.19059799667955415,0.10005173645436435,0.47956398199312383,0.04533832777329499,32031.82977609304
1684965863616515159,24,1684965863616515159,camera_1,25,0,0.22902197683880007,-0.0946098096718176,0.5214112144252763,0.9754099895639615,0.042766276383348074,-0.1916994998427502,0.09998849745433248,0.49376730853691697,0.04661606126452673,32059.124027521117
1684965863626478195,25,1684965863626478195,camera_1,26,0,0.22903081725718732,-0.09449032484658115,0.5214513326463153,0.9753843249494206,0.04266159463127774,-0.1919461669319738,0.0998101998124568,0.5725813588942401,0.054058597178997796,32054.01756188237
1684965863636548042,26,1684965863636548042,camera_1,27,0,0.22899485859545354,-0.09454307474249803,0.5213757998919384,0.9752845439667525,0.04265750595149407,-0.19215772122486952,0.10037831269366582,0.5083932133275084,0.048011290128391705,32047.99159002165
1684965863646482944,27,1684965863646482944,camera_1,28,0,0.22901655493424813,-0.09478825340883996,0.5214278793971777,0.9753599605238229,0.04267685374300468,-0.19200792739160244,0.0999229171929347,0.528583676670678,0.049922635235777675,32045.290872426944
1684965863656418800,28,1684965863656418800,camera_1,29,0,0.22910123568280316,-0.09521319316728014,0.5216301169724261,0.9755126638650583,0.04263752662492422,-0.19127875489696639,0.09984749314466007,0.5303867076290771,0.050131074721076724,32031.084005104025
1684965863666329145,29,1684965863666329145,camera_1,30,0,0.22902642775808912,-0.09565215282912085,0.5214568333840351,0.9755403186546826,0.04253150514813998,-0.1915051110565915,0.09918644155405881,0.5103662051842548,0.04821976274780397,32040.78353221541
1684965863676411628,30,1684965863676411628,camera_1,31,0,0.22888400373775203,-0.09649562757284376,0.5211088780861495,0.9756303082496655,0.04278318561658039,-0.19158815450310493,0.09802591344769278,0.4965370678692125,0.04686711938717046,32068.42236903157
1684965863686402320,31,1684965863686402320,camera_1,32,0,0.22887991847496925,-0.09676950631504413,0.521083918244337,0.9757596958317665,0.04290631763027225,-0.19094840664215385,0.09793247621974917,0.4769758181646466,0.04501280515282764,32081.551837307874
1684965863696446180,32,1684965863696446180,camera_1,33,0,0.22888571842801603,-0.09675984793759788,0.5210886636787664,0.9757354864677655,0.042841230579690394,-0.19132653395994312,0.09746305357829518,0.489164678263478,0.046159516188925366,32076.623412584286
1684965863706351757,33,1684965863706351757,camera_1,34,0,0.2289122378324114,-0.09648315966035863,0.5211410589714003,0.9756141494090889,0.04261881571190855,-0.19147411879727386,0.09848009875554432,0.46938661171589047,0.044320952330457644,32061.113958125687
1684965863716382980,34,1684965863716382980,camera_1,35,0,0.22913670673824552,-0.09615773370490596,0.5216523418588881,0.9758313315915076,0.04249101167360827,-0.19006079420938182,0.0991192247538165,0.5338638328248635,0.05046428286400876,32042.278004082964
1684965863726222753,35,1684965863726222753,camera_1,36,0,0.22913131733006817,-0.09519250030267516,0.5216466139962371,0.9756073777585241,0.04280689547147867,-0.1910204412716619,0.09934286677768984,0.5164545083534904,0.04879346922434656,32041.964713330635
1684965863736381292,36,1684965863736381292,camera_1,37,0,0.22903396028607018,-0.09477119645693916,0.5214479403472451,0.9754099122868596,0.042847556001655476,-0.19185207260674392,0.0996612873372746,0.5237709040520713,0.04945794989601835,32050.662168336807
1684965863746390581,37,1684965863746390581,camera_1,38,0,0.22896953067130787,-0.09451221148081669,0.5213044764325243,0.9753893712127549,0.04267553669872159,-0.19159747502915173,0.10042300859422827,0.5092981471680105,0.04806885141085911,32071.96464699298
1684965863756526708,38,1684965863756526708,camera_1,39,0,0.22901145379424534,-0.09448392023254562,0.5214233316346802,0.975374364710497,0.04282535301868655,-0.1917375516475963,0.10023746351841156,0.5390264220768586,0.05089105271515253,32058.17660317011
1684965863766665220,39,1684965863766665220,camera_1,40,0,0.22905845829853752,-0.09464881187091866,0.521533230196288,0.9754385861181856,0.04265476978491296,-0.191652792130101,0.09984659531044425,0.4505225909524597,0.04254794833849797,32047.966002291978
1684965863776523113,40,1684965863776523113,camera_1,41,0,0.2289961587724051,-0.09494722699964515,0.5214059515375532,0.9753786012028001,0.04254905202528721,-0.1920266209335815,0.09975940727695383,0.5427321780589409,0.05125831188230061,32045.710778087152
1684965863786537647,41,1684965863786537647,camera_1,42,0,0.22909638065501106,-0.09590207453530193,0.5216420089872253,0.9757278673037955,0.042620322918232145,-0.19049534709250748,0.09924797114922647,0.4605760659324005,0.04353243757288771,32039.782190660597
1684965863796480417,42,1684965863796480417,camera_1,43,0,0.22902780624794844,-0.09633461392252012,0.5214764012314701,0.9756927787852068,0.04274669960164873,-0.1906867342165423,0.09917101639792719,0.5167024421389215,0.048835684315624385,32041.70284330903
1684965863806450128,43,1684965863806450128,camera_1,44,0,0.2288790443769574,-0.09662452462260797,0.521124587323569,0.9757022015262591,0.04270998670450829,-0.19145173972859625,0.09760790094764792,0.541407679382246,0.05109533162122056,32072.92363946232
1684965863816437959,44,1684965863816437959,camera_1,45,0,0.22891004772413384,-0.09684161719118523,0.52118424873703,0.9758495757268891,0.042761762990959795,-0.19079596147834868,0.09739578154678027,0.5008953570504673,0.04727015405662433,32079.919324376977
1684965863826335430,45,1684965863826335430,camera_1,46,0,0.22892715232329053,-0.09668892072686514,0.5211969320697242,0.9756804131615989,0.04279311773982594,-0.19169105330745995,0.09731916835235346,0.46498513722326607,0.04389594227629477,32058.17857427195
1684965863837159633,46,1684965863837159633,camera_1,47,0,0.2290482404577019,-0.09595900253779482,0.521489148741433,0.9756818787470899,0.04257390423517492,-0.19084952195429322,0.09903935648286938,0.5264508298132569,0.049739687692044246,32047.634710072525
1684965863846430540,47,1684965863846430540,camera_1,48,0,0.22906484313129463,-0.09546988209736948,0.5215016255372512,0.9754954105599531,0.04261877472987253,-0.1914047509306054,0.09978259035616259,0.4907531979843043,0.04637997192706471,32034.412722608075
1684965863856552124,48,1684965863856552124,camera_1,49,0,0.22909483240438808,-0.09504098712332104,0.5215879242769683,0.975550545928522,0.042582487423467555,-0.19126269002056062,0.09953113839141897,0.49353909719502553,0.04662272205457461,32044.63404220926
1684965863866394042,49,1684965863866394042,camera_1,50,0,0.2290026262261832,-0.09467368532615002,0.5213942916030422,0.9753737884349093,0.042642726787688066,-0.19174988071920435,0.1002973276334634,0.4811516202171333,0.04543541347123744,32054.595564730454
1684965863876311063,50,1684965863876311063,camera_1,51,0,0.22898285103587562,-0.0944896086184306,0.5213719499970587,0.9753579159152203,0.0426485654269192,-0.1919682997403099,0.10003103330146348,0.5501200953731313,0.0519297032189872,32060.727963941084
1684965863886440515,51,1684965863886440515,camera_1,52,0,0.2289746559520503,-0.09450140712135668,0.5213679915687267,0.9753192508598747,0.04271809370950385,-0.19236700869089587,0.09961153216006521,0.5114655260113068,0.04827747988625007,32055.55660362577
1684965863896475315,52,1684965863896475315,camera_1,53,0,0.22910477041534635,-0.09512087554526864,0.5216774642920367,0.9755055770211164,0.04274418128367646,-0.19128618294640903,0.09985689951565746,0.511688586731907,0.04836423015539816,32029.078365689835
1684965863906364440,53,1684965863906364440,camera_1,54,0,0.22906069614211955,-0.09555623752337784,0.5215633842872729,0.9755561020474552,0.04272588812354045,-0.19135779062496197,0.09923198178592942,0.5075421085348353,0.04796117686088346,32035.59518781736
1684965863916468620,54,1684965863916468620,camera_1,55,0,0.22903691777153912,-0.0960467138326501,0.5215049290820069,0.9756372752592032,0.04275616640996169,-0.19125922032574558,0.09860896510515438,0.5452025529230013,0.051515186669198215,32038.82415988842
1684965863926397323,55,1684965863926397323,camera_1,56,0,0.22898220040810593,-0.09646348021598518,0.5213711753240395,0.9756567912520802,0.042768948229606474,-0.19145683224346066,0.0980251199352879,0.4999352386803366,0.047225949855483985,32043.639300939154
1684965863936400890,56,1684965863936400890,camera_1,57,0,0.2289076430112898,-0.09674312281458661,0.5212033998272406,0.9757751360160105,0.04290870521329929,-0.19111731270572982,0.09744690725720873,0.5044992869370617,0.04761687460298163,32071.906633292907
1684965863946636438,57,1684965863946636438,camera_1,58,0,0.22890691501564572,-0.09687517253133276,0.5211834911032606,0.9758725963598816,0.042648453055559324,-0.19060511637308455,0.09758829201392125,0.5060886177816428,0.04776324435246614,32081.96498393805
1684965863956383943,58,1684965863956383943,camera_1,59,0,0.2289419908100662,-0.09656760920895965,0.5212411077031224,0.9756912998650846,0.04293777198069255,-0.19121689169827372,0.09807617159211593,0.48805663315579295,0.04608381499433472,32060.49903291139
1684965863966333866,59,1684965863966333866,camera_1,60,0,0.22903153042272384,-0.09620630677976309,0.5214334018660145,0.9756742631530416,0.04270633481354138,-0.1911183185482855,0.09853775673739994,0.5329586039297283,0.05035112336144544,32045.34896351082
1684965863976502895,60,1684965863976502895,camera_1,61,0,0.2290755847935587,-0.09527269741735739,0.5215362796015176,0.9755406290723814,0.04262993065332259,-0.19137115465065657,0.09939945276121796,0.4796029711724259,0.04530911024660096,32042.42272468889
1684965863986511945,61,1684965863986511945,camera_1,62,0,0.22908493139333644,-0.09487475454469685,0.5215759353998761,0.9755200511104923,0.04283523288141293,-0.19126813255831365,0.09971095312468449,0.5140767564298585,0.04855578426871501,32048.74668389547
1684965863996381998,62,1684965863996381998,camera_1,63,0,0.22904897741700828,-0.09459138145421614,0.5215111984287217,0.9753986012508138,0.04283773672542648,-0.19159315910999694,0.10027242079679921,0.47882686293451115,0.0452251421945456,32048.35050795832
1684965864006238222,63,1684965864006238222,camera_1,64,0,0.22902553470316095,-0.09457872640749224,0.5214779740747199,0.975365000300212,0.04278478358781983,-0.19189619634748703,0.10004213267457603,0.4695330682443455,0.044341583916293066,32047.749022313725
1684965864016481876,64,1684965864016481876,camera_1,65,0,0.22906798671319561,-0.0948697627777078,0.5215885621837713,0.9754438961235363,0.042678157260833245,-0.19166236798919098,0.09976631247536008,0.49629215139430016,0.04688858189283478,32037.178201970302
1684965864026520252,65,1684965864026520252,camera_1,66,0,0.2290693604028036,-0.0952654649744916,0.5215863992057367,0.9755084522749083,0.04256455892506285,-0.1911194457337155,0.10022412546969625,0.45052731537725776,0.04258449593010222,32034.84177074826
1684965864036372661,66,1684965864036372661,camera_1,67,0,0.2290863890437321,-0.09575168211941974,0.5216279163961283,0.9756477798102484,0.04268806257064566,-0.1909355909171349,0.09916016935454573,0.5027619713218883,0.04751761682697358,32035.188533392145
1684965864046580791,67,1684965864046580791,camera_1,68,0,0.2289278295098448,-0.09615873013511438,0.5212512960779694,0.975523731930515,0.042714538312477644,-0.1920119770899745,0.09828691322404982,0.4780956637696363,0.04514873413041266,32047.93756713742
1684965864056560039,68,1684965864056560039,camera_1,69,0,0.22897134368386363,-0.09657675347298994,0.5213517546531665,0.9757702588056373,0.04285638235437579,-0.19089494205449156,0.09795332367963681,0.5228053407045081,0.049370827242592744,32059.343659616192
1684965864066298484,69,1684965864066298484,camera_1,70,0,0.22892763816784115,-0.09687999268667016,0.5212262323266543,0.9759063843327581,0.04277082586676044,-0.19047829835569904,0.09744436016905073,0.5216104813152924,0.049227463246827315,32082.155018256053
1684965864076360702,70,1684965864076360702,camera_1,71,0,0.22892507319686095,-0.09675209654689503,0.5211952706940329,0.9757397332833608,0.04278760330306402,-0.1910700109746338,0.09794613214338344,0.4938642280176282,0.046628333820841555,32065.77363369218
1684965864086479902,71,1684965864086479902,camera_1,72,0,0.22893719561236328,-0.09645677097291161,0.5212195958916871,0.9756017139799027,0.04281359188180865,-0.191663170170568,0.09815050295246594,0.486868507694453,0.045976249604163764,32052.538286541563
1684965864096525907,72,1684965864096525907,camera_1,73,0,0.22906225856431725,-0.09607871477078608,0.5215073557227478,0.9756769510519082,0.0426119958161714,-0.19094658525414307,0.09888430906062538,0.4858431713655591,0.045910967266028196,32040.736566197837
1684965864106442213,73,1684965864106442213,camera_1,74,0,0.22907544857260717,-0.09513081991815692,0.5215499189367861,0.9754878271554582,0.04273620739616072,-0.191366273699755,0.09988025299920868,0.5182888595736586,0.048971542164563064,32039.26880638419
1684965864117588281,74,1684965864117588281,camera_1,75,0,0.22897335767604768,-0.09450210408416518,0.5213440940072049,0.9753320229322214,0.04258925647123226,-0.1919902599597314,0.10026634707998033,0.5195365357212722,0.04904696292982116,32059.62817598659
1684965864126387596,75,1684965864126387596,camera_1,76,0,0.22896010053224172,-0.09446881739807307,0.521332494988318,0.9753286462137278,0.042679725785305905,-0.19184069621252348,0.10054660689691437,0.5375906644621864,0.05075132908669702,32063.093340051233
1684965864136386156,76,1684965864136386156,camera_1,77,0,0.2290369058922514,-0.09467366083219403,0.5215158138679418,0.9754310450948386,0.042740569418955175,-0.19162743745454136,0.09993220304556688,0.49241010018158704,0.046502301230186345,32050.022838875768
1684965864146447181,77,1684965864146447181,camera_1,78,0,0.22899565068210623,-0.09498964036289782,0.5214253872710829,0.9754082032134612,0.042816298215853935,-0.1919244666192027,0.0995520006022622,0.49073107703588903,0.046341898304004585,32048.427600515755
1684965864156474590,78,1684965864156474590,camera_1,79,0,0.22902173218400843,-0.095442400806914,0.5214759299031048,0.9754729045240621,0.04272811800328369,-0.19146820586122562,0.09983409545626759,0.47939493611920625,0.04530124838598215,32038.09232994772
1684965864166533231,79,1684965864166533231,camera_1,80,0,0.22903593151085128,-0.09594610649500851,0.5215077254355537,0.975602297866948,0.04269932504592545,-0.1914389539558441,0.09863088231201055,0.44016704946989194,0.0415902040229557,32036.046763822917
1684965864176481008,80,1684965864176481008,camera_1,81,0,0.22894864467477888,-0.09669777603156741,0.5212910336913087,0.975804512646629,0.04280372502744347,-0.1908298829085602,0.0977617001251259,0.4746984831872396,0.04481773296439862,32066.64723637979
1684965864186314821,81,1684965864186314821,camera_1,82,0,0.22892808137629647,-0.09686616696609841,0.5212394837532953,0.9758550982457366,0.04286731807603225,-0.19075594751390823,0.09737242297921461,0.5052956021972932,0.04769349207312379,32074.604115741677
1684965864196533918,82,1684965864196533918,camera_1,83,0,0.22896356076149485,-0.09686686555091491,0.5213121002739788,0.9758913878146835,0.04281157788204803,-0.1905572894639163,0.09742221215177431,0.49741811986314133,0.04695873118774848,32070.668822633656
1684965864206339359,83,1684965864206339359,camera_1,84,0,0.2289891961927063,-0.09666540084022278,0.52135986290728,0.9757302446231364,0.0428154053189898,-0.19126689056520657,0.09764377793061044,0.5420568314148113,0.05119842719347083,32048.371254470672
1684965864216445684,84,1684965864216445684,camera_1,85,0,0.2290231791654593,-0.09632121168226303,0.5214214748680764,0.9756840869103354,0.04279699382591281,-0.19118601285586886,0.0982694680848806,0.5068916685413569,0.047885486308835656,32045.08899592074
1684965864226326227,85,1684965864226326227,camera_1,86,0,0.2289793475865348,-0.09584528003382571,0.5213141854833658,0.9755739722017124,0.04249444035351846,-0.1910616047315186,0.09972517485084077,0.5039406058494933,0.04760507835960145,32055.876714860093
1684965864236275911,86,1684965864236275911,camera_1,87,0,0.22905910650551908,-0.0949765530472908,0.5215216543444703,0.9754936257504782,0.04273149676205136,-0.19150124304457794,0.0995664562844449,0.5461836025351657,0.051586221695661946,32047.760302325492
1684965864246300697,87,1684965864246300697,camera_1,88,0,0.2289665039867006,-0.09462278801770888,0.5213136214322609,0.975343253895384,0.04263118861844173,-0.1921839739067129,0.09976692343240498,0.5273134617018513,0.04977223123072328,32060.49113973614
1684965864256258964,88,1684965864256258964,camera_1,89,0,0.22894493867066915,-0.09449889352215668,0.521301470555615,0.9753197454612718,0.042613102190357056,-0.19195809271949094,0.10043708615133132,0.5201806082041003,0.04910322396430386,32064.07668781001
1684965864266308069,89,1684965864266308069,camera_1,90,0,0.22905996636501005,-0.09476978434146897,0.5215606881792129,0.9754746631393306,0.042683745893987796,-0.1916550802061731,0.09947667887918352,0.4962381419609301,0.04686418719479607,32046.999181571166
1684965864276229858,90,1684965864276229858,camera_1,91,0,0.22909560122789216,-0.09515881477731561,0.5216361357292182,0.975566967725532,0.042675992391900806,-0.19101294590799411,0.09980934651487904,0.4784338798490353,0.04520898605607387,32040.34522114624
1684965864286336183,91,1684965864286336183,camera_1,92,0,0.22899514639630134,-0.09607096280247,0.5214072525432649,0.9756146731424287,0.04272615932861598,-0.19146161989914004,0.09845269404041364,0.4978631509002298,0.04702732315117456,32045.706994934117
1684965864296277999,92,1684965864296277999,camera_1,93,0,0.22903972366192166,-0.0965147352999581,0.521495772763032,0.9757742651476982,0.04267962500138524,-0.19077691935776986,0.09822016150246199,0.529077799175866,0.04999211200641064,32043.781943916696
1684965864306229829,93,1684965864306229829,camera_1,94,0,0.2289641219131747,-0.09677779035606637,0.5213149307369657,0.9758342971982331,0.042798132340105745,-0.1908480553509888,0.09743081672948879,0.5387015611049719,0.05086046182698679,32065.031354691608
1684965864316295862,94,1684965864316295862,camera_1,95,0,0.22892099528277526,-0.09687607181455246,0.5212079071847421,0.9758689977807773,0.0428173884147278,-0.1907034295466491,0.09735796001781136,0.5400182896992192,0.05096464181856907,32079.229791127153
1684965864326281070,95,1684965864326281070,camera_1,96,0,0.22886014148973918,-0.09677352347967924,0.5210577480455082,0.9757727134381261,0.04287772797498824,-0.19103550292146423,0.09764501409105736,0.518219553749077,0.048893096471870394,32086.527203158483
1684965864336359977,96,1684965864336359977,camera_1,97,0,0.22891151806692078,-0.09652127987897766,0.5211518939848807,0.975651566254291,0.04295037611873573,-0.19132270928085954,0.09825938820407938,0.480497210577596,0.04536175036438306,32066.33842158853
1684965864346244812,97,1684965864346244812,camera_1,98,0,0.22902058046139218,-0.09566160705067847,0.5213925558786846,0.9755447068528136,0.04263186006888966,-0.19162727453464612,0.09886372991622494,0.4826498397742398,0.04558572090927098,32047.187001116807
1684965864356380462,98,1684965864356380462,camera_1,99,0,0.22906798553754923,-0.09520995192290184,0.5215228556622171,0.9755338626543116,0.042640056924630555,-0.19120347846680777,0.09978345645654929,0.49027162994025275,0.04631805959005097,32045.58680120296
1684965864366367340,99,1684965864366367340,camera_1,100,0,0.22898105503116575,-0.0947847667557193,0.5213395485965483,0.9753269086253554,0.04281753092821825,-0.19240574266053484,0.09941886414442044,0.525730743596796,0.04963118407838908,32050.989521481926
1684965864376594781,100,1684965864376594781,camera_1,101,0,0.22898377682416002,-0.09453738947690103,0.5213507417066726,0.9753013984924238,0.0427283913807438,-0.19236087599767046,0.09979358723958869,0.4876108573516831,0.046031114398342406,32053.061074942234
1684965864386316776,101,1684965864386316776,camera_1,102,0,0.22900689496716217,-0.09460121058727634,0.521436857567996,0.9753778011916654,0.042878854769356156,-0.19199993649299696,0.0996773451836754,0.49160463648149744,0.04641130276726379,32053.955066710703
1684965864397441625,102,1684965864397441625,camera_1,103,0,0.22904973728680728,-0.09532939932913788,0.521526965119741,0.975516851935181,0.042706657504194175,-0.19113693213734273,0.10004841912003713,0.4742512809461914,0.04481565883618859,32041.412703891758
1684965864406461477,103,1684965864406461477,camera_1,104,0,0.2291396443308595,-0.0958457096506288,0.5217429060944444,0.975725095671253,0.04268489756011346,-0.19033577912246902,0.09955314351365313,0.4703505798825063,0.0444739229746231,32030.168484853803
1684965864416434288,104,1684965864416434288,camera_1,105,0,0.2290204148018738,-0.09626416754228176,0.5214579593511358,0.9756267860027948,0.04288529449948333,-0.19144426412318527,0.09829709906137317,0.4868781322729774,0.04600296576903569,32036.280587246074
1684965864426412343,105,1684965864426412343,camera_1,106,0,0.22900448103020005,-0.09662796789371844,0.5214278721324983,0.9757475798939098,0.04285352337939157,-0.19126133322382446,0.09746454882979519,0.5240316365961917,0.049498054298096957,32045.07522222982
1684965864436387777,106,1684965864436387777,camera_1,107,0,0.22886765274935622,-0.09680224794047007,0.5210808399538894,0.9756906150140858,0.04282637460174236,-0.19160540674739612,0.09737090693359755,0.4891130164032802,0.046159675141631246,32070.705293789273
1684965864446729898,107,1684965864446729898,camera_1,108,0,0.2289401862972447,-0.0968745704272237,0.5212485635972121,0.9758732549312912,0.04286259143217697,-0.190596252498165,0.09750516447440725,0.507879443699494,0.04793990623015254,32075.41038979299
1684965864456316232,108,1684965864456316232,camera_1,109,0,0.22902358913450654,-0.09644164089279983,0.521416618148987,0.9757414909410251,0.04283263058357678,-0.19099250221157105,0.09806004646357844,0.42334215895971283,0.03998720041700316,32049.74442947516
1684965864466331958,109,1684965864466331958,camera_1,110,0,0.2290394441598325,-0.09600834845530921,0.5214570285166193,0.9756792433807451,0.04243351365524295,-0.19078113835474192,0.0992570813741561,0.4854736613924615,0.045871631249067686,32048.43932463416
1684965864476323843,110,1684965864476323843,camera_1,111,0,0.22900036322935324,-0.0955011283366624,0.5213547682883052,0.9754338248891813,0.042651518229022065,-0.1920310873394969,0.09916533038331445,0.45086070836987346,0.04258683404711787,32041.209512994643
1684965864486551284,111,1684965864486551284,camera_1,112,0,0.22906493452650828,-0.095078666788828,0.5215199918621792,0.975456418348929,0.04269434249706868,-0.19167835084801413,0.09960611847074345,0.5298994376207702,0.0500609634324347,32039.003539315192
1684965864496555089,112,1684965864496555089,camera_1,113,0,0.22902284545003712,-0.09470590254639645,0.5214509766082263,0.9754422570480022,0.04270849959761973,-0.19168440078290114,0.09972701601732314,0.5137835714267567,0.048508671199007675,32056.84645022594
1684965864506288290,113,1684965864506288290,camera_1,114,0,0.22893817450613077,-0.09447512494196371,0.5212813493046887,0.9752952268514676,0.0427773008130112,-0.1923207064090493,0.09991030428450236,0.560818896337878,0.05292674158026813,32063.880994951003
1684965864516335010,114,1684965864516335010,camera_1,115,0,0.22900552104299818,-0.09468005218710922,0.5214416413284185,0.9754011557562009,0.04280831075260985,-0.19183948026137093,0.09978801377431414,0.49888939585071057,0.04710369670956523,32054.470115445794
1684965864526539325,115,1684965864526539325,camera_1,116,0,0.22904874348455384,-0.09504347521399358,0.521545333458839,0.9754672997694748,0.04259443059169706,-0.19154083738695957,0.09980665897684951,0.49215023865690455,0.04649743143168571,32040.116555133376
1684965864536304235,116,1684965864536304235,camera_1,117,0,0.22908456260068924,-0.0955132827341174,0.5216105543515511,0.975589634930032,0.04277714850976539,-0.19074588751131985,0.10005491582115938,0.4911163166980259,0.04642285122950744,32037.261691117303
1684965864546485185,117,1684965864546485185,camera_1,118,0,0.22897475058575606,-0.09641557167168108,0.5213569423746321,0.9756354885012074,0.042660163100696404,-0.1914666057971259,0.09826516639054,0.5146250484976918,0.04861629975705646,32043.42089457739
1684965864556430339,118,1684965864556430339,camera_1,119,0,0.22890328388254683,-0.09670237343292122,0.5211878752500293,0.9757020856020162,0.04281825981622605,-0.1915261248133891,0.09741550334598766,0.46078914357349277,0.04349611458753778,32063.62871474435
1684965864566492557,119,1684965864566492557,camera_1,120,0,0.22891479609016108,-0.09682012717336644,0.5211843424917015,0.9758065924646582,0.04280690750050088,-0.19090742249220802,0.09758800546244259,0.5121873070602305,0.048343947612753804,32074.64170048106
1684965864576476573,120,1684965864576476573,camera_1,121,0,0.22894513086463814,-0.09660390409187526,0.5212434969036218,0.9756607404701975,0.042821670581620445,-0.19157377938012465,0.0977338789149431,0.4795897664153017,0.04528622457623634,32053.40681009821
1684965864586378812,121,1684965864586378812,camera_1,122,0,0.22910742506058554,-0.096290077850732,0.5216126320584286,0.9757374807336564,0.04285613341262553,-0.19081264040462143,0.0984391018969261,0.5773181294789538,0.05456912842246511,32032.04107045802
1684965864596528530,122,1684965864596528530,camera_1,123,0,0.22907081991284145,-0.09580745776830944,0.521520732494041,0.9755629574537249,0.04252688760737631,-0.19151403417399424,0.09894824197009948,0.47863817727193236,0.045235167345088534,32030.32629569096
1684965864606447458,123,1684965864606447458,camera_1,124,0,0.22913482804048363,-0.0953505199330601,0.5216703588531809,0.9755707474997865,0.04253818820252888,-0.19075813186835527,0.10031726817078655,0.5555313950171694,0.052525987026389755,32029.550408164847
1684965864616486310,124,1684965864616486310,camera_1,125,0,0.2290888080503142,-0.0949148149011182,0.5215860792532973,0.9754512372879108,0.04272229990466941,-0.19147238685965337,0.10004006114855446,0.5330049850745127,0.05036550841291771,32036.41444072756
1684965864626448392,125,1684965864626448392,camera_1,126,0,0.2289770294626561,-0.09446442135844059,0.5213632731969012,0.9753586194910032,0.04285791393552855,-0.1918359123871686,0.10018854882810616,0.5478570263949223,0.051713155164472335,32064.29935924966
1684965864636562585,126,1684965864636562585,camera_1,127,0,0.22902557612873642,-0.09455142168307068,0.521477878041537,0.9753417400224067,0.04281088782601986,-0.19193648399520633,0.10018035818048333,0.5143978355336003,0.048582665891368865,32045.696635595978
1684965864646469116,127,1684965864646469116,camera_1,128,0,0.2290326129181738,-0.09480346487836719,0.5215140834341639,0.9753484274514387,0.04290570018081222,-0.19197779570102244,0.0999953594812093,0.5105502650840208,0.048233343959889395,32036.221267934656
1684965864656505584,128,1684965864656505584,camera_1,129,0,0.2290873722254829,-0.09521436539655107,0.521627768183389,0.9755290164890876,0.04269419731886263,-0.19112690035840935,0.09995424684583551,0.4722214670618996,0.044630209115452395,32034.936639333835
1684965864666421651,129,1684965864666421651,camera_1,130,0,0.22905838910109652,-0.09614804934598943,0.52155734824834,0.9756946566380363,0.042700073996979816,-0.19071145419896296,0.09912508222419684,0.5135517423041165,0.04854060772510458,32038.145379010115
1684965864677384853,130,1684965864677384853,camera_1,131,0,0.2288384023191522,-0.09675270387881217,0.5210309167050509,0.9756967250917805,0.04282692763633049,-0.19157273698986382,0.09737372005125172,0.5156435830285773,0.04864975424220654,32079.538487448383
1684965864686368703,131,1684965864686368703,camera_1,132,0,0.22892442592216267,-0.09687848144372675,0.5212189728165728,0.9758384385077052,0.04279947789874033,-0.19081744167163522,0.09744870741231516,0.5349248555721715,0.05049251723999547,32073.58697634073
1684965864696371555,132,1684965864696371555,camera_1,133,0,0.2288955925058219,-0.09676148318169261,0.5211391030120391,0.9757024373643994,0.04290114392621817,-0.19138994734301473,0.09764288825628971,0.5007961922092363,0.04727220432190354,32067.48715125301
1684965864706478118,133,1684965864706478118,camera_1,134,0,0.22893540994592748,-0.09648754492196765,0.5212199707727684,0.9756214610622481,0.0427881940168395,-0.1914650657614282,0.0983517349135929,0.4871273788739927,0.04600371012196686,32054.61187845958
1684965864716423988,134,1684965864716423988,camera_1,135,0,0.22902132248524307,-0.09610997295667846,0.5214164585429025,0.9756651900841522,0.04252284431215067,-0.19124030422558688,0.0984702524083521,0.5322906117653474,0.05028009284530803,32047.83119046803
1684965864726361751,135,1684965864726361751,camera_1,136,0,0.229085033954196,-0.0956424417409171,0.5215461013812261,0.9756379584855398,0.042636546011264494,-0.1907976562494739,0.09954372544819266,0.47442038205917925,0.044830185140219865,32044.17132138648
1684965864736359596,136,1684965864736359596,camera_1,137,0,0.22903493400345082,-0.09476221594509911,0.5214717170771057,0.9753879462005387,0.042785304892003585,-0.19181307669557468,0.09997757598867289,0.4935967219644226,0.04662038115208778,32045.647627935872
1684965864746423721,137,1684965864746423721,camera_1,138,0,0.22892312736109716,-0.09449275901385971,0.5212371198361192,0.9752616965878851,0.04269781266638303,-0.1925020140588833,0.09992244265078871,0.5263856549863704,0.049676377321989255,32062.886313224684
1684965864756248474,138,1684965864756248474,camera_1,139,0,0.2289886742188461,-0.09446851288991712,0.5213988203551039,0.975336788916817,0.042736209545891156,-0.19207350282069677,0.09999767043921533,0.52609742624918,0.04966614445251441,32056.037563601974
1684965864766518831,139,1684965864766518831,camera_1,140,0,0.2290780838395971,-0.09465128931548634,0.5216074917854904,0.9754566121381277,0.04279270635800771,-0.19169285389921534,0.09953407397739561,0.49089794571045786,0.04636336182624216,32043.244781162364
1684965864776409387,140,1684965864776409387,camera_1,141,0,0.22896767153268904,-0.09492719797500632,0.5213580900419307,0.9753695422300518,0.04267739909753738,-0.19215559065639842,0.0995445863706279,0.46257641265401617,0.04367496196882321,32051.479869084666
1684965864786279439,141,1684965864786279439,camera_1,142,0,0.22909515074374365,-0.09541391698421285,0.5216467338856096,0.9755497838017655,0.042574935583105586,-0.19103481061640168,0.09997847426910744,0.5259666695492342,0.049723497106351856,32029.293387515238
1684965864796677589,142,1684965864796677589,camera_1,143,0,0.22906336915696904,-0.09634717252698638,0.5215730749825405,0.975713079507916,0.04290941998513927,-0.19104904421720886,0.09819893511341814,0.5355665475944988,0.050613883460693274,32033.316374179434
1684965864806214332,143,1684965864806214332,camera_1,144,0,0.22889020823069442,-0.09663417107973248,0.5211703624382709,0.9757187202352731,0.04268649806649835,-0.1912684551954379,0.09781216648459935,0.4748605714412406,0.04482246592340534,32070.165931327167
1684965864816465616,144,1684965864816465616,camera_1,145,0,0.22887886437630495,-0.09683370182546651,0.5211220421602195,0.9757962253897354,0.04293705311602666,-0.19092294327372406,0.09760412755900615,0.5431201652390882,0.051252729639500706,32081.60054064158
1684965864826558351,145,1684965864826558351,camera_1,146,0,0.2289246260611881,-0.09668201277021367,0.5212109365548302,0.9757409664982293,0.04292662305589418,-0.1912497593340765,0.09752128426541724,0.48936680948827416,0.046192768100839936,32067.185906092855
1684965864836208343,146,1684965864836208343,camera_1,147,0,0.22899344854949236,-0.09636654920020131,0.5213609860888817,0.9756534769221852,0.042654062209965586,-0.19123870047250835,0.0985326513812843,0.5163788478821516,0.048783564284399616,32046.06294519244
1684965864846472978,147,1684965864846472978,camera_1,148,0,0.22901928089613122,-0.09545042125027862,0.5214170425823691,0.9754555410854768,0.042810879447931174,-0.1916479578271112,0.09962317113619756,0.5006117840530352,0.047296066954007655,32040.873734800363
1684965864856519699,148,1684965864856519699,camera_1,149,0,0.2290854677423407,-0.09503355485677153,0.5215842473697271,0.9755357499908852,0.042662168707452514,-0.19113312901637897,0.09989027401757634,0.5080407538916916,0.04799789688633894,32044.77603987325
1684965864866525411,149,1684965864866525411,camera_1,150,0,0.22901102786289504,-0.09466650965857774,0.521423921060457,0.9754164091401409,0.042713484641760426,-0.19165740549400745,0.10002912540463854,0.5350398101145402,0.05051690319305514,32057.95271022444
1684965864876318454,150,1684965864876318454,camera_1,151,0,0.22899994626954714,-0.09448098623611126,0.5214101081388848,0.9753570471243498,0.04264650171778105,-0.19189961520465793,0.10017207295653097,0.5138224203255959,0.0485120147789356,32056.438791474437
1684965864886515140,151,1684965864886515140,camera_1,152,0,0.22899858834563158,-0.09449757972247268,0.5214295202324856,0.9753521804007836,0.04272200577042508,-0.1920783524131872,0.09984418332894711,0.5990630356827751,0.05655770892606008,32053.942546122707
1684965864896487236,152,1684965864896487236,camera_1,153,0,0.22899479767419093,-0.09469988440365856,0.5214186851640392,0.9753351062037385,0.04274873233577515,-0.19211963923854167,0.09992007160265204,0.47355908062309027,0.044720434879726316,32046.950428292497
1684965864906482219,153,1684965864906482219,camera_1,154,0,0.22910247810630993,-0.09556788806739241,0.5216548321523657,0.9756359310561891,0.04279710720038764,-0.19111884794832393,0.09887630457448944,0.4516810212517157,0.042680964547365356,32035.64891021698
1684965864916405439,154,1684965864916405439,camera_1,155,0,0.22900753649048516,-0.09602862306466958,0.5214539371443606,0.9756316541488069,0.0426478102357431,-0.19127523108768182,0.09868042195548686,0.5242164709488861,0.04952396684274442,32044.355750183455
1684965864926496028,155,1684965864926496028,camera_1,156,0,0.2289712103068884,-0.09644504250302638,0.5213481823581636,0.9757331996854126,0.04287668257321593,-0.19094275035173808,0.09822005503610824,0.47597489471081644,0.04494993329617877,32058.7287579826
1684965864936356306,156,1684965864936356306,camera_1,157,0,0.22894987639902495,-0.09674988879313227,0.5213006498503951,0.9757715064414633,0.04267879555948728,-0.1912217171625112,0.09737937416090503,0.5061931749805808,0.047794342517702516,32058.228811745066
1684965864946355104,157,1684965864946355104,camera_1,158,0,0.22887153458989484,-0.09679173042797161,0.5210895022451665,0.9757562286117157,0.042835457992481896,-0.1912465747221858,0.09741485267168995,0.4939029560191557,0.0466040116894706,32079.48642160048
1684965864957240343,158,1684965864957240343,camera_1,159,0,0.22904450133156434,-0.09620796194297287,0.521467328730376,0.9756961165553698,0.04284608002245487,-0.19097225949046384,0.09854388702799573,0.48830386955523863,0.04613324540099176,32045.376872811932
1684965864966290950,159,1684965864966290950,camera_1,160,0,0.2290875108402935,-0.0957416938280588,0.5215667914501,0.9755792269502542,0.04268055752389838,-0.1912977562732019,0.09913985272044726,0.5085687731625512,0.04806729742751491,32030.780760486265
1684965864976275205,160,1684965864976275205,camera_1,161,0,0.2290170128607445,-0.09523638657521727,0.5214143398428895,0.9753909200475255,0.04274671496623245,-0.19189881112900006,0.09980038945672332,0.5058103473274969,0.04778787797112202,32038.149946058977
1684965864986387968,161,1684965864986387968,camera_1,162,0,0.22906226892408735,-0.09485426147145262,0.5215326337621358,0.9754549020999416,0.04282294828492622,-0.19148305562777732,0.09994082487567117,0.48847249418031424,0.04614136761682517,32045.561207804363
1684965864996645689,162,1684965864996645689,camera_1,163,0,0.22900900996245305,-0.09456783039525933,0.5214190180077892,0.9753499000257392,0.04270979575995445,-0.1918655791732798,0.10027983543278061,0.48941710585495457,0.046216378066510994,32052.04804319096
1684965865006741523,163,1684965865006741523,camera_1,164,0,0.2289257433780839,-0.09444178444845189,0.5212616874767739,0.9753029751610746,0.04282664884065929,-0.19213336099500467,0.10017363118006016,0.5297588044777513,0.04999230869482844,32069.140981018652
1684965865016506671,164,1684965865016506671,camera_1,165,0,0.22900726256411025,-0.09483415977349957,0.5214529946424773,0.9753878814817922,0.0426479510301534,-0.19189930692131973,0.09987136193378032,0.5519323808839545,0.05212846939839317,32046.28905249807
1684965865026328086,165,1684965865026328086,camera_1,166,0,0.22898503249856406,-0.09522555681874725,0.5213802944483783,0.975402102448841,0.04266775080818598,-0.19186774542862792,0.09978461726882842,0.470963925938122,0.04448688174255533,32044.65680191877
1684965865036330938,166,1684965865036330938,camera_1,167,0,0.22910892114406986,-0.09575750525413819,0.5216790132259209,0.9756766771554433,0.0426617249186096,-0.19054505502983238,0.09963724647720838,0.4936791848158464,0.04667248287122192,32033.57946486666
1684965865046438217,167,1684965865046438217,camera_1,168,0,0.22893768050307092,-0.09615812690192857,0.5212888991282425,0.9755261066362256,0.04263520845060659,-0.19177294571447462,0.0987633108169919,0.49012735538417473,0.04629944155933659,32044.494795896462
1684965865056329250,168,1684965865056329250,camera_1,169,0,0.22885246515867905,-0.09651897621765165,0.521078081255572,0.975547639402292,0.042690989573764916,-0.19210669360103225,0.0978739032608165,0.5135241104289889,0.04847494045177819,32060.094238087288
1684965865066432714,169,1684965865066432714,camera_1,170,0,0.22884907199617557,-0.09677603593935274,0.5210554726580191,0.9757028688574898,0.04292032496342587,-0.19162296175629875,0.09717200181143758,0.485442980309017,0.0458006066295641,32077.127393035902
1684965865076566457,170,1684965865076566457,camera_1,171,0,0.2289103207224171,-0.0967412513977408,0.5211805616849875,0.9757316790999452,0.04290608528732013,-0.19139007086788443,0.09734782493361109,0.5256077059893869,0.04961020609164709,32067.420934136833
1684965865086413860,171,1684965865086413860,camera_1,172,0,0.22894675272514398,-0.09645182318046797,0.5212532133287168,0.9756669436566455,0.042708604553135535,-0.1912651545277706,0.09832411106281176,0.49389075895305723,0.04663964586269083,32057.99340956146
1684965865096640825,172,1684965865096640825,camera_1,173,0,0.22907093574860118,-0.0955875673071246,0.52154000419089,0.9756720502305919,0.0426843986893523,-0.19059188988132916,0.0995832516983917,0.47375715017551556,0.04475860829975408,32052.564493248014
1684965865106651306,173,1684965865106651306,camera_1,174,0,0.22905976357685293,-0.09511799371615293,0.5215220290600915,0.9754521375629117,0.04265138977563815,-0.19164497448654566,0.09973058722480417,0.4933479845058173,0.04661273147944956,32037.257852807164
1684965865116665363,174,1684965865116665363,camera_1,175,0,0.22905982784837609,-0.0947475431191925,0.5215379613683097,0.975446392182718,0.042697525416538235,-0.19167705064366863,0.0997053938238444,0.5104799384134822,0.04821297587211035,32046.00944599042
1684965865126681089,175,1684965865126681089,camera_1,176,0,0.22898124906757372,-0.09447105923413765,0.5213979034530565,0.9753194456082989,0.04266559093250557,-0.1920461761994802,0.10024915249446627,0.5346211908617988,0.050478119132646194,32054.036417762967
1684965865136331081,176,1684965865136331081,camera_1,177,0,0.22896945529240717,-0.09464061776560091,0.5213872379882014,0.9753266991945492,0.04278111678955965,-0.19207927092092392,0.10006577620240513,0.5270566898980178,0.049765864060706023,32052.524185883816
1684965865146441936,177,1684965865146441936,camera_1,178,0,0.22903980681183003,-0.09500404631171522,0.5215401103855689,0.9753959433541747,0.042812027093796036,-0.19179277454553492,0.0999270516750369,0.5160800290177576,0.048764053381991,32033.79822780215
1684965865156445026,178,1684965865156445026,camera_1,179,0,0.22908968132540508,-0.09546813399754894,0.5216473678819775,0.9755721461393104,0.04261205573137377,-0.19092021399819334,0.09996335463743862,0.48062075953930616,0.04543612715098322,32031.36492915183
1684965865166638135,179,1684965865166638135,camera_1,180,0,0.22899236222630812,-0.0959187792353497,0.5214211615682348,0.975595951163629,0.04276113276562068,-0.19127419392529377,0.09898589968255286,0.5284714834415354,0.049923119429771394,32047.581136669964
1684965865176488399,180,1684965865176488399,camera_1,181,0,0.22897970583748295,-0.09636918768896129,0.5213944284400259,0.9756640475119908,0.04289414180532175,-0.19105179939410485,0.09868621453668114,0.5121530342148617,0.048386380038376496,32047.374120296423
1684965865186458110,181,1684965865186458110,camera_1,182,0,0.22890188175496715,-0.09684895143640665,0.5211865310909358,0.9757763666361268,0.04284522044018197,-0.191109875875035,0.0974770985558145,0.525120360602159,0.0495677186392697,32070.348765942268
1684965865196408271,182,1684965865196408271,camera_1,183,0,0.22895096238025694,-0.09685583818327576,0.521279162968631,0.9758703622342745,0.042884758049870034,-0.1905812381393743,0.09755370474263514,0.4901441592373885,0.04627073221018309,32072.348847877824
1684965865206373691,183,1684965865206373691,camera_1,184,0,0.22890501777815017,-0.09662388562836481,0.5211676802182852,0.9756863732886779,0.04275690913929394,-0.19128577533290653,0.09806987231015342,0.5253165458561853,0.049594945410885355,32065.935093282947
1684965865216562747,184,1684965865216562747,camera_1,185,0,0.22897912346380483,-0.09630205675146868,0.5213268464702588,0.9756366352734127,0.04274555335318032,-0.19138305841344147,0.09837936030093715,0.48756827431498095,0.04605150027714533,32049.901093826622
1684965865226642370,185,1684965865226642370,camera_1,186,0,0.2291519091685556,-0.09543530023128718,0.5217323449147235,0.9756809250557134,0.04255139923970699,-0.1905958706787016,0.09954559249609435,0.5006420688005164,0.04732189024678273,32035.16070770951
1684965865237544298,186,1684965865237544298,camera_1,187,0,0.2290086793719789,-0.09462744335279383,0.521423391429246,0.9753644471422445,0.042570876536823295,-0.19192007447182888,0.10009296047434135,0.47824147704523057,0.0451612167839154,32050.882683004947
1684965865246434926,187,1684965865246434926,camera_1,188,0,0.22897300457437803,-0.09446668264018301,0.5213588089721083,0.9752870903935014,0.042646530501260396,-0.1919316651965038,0.1007898836336286,0.5514882911229506,0.05207926754053111,32054.19290715723
1684965865256360054,188,1684965865256360054,camera_1,189,0,0.22894507230182962,-0.09449636488524249,0.5213038871278461,0.9752761142630695,0.04266797147068341,-0.19222641282910924,0.10032423121737878,0.5190917189465836,0.049005075117410056,32057.91016473527
1684965865266382932,189,1684965865266382932,camera_1,190,0,0.22902984363948703,-0.09475263966378537,0.5215082836743388,0.9753896681735956,0.04269475645823709,-0.19188762226874448,0.09985636389946621,0.5303841013810597,0.0500976374872014,32042.740021521924
1684965865276512145,190,1684965865276512145,camera_1,191,0,0.22901738934675372,-0.09511684032861928,0.5214596359613073,0.9753607397768327,0.04259321082285146,-0.19205795226264846,0.09985483797226866,0.43805252958554775,0.041391084752431605,32032.30515545303
1684965865286313295,191,1684965865286313295,camera_1,192,0,0.2291243578233342,-0.09562513421008802,0.5217120478441584,0.9755918863947243,0.042693466689850246,-0.1912416374096426,0.09911798637818055,0.5624322535586543,0.053174390904027716,32021.16995632776
1684965865296357631,192,1684965865296357631,camera_1,193,0,0.22893482783924468,-0.09646330083261329,0.5212696276824486,0.9755885234153656,0.04284276021685645,-0.19185265614521482,0.0978983616167997,0.5231565191643314,0.04940799020448207,32046.37640604843
1684965865306359529,193,1684965865306359529,camera_1,194,0,0.22900036994011264,-0.09679141415213206,0.5214039376779355,0.9759074689883671,0.04299896654267986,-0.19030091420151,0.09767938832246291,0.5301906864042394,0.05006488075048562,32066.40621776449
1684965865316519021,194,1684965865316519021,camera_1,195,0,0.22889763344450825,-0.09685969143543649,0.5211533148837326,0.9758016760580014,0.04284042335200863,-0.190970634717099,0.09749873745420594,0.5359333929372951,0.05058042993045389,32076.776727907356
1684965865326361656,195,1684965865326361656,camera_1,196,0,0.22893800508699413,-0.09680073899288602,0.5212226902260153,0.9758168770464816,0.04298594105572449,-0.19088108530691836,0.09745790175690583,0.4772160290158353,0.04504338041600286,32072.67589880222
1684965865336585998,196,1684965865336585998,camera_1,197,0,0.22892614315977186,-0.09651892155881868,0.521188014592964,0.9756514641381595,0.04284433637835547,-0.19122459687286494,0.09849739547914031,0.4950517395045608,0.04674642081826572,32061.876629076916
1684965865346477746,197,1684965865346477746,camera_1,198,0,0.22898745518245242,-0.09613361665878499,0.5213346641825698,0.9756366046204842,0.042582699209482,-0.19118038357669687,0.0988432617233721,0.51642134092981,0.0487786746365572,32053.303474539178
1684965865356248140,198,1684965865356248140,camera_1,199,0,0.22911663556775635,-0.0952251375723846,0.5216305102809234,0.97559453428772,0.04261353834140253,-0.1908439766103637,0.09988977730226271,0.4731793279061094,0.044715867587563136,32041.017730546424
1684965865366347312,199,1684965865366347312,camera_1,200,0,0.22904819309572821,-0.09480883905558961,0.5214911830840395,0.9754253124491546,0.04275826210082204,-0.19161579397558595,0.10000289173165053,0.5284912266070023,0.04991787939437187,32046.96500172432
1684965865376548528,200,1684965865376548528,camera_1,201,0,0.2289689030679609,-0.09445806973057731,0.5213430485821324,0.975310195965475,0.04275550065286785,-0.19199421662427324,0.10040024697450296,0.5201040436513722,0.04910057626847438,32059.43343351245
1684965865386532306,201,1684965865386532306,camera_1,202,0,0.22906301525424064,-0.09461599833060529,0.52157914006436,0.9754360327260033,0.04273088024347984,-0.19168629306327095,0.09977466103693262,0.47196778369834647,0.04457611049880829,32044.72303807527
1684965865396420955,202,1684965865396420955,camera_1,203,0,0.22902608538711364,-0.09489400177085801,0.5214869942848414,0.975340165213423,0.0425579230236891,-0.192104490151835,0.09998124910634966,0.4680589083000086,0.04422379978329472,32032.83744321881
1684965865406464815,203,1684965865406464815,camera_1,204,0,0.22910511732151587,-0.09583200289170116,0.5216734887092801,0.9756754408055665,0.042602502632862686,-0.19079572652763369,0.0991940104899141,0.5041040558717214,0.047654220198717276,32031.00179034737
1684965865416346788,204,1684965865416346788,camera_1,205,0,0.22907579871309997,-0.09628962470970588,0.5215931686157858,0.975696442739954,0.04283722843450102,-0.19092055893608148,0.09864463320517965,0.4863548171124421,0.0459740934699005,32030.040535725417
1684965865426390171,205,1684965865426390171,camera_1,206,0,0.22897202008385792,-0.09661535128312344,0.5213499058173405,0.9757372433702438,0.04271780592771052,-0.19131712833573272,0.09751808735987846,0.5410056469263509,0.05109024921322526,32052.195354153402
1684965865436411380,206,1684965865436411380,camera_1,207,0,0.22892017192955924,-0.09682644695333795,0.5212216029331532,0.9758425940885009,0.04271185597768659,-0.19089953739428167,0.09728461103492032,0.5037955871084705,0.047548166827569106,32075.023613801553
1684965865446361780,207,1684965865446361780,camera_1,208,0,0.22892587422186683,-0.09686566975507749,0.5212207943474068,0.9758271959730745,0.042784063981800804,-0.1908165447193456,0.09756973777713017,0.5019183326512575,0.047380114467119,32072.07057465554
1684965865456423282,208,1684965865456423282,camera_1,209,0,0.22894138369635583,-0.09671944293484963,0.5212561863855615,0.9757705311694557,0.042962599551965845,-0.19102737563279326,0.09764541617435722,0.48244841676205397,0.045547116417046875,32065.559082990512
1684965865466413021,209,1684965865466413021,camera_1,210,0,0.22903419601548292,-0.0959980711094701,0.5214572612901773,0.9756459241272669,0.042644920298895404,-0.19116315092542163,0.09875774012611352,0.5746081021497957,0.05428598892285863,32045.309057155624
1684965865476485490,210,1684965865476485490,camera_1,211,0,0.2291308280728827,-0.09556117661764876,0.5216633157402384,0.975614057938829,0.04276566934521915,-0.19112760181266564,0.09908858311090005,0.4549417427042499,0.042997561967571256,32030.009109684146
1684965865486696720,211,1684965865486696720,camera_1,212,0,0.22909312587054642,-0.09508747930643323,0.5216001589110651,0.9755629326958287,0.04260287383966629,-0.1911397050616914,0.09963720509651598,0.5301894717267714,0.05008912322412654,32044.513045265106
1684965865496428966,212,1684965865496428966,camera_1,213,0,0.22900630016448392,-0.09470063605748279,0.5214172273776535,0.9753638416828835,0.04285809937708641,-0.19196582692969297,0.09988834239584765,0.5223202988272533,0.04932032316889692,32051.114088376293
1684965865506515026,213,1684965865506515026,camera_1,214,0,0.22902284023928834,-0.09449563226240597,0.5214772246786264,0.9753677506388688,0.042707135929775895,-0.19177873772026072,0.10027346265474577,0.5254547364311293,0.04962212848230255,32050.718315797727
1684965865517187833,214,1684965865517187833,camera_1,215,0,0.22904929430540083,-0.09504282818140536,0.5215461766914945,0.9754709871744589,0.042566219502049925,-0.1914040415529795,0.10004480503941932,0.5093433370348066,0.0481260580366014,32040.74674232884
1684965865526457071,215,1684965865526457071,camera_1,216,0,0.22910339171021415,-0.0955260427679456,0.521674191482168,0.9756458379138276,0.04271349155853126,-0.19071745489735756,0.09958719294055349,0.4751109543722123,0.04490593907035432,32037.02900217917
1684965865536442995,216,1684965865536442995,camera_1,217,0,0.22907125710997825,-0.09600677670477706,0.5215996544976665,0.975711394194742,0.04279564997688538,-0.190942213890925,0.09847272991057474,0.542265723051969,0.05123732659992897,32040.078762280988
1684965865546497583,217,1684965865546497583,camera_1,218,0,0.22882866550116304,-0.09634579018998193,0.5210329966256548,0.9754523215285682,0.04256946609857334,-0.19224754468869568,0.09859761935147003,0.49884946004021913,0.047098068080691245,32057.370633753017
1684965865556445837,218,1684965865556445837,camera_1,219,0,0.22895011265553203,-0.09672198511125052,0.521301515911369,0.9757694765442594,0.042900691783113225,-0.19111547515657998,0.09751068887433324,0.4871904266765341,0.04599970985582011,32060.28088163538
1684965865566491842,219,1684965865566491842,camera_1,220,0,0.22888679284987798,-0.09684876880031802,0.5211442951163157,0.975797301420426,0.042702404122999776,-0.19094711181270155,0.09764902310375805,0.4979733224026859,0.046999474422922655,32077.22752959816
1684965865576400041,220,1684965865576400041,camera_1,221,0,0.22894779598992285,-0.09660315751971472,0.5212562125676254,0.9757301536823638,0.04282285622276767,-0.19113287280583435,0.09790349898192395,0.5229315509204753,0.04937437021170482,32062.3874698734
1684965865586413383,221,1684965865586413383,camera_1,222,0,0.22903085209395255,-0.09625587708563779,0.5214482817699658,0.9756309545856299,0.042642064718471005,-0.19115994672248557,0.09891293919369173,0.5271328328526579,0.0498191518312284,32036.48787622342
1684965865596337556,222,1684965865596337556,camera_1,223,0,0.22906988186697078,-0.095804079209332,0.5215296763596952,0.9756100854379798,0.04260525209701938,-0.19112108563167646,0.09920929549400449,0.5235639128950423,0.04947919853578894,32037.41729197686
1684965865606271266,223,1684965865606271266,camera_1,224,0,0.22913205312936508,-0.09534245306299999,0.5216718545498324,0.9755608449963213,0.04271910495986535,-0.1910530670190896,0.09977395133044861,0.4949961105012335,0.04679221802787958,32028.735967054847
1684965865616465806,224,1684965865616465806,camera_1,225,0,0.22905670816724494,-0.09490293891627484,0.5215154744358484,0.9754686068677223,0.04255839210126948,-0.19156842377741856,0.09975629949399327,0.49736861034762114,0.04697916127133621,32046.02695555215
1684965865626450538,225,1684965865626450538,camera_1,226,0,0.2291278359092766,-0.09464503684651085,0.5216940919600356,0.9755464276261002,0.042696487140656096,-0.1911484676203537,0.09974187113841679,0.5028027595835738,0.04749552912185882,32044.92184779025
1684965865636364459,226,1684965865636364459,camera_1,227,0,0.2289963759021035,-0.09453773276611124,0.5214094772873394,0.9753233524027041,0.04278391536220369,-0.1921918496490778,0.09988086790119982,0.47279457503464073,0.044639266876037156,32050.709341267353
1684965865646436214,227,1684965865646436214,camera_1,228,0,0.2290363731152657,-0.09479730980521858,0.5215171687927392,0.9754352555467316,0.04260904220668109,-0.1917811267226654,0.09965205061460887,0.49349858867935836,0.04660831653940938,32045.783549609932
1684965865656421422,228,1684965865656421422,camera_1,229,0,0.22910007798350612,-0.09567859280690894,0.5216619596634953,0.9756382663798142,0.04264890897393489,-0.19078035360458007,0.0995685714331346,0.5198267024825327,0.049141128128741905,32032.421979741328
1684965865666443109,229,1684965865666443109,camera_1,230,0,0.2290460313219722,-0.09614226480390209,0.5215454013713439,0.9755970747463331,0.04281402907013159,-0.19112802074747987,0.09923399793584149,0.5221838735742494,0.04936829944907127,32027.2220389814
1684965865676394462,230,1684965865676394462,camera_1,231,0,0.2289062443435334,-0.09649441236319578,0.5212072877633296,0.9756271977051999,0.04268824181548337,-0.19173202976166526,0.0978167361552889,0.5461549205356278,0.05156438355969551,32057.274947402177
1684965865686367750,231,1684965865686367750,camera_1,232,0,0.2289198637682532,-0.09687001523564263,0.5212137114433298,0.9758657524389408,0.04290386273116736,-0.190679299436451,0.09739967425997624,0.5202289348235354,0.04909796584971266,32079.112893172525
1684965865696293592,232,1684965865696293592,camera_1,233,0,0.22881744133923304,-0.09672431670823713,0.5209616558794354,0.9756429153675454,0.042916938112823946,-0.19147229409125827,0.09806833694708673,0.5058579131145962,0.04773273030017859,32081.537873868605
1684965865706505298,233,1684965865706505298,camera_1,234,0,0.2289388823472103,-0.09649159893335772,0.521234836245569,0.9756334770999925,0.042727208721412877,-0.19138782237222726,0.09840937681071013,0.5533666206756607,0.0522619671368472,32054.515658312368
1684965865716391563,234,1684965865716391563,camera_1,235,0,0.2290546563317712,-0.09611828316053636,0.5214999568035019,0.9757675065173996,0.042749120097941906,-0.1906702131202332,0.09846398216786342,0.5385134573443793,0.05086647930662144,32054.14176327433
1684965865726487398,235,1684965865726487398,camera_1,236,0,0.22904776160914941,-0.09562762957237127,0.5214821516570305,0.9756215430397248,0.042855736081991024,-0.19075515271728244,0.09969183694497581,0.5045583583996632,0.04766852075469158,32052.139344945776
1684965865736531019,236,1684965865736531019,camera_1,237,0,0.22908789896831538,-0.0951689561904364,0.521576797873744,0.9755057378618682,0.04271890303049664,-0.19133541470871226,0.09977178860122822,0.49786913831485435,0.047044847216376466,32037.213817822972
