%time,field.header.seq,field.header.stamp,field.header.frame_id,field.image_seq,field.transforms0.fiducial_id,field.transforms0.transform.translation.x,field.transforms0.transform.translation.y,field.transforms0.transform.translation.z,field.transforms0.transform.rotation.x,field.transforms0.transform.rotation.y,field.transforms0.transform.rotation.z,field.transforms0.transform.rotation.w,field.transforms0.image_error,field.transforms0.object_error,field.transforms0.fiducial_area
1683158369523756742,11,1683158369523756742,camera_1,22,1,-0.0866069968420548,-0.14086837003358316,1.087466591339072,0.9948703354821775,-0.029899715021835315,0.05360166814038249,0.08041071938343226,0.3583741029142402,0.010279169003318156,72580.23727730637
1683158369543673038,12,1683158369543673038,camera_1,24,1,-0.08658348876254554,-0.14077985382811925,1.0872938200981923,0.9948777374075837,-0.029836757064847952,0.053448185777052876,0.08044468270657669,0.43528331149718724,0.012479855258263554,72605.72767566203
1683158369557116270,13,1683158369557116270,camera_1,26,1,-0.08658440263082559,-0.14076923598005062,1.087460209307362,0.9949826025581333,-0.029744100971932017,0.053197390075258755,0.07934070048339795,0.40520093761733733,0.011620830956850839,72608.1781402324
1683158369576967239,14,1683158369576967239,camera_1,28,1,-0.08660973723803055,-0.1408190172857105,1.0874170579610603,0.9948605342635085,-0.029711067846160445,0.05404337359085356,0.08030618645712767,0.3916934971057344,0.011232943300210376,72585.17012191784
1683158369590710163,15,1683158369590710163,camera_1,30,1,-0.08660012487820443,-0.14080491550261418,1.087559517065145,0.9949969267241568,-0.029574919902579197,0.053870226857520555,0.07876825871223866,0.4161743707518326,0.011936488159367592,72598.26774774512
1683158369610993385,16,1683158369610993385,camera_1,32,1,-0.08662743467692713,-0.14083399893497556,1.087792651757479,0.9950154684799078,-0.02985119938960301,0.05367165931213938,0.07856510909680742,0.43922002642648295,0.012602233602859829,72573.25646411208
1683158369624180078,17,1683158369624180078,camera_1,34,1,-0.08661043910712136,-0.14082646364280216,1.087810054414841,0.9950921388145981,-0.029652462045563995,0.05344691041024648,0.07781898567588745,0.4299644909624476,0.012336784870275529,72587.53240578424
1683158369644044637,18,1683158369644044637,camera_1,36,1,-0.08660609926343629,-0.1408201075807181,1.0876613342943102,0.9950242141825951,-0.029719398780567948,0.05368639693928106,0.07849421195291277,0.4872206945583457,0.01397493959984552,72591.83715243434
1683158369657602548,19,1683158369657602548,camera_1,38,1,-0.08659272488434906,-0.14082088054957462,1.087605024983818,0.9950046730418544,-0.02980655863192357,0.05301507729683332,0.07916230963409952,0.4206672404106939,0.012066880721656723,72593.46545229992
1683158369677923917,20,1683158369677923917,camera_1,40,1,-0.08660994707022732,-0.14076625936822545,1.0876346555782286,0.9949544149493328,-0.029775276987938696,0.05422355081567514,0.07898703431615987,0.4391438965976704,0.012596442272549578,72581.44575328374
1683158369691033840,21,1683158369691033840,camera_1,42,1,-0.08661078969698693,-0.14077815715513492,1.087549750526111,0.9950524694985721,-0.02980567030420556,0.054830797724603,0.07730322492234201,0.41466302165645175,0.011891248272190383,72616.88950740325
1683158369711059570,22,1683158369711059570,camera_1,44,1,-0.08662446733610168,-0.1408202965702731,1.0877322376806033,0.995003704622703,-0.02982372062918773,0.05473915469112112,0.07798588602196269,0.40829801076324657,0.011713242069728964,72580.70562871311
1683158369724370956,23,1683158369724370956,camera_1,46,1,-0.08658194729550311,-0.14078581516517585,1.0874033167194073,0.994861725650223,-0.02967325126038403,0.054174561197522994,0.08021696774968773,0.42107123784080613,0.01207430834035726,72588.15066535302
1683158369744167327,24,1683158369744167327,camera_1,48,1,-0.08661338476010809,-0.14079688740461405,1.08758544246838,0.9949872191455009,-0.02967530575319116,0.054113671453768816,0.07868621561208317,0.4285070240875939,0.012290175101456515,72593.91262376746
1683158369757555723,25,1683158369757555723,camera_1,50,1,-0.08662660365069863,-0.14080685254161915,1.0877645304926953,0.9950569494746822,-0.029803409721008634,0.05341380224616592,0.07823292018548839,0.4116863360395655,0.011812304153874817,72586.43077535793
1683158369777720689,26,1683158369777720689,camera_1,52,1,-0.08660051956648074,-0.14079043837410946,1.087509511129981,0.9949433519589486,-0.029751917662993586,0.05477287655620546,0.07875583649371667,0.3955380487604998,0.011343283844505137,72595.45469745048
1683158369790934801,27,1683158369790934801,camera_1,54,1,-0.08662288770035986,-0.14080260717786028,1.0876144806885273,0.9949349338003259,-0.029550889548395468,0.05467015063825582,0.07900884165604447,0.387135171884438,0.011104908327024503,72577.94273718332
1683158369811123371,28,1683158369811123371,camera_1,56,1,-0.08660397564785385,-0.14081251167334818,1.0876488715025103,0.9949440848919923,-0.029691327398047973,0.05441278703902188,0.07901861567013281,0.44649550967733376,0.012807315797435876,72576.00662979465
1683158369824589252,29,1683158369824589252,camera_1,58,1,-0.08661215986969754,-0.1408013063582413,1.0874845975469765,0.9948538941879627,-0.029854584171050386,0.054214959371100345,0.08021951884304464,0.4181968237971887,0.011993595551889327,72576.59283764001
1683158369838092088,30,1683158369838092088,camera_1,60,1,-0.08658732799523809,-0.1407966786940808,1.0874272466511428,0.9949103104359813,-0.029743474262951732,0.053196594874813735,0.08024289514139835,0.401432690108777,0.011512580366719191,72594.52268951698
1683158369858037710,31,1683158369858037710,camera_1,62,1,-0.08662376288047224,-0.14083358684744748,1.0879715712861395,0.9950631955595433,-0.02966715770894586,0.054022710661902854,0.07778588129630687,0.4720668107620441,0.013547578287887373,72561.09280094311
1683158369878017425,32,1683158369878017425,camera_1,64,1,-0.08663370231894679,-0.14082832299351733,1.0879640518215632,0.9950860189421745,-0.0297581812472991,0.05431127625379005,0.07725639666947873,0.44715496644494124,0.012832378997652568,72568.74946270473
1683158369891298770,33,1683158369891298770,camera_1,66,1,-0.0865989055679313,-0.14077715490706055,1.0872836753655848,0.9948085258891805,-0.029876076881210807,0.0552863508209214,0.08004271522936932,0.3693070212175371,0.010587809922682783,72594.86092673705
1683158369911104679,34,1683158369911104679,camera_1,68,1,-0.08664051685241955,-0.14083001474938237,1.0879476466205409,0.9950975711117089,-0.029711792117006225,0.053735239951851935,0.07752778446524969,0.457865678195958,0.01313968937298517,72571.93509609427
1683158369924482345,35,1683158369924482345,camera_1,70,1,-0.08662556174667659,-0.1407982984760077,1.0875966001143489,0.9950476259370427,-0.02968527669174579,0.05487825289082563,0.07737818700667692,0.40815297166409437,0.01170576837549234,72608.46479522198
1683158369944510936,36,1683158369944510936,camera_1,72,1,-0.08662135556873135,-0.14083499140086808,1.087827682789123,0.9950838525426416,-0.02979525217772401,0.05304423118383827,0.078145242303518,0.4208569463226013,0.012076419629091853,72583.05991444539
1683158369957755088,37,1683158369957755088,camera_1,74,1,-0.08661431642403272,-0.14081001010885455,1.0875918091957146,0.9949057017283337,-0.029726503148264537,0.05306487917748758,0.08039339697330147,0.43518613252672367,0.012484100488767559,72571.4442066356
1683158369971004009,38,1683158369971004009,camera_1,76,1,-0.08660965169817725,-0.1407893832872753,1.0875170282834377,0.994947808033159,-0.029713589723241507,0.05336492504645579,0.0796752574552308,0.40806794713716954,0.011704327932460777,72592.17404431169
1683158369991317749,39,1683158369991317749,camera_1,78,1,-0.08659962533964691,-0.14079471043577302,1.0874933725475666,0.9949377697767116,-0.029907521351183373,0.05308798076435764,0.07991270697914886,0.43685677922621835,0.01252934804586737,72593.5244109825
1683158370010696649,40,1683158370010696649,camera_1,80,1,-0.08661365018305485,-0.1408461203461605,1.0876637708768213,0.9949654668781458,-0.0297479465596539,0.05312262903694457,0.07960380442944075,0.41139854316134006,0.011802827791391423,72575.77783547284
1683158370023637533,41,1683158370023637533,camera_1,82,1,-0.08661341496869465,-0.1408017570298409,1.0875677938021011,0.9950126204008296,-0.0296739334499945,0.05385580825235578,0.07854231238106826,0.3945041721017333,0.011315473943507168,72601.57150204525
1683158370043647527,42,1683158370043647527,camera_1,84,1,-0.08660764907812407,-0.14080100046178154,1.0875060992534058,0.9948941249311728,-0.029748553323177416,0.05442230820644493,0.07961731044249623,0.4787913822947303,0.013730172337213006,72583.32831112534
1683158370057065963,43,1683158370057065963,camera_1,86,1,-0.08657759403439308,-0.14078735200497014,1.087227146772707,0.9948366933639768,-0.029646721007852612,0.053616052102849476,0.08090948292392042,0.4144809528661426,0.011882488944399812,72603.38885905663
1683158370070419788,44,1683158370070419788,camera_1,88,1,-0.08662085143215806,-0.14082818068358754,1.0875801779573242,0.9949586301752116,-0.02964447882404969,0.05476573674873635,0.07860816238461062,0.4162441158114234,0.011938173017166374,72588.29243441281
1683158370090439796,45,1683158370090439796,camera_1,90,1,-0.08662117045943675,-0.14081901580100764,1.0874017334522137,0.9949500215309537,-0.029654073101801747,0.053595598325158054,0.07951479387004774,0.42565221841505263,0.012205448449085061,72607.02384679684
1683158370103698492,46,1683158370103698492,camera_1,92,1,-0.08662949186304093,-0.1408487472645134,1.0875433654751592,0.9949236373160378,-0.02966102696111992,0.0538505364237743,0.0796699385986253,0.41601636732229963,0.011932483631368614,72582.4349526598
1683158370117092847,47,1683158370117092847,camera_1,94,1,-0.0866309995715979,-0.1408708884467195,1.0875602997312428,0.9948939484433792,-0.02978341871010157,0.05459503125800374,0.07948812416090391,0.36381348567374516,0.01043574683061529,72575.08327563225
1683158370137069940,48,1683158370137069940,camera_1,96,1,-0.08662234481110924,-0.14086171634290137,1.0875378081971963,0.9949167418676262,-0.029763816602598036,0.05343393757191343,0.07999753926412373,0.40659426187630743,0.011662672668678051,72580.94373011608
1683158370150517463,49,1683158370150517463,camera_1,98,1,-0.08658824906390757,-0.14080641393915114,1.087202438523694,0.9948395689896928,-0.029623153686069388,0.05352725701235958,0.08094154368942232,0.39334831917949487,0.011276708956565832,72606.43122063873
1683158370170428752,50,1683158370170428752,camera_1,100,1,-0.08660793488727972,-0.14086070886568097,1.087467522408611,0.9948915209767117,-0.029827721407270188,0.05319728167734242,0.0804438794840034,0.4473390697676223,0.012829374358830881,72583.99322095496
1683158370183537721,51,1683158370183537721,camera_1,102,1,-0.08664349239510447,-0.1408922147745927,1.0877072927428946,0.9949949662534261,-0.029816416078242706,0.053815978409803955,0.07873905594041877,0.3766519380733371,0.010806651367004573,72578.13079484871
1683158370203699827,52,1683158370203699827,camera_1,104,1,-0.08660687079554205,-0.14087955017346948,1.0875514619354578,0.9948984610398127,-0.03015204554279635,0.05307488216323179,0.08031788875186456,0.4105743883701507,0.011777576914211316,72576.41112438739
1683158370230596542,53,1683158370230596542,camera_1,107,1,-0.08665005713567672,-0.14088087878171854,1.087578393209356,0.9949817425575351,-0.02969853790817541,0.05398321108959607,0.07883617027572883,0.38644226937321946,0.011084916528019653,72591.49313819938
1683158370243922233,54,1683158370243922233,camera_1,109,1,-0.08662021402212797,-0.14087057207137726,1.0873560724002906,0.9949254845106439,-0.02970895297136164,0.05397876465239548,0.0795421356967945,0.33529353121411987,0.009614975132014812,72607.10100034323
1683158370250488042,55,1683158370250488042,camera_1,110,1,-0.08661412173387455,-0.14086331639982932,1.0873482896131907,0.9949687152133585,-0.029872024824864254,0.05325042943953825,0.0794311629276959,0.4200646164244972,0.012044466595751915,72618.21517663146
1683158370270710229,56,1683158370270710229,camera_1,112,1,-0.08660797643677903,-0.14086105268062635,1.0873043127261575,0.9948647252403461,-0.029836760429374116,0.05303652085676861,0.0808769043357906,0.4205739202006953,0.012059285930696714,72598.36712311182
1683158370291257381,57,1683158370291257381,camera_1,114,1,-0.08666329212135242,-0.14089795523922607,1.087713736816833,0.9949914323707619,-0.02981372127796269,0.0540137614598937,0.07864925368554453,0.41867966527934186,0.012011642359188187,72576.73389228791
1683158370304528474,58,1683158370304528474,camera_1,116,1,-0.08664250612107033,-0.14087471410440178,1.0876618778652016,0.9950100101642171,-0.02968592051358139,0.05445463798181989,0.0781570099129616,0.41213283386605326,0.011822209436865839,72588.5478873383
1683158370317989349,59,1683158370317989349,camera_1,118,1,-0.08663465265309266,-0.14087777167781773,1.0876978770585775,0.9950647084934722,-0.029751198444590374,0.05286787336879501,0.07852439154411127,0.44864295156730805,0.012870974422580339,72593.76993105139
1683158370337662696,60,1683158370337662696,camera_1,120,1,-0.08666274302689048,-0.1408925259523724,1.0878217736399478,0.9950237597749982,-0.029863391395768425,0.05321492698376014,0.07876589924379039,0.42606878478545696,0.012226645437477444,72569.18154791725
1683158370350901842,61,1683158370350901842,camera_1,122,1,-0.08662200183195472,-0.14088254798990435,1.0877178275335133,0.9950325377469983,-0.029781727940011583,0.053537530462849134,0.07846674669957383,0.40821629247511737,0.01171191960179357,72585.21998301196
1683158370371141672,62,1683158370371141672,camera_1,124,1,-0.08661582721434426,-0.14083926888146303,1.0873080690546124,0.9948836101171755,-0.029767257056311395,0.053428183404529976,0.08041108098795303,0.40762933759833686,0.011687820856285693,72603.25793181855
1683158370384128093,63,1683158370384128093,camera_1,126,1,-0.08664365942482899,-0.14090225248896188,1.0877513965260623,0.9950322854798981,-0.02965161976711805,0.053323080697712126,0.07866499451943201,0.45911433252331335,0.01317228467373181,72578.9742032194
1683158370403873682,64,1683158370403873682,camera_1,128,1,-0.08663651318109532,-0.1408679390455555,1.0875026638468408,0.994901075279078,-0.02976611562589347,0.05429681914313166,0.07960957354501087,0.392077579832403,0.011245094630400378,72583.54531921924
1683158370417151689,65,1683158370417151689,camera_1,130,1,-0.086597730000643,-0.14082169830444186,1.0871243882663666,0.9947860802276914,-0.030010685255728642,0.05383716221655549,0.08125006658566498,0.41781824704958126,0.011976196329379532,72606.84826233191
1683158370437045812,66,1683158370437045812,camera_1,132,1,-0.08663174837326267,-0.14085480528533031,1.087471685101405,0.9949499742598099,-0.029822731777891805,0.054867805444243856,0.07857911500799811,0.3643275279027876,0.010448190822445554,72601.14771560335
1683158370450359106,67,1683158370450359106,camera_1,134,1,-0.08662372123143315,-0.14086133923512337,1.0875711478178203,0.9949916088134436,-0.029680683558906188,0.05351155673562896,0.07903966542212154,0.46937013388378546,0.013461847592525859,72594.1159718578
1683158370470452308,68,1683158370470452308,camera_1,136,1,-0.08664292110296466,-0.1408529158758326,1.087454566650051,0.9949201917643455,-0.029634738958434857,0.055668099690442036,0.07846436734797904,0.36275227784062736,0.010402370608944474,72596.76645655226
1683158370483682870,69,1683158370483682870,camera_1,138,1,-0.08662535843352435,-0.14083930532564215,1.0874165349998974,0.9949420836368374,-0.02974955499192274,0.05420134787077906,0.0791670895963819,0.4236365717515582,0.012147726663503318,72604.92747228191
1683158370503722667,70,1683158370503722667,camera_1,140,1,-0.08662906549897566,-0.14085309093784049,1.087594448478004,0.9949584747275821,-0.029792587963168873,0.052744191408653225,0.07992549995381745,0.41595363897795323,0.011932627268971398,72582.34147923632
1683158370517016410,71,1683158370517016410,camera_1,142,1,-0.08663050210012423,-0.14084561542284027,1.0876838028930984,0.9949925408822388,-0.029695557330426035,0.05429889846925339,0.07848341919518748,0.4424944671045523,0.012693460359438961,72582.05464850616
1683158370537038326,72,1683158370537038326,camera_1,144,1,-0.08661775929719027,-0.140800292920226,1.0873019008309956,0.9949161944894189,-0.029700472079833236,0.05412136533957372,0.07956460088951707,0.39326353691285476,0.011275049949053872,72613.79838869741
1683158370550630092,73,1683158370550630092,camera_1,146,1,-0.08662882843656303,-0.1408283552026818,1.0875555368201801,0.995022605707812,-0.029727752723076248,0.05426180811881617,0.0781148579218371,0.4159841735381633,0.011930359883458462,72606.19636446852
1683158370570358514,74,1683158370570358514,camera_1,148,1,-0.08662477822258896,-0.1408783999935082,1.0876564114810665,0.9950272237600601,-0.029777644668559512,0.054324355556814134,0.07799346285219762,0.39132037248054985,0.011225324161736147,72593.60571684649
1683158370583584308,75,1683158370583584308,camera_1,150,1,-0.08662352234942075,-0.140841510125616,1.0874112616586327,0.9949320795355883,-0.029610161157178766,0.054583316365676135,0.07908259632662727,0.39880655019078404,0.011435588119844282,72602.98564203642
1683158370603621959,76,1683158370603621959,camera_1,152,1,-0.08663877565650893,-0.1408577029374082,1.0876286598110987,0.9949612322642295,-0.02973604056208654,0.05376194158152434,0.07923110386912836,0.4010022168076829,0.011503888601734975,72580.49603141626
1683158370617235183,77,1683158370617235183,camera_1,154,1,-0.0866237533022802,-0.1408863592330805,1.0876910321756024,0.9950403827458839,-0.029807190541005658,0.05307499168041785,0.07867155365887202,0.4250032103882404,0.01219287860757701,72589.5022016718
1683158370630440473,78,1683158370630440473,camera_1,156,1,-0.08662443484491017,-0.14084268920862586,1.0874197307763172,0.9947966398588215,-0.02978087420375599,0.05490928971807125,0.08048425162673405,0.41397519112797454,0.011871404775812493,72571.58520669423
1683158370650413036,79,1683158370650413036,camera_1,158,1,-0.08660481656172336,-0.14085254145075987,1.0873626537297088,0.9949210887244984,-0.02964248564848605,0.053452350662044484,0.07997622437037252,0.39713636826490983,0.011387870113597882,72604.05346691769
1683158370677096366,80,1683158370677096366,camera_1,161,1,-0.08661228189057464,-0.14086319715672055,1.0873918609977422,0.994756144309429,-0.02978587984034385,0.05492749902869408,0.08096903464428704,0.3967795040953206,0.011378398306045576,72565.19340927014
1683158370683694124,81,1683158370683694124,camera_1,162,1,-0.0866669204253287,-0.14087565199040825,1.0876718477380427,0.9949584659326615,-0.029809014017142945,0.05482202986111415,0.0785087179500346,0.44172322390659247,0.012670945659637563,72576.67494180214
1683158370697085857,82,1683158370697085857,camera_1,164,1,-0.08661086728066936,-0.1408899903949457,1.0875404097655537,0.9949451270872182,-0.029828447731284888,0.053160579991797366,0.07980232155944574,0.4147445595735917,0.011896399698280758,72586.64117426838
1683158370717081546,83,1683158370717081546,camera_1,166,1,-0.0866351458604543,-0.14086518901522035,1.0875082384477663,0.9950160491618668,-0.029638822794563886,0.053574928862150754,0.07870406019435865,0.3840804643841693,0.011015785530356556,72607.7101754965
1683158370737172126,84,1683158370737172126,camera_1,168,1,-0.08662968207816601,-0.14091126582504565,1.087490728885767,0.9949526693369894,-0.029776851507772158,0.05434689725567763,0.07892363177251986,0.3778205759736011,0.010835902535225164,72596.71074555186
1683158370750446557,85,1683158370750446557,camera_1,170,1,-0.08661392231107569,-0.14089536460538007,1.0875406681789306,0.9948666763359355,-0.029799163701333623,0.05312533254108531,0.08080844758680492,0.4534640798374312,0.013007480012453991,72567.65110112404
1683158370770383119,86,1683158370770383119,camera_1,172,1,-0.08661486260563228,-0.14087577920629993,1.0874478407799115,0.9949562066904191,-0.029809831031912183,0.05302574946310235,0.07976083397217902,0.3770755465666298,0.010814833394916318,72601.03345675254
1683158370783613443,87,1683158370783613443,camera_1,174,1,-0.0866428684367199,-0.1408852197709717,1.0876446750122062,0.9950431196358057,-0.029834822629008384,0.05377894368576135,0.0781466482978197,0.3819068988377694,0.010955787214080515,72597.8931066147
1683158370803628683,88,1683158370803628683,camera_1,176,1,-0.08662171420783368,-0.14087485539713662,1.087523906517668,0.9949691158432128,-0.02987135623144658,0.05335758332866569,0.07935445101816259,0.4602427983772941,0.013199712593177634,72595.63140302134
1683158370823723793,89,1683158370823723793,camera_1,178,1,-0.08660529793765431,-0.14084782877477137,1.087390303731527,0.9948666500663291,-0.02977327174269095,0.0543136041580332,0.08002457921726715,0.45472906169015914,0.0130382711201694,72590.5938839911
1683158370837146997,90,1683158370837146997,camera_1,180,1,-0.08662559158411301,-0.14086734310155388,1.087707123391081,0.9950510155416982,-0.029743225919235654,0.05352513178443148,0.07825520588952331,0.43953252818027977,0.012609346883249852,72591.03854803374
1683158370857192039,91,1683158370857192039,camera_1,182,1,-0.08663014635307652,-0.14089923647315206,1.0877839751943228,0.9950468973394663,-0.02965730260743297,0.05373909025388942,0.07819352067682658,0.4257801672501955,0.012216550528395157,72579.27525574976
1683158370877211093,92,1683158370877211093,camera_1,184,1,-0.08661313327190226,-0.14086751666197206,1.0874823077658704,0.9948480966684949,-0.029782933648225752,0.05420446669594563,0.0803250721044596,0.43106677432660945,0.012362699850283938,72573.63077924168
1683158370890371322,93,1683158370890371322,camera_1,186,1,-0.08660134235562975,-0.14085865480615753,1.087279213055979,0.9948691461854973,-0.029807691117119096,0.05449841132593516,0.07985491018938765,0.3858419265743578,0.011061888356103828,72605.89134950857
1683158370910388231,94,1683158370910388231,camera_1,188,1,-0.08661063954985579,-0.14085155960651902,1.08728766750071,0.9948639551534343,-0.02983612186651905,0.054502558054524516,0.07990611825101411,0.4021649854403222,0.011529858031532994,72603.95814859618
1683158370923711299,95,1683158370923711299,camera_1,190,1,-0.08661991128878,-0.14089828483250702,1.0877086321485268,0.9950161728293119,-0.02978143547552937,0.05290569811165055,0.07910037304870628,0.4412597281188937,0.012659961486955527,72580.75970714913
1683158370943831920,96,1683158370943831920,camera_1,192,1,-0.08663911372005403,-0.14087814210193686,1.0876154763407369,0.9949596931053859,-0.029949414336267813,0.05389533608419295,0.07907929201075876,0.45562779701140244,0.013069072924399643,72583.19763291796
1683158370957240581,97,1683158370957240581,camera_1,194,1,-0.08663113376992758,-0.14088240197700921,1.0876136429226826,0.9950458258483706,-0.029675288844850396,0.05415122650852261,0.07791550783593548,0.41432340136088897,0.011884091227714536,72602.47079083946
1683158370978157997,98,1683158370978157997,camera_1,196,1,-0.08662209150459274,-0.14086501884308367,1.0874431363550119,0.994961049662405,-0.02980862150459848,0.05454613572852001,0.07866813087754775,0.3987282429734478,0.011433833108087087,72606.58422993052
1683158370991709709,99,1683158370991709709,camera_1,198,1,-0.0866155389279909,-0.14087815167240603,1.087417275158506,0.9948973457612529,-0.029879440750945365,0.05410965160585683,0.07974105605469246,0.4008188602892915,0.011494132357928658,72593.9821409967
1683158371010521888,100,1683158371010521888,camera_1,200,1,-0.08662536645278995,-0.1409064620008884,1.0875352584065319,0.9949394623472282,-0.029776871532856557,0.054194437716397634,0.07919448911715853,0.4008865541109117,0.011498065154465711,72587.5618550041
1683158371023671865,101,1683158371023671865,camera_1,202,1,-0.08661426037903963,-0.14088676667492114,1.087401367330938,0.9948027641758534,-0.02961819616760255,0.05468339609295227,0.0806222614145737,0.4669682812236715,0.013389847406656238,72572.95873999625
1683158371043788909,102,1683158371043788909,camera_1,204,1,-0.08661574676476799,-0.14089270942218624,1.0874917402389963,0.99493665822403,-0.029876720258658812,0.053771594761127826,0.07947982955083968,0.4637704619381111,0.013300029920544017,72592.7649706566
1683158371057500362,103,1683158371057500362,camera_1,206,1,-0.08663458998626443,-0.14091026308384194,1.087622691997103,0.9950729471524826,-0.029773724056832998,0.05389425044259411,0.07770949086367102,0.4461494293791475,0.01279643289905759,72607.22463380569
1683158371077833414,104,1683158371077833414,camera_1,208,1,-0.08661526185346151,-0.14088782108382153,1.087310307237869,0.9948656492492435,-0.029876758558220813,0.05371321303342158,0.08040279838140729,0.401939342613332,0.01152496784911882,72599.17715293413
1683158371090734481,105,1683158371090734481,camera_1,210,1,-0.08663946305310481,-0.14092151940205502,1.0875943962333916,0.9949357490676033,-0.029738278440592146,0.05496939321269927,0.07872011072467128,0.39644818649685476,0.011371604517112709,72580.25156306254
1683158371110701322,106,1683158371110701322,camera_1,212,1,-0.08663509075352438,-0.1409324446178645,1.0876234668129805,0.9950000147573492,-0.029701306917311092,0.054879294878055665,0.07798119000096074,0.4247597094217781,0.012183101044568287,72591.04931747503
1683158371124113559,107,1683158371124113559,camera_1,214,1,-0.086641196297143,-0.14091351552216397,1.0873512612183007,0.9949078771454375,-0.029749905454500077,0.05536852803325704,0.07878823023039477,0.38918392117193434,0.011158450722389395,72606.19892983232
1683158371144071340,108,1683158371144071340,camera_1,216,1,-0.08664359247703307,-0.14102773944968913,1.0874081275250886,0.9948488165265432,-0.02969985848887283,0.05518927019433104,0.07967367894665402,0.3823847192397807,0.010965447138092381,72581.53199167582
1683158371157292842,109,1683158371157292842,camera_1,218,1,-0.0866532166203981,-0.1410735615736419,1.0875921559405701,0.9950550747668535,-0.029914231492488803,0.0540025249287566,0.0778091526509861,0.4311669193702983,0.012366998510517533,72604.76930777192
1683158371177306652,110,1683158371177306652,camera_1,220,1,-0.0866436689561268,-0.1411163760190262,1.0875564271345346,0.995000932481222,-0.029894963350202402,0.05381627284980788,0.07863360798249085,0.38912095210980624,0.01116190717688149,72595.0992991672
1683158371190900325,111,1683158371190900325,camera_1,222,1,-0.08663649894428707,-0.14108190383017552,1.0874643057701832,0.9948995307010884,-0.029878870475335776,0.053474534183917184,0.08014144435736846,0.37052980055159424,0.010628545733109365,72582.71096401704
1683158371210755586,112,1683158371210755586,camera_1,224,1,-0.08663736104083204,-0.14108637136454835,1.087690173719873,0.9950132018031843,-0.02989101062741525,0.053521301675779225,0.07868116666634695,0.4243515937414486,0.01217486883077415,72580.739981662
1683158371224078178,113,1683158371224078178,camera_1,226,1,-0.08663371971432003,-0.14108373852015854,1.0875488471140509,0.994982410817925,-0.02986043051372413,0.052512344036964746,0.07975468999518782,0.35723809504997917,0.010249149651957471,72589.04043303567
1683158371244279146,114,1683158371244279146,camera_1,228,1,-0.08662483590117659,-0.14110449504407574,1.0873428774670217,0.9948896259915362,-0.02976716827068369,0.05349273840770973,0.08029367799030253,0.4019908234622563,0.011527852277190146,72594.88524645867
1683158371257561683,115,1683158371257561683,camera_1,230,1,-0.08662744752620195,-0.141119002379692,1.0875055376345704,0.9949893158199417,-0.0298886388992281,0.05271246678526248,0.07952563432207739,0.3220287079020636,0.009238631968047493,72596.18048091058
1683158371277547597,116,1683158371277547597,camera_1,232,1,-0.08662578334126403,-0.1410996933561535,1.0877164803546102,0.9949293146161579,-0.0297706251842051,0.05310393037774664,0.08005836228651872,0.38216217441367917,0.01096686346824164,72555.22779519336
1683158371290644168,117,1683158371290644168,camera_1,234,1,-0.08660627904663384,-0.14105038628468236,1.0873532562003871,0.9949080375045362,-0.029990896081859626,0.053593047892223585,0.07991450605929663,0.3432593207398895,0.009844444937821965,72600.90129602206
1683158371310765504,118,1683158371310765504,camera_1,236,1,-0.08660485643850241,-0.14108563825365486,1.0873873637158453,0.9949853717664935,-0.029869111577654317,0.05289619407563071,0.07946029698262953,0.3459055914572673,0.009920990799867174,72611.70148314087
1683158371324184656,119,1683158371324184656,camera_1,238,1,-0.08661320201709229,-0.14113621745501498,1.0875934060776924,0.9949718684523126,-0.02980448678825002,0.05240271372093154,0.07997892941572467,0.4462025934626581,0.012801181705342028,72579.27852899216
1683158371344120025,120,1683158371344120025,camera_1,240,1,-0.08658167558355359,-0.14108283788237175,1.0871807864876333,0.9949226154825025,-0.029889843000326332,0.052916663055628206,0.08022102752975512,0.3668601183453575,0.01051817505277005,72623.81768416066
1683158371357531547,121,1683158371357531547,camera_1,242,1,-0.0865721312053871,-0.14107932349234895,1.087369662362177,0.994896900781923,-0.029959279651270543,0.05359379633269079,0.08006437017769864,0.3760024427465396,0.010783415423468796,72595.54513866518
1683158371377468347,122,1683158371377468347,camera_1,244,1,-0.08661726289786331,-0.1411166652695382,1.0875482421895444,0.9949870486117973,-0.029811004188231086,0.05377680516822735,0.07886781567897473,0.3700829644949408,0.010616177084789912,72592.2872491111
1683158371390722990,123,1683158371390722990,camera_1,246,1,-0.08659002341767398,-0.14111359578480448,1.0874916131674888,0.9950632050597548,-0.02993750224014557,0.05191911092801241,0.07910353858250962,0.3776946836733259,0.010834438562202415,72614.41714437437
1683158371410609722,124,1683158371410609722,camera_1,248,1,-0.08658368351643336,-0.14107547555519795,1.087198515879017,0.9949136877528504,-0.029778619381616217,0.05390901880431074,0.07971076113866288,0.388277195423143,0.01113139296367731,72621.20652966574
1683158371424180507,125,1683158371424180507,camera_1,250,1,-0.08663063852819097,-0.14112787602949595,1.0876648372640272,0.9950866111020197,-0.029987181750945256,0.05339886200030899,0.0777943884429058,0.37746475415769964,0.010829616448558748,72600.96585894431
1683158371437400102,126,1683158371437400102,camera_1,252,1,-0.08662922697630988,-0.14113755449789214,1.0876397811365286,0.9950895365521285,-0.029870077588289877,0.0522328012438451,0.07858961244058105,0.38004380074562505,0.010904454781193588,72601.20484582592
1683158371457444667,127,1683158371457444667,camera_1,254,1,-0.08662810264215914,-0.14113697597035582,1.0876866691573885,0.9950967283246265,-0.030012450367687567,0.053362278673586366,0.07768025048436727,0.35870941112807486,0.01029216729984983,72600.41565032465
1683158371470688581,128,1683158371470688581,camera_1,256,1,-0.08661586550277428,-0.1410734071296159,1.0875582215253554,0.9950498007155215,-0.029748283080981208,0.0529476098060166,0.07866056423370463,0.38953100256912876,0.011173984026939658,72604.4456016955
1683158371490657806,129,1683158371490657806,camera_1,258,1,-0.08663844246081714,-0.1410343098076223,1.0874207264159164,0.9948862082020199,-0.029844132393796255,0.054185127515075794,0.07984192161542429,0.3961266629048623,0.011360514037242931,72587.56994616799
1683158371504203796,130,1683158371504203796,camera_1,260,1,-0.08667092624242194,-0.14115242089055835,1.0876774350617504,0.9950852366762543,-0.029817811750337774,0.052205722221932184,0.07868184300504844,0.4064094816276338,0.011661079300504947,72594.32902459828
1683158371524053096,131,1683158371524053096,camera_1,262,1,-0.08675382497241754,-0.14128241253724008,1.08763613071131,0.9950489335518098,-0.029824642916483287,0.05448235017652561,0.0775872671999272,0.3784001123858616,0.010855612419870797,72593.23042982607
1683158371537392139,132,1683158371537392139,camera_1,264,1,-0.08670741110082537,-0.14126497027592247,1.0876925910853987,0.9950976510815482,-0.02999627555002521,0.05316997428967333,0.07780643995934791,0.43236740786232986,0.012404948856837473,72596.43001376737
1683158371550629377,133,1683158371550629377,camera_1,266,1,-0.08667654858094084,-0.14116783393675117,1.0873203150261983,0.9949476218941021,-0.029800505333502907,0.053361614344983224,0.07964733318596535,0.3590762800304219,0.010297250628346999,72609.89087538367
1683158371570700883,134,1683158371570700883,camera_1,268,1,-0.0866225453533524,-0.14117972871842627,1.087544639318997,0.995006234833317,-0.029832895654492222,0.05268266066306402,0.07935444691480546,0.3723912525019841,0.01068320829246968,72593.49739638888
1683158371577478170,135,1683158371577478170,camera_1,269,1,-0.0866363165992079,-0.14118587595133447,1.0875343831700672,0.995013298774554,-0.02984682185102612,0.0534925104084761,0.07871628686220035,0.36836009852413554,0.010566742932785117,72598.3808145283
1683158371597491264,136,1683158371597491264,camera_1,271,1,-0.08673621833038281,-0.14134214145112667,1.0872455993027552,0.994904802391972,-0.029739869788437262,0.054244414737059814,0.07960852838855716,0.4262062685593264,0.012219468357281488,72607.18017361102
1683158371617481708,137,1683158371617481708,camera_1,273,1,-0.08661280038644306,-0.14120785531800423,1.0870627249097327,0.9948460838428258,-0.029808151735499663,0.05425332423370241,0.08030766067007497,0.4037334284512326,0.01157195010324359,72620.72172680708
1683158371637436151,138,1683158371637436151,camera_1,275,1,-0.08669549102192925,-0.141285188312051,1.0872928499776848,0.9949570698315704,-0.02978508755056588,0.053756441255305376,0.07926867461580177,0.45198519884434063,0.012958989209008369,72614.17900142237
1683158371644112586,139,1683158371644112586,camera_1,276,1,-0.0866847052321723,-0.14127164948932872,1.0874832562994137,0.9949869569422608,-0.029862560689672007,0.053911927027044046,0.07875714004498914,0.4516540306067327,0.012953206091613573,72597.8889892832
1683158371664101839,140,1683158371664101839,camera_1,278,1,-0.08665698894146859,-0.14125774306734815,1.0877302176623405,0.9950591146256071,-0.029783183205043806,0.05375363994344073,0.07797991146127728,0.4533850507577881,0.013007962911106773,72582.66274461201
1683158371677567720,141,1683158371677567720,camera_1,280,1,-0.08668864125592747,-0.14128104619869458,1.0874699855367111,0.9949807143348364,-0.029928122951066418,0.053313128754199045,0.07921739620060085,0.43526810326147825,0.012484173647552778,72596.97466655943
1683158371697506666,142,1683158371697506666,camera_1,282,1,-0.08664936224329992,-0.14123799266350895,1.087407942946567,0.9950414373478382,-0.02976250690921815,0.053671311642488354,0.0782695435645417,0.41681121617148165,0.011952671950462727,72620.18757474449
1683158371710644006,143,1683158371710644006,camera_1,284,1,-0.08665471655566215,-0.14117906014591425,1.0872213527502885,0.9948566139709631,-0.029919420137501866,0.05491378967437372,0.07968451317831134,0.39240082261676434,0.01124969405321965,72605.41690523986
1683158371730686664,144,1683158371730686664,camera_1,286,1,-0.0866405501285944,-0.1412290538884597,1.0871199439407067,0.9949064350454431,-0.029668248317556243,0.0540112777997404,0.07977319360145138,0.44190283126954455,0.012666092581260344,72625.61475579397
1683158371750750541,145,1683158371750750541,camera_1,288,1,-0.08663036371043248,-0.14122968395005495,1.0874103717262729,0.9949807047249132,-0.029818764845230564,0.05459053625944674,0.07838438517412864,0.41404199787939433,0.01187276760999957,72608.1274602118
1683158371764090776,146,1683158371764090776,camera_1,290,1,-0.08664527827417506,-0.14123124883445104,1.087294875264351,0.99493929387601,-0.029717956012678032,0.05492158380027157,0.07871635296941182,0.41363169213582296,0.011858869747000515,72613.2301400404
1683158371784110546,147,1683158371784110546,camera_1,292,1,-0.08663600556980233,-0.14122480037054952,1.08745149117664,0.9950011962219766,-0.02985396116827104,0.0530714637785845,0.0791503648241586,0.4462002123618731,0.012796736678239648,72604.52501723371
1683158371797468662,148,1683158371797468662,camera_1,294,1,-0.0866492008690431,-0.1412450077177798,1.0875527038102355,0.9950293120104039,-0.029772816801928743,0.05483586615707448,0.07760976357768692,0.39903208723990247,0.011445123069180167,72601.15827970378
1683158371817536115,149,1683158371817536115,camera_1,296,1,-0.08664435857461107,-0.14125515477956357,1.0872243474881695,0.9949617677130361,-0.029770248890210144,0.05213784684644689,0.0802898374427412,0.43657059021643363,0.012517361567337472,72620.9480180224
1683158371830788850,150,1683158371830788850,camera_1,298,1,-0.08664378301509079,-0.14124589262261109,1.087457223596263,0.9950545881720638,-0.029865426022783734,0.054636047490524725,0.0773907307163805,0.35399858915479854,0.010152283389790493,72619.54285432247
1683158371850713968,151,1683158371850713968,camera_1,300,1,-0.08664899238870308,-0.14127534625750982,1.0875227236270606,0.9950195570668334,-0.029645198891026816,0.05432255807819731,0.0781428366587424,0.4502353628195124,0.01291264179157211,72600.06498130278
1683158371870634078,152,1683158371870634078,camera_1,302,1,-0.08665919489917509,-0.1412548103761007,1.0873901671416693,0.9949657603304874,-0.02975805564464527,0.0551232025299594,0.07822420620924406,0.38380522311490495,0.011005770671386443,72607.32858507728
1683158371884151458,153,1683158371884151458,camera_1,304,1,-0.08664624323037964,-0.14125789238861217,1.0874374738328858,0.9949194485682492,-0.02983415847863339,0.05410590778733716,0.07948436695999565,0.4574445469334023,0.013118523635484871,72588.46262889216
1683158371904073476,154,1683158371904073476,camera_1,306,1,-0.08666635057880198,-0.14128175381066235,1.0874369707779528,0.995002773895222,-0.029866717182311587,0.054533548221266874,0.07812522808903961,0.40579668241844047,0.011637145701775124,72608.91034604487
1683158371917438030,155,1683158371917438030,camera_1,308,1,-0.08661528012168215,-0.1412525202129501,1.087243059033746,0.9950033022362647,-0.029827403116395874,0.05362333966741935,0.07876098021973303,0.49424444082251284,0.014167579719750615,72632.65972661329
1683158371937538146,156,1683158371937538146,camera_1,310,1,-0.08663565245945129,-0.14125785190551546,1.0874099861220052,0.9949581877766022,-0.02979839225295484,0.05513827863766212,0.07829451209576727,0.48667784221470356,0.01395371097660394,72603.39529276939
1683158371950538396,157,1683158371950538396,camera_1,312,1,-0.08664578728587433,-0.1412713607892898,1.0871941468580038,0.9949497926779424,-0.029777772188508744,0.05511019202969659,0.0784287005378697,0.40896352074923925,0.01172258646846203,72628.65718570673
1683158371970963239,158,1683158371970963239,camera_1,314,1,-0.08663114899568639,-0.14126957886676614,1.0872261685024227,0.9949287434361912,-0.029667422127687876,0.05405084076978369,0.07946789389972903,0.4432965846499428,0.012708276267798536,72616.50561620957
1683158371984884262,159,1683158371984884262,camera_1,316,1,-0.08665011474549789,-0.141292129281958,1.087528150825781,0.995080835800077,-0.029608778942047283,0.052361178122495064,0.07871313396508617,0.42402029760705773,0.012163299128536335,72608.80178358451
1683158372004698038,160,1683158372004698038,camera_1,318,1,-0.08663100920910531,-0.1412931903569118,1.0874845865435798,0.9950300588302761,-0.02977644667839664,0.05278999437203594,0.07900482100243343,0.4447430881555192,0.012756020131428946,72604.53087663303
1683158372017343997,161,1683158372017343997,camera_1,320,1,-0.08663470630927236,-0.14125909333444717,1.08732901593454,0.9949484848466835,-0.029772753411751136,0.0547646843461796,0.07868878575778882,0.40660115150967613,0.0116580477153728,72610.4007662527
1683158372037208557,162,1683158372037208557,camera_1,322,1,-0.0866277636849876,-0.14127092520739346,1.0870768171075262,0.9948029652326905,-0.029957759963805085,0.05377680699990035,0.08110270039334593,0.3831826317764353,0.010984541353522063,72607.03437197965
1683158372050451278,163,1683158372050451278,camera_1,324,1,-0.08661824352171048,-0.14129801210584259,1.0874312745030075,0.9950394841514282,-0.029907682634790652,0.05246259855650198,0.0790546093012651,0.4259679195965873,0.01221692569907877,72613.71964190129
1683158372070493698,164,1683158372070493698,camera_1,326,1,-0.08660831723023801,-0.14123627296868732,1.087377726234005,0.9950017727327349,-0.029663166265601597,0.053507906269207914,0.07892067404995984,0.4372622609953396,0.01253846101388456,72613.78380739776
1683158372090559482,165,1683158372090559482,camera_1,328,1,-0.08663788758423441,-0.1412351171154273,1.0874331602215994,0.9950178385596884,-0.029826683151687326,0.05454866770739359,0.07793787764317862,0.4054761400911957,0.01162745361938945,72613.7785293248
1683158372103968143,166,1683158372103968143,camera_1,330,1,-0.08660105045085112,-0.1411774590295335,1.0870020220729597,0.9948883499859263,-0.029829196216300806,0.05402868535388887,0.07992678696345092,0.4455892811092781,0.012769071249107766,72639.0416153004
1683158372123681545,167,1683158372123681545,camera_1,332,1,-0.08664621573721484,-0.1412539600764556,1.0875840045841862,0.9951086174914027,-0.02975457604147291,0.05426816875677291,0.07699656134353071,0.3933278546028305,0.011281957379515884,72614.26853551141
1683158372137096405,168,1683158372137096405,camera_1,334,1,-0.0866356591671042,-0.14124291355975346,1.0874582049343167,0.9950331778883683,-0.02977803030250262,0.0536452017721494,0.07838645380104474,0.44162317588052247,0.012664780426315341,72611.70972384742
1683158372157102346,169,1683158372157102346,camera_1,336,1,-0.08666032090815123,-0.1412573951647065,1.0876324373268185,0.9950402998250863,-0.02974544586381825,0.05421677415728226,0.07791374445079197,0.3944445325178094,0.011315773708988555,72591.54949165581
1683158372170589208,170,1683158372170589208,camera_1,338,1,-0.08662462221091456,-0.14124946952366213,1.0875412752283191,0.9950784924929517,-0.029895528926952172,0.052392914656291055,0.07861318987263574,0.43584939517313614,0.012502170160247357,72609.55138736557
1683158372190449714,171,1683158372190449714,camera_1,340,1,-0.08663802546268806,-0.141245428570944,1.0875483093485474,0.9949626659353176,-0.029745505656037834,0.05388650328740629,0.07912485735600852,0.428981315868441,0.012305051373936091,72583.58354761545
1683158372203702211,172,1683158372203702211,camera_1,342,1,-0.0866349859405737,-0.14125296108501506,1.0875960902681239,0.9951202093138963,-0.02989245764524824,0.053120176357741904,0.0775916029910226,0.39608281875553075,0.011362114912260222,72613.85368033449
1683158372223846912,173,1683158372223846912,camera_1,344,1,-0.08661496023437719,-0.14117897968818227,1.0871644617380636,0.9949525444834124,-0.029890065573291585,0.05368535876462006,0.0793341065388761,0.44567543956509326,0.012774992441404122,72632.8798957679
1683158372250480651,174,1683158372250480651,camera_1,347,1,-0.08664449217415687,-0.1412302473128707,1.087574857563604,0.9950763128115224,-0.029801019271766024,0.05391914748800838,0.0776386274090123,0.3983357184333727,0.011425918275849305,72607.85199906792
1683158372256989717,175,1683158372256989717,camera_1,348,1,-0.08663057198850642,-0.14121564257160063,1.0875849426891364,0.9951039923955866,-0.029787448355028178,0.05390559037466314,0.0772977332476196,0.4466279499611119,0.012810121492239509,72613.45727753198
1683158372277075290,176,1683158372277075290,camera_1,350,1,-0.08662512380426268,-0.14122957208145487,1.0875400377067805,0.9950468612179085,-0.02977275903436558,0.05371971592559905,0.07816341164984286,0.41579277376877144,0.011926047387376838,72604.83750833425
1683158372290325164,177,1683158372290325164,camera_1,352,1,-0.08663332230241969,-0.14121986627823294,1.087560675180648,0.994988115851867,-0.029912718596043813,0.05241614963619201,0.07972719634517518,0.4322415118367644,0.012400098188245048,72586.2732759965
1683158372310444116,178,1683158372310444116,camera_1,354,1,-0.08663233912675938,-0.1412275798485402,1.0875997470526662,0.9950734154429716,-0.02987491161517217,0.05326842269930464,0.07809521546018862,0.4068576027202653,0.011671580639504351,72603.16020969528
1683158372323766708,179,1683158372323766708,camera_1,356,1,-0.08660747922000062,-0.14117864158409402,1.0872345341245906,0.9949559167085157,-0.02969307566739407,0.05432727317596215,0.07892776731538878,0.4125687832274707,0.01182740562894976,72624.73394575951
1683158372343777418,180,1683158372343777418,camera_1,358,1,-0.08660867682617064,-0.1411556787488884,1.0871513980987422,0.9948993181391157,-0.029969116322876306,0.05405730419595817,0.07971829586872888,0.4085204653820256,0.011710261702196783,72623.70756745961
1683158372357105970,181,1683158372357105970,camera_1,360,1,-0.08660511345558929,-0.14118568383199576,1.0874473600850467,0.994993159370564,-0.02975252990528395,0.0537830645200472,0.07880851312422431,0.4096531164541375,0.011748400101317178,72605.03670059462
1683158372377233982,182,1683158372377233982,camera_1,362,1,-0.08664154724430098,-0.14120304329995695,1.0876177758777958,0.9950040397542593,-0.02994044589055124,0.05471702887041596,0.07795240422317615,0.38286117849929724,0.010982926208620597,72588.47519070169
1683158372390522480,183,1683158372390522480,camera_1,364,1,-0.08663267262955753,-0.1412116218620372,1.0876487813484852,0.9950335664105204,-0.029884185607493483,0.05454534074273829,0.07771707000521635,0.38198959357396234,0.010958367830692914,72590.49194738758
1683158372410336971,184,1683158372410336971,camera_1,366,1,-0.08661060967205453,-0.14120132202921729,1.0876088514060043,0.9951020078309932,-0.02984505645397984,0.05329165157613392,0.07772558451547902,0.4170720927650109,0.011964084847115568,72609.24353275134
1683158372423691511,185,1683158372423691511,camera_1,368,1,-0.08661899652235061,-0.14121065087196108,1.0876315408980093,0.9950980967679337,-0.029834764374938864,0.05405059606720806,0.07725411127122818,0.41928408524836414,0.012027211120225291,72606.80207106691
1683158372443668365,186,1683158372443668365,camera_1,370,1,-0.08661405895286943,-0.1411869284958328,1.08739403708622,0.9948867166615954,-0.029995999417151746,0.05440210230647953,0.07963085013932693,0.40919884499453474,0.011734554679869409,72589.62610806743
1683158372457108497,187,1683158372457108497,camera_1,372,1,-0.08661443187929639,-0.14119695981914074,1.0876430582523957,0.9951040527551855,-0.029864736798966295,0.052938064068568956,0.0779331961285144,0.4385793694818858,0.012581985896626336,72604.7901110315
1683158372470336198,188,1683158372470336198,camera_1,374,1,-0.08660694632830868,-0.14121292742076513,1.0876647052640467,0.9951184602230295,-0.02981476378619194,0.05244143604300587,0.07810394208660497,0.3734962159796851,0.010716626513017153,72603.43359861393
1683158372490323781,189,1683158372490323781,camera_1,376,1,-0.08660368978437247,-0.1411786753363083,1.0873804912794125,0.9950177020123364,-0.029913327853654123,0.05423012524589503,0.07812847761619096,0.3469083380914526,0.009948273877308613,72621.77418310381
1683158372510308027,190,1683158372510308027,camera_1,378,1,-0.08659742054586136,-0.1412021000307988,1.0876327024091346,0.9950924701126038,-0.029933867423608432,0.05384858418127777,0.07742912557903668,0.422723128052894,0.012125860689813516,72605.76082990722
1683158372523671865,191,1683158372523671865,camera_1,380,1,-0.08660266163359759,-0.1412028693714225,1.0876095130934733,0.9950832942552289,-0.029899358753376164,0.053978359391817,0.07747001069876151,0.37030874264019076,0.010622848629464417,72606.54553211175
1683158372543680191,192,1683158372543680191,camera_1,382,1,-0.08658032548794842,-0.14113887721487853,1.0871093612172644,0.9949304570361139,-0.029831123311963186,0.05485762161170783,0.07882976021124735,0.4108499781723367,0.011774911806876063,72637.94948851291
1683158372557157516,193,1683158372557157516,camera_1,384,1,-0.08660235663711138,-0.14118626169078058,1.0875047424208473,0.9950043384051468,-0.02980150617940742,0.05458240015046569,0.07809608426924751,0.37839395880291704,0.01085274942371813,72602.42483051855
1683158372577105998,194,1683158372577105998,camera_1,386,1,-0.08661588948449199,-0.14119501035028253,1.0876419025819715,0.9950607409054708,-0.02989098231186431,0.05376299726525362,0.07791143183220021,0.4387287422141526,0.012585467321581341,72596.70627234827
1683158372590360164,195,1683158372590360164,camera_1,388,1,-0.08659622955991678,-0.141198908425198,1.0875213306673068,0.9950698694006951,-0.02989010144122561,0.05306308254919742,0.0782741727333734,0.39890631394519005,0.011441913261462862,72612.74380543029
1683158372610283851,196,1683158372610283851,camera_1,390,1,-0.08660279016281838,-0.14118119999921955,1.0874982721798894,0.9949492265419868,-0.02984185169237595,0.05446414484380782,0.07886163463627538,0.3839664965053089,0.011012964968698613,72590.29635414074
1683158372623769521,197,1683158372623769521,camera_1,392,1,-0.08659869338879284,-0.14118915845811958,1.0875135222276988,0.9950666280335148,-0.029750025293962368,0.05387964534492502,0.07780954688548558,0.3783571781968931,0.010851947655428377,72614.05007168333
1683158372643733978,198,1683158372643733978,camera_1,394,1,-0.08659825689314007,-0.14119224728748234,1.087471058157443,0.995040841095476,-0.029933800533255044,0.05391706405167039,0.07804256749807288,0.3497626187308924,0.010031800298504581,72614.7356104644
1683158372657180309,199,1683158372657180309,camera_1,396,1,-0.08660340807838601,-0.1411936739721701,1.0876345184898093,0.995125343388012,-0.029884162463954218,0.05254132872399754,0.07792237519888749,0.45184389196219854,0.012961934876426518,72610.19423095207
1683158372677133798,200,1683158372677133798,camera_1,398,1,-0.08660375736603831,-0.14118375073900494,1.0873898152024781,0.9949802800238203,-0.029842416048884688,0.05430923047295814,0.07857595085979152,0.4257856536132749,0.012208932538650049,72611.28384486491
1683158372690414905,201,1683158372690414905,camera_1,400,1,-0.0866354731747412,-0.1412052147832049,1.087639720185364,0.9950267508311199,-0.030009098547382217,0.055015357020532125,0.07742434776439183,0.3729362389422022,0.010698398185225336,72592.17140172393
1683158372710499286,202,1683158372710499286,camera_1,402,1,-0.08661491166312327,-0.1411982147735275,1.0875393551645665,0.9950301572414965,-0.03002052039366922,0.05365123600572822,0.0783281520930625,0.4109410942764953,0.01178708592801637,72603.23734490087
1683158372723827362,203,1683158372723827362,camera_1,404,1,-0.08658371047037648,-0.14117794141873188,1.087555724235823,0.995040966339548,-0.02983445659648893,0.053513588931051695,0.07835608658789192,0.4129049011535244,0.011843733447718045,72602.65043203137
1683158372743824958,204,1683158372743824958,camera_1,406,1,-0.08659531080490138,-0.14117836468142678,1.087443254830134,0.9950129701235996,-0.029802424134307656,0.05365540065664947,0.07862634915793898,0.4155994730681414,0.011918830793000285,72610.61373866863
1683158372757161378,205,1683158372757161378,camera_1,408,1,-0.08660941486895624,-0.14120355385881878,1.0874748737005908,0.995007281785489,-0.02996944779024686,0.05383658797231509,0.07851091127034233,0.40337634361640085,0.011568785798976826,72606.02271042287
1683158372777176856,206,1683158372777176856,camera_1,410,1,-0.08661970252789722,-0.1411962426043302,1.0876978434731444,0.9950791418401405,-0.029877686798226135,0.053651900237910596,0.07775795076478124,0.4174879662459716,0.011977702167027596,72593.42020945497
1683158372790314912,207,1683158372790314912,camera_1,412,1,-0.08660822948421451,-0.14117166597122657,1.087475340776076,0.995002075321968,-0.030034335847201967,0.053972788104108375,0.07845856817112466,0.42152022263326216,0.01208881620851243,72606.28577450057
1683158372810322999,208,1683158372810322999,camera_1,414,1,-0.0866038262959743,-0.14117849616845402,1.0874855810591662,0.9949621270070638,-0.029894075379832026,0.05459059750671709,0.0785912001602221,0.3812844871717971,0.010935442121481863,72595.63544399918
1683158372830313205,209,1683158372830313205,camera_1,416,1,-0.08659437143400148,-0.14115638336253725,1.0873710226028301,0.9949475078908588,-0.03009931405836659,0.054251566513514496,0.07893196669167168,0.4070135821966687,0.011671173167462842,72608.29330924331
1683158372843704938,210,1683158372843704938,camera_1,418,1,-0.08662396739126026,-0.1411912063254782,1.0876254270078407,0.9950612861965782,-0.029856004733889517,0.05403220212088223,0.07773144040933366,0.38388374747592025,0.011012604676413329,72599.30671988828
1683158372863723039,211,1683158372863723039,camera_1,420,1,-0.08660219043249157,-0.14117928106879735,1.0875725114166215,0.9950367502235052,-0.029933718686384447,0.05321847596606902,0.07857246340862112,0.4259638359217206,0.012218784145368346,72599.3764888836
1683158372877049684,212,1683158372877049684,camera_1,422,1,-0.08658576653648695,-0.14116321259836842,1.0873650245626125,0.9950148220766247,-0.02971307337320538,0.05254333176978258,0.07938410045514355,0.4046808366110781,0.01160535315792128,72618.22438870411
1683158372897141695,213,1683158372897141695,camera_1,424,1,-0.08659213639616778,-0.14115247344863172,1.087357855168362,0.9949198385083321,-0.02985202533385886,0.05339793378855451,0.07995018569793463,0.4056461570726242,0.011632964580095263,72599.7496310281
1683158372917155027,214,1683158372917155027,camera_1,426,1,-0.08661370095012924,-0.1412224875798124,1.0878713948664296,0.9951882941381553,-0.029816668986733505,0.053444261128177115,0.07651755624291176,0.46293100496404804,0.013283985432169049,72595.56491148591
1683158372930281162,215,1683158372930281162,camera_1,428,1,-0.08657169644955054,-0.14114969030213265,1.0873364058577317,0.9950669429214074,-0.02986701424619393,0.052493021057865887,0.07870338814359165,0.4634800098865526,0.013289021763380558,72635.72185368254
1683158372950471401,216,1683158372950471401,camera_1,430,1,-0.08662621512784119,-0.14117548797800858,1.087550043666042,0.9949980454019288,-0.02984163879186073,0.05493011543506161,0.07791693435222061,0.4407520494569326,0.012640889876957223,72596.40619093669
1683158372963819265,217,1683158372963819265,camera_1,432,1,-0.08659196649945686,-0.1411855180516452,1.0874323400926313,0.9949914641514742,-0.029943387411420698,0.05397482431120135,0.07862631974479159,0.3783687135000946,0.010851181212216749,72608.34408938984
1683158372977579355,218,1683158372977579355,camera_1,434,1,-0.08659538568665207,-0.14116877686574703,1.0874263803992719,0.9949233710275854,-0.029864683805578912,0.054389124081842495,0.0792301055528036,0.4281594996718922,0.012278480814475353,72593.82041985361
1683158372998013973,219,1683158372998013973,camera_1,436,1,-0.08658837865881346,-0.14120372107174364,1.0876393553490187,0.9951178249705949,-0.029876771985316398,0.05275162388320275,0.07787913134604794,0.4139387076284038,0.011875137133053321,72607.99227583769
1683158373017143487,220,1683158373017143487,camera_1,438,1,-0.0866158048299608,-0.14119639139003895,1.087626454134902,0.9950728865349926,-0.030004295531112782,0.053199657716862865,0.07809922631760191,0.4084010943915928,0.01171621901187499,72601.01579881794
1683158373030376434,221,1683158373030376434,camera_1,440,1,-0.08660748534564774,-0.1411938567812725,1.087658717117375,0.9951150923494507,-0.029831687152003468,0.05504110217709626,0.0763315170237019,0.39538192853797227,0.01134136507512461,72609.8189851836
1683158373050331830,222,1683158373050331830,camera_1,442,1,-0.08661886802308702,-0.14122350922816054,1.0878829867910034,0.995174871346064,-0.029853090023352027,0.05302695059442498,0.07696694724399056,0.4436694392352365,0.0127324292213553,72590.09052434331
1683158373063654899,223,1683158373063654899,camera_1,444,1,-0.08657434097922853,-0.14114911431871183,1.0870525055514497,0.9948330132668742,-0.029827194814135035,0.05388718435013256,0.0807080264080716,0.35028904347564094,0.010041147879886062,72619.52786010507
1683158373083734989,224,1683158373083734989,camera_1,446,1,-0.08661565991879316,-0.14117470351242936,1.0874777558626363,0.9950351864447223,-0.029837882688922443,0.053555560842572965,0.07839949232231196,0.4181269378750585,0.011991892184179044,72611.42861727998
1683158373097203016,225,1683158373097203016,camera_1,448,1,-0.08658421724817295,-0.1411901906793744,1.087505134640617,0.9950286831816787,-0.029915021653518045,0.052692317074592265,0.07903499760558426,0.41278613127360586,0.011840167541694618,72604.57836460619
1683158373117198944,226,1683158373117198944,camera_1,450,1,-0.08661906714945716,-0.14118750250564022,1.0875143761355883,0.9950127434229543,-0.030034954245726397,0.05420449125458879,0.0781627473750408,0.395675875726738,0.011348485017924882,72603.83662605265
1683158373130504846,227,1683158373130504846,camera_1,452,1,-0.0866038183565746,-0.14118966893716722,1.0874323254452816,0.9950028892271752,-0.029870637076536567,0.054717678605486285,0.0779934043252544,0.4349490552849602,0.012471879128045385,72612.22474295163
1683158373150323629,228,1683158373150323629,camera_1,454,1,-0.08657528576874757,-0.14118704631554685,1.0874595871433126,0.9950172223270817,-0.029711376927879757,0.05229124309372279,0.07952098621912078,0.4003125441086013,0.011482379540210585,72605.4850612299
1683158373163766384,229,1683158373163766384,camera_1,456,1,-0.08662233807542036,-0.14120072828637453,1.087663371764463,0.9950974750933632,-0.02979044379202741,0.053003225347425326,0.07800129886263117,0.40494703938020393,0.011618139893768371,72600.0502957479
1683158373183893203,230,1683158373183893203,camera_1,458,1,-0.08664987012922978,-0.14120563085571847,1.087844179734334,0.9951398368866593,-0.029845734770057003,0.053865971311089514,0.0768400565586816,0.45561510558763985,0.013073739206317552,72588.96514554319
1683158373204040527,231,1683158373204040527,camera_1,460,1,-0.08661676282932812,-0.1411762662956906,1.087500827643746,0.9950048967011104,-0.02976689547472282,0.05327776865212523,0.07899789137730394,0.41889905679272493,0.012015095593596073,72600.03927556644
1683158373217179059,232,1683158373217179059,camera_1,462,1,-0.08658644878880356,-0.14119557374369016,1.0875694665175497,0.9950974281673458,-0.02999524931312505,0.052911771140509295,0.07798549831957116,0.42438500715070404,0.012173137443207223,72613.6152075738
1683158373237196207,233,1683158373237196207,camera_1,464,1,-0.08657747468886468,-0.1411702711786687,1.0872895784526015,0.9949840118381053,-0.02988719363956237,0.05286639104138312,0.07949035501971383,0.3967028638726333,0.011375157031610137,72622.527376496
1683158373250284194,234,1683158373250284194,camera_1,466,1,-0.08662047862065106,-0.14120186300388826,1.0876398572608084,0.9950837900540773,-0.029848866857210027,0.05355571271819805,0.07777584171321812,0.38218816481821705,0.010964611187188014,72601.45368997069
1683158373270402669,235,1683158373270402669,camera_1,468,1,-0.08663981639138434,-0.1412075497475355,1.0878810405264485,0.9950514564754742,-0.02994716815010314,0.05423647785091204,0.07767992376511827,0.4071211210102774,0.011684131016829158,72564.70112223725
1683158373283804655,236,1683158373283804655,camera_1,470,1,-0.08662330885835752,-0.1411794669679964,1.0875147221661325,0.9949874490209968,-0.02991752045987384,0.0554375633710979,0.07766334288258667,0.39147495274664834,0.011227303359370925,72599.94117501633
1683158373303683757,237,1683158373303683757,camera_1,472,1,-0.08663876795366415,-0.14122475952976812,1.08786874164437,0.9951551545841689,-0.02995863516544155,0.05261366083119894,0.07746290194359111,0.4186316845298279,0.012014704355999828,72586.87433957466
1683158373317073106,238,1683158373317073106,camera_1,474,1,-0.08662372845512065,-0.14120959138414169,1.087738566021291,0.9951018649465694,-0.03005184443712421,0.05246680377583613,0.07820741350623055,0.3993547176505672,0.01145963959746882,72591.6746143692
1683158373337060928,239,1683158373337060928,camera_1,476,1,-0.0865647331403678,-0.1411540973041146,1.0871723797965722,0.994893902707784,-0.029941042993829724,0.05367718842103999,0.08005258111096873,0.37147126425406896,0.0106496212897546,72618.7748667946
1683158373350387811,240,1683158373350387811,camera_1,478,1,-0.08660862068203043,-0.1411797324954592,1.0874208965957834,0.9950204522599773,-0.02980015314335842,0.053697678787476874,0.07850356520451676,0.4132134281244362,0.011849847166345526,72615.26036633411
1683158373370478630,241,1683158373370478630,camera_1,480,1,-0.08660701458713813,-0.14116618382027377,1.0873100869250345,0.9949621688924374,-0.02989103278737815,0.05454411076435298,0.07862409689584207,0.37182433700945694,0.010661053675226864,72618.47809329428
