%time,field.header.seq,field.header.stamp,field.header.frame_id,field.image_seq,field.transforms0.fiducial_id,field.transforms0.transform.translation.x,field.transforms0.transform.translation.y,field.transforms0.transform.translation.z,field.transforms0.transform.rotation.x,field.transforms0.transform.rotation.y,field.transforms0.transform.rotation.z,field.transforms0.transform.rotation.w,field.transforms0.image_error,field.transforms0.object_error,field.transforms0.fiducial_area
1682302389798222541,0,1682302389798222541,camera_2,1,0,-1.2393061017359173,0.3232063698792778,1.7460527588234709,0.9569124921181488,-0.002700857327317907,0.2816367569103607,-0.07065355585493094,0.3177260188967921,0.04462385032916332,12969.367985039016
1682302389808181762,1,1682302389808181762,camera_2,2,0,-1.2391857905713854,0.32323998354996464,1.7458548844225859,0.9568263609121763,-0.0026278114843219587,0.28204770925910233,-0.0701819020265019,0.2949598686536774,0.04141413937969836,12966.243806413604
1682302389818247079,2,1682302389818247079,camera_2,3,0,-1.2391813844559076,0.3226402710247043,1.7458453132159502,0.956855392379428,-0.0024762879242402384,0.2820201391929594,-0.06990183947587633,0.3047705580247566,0.042768905853781965,12969.86735000182
1682302389828151702,3,1682302389828151702,camera_2,4,0,-1.2392325781448879,0.32150322783029983,1.7458799613794955,0.9568377687089701,-0.002724505941615056,0.2819806258718938,-0.07029216223953154,0.3057598895393312,0.0429067215438468,12971.29281961825
1682302389838127613,4,1682302389838127613,camera_2,5,0,-1.2392044081438292,0.31979005575704833,1.7458229937197474,0.956780804029921,-0.002755728464865558,0.2822477937678325,-0.06999344193334833,0.27904660726198927,0.039128310428787616,12973.063210004471
1682302389848080396,5,1682302389848080396,camera_2,6,0,-1.2394341587715432,0.3175938123745524,1.7460866865215376,0.9567855045781013,-0.002712072576194836,0.2821260243499435,-0.07042051743678703,0.2879227375378832,0.04036222579017267,12975.246795155112
1682302389858158111,6,1682302389858158111,camera_2,7,0,-1.2392310510049862,0.3150477441555192,1.7458128290221024,0.9567512572995726,-0.0024908833630117267,0.2823802660145983,-0.0698728310667595,0.28704035544069484,0.04017373930472607,12984.011291473636
1682302389867875337,7,1682302389867875337,camera_2,8,0,-1.239994141580297,0.31266229523392514,1.7468736683731825,0.9570019515825353,-0.002599053175733374,0.28143807050209313,-0.07023618769457358,0.29758391389623284,0.04164297946617005,12991.440733078867
1682302389878008365,8,1682302389878008365,camera_2,9,0,-1.240187121273925,0.31020437075534235,1.747125789483769,0.9570874198536667,-0.002835402461708107,0.2810697379932667,-0.0705367537892677,0.3190059124608524,0.044613479248239565,12999.761973524233
1682302389888664484,9,1682302389888664484,camera_2,10,0,-1.2390013501207957,0.30750938975451225,1.745451186276299,0.9568309664316955,-0.0027178786071800813,0.2819578043353538,-0.07047631792063698,0.33196641301037744,0.04632451141382908,13013.997848764993
1682302389898291110,10,1682302389898291110,camera_2,11,0,-1.2387190834658461,0.3052967058946975,1.745020910653331,0.9567354264135675,-0.0027132140563320196,0.28214451045702715,-0.07102420385824991,0.33048637612955645,0.046088236568334426,13019.289318017198
1682302389908319473,11,1682302389908319473,camera_2,12,0,-1.2378785604129663,0.3035137333374913,1.7437617336361024,0.9565739016015891,-0.002459957151461927,0.2826074243199712,-0.07136780159678456,0.3073640596703626,0.04280438280083831,13030.678866981525
1682302389918275833,12,1682302389918275833,camera_2,13,0,-1.2379154705044026,0.3024942235176976,1.7437903736539508,0.9566247489342642,-0.002308429032518235,0.2825512790899843,-0.07091216797187758,0.30473163520218804,0.04240314586333467,13035.810682996173
1682302389928151845,13,1682302389928151845,camera_2,14,0,-1.2375066164922377,0.302018618993478,1.743201220380033,0.9565642921242811,-0.0023634481270673508,0.2826377431992415,-0.07137979591567592,0.29046167037449777,0.040404661599276484,13041.485276125837
1682302389938181161,14,1682302389938181161,camera_2,15,0,-1.2378161824686758,0.3023629670720076,1.7436549081159984,0.9565524140164403,-0.002271515642962976,0.2828126991650331,-0.07084699462216412,0.29440176469506696,0.040963231562139366,13033.368286567502
1682302389948093652,15,1682302389948093652,camera_2,16,0,-1.238260532421237,0.30339583309719703,1.7443029870804863,0.9566443237986233,-0.002445199732802094,0.282457335905357,-0.07101768889079672,0.314887254498899,0.04385706975126968,13027.72178899846
1682302389958163738,16,1682302389958163738,camera_2,17,0,-1.238841150972885,0.3050514899353802,1.7451735338527221,0.9567923412908741,-0.0025313716050463218,0.2819791130870055,-0.0709209953933988,0.31797035795170814,0.044334666757793226,13021.189890764188
1682302389968315601,17,1682302389968315601,camera_2,18,0,-1.239202498136791,0.30709975934425027,1.745703862439677,0.9568406556910668,-0.0025064620781182385,0.28191667088099104,-0.0705171464533223,0.30478811834473163,0.042535696485687065,13011.607233663792
1682302389978120803,18,1682302389978120803,camera_2,19,0,-1.2388957270240766,0.30928461383183203,1.745280571791615,0.956850913290619,-0.0027870387330677163,0.281957773525179,-0.07020239382480266,0.32742939569288865,0.04570393662344006,13012.953029878436
1682302389988444328,19,1682302389988444328,camera_2,20,0,-1.2397572809158643,0.31201781628322306,1.7465197480542634,0.9569292800249068,-0.002679679926315864,0.28163521110738127,-0.07043280635475743,0.3080620216787793,0.0430978733769356,12993.35044114269
1682302389997815847,20,1682302389997815847,camera_2,21,0,-1.2394538181446497,0.3146305317460474,1.746134084877383,0.9568299351358208,-0.0027515814238395094,0.28198845820194446,-0.07036628076386645,0.2857662888709456,0.04001026326920595,12985.747865000041
1682302390009062051,21,1682302390009062051,camera_2,22,0,-1.2396867369605993,0.31719205768216174,1.7464461630748547,0.9568679311162888,-0.002581983662043232,0.2818752489064202,-0.07030959973962451,0.258023782458622,0.03616746084953226,12976.428689852824
1682302390019765853,22,1682302390019765853,camera_2,23,0,-1.239493110790927,0.3193551710763877,1.746241237705686,0.9568135767589654,-0.002692942129568841,0.2820506836559264,-0.07034158970073696,0.29176178673515096,0.04092799829502775,12970.557142405305
1682302390028154134,23,1682302390028154134,camera_2,24,0,-1.2395696236515465,0.32116580390351057,1.7463832721950139,0.9569129464667914,-0.002549614860016729,0.28179007185658,-0.07003904447786673,0.29355057777138427,0.04119275585794438,12970.079167111777
1682302390038435935,24,1682302390038435935,camera_2,25,0,-1.2390173660816424,0.32235105058808455,1.7456377885601089,0.9568171858001832,-0.0026414015356970963,0.28207158556263573,-0.07021051611778599,0.31009260355494916,0.04351581774612943,12971.442033919502
1682302390048519372,25,1682302390048519372,camera_2,26,0,-1.239065160484246,0.3231358657340631,1.7457244843318291,0.9568702968983233,-0.0026107967732233593,0.2818342276505286,-0.07044066140059987,0.32744819729123265,0.045969310975662564,12971.62888087007
1682302390058484554,26,1682302390058484554,camera_2,27,0,-1.2391886977254982,0.3232420206257286,1.7458795286597382,0.9568695236828064,-0.002673485874055266,0.2818201918276933,-0.0705049402419616,0.32288035500096157,0.045340471957895465,12968.916019009659
1682302390068595886,27,1682302390068595886,camera_2,28,0,-1.238899539525493,0.32259140205362224,1.745440783361484,0.9567506481585657,-0.0024695586838834275,0.28237036846183666,-0.06992191031999831,0.31219806644367054,0.043804053286095476,12969.01397985989
1682302390078287601,28,1682302390078287601,camera_2,29,0,-1.2393288953986463,0.3215460456234918,1.7460361582973416,0.9568144002241177,-0.0025416787621427308,0.28209901659827213,-0.0701419149091325,0.31135439220815897,0.0436954716862428,12967.645007799847
1682302390088153600,29,1682302390088153600,camera_2,30,0,-1.2393951575996043,0.319828925335948,1.746119678276005,0.9567984256889139,-0.002724715502497592,0.2821800527631072,-0.07002689731279237,0.2962142283213325,0.04154753924471164,12970.146316758355
1682302390098302125,30,1682302390098302125,camera_2,31,0,-1.2395306704315667,0.31763866316111156,1.7462236191266323,0.9568078419171554,-0.0026291713334407945,0.2821209829881135,-0.07013980369059801,0.2876649899408221,0.04032181281975035,12974.608593054112
1682302390108173847,31,1682302390108173847,camera_2,32,0,-1.2394232694742222,0.3151137862234349,1.7460765609480589,0.9568706736954334,-0.002671074055378168,0.28189874947812477,-0.07017459816563087,0.28999694995582104,0.040597616870958836,12987.741842203774
1682302390118095397,32,1682302390118095397,camera_2,33,0,-1.2393965778093738,0.31252937910424833,1.7460201803878117,0.9568924523044995,-0.002727226765552493,0.2817856547813495,-0.07032952236647437,0.3082692614989355,0.043113431673235905,12996.880411187194
1682302390128098011,33,1682302390128098011,camera_2,34,0,-1.239586461278619,0.3100463496150705,1.7462655478156106,0.9569395990605609,-0.0027017806979115957,0.2815660026593795,-0.07056833764013287,0.3418631743406877,0.04778215138596106,13002.77548047574
1682302390138327121,34,1682302390138327121,camera_2,35,0,-1.2393221607369047,0.30759073113322205,1.7458768760416297,0.9569068409745166,-0.002621155520681727,0.2816905475633486,-0.07051852702211325,0.2992000100784935,0.0417646307666928,13012.306539270096
1682302390148099660,35,1682302390148099660,camera_2,36,0,-1.2386688227918419,0.3052783356716902,1.744942642814451,0.956787426356631,-0.0026203198979417508,0.28198342663140424,-0.07096690633456118,0.32821204618085176,0.045757952292645496,13023.772297955586
1682302390158209085,36,1682302390158209085,camera_2,37,0,-1.2377695624588585,0.3034690353340102,1.7436096700191739,0.9565226003152278,-0.002460763503938679,0.28277532279359974,-0.07139031130446268,0.30745535861933604,0.04281593358779227,13029.623774107316
1682302390168358087,37,1682302390168358087,camera_2,38,0,-1.2379091422432735,0.3025019689649537,1.743773011944566,0.9566404148135548,-0.002313384873872353,0.28258748004999795,-0.07055551796115848,0.29867332853609696,0.04154798479104936,13036.904914095996
1682302390178262948,38,1682302390178262948,camera_2,39,0,-1.2374151106661817,0.3020078812950378,1.7430999536525682,0.9565090670575216,-0.002344603148185267,0.2828954735479662,-0.07109893472408116,0.2913156292052008,0.04051632544961315,13039.55079828575
1682302390188154697,39,1682302390188154697,camera_2,40,0,-1.2378135525124923,0.30235059276214876,1.7436427064161233,0.956626615135338,-0.002301018282597297,0.282588987334476,-0.07073675683012794,0.3052194805932231,0.0424567140011996,13038.368588592391
1682302390198093891,40,1682302390198093891,camera_2,41,0,-1.2382287865994173,0.30337822768111405,1.7442639908089896,0.956679915310981,-0.00247541822702117,0.2822626909380545,-0.07131048485029481,0.32877706276485696,0.04579426948683509,13030.82323829853
1682302390208104133,41,1682302390208104133,camera_2,42,0,-1.2388760618624863,0.305043141524033,1.7452203684355903,0.9567977019625153,-0.002494268460639284,0.2819424042385925,-0.07099589309430498,0.31370451470138505,0.043742851505931095,13020.93084196001
1682302390218343734,42,1682302390218343734,camera_2,43,0,-1.2390441282370654,0.3070584425776561,1.7454595197303162,0.9568761400547722,-0.002489217705670475,0.28172547449424745,-0.07079981221786649,0.30660705058835447,0.04278197590103593,13017.425475346856
1682302390228113174,43,1682302390228113174,camera_2,44,0,-1.2392724223299882,0.30938615534485925,1.7458275320081773,0.9569362617425787,-0.0027874355280261337,0.28157932940579683,-0.07055708622596202,0.34195704298326746,0.04776188191330938,13010.61104718479
1682302390238160610,44,1682302390238160610,camera_2,45,0,-1.2394525281947117,0.31194357032119846,1.7460938697283268,0.9568688658575522,-0.0025839300993669677,0.2819046380906857,-0.07017885636488373,0.3035966428578831,0.04245105477339766,12995.707716229372
1682302390248150348,45,1682302390248150348,camera_2,46,0,-1.2394349547334742,0.31463789425300953,1.7460963042106432,0.956757299043443,-0.0025916630347899167,0.2822289576527314,-0.0703958057845968,0.27496188023360446,0.0385031375368616,12981.36267841118
1682302390258284807,46,1682302390258284807,camera_2,47,0,-1.2399923050869124,0.31725916560621187,1.746896760592516,0.9569462499080387,-0.0026832525904565414,0.2815618092595465,-0.07049554956852362,0.29224039200926194,0.04098156971060116,12975.232046022309
1682302390268128871,47,1682302390268128871,camera_2,48,0,-1.239693976255354,0.31938945377425904,1.7465132859814925,0.956878749724676,-0.0025703304422364888,0.2819320994843216,-0.06993384736392802,0.28442356997402385,0.03989164716095038,12970.717687237771
1682302390278257846,48,1682302390278257846,camera_2,49,0,-1.2395396826473557,0.32114486359839267,1.7463262085672473,0.9568782631792003,-0.0026158233718322956,0.28197221506440756,-0.06977690774830933,0.30273241735994816,0.042475733183294624,12968.612775525777
1682302390288190126,49,1682302390288190126,camera_2,50,0,-1.2389428261592024,0.3223470508380392,1.745525808316428,0.956799879690765,-0.0026624151469673454,0.2821455520935663,-0.07014833713738043,0.32312517618993297,0.045339767410306014,12971.92619169085
1682302390298204183,50,1682302390298204183,camera_2,51,0,-1.2390437489449366,0.323125343840064,1.7456699706784151,0.9568681353238939,-0.0026766539500019254,0.2818172848669639,-0.07053527539904281,0.337589192437008,0.04739466468063068,12972.131640417267
1682302390308268070,51,1682302390308268070,camera_2,52,0,-1.2391439121427765,0.3232304931712791,1.7458029060449032,0.9569101070283471,-0.0027539610432854946,0.2817136633532333,-0.07037666264942162,0.32800545170903206,0.04604834555510198,12972.608688026205
1682302390318101406,52,1682302390318101406,camera_2,53,0,-1.2392962656009727,0.32268250394736164,1.746038776152258,0.956930984416072,-0.002449828500122651,0.28170747515031797,-0.07012836693692699,0.310443987196777,0.043571341823106034,12972.241944546578
1682302390328062295,53,1682302390328062295,camera_2,54,0,-1.2393643481798569,0.32156064395354245,1.7460947258159076,0.9568418213391763,-0.002589876846440991,0.28198355506875256,-0.07023030788082801,0.2973969466984272,0.04173916191457641,12968.595792455599
1682302390338129043,54,1682302390338129043,camera_2,55,0,-1.2393269293738551,0.3198079139759815,1.746000340445759,0.9567493773712844,-0.0026691531364550565,0.2823506110342222,-0.07001169166500223,0.32016843592282385,0.04490696187049877,12968.546626500083
1682302390348247289,55,1682302390348247289,camera_2,56,0,-1.239176719987368,0.31753154836476966,1.7457411018511773,0.9567466395446725,-0.0026668093097907573,0.2823259199991399,-0.07014863323487498,0.30030249670380726,0.042076846066896746,12978.025488579176
1682302390358057498,56,1682302390358057498,camera_2,57,0,-1.2396475172558223,0.3151842925738046,1.7463797621544155,0.956886766030386,-0.0025709416787480523,0.2818462954073606,-0.07016960182258768,0.29123780579539016,0.04078298960261524,12984.160374573668
1682302390368126153,57,1682302390368126153,camera_2,58,0,-1.2391730999999329,0.31248353178674265,1.7457189425246973,0.9567913807148203,-0.0027159925309415416,0.2821539797033989,-0.07022826291411162,0.30147839640267193,0.04215735936780347,12994.827344004992
1682302390378232717,58,1682302390378232717,camera_2,59,0,-1.2396657270386975,0.3100564470296643,1.7463638899075267,0.957026941478286,-0.002772465396283915,0.2813135769294016,-0.07038762785837786,0.30368036922300234,0.04243565604573761,13006.829516979164
1682302390388161897,59,1682302390388161897,camera_2,60,0,-1.2391811272760143,0.30755702748667424,1.7456817550806176,0.9569015752649734,-0.002761409629340437,0.2816918221861317,-0.07057950967333364,0.32534372399095446,0.04540829434924712,13014.9097248693
1682302390398238182,60,1682302390398238182,camera_2,61,0,-1.23872072213058,0.30530563331957744,1.7450150368283184,0.9568406625556412,-0.002584469381324795,0.2817479795980016,-0.07118527228677786,0.3100158114684745,0.04322449116763687,13026.161914687604
1682302390408052444,61,1682302390408052444,camera_2,62,0,-1.2376555556524376,0.3034447652374129,1.743461472430684,0.9565064007692529,-0.002575546800126619,0.2828334875815487,-0.07137289505539161,0.3224732329836115,0.0449022361635047,13030.906794954788
1682302390418241977,62,1682302390418241977,camera_2,63,0,-1.237912357044959,0.30250290537233177,1.743784963297502,0.9566939491913848,-0.002271482610059304,0.28229924788829486,-0.07098353745092814,0.3042719483491964,0.04233296194637984,13040.404366576811
1682302390428181409,63,1682302390428181409,camera_2,64,0,-1.2372766885895554,0.30196591415810864,1.742881358763053,0.9565108598432004,-0.0023440026346514143,0.2828892874174275,-0.07109944949245638,0.3055653857300058,0.04248798956742279,13042.75250901654
1682302390438123941,64,1682302390438123941,camera_2,65,0,-1.237809942358023,0.30235601700224274,1.7436598280390831,0.9566301408720651,-0.0023034800614622035,0.2825487413763125,-0.0708496739679223,0.2938598239561543,0.04087962558446343,13038.522167534098
1682302390448195695,65,1682302390448195695,camera_2,66,0,-1.2384591132575042,0.3034493034704116,1.744620025927578,0.956744184484382,-0.0025586302336835093,0.2821168292243754,-0.07102192291839772,0.3300140629289672,0.04596888150191579,13029.923124294963
1682302390458104372,66,1682302390458104372,camera_2,67,0,-1.238640356330755,0.3049876828031973,1.7448916429757477,0.9567553315667686,-0.0025671407217033307,0.2821235353168713,-0.07084459137709655,0.32249171525472775,0.04495271419836457,13023.040669840062
1682302390468342065,67,1682302390468342065,camera_2,68,0,-1.2391198062605593,0.30704293909341607,1.7456078037479221,0.9569013707104607,-0.0026788592947922995,0.2817107157015461,-0.07051002130366293,0.33926308527588844,0.04733494343901505,13017.363597650547
1682302390478086233,68,1682302390478086233,camera_2,69,0,-1.2396442040660678,0.30948350807685127,1.7463803909942717,0.9570123376978914,-0.002733921669629606,0.28129431088984835,-0.07066414810444487,0.32910848781466484,0.04598878574500913,13007.621763208641
1682302390488046884,69,1682302390488046884,camera_2,70,0,-1.2394840637489577,0.3119533235471834,1.7461486125717196,0.9569039797429737,-0.0027714842094040417,0.2817512786491871,-0.07030867234476647,0.3134747627773322,0.043836396583019695,12997.366024777763
1682302390497798681,70,1682302390497798681,camera_2,71,0,-1.239538176115784,0.31466059498216237,1.746224576095888,0.9567997944140615,-0.0025794135073821953,0.2821072388519421,-0.07030651337181233,0.2777395730954595,0.03889118558785377,12982.106720662916
1682302390508112192,71,1682302390508112192,camera_2,72,0,-1.2395921745246548,0.31715293295593494,1.7463352812232968,0.956875764050554,-0.0026913627883622298,0.28181464052960475,-0.07044172855757974,0.28522488969611004,0.039978108655648485,12978.986833998002
1682302390518025875,72,1682302390518025875,camera_2,73,0,-1.239720828091308,0.3193936396153911,1.7465746016206394,0.9568524634900856,-0.00278562105220854,0.28197294746527135,-0.07012032748109072,0.31740188773255795,0.04453093020597059,12968.389460528964
1682302390528342485,73,1682302390528342485,camera_2,74,0,-1.2393438650390252,0.3210939053989555,1.7460315479495039,0.9568170215407968,-0.0025347568874854913,0.28214873487693126,-0.06990603482294537,0.29614973289426416,0.04154831955122769,12968.767520230725
1682302390538176298,74,1682302390538176298,camera_2,75,0,-1.238533819172551,0.32223429815931626,1.7449498712813951,0.956733763492565,-0.0026535611430996944,0.282352897594392,-0.0702161350877657,0.3129259533016011,0.043889356273185874,12976.140326930908
1682302390548155546,75,1682302390548155546,camera_2,76,0,-1.239120549074693,0.32314331526901424,1.7458035984727975,0.9568387384384209,-0.0027065760415718168,0.2819869315197361,-0.07025434877490655,0.3168319464311935,0.04448156450643319,12968.501734320304
1682302390558117389,76,1682302390558117389,camera_2,77,0,-1.2394043336150768,0.3233044192449141,1.7461716267975078,0.9569725367846182,-0.0026547380466904282,0.28150792213155235,-0.07035485756571357,0.29827813804149633,0.04188390580316116,12971.100737350527
1682302390568138837,77,1682302390568138837,camera_2,78,0,-1.2390703016734919,0.32263428107650693,1.7457025304223668,0.9568431463928124,-0.002490628527715304,0.2820025322066141,-0.07013958796355733,0.3111114260391332,0.04365993917358415,12971.328427265402
1682302390578320980,78,1682302390578320980,camera_2,79,0,-1.239287935938521,0.32153656015909066,1.7459887633708724,0.9568308920140055,-0.002626415494103202,0.28203412247025317,-0.07017478031151195,0.3130541286082007,0.04393127214270218,12969.534971194575
1682302390588135719,79,1682302390588135719,camera_2,80,0,-1.2392232338186047,0.31978660740331327,1.7458646771036845,0.9568051221962779,-0.0027818362804769956,0.2821981726870015,-0.06985993743191703,0.29702260717749596,0.041644091061306725,12974.286785586966
1682302390598105192,80,1682302390598105192,camera_2,81,0,-1.239126610197328,0.3175148486197808,1.7456641758693612,0.9567555453635511,-0.0026783321025998764,0.2822678375677012,-0.07026037879271697,0.3019752721884288,0.04230992936068597,12979.705212795643
1682302390608323574,81,1682302390608323574,camera_2,82,0,-1.2390871036393152,0.3150060922351367,1.7455977224614436,0.9567970187683306,-0.0025358872176511216,0.28213978985766636,-0.07021519159787441,0.29829048993997276,0.04174352266188168,12990.094748178497
1682302390618153572,82,1682302390618153572,camera_2,83,0,-1.2392399804516232,0.31249685822028567,1.7458035844386453,0.9568661701040259,-0.002676868348785884,0.28188774305656256,-0.07027992032418709,0.31037139944965014,0.04339789248481398,12998.371046519838
1682302390628061771,83,1682302390628061771,camera_2,84,0,-1.239845911256003,0.3101121703303229,1.746640756513735,0.9570407628731374,-0.0028180017454417783,0.28125797128364777,-0.07042010121245736,0.3270310059306212,0.04571265795688831,13003.85704454314
1682302390638133764,84,1682302390638133764,camera_2,85,0,-1.2392688193960146,0.3075879766227795,1.745821554944025,0.9568728818553711,-0.002756975340041808,0.2817961559800032,-0.07055220430054121,0.32523431052686647,0.04540217502271613,13011.166149277473
1682302390648325920,85,1682302390648325920,camera_2,86,0,-1.238532430497028,0.30523571519188164,1.7447408086463332,0.9567235018422651,-0.002555701893627698,0.2822155924436407,-0.07090817154735625,0.3274169639335014,0.045641928881710904,13022.511001586448
1682302390657821178,86,1682302390657821178,camera_2,87,0,-1.2377039671030703,0.30345325320416977,1.7435253165538809,0.956571792976813,-0.0026108654981038346,0.2825982255184186,-0.0714271040734324,0.3123337377910502,0.043487881139257736,13034.209939664459
1682302390668232679,87,1682302390668232679,camera_2,88,0,-1.2378904773712385,0.3024978059716482,1.7437652121825233,0.9566012822161629,-0.0023160945796614867,0.2826455364160029,-0.07085282854199479,0.3134706170530989,0.04361903586468726,13034.701096750334
1682302390678318738,88,1682302390678318738,camera_2,89,0,-1.237512651707183,0.30202723993941044,1.743217490962103,0.9565889183265108,-0.0023734231993594286,0.28255841642891844,-0.07136350259351389,0.29179225501138717,0.040587549231716605,13042.883935515296
1682302390688153743,89,1682302390688153743,camera_2,90,0,-1.2377923764379775,0.3023736597822656,1.7436180885366808,0.956682653517593,-0.002241487946293136,0.28242689986117275,-0.07062805692592013,0.27702018874697387,0.03852395805698753,13042.315324956555
1682302390698175191,90,1682302390698175191,camera_2,91,0,-1.238290989395784,0.3034006299226094,1.7443621468715156,0.9567112103016325,-0.002532920114634853,0.2821823012878658,-0.07120669377778002,0.3285427396185696,0.04576022258244336,13031.475123624321
1682302390708115100,91,1682302390708115100,camera_2,92,0,-1.2386211634439919,0.3049805776888339,1.7448657285155094,0.9567428797042166,-0.0024556227687254615,0.2821264837843447,-0.0710047829345514,0.32153952360386034,0.044823822857617136,13022.615912776208
1682302390718128919,92,1682302390718128919,camera_2,93,0,-1.23882153288266,0.3069755240294412,1.745152033967501,0.9568365816911802,-0.002537427382584695,0.2819099741560748,-0.07059804438606536,0.3066191327525303,0.04276731327397011,13019.493464952568
1682302390728142738,93,1682302390728142738,camera_2,94,0,-1.239793628120761,0.3095044665743272,1.7465468102756898,0.9569738469684894,-0.002747916525135814,0.2815067504117542,-0.07033814502612021,0.32196889288024977,0.04499585160890296,13002.132799480576
1682302390738336563,94,1682302390738336563,camera_2,95,0,-1.2395864949605395,0.3119944722533553,1.7462764698340332,0.9569394579358205,-0.002593551873343687,0.28165749465959883,-0.07020828324533017,0.3124624146730639,0.04369300570746335,12997.54169231583
1682302390748192787,95,1682302390748192787,camera_2,96,0,-1.2394347891527793,0.3146347054542134,1.7460998256058518,0.9567965836581444,-0.0025754629967677314,0.28215478162489105,-0.07015941630790486,0.2882653684937395,0.04035495964610632,12984.010569513537
1682302390758016824,96,1682302390758016824,camera_2,97,0,-1.2393640883189587,0.31709045517968704,1.7460026451731738,0.956785985643393,-0.002688169977265244,0.2821025736336787,-0.07050878929487589,0.29109187505673617,0.04079688888896797,12977.981667273209
1682302390767879962,97,1682302390767879962,camera_2,98,0,-1.2397612887920684,0.3194067093160659,1.7466056798883056,0.9568592966526879,-0.002616803005177778,0.2819914077633604,-0.06995916451040515,0.28290097159333527,0.0396855244011644,12968.064142202027
1682302390778015375,98,1682302390778015375,camera_2,99,0,-1.2392597323035555,0.3210823497130445,1.7459607322098447,0.9568604898555244,-0.0026238552206656303,0.28190413579331486,-0.07029350297041306,0.2950670371064916,0.041398882328197606,12973.070601221409
1682302390788220882,99,1682302390788220882,camera_2,100,0,-1.238895621266709,0.32233585120254055,1.745467183997481,0.9568316025061941,-0.0027116753937905507,0.2819796162698697,-0.07038058873215107,0.3185764090740122,0.044702047847733066,12974.911232699402
1682302390798091173,100,1682302390798091173,camera_2,101,0,-1.2389708388157856,0.3231190829070671,1.745593163465671,0.9568024074246093,-0.002647273990838859,0.2820845827297338,-0.07035931546768497,0.3126941559021361,0.043897182986859,12969.174316145942
1682302390808290958,101,1682302390808290958,camera_2,102,0,-1.2392453525057883,0.32325775606702484,1.7459726934586608,0.9568971956067663,-0.002616693129873339,0.2817399975871724,-0.07045199583084973,0.3006578328786418,0.042218546710189445,12969.420054091139
1682302390818029165,102,1682302390818029165,camera_2,103,0,-1.239090780975018,0.3226218109753625,1.7457122955018918,0.9568461856576492,-0.0024849082542655705,0.2820411840201343,-0.06994263892573728,0.309510940045584,0.043429935893775175,12971.23339487263
1682302390828161001,103,1682302390828161001,camera_2,104,0,-1.2395882893058416,0.32161428127134856,1.7464047068296127,0.9569084611001688,-0.00270190524588009,0.28179325304422187,-0.07008180449805854,0.29633631568867713,0.04159458130500387,12968.321532099972
1682302390838122844,104,1682302390838122844,camera_2,105,0,-1.2392582295186223,0.3197841269820607,1.7458819163832138,0.9567548269263341,-0.0026382095967657317,0.2823539325210878,-0.06992494399826994,0.3023542005685158,0.04239963249848926,12970.398454408634
1682302390848099946,105,1682302390848099946,camera_2,106,0,-1.239363104668035,0.3175705026118874,1.745979456833592,0.956727504545308,-0.0025774688743536596,0.28240434044104384,-0.07009726956714293,0.28014756098855287,0.039263807469310394,12972.948685678424
1682302390858233690,106,1682302390858233690,camera_2,107,0,-1.2392855522904136,0.31507008425066696,1.7458656068696197,0.9568431555376216,-0.0025749563378359703,0.2819797328887128,-0.07022802532234189,0.30339204834308475,0.04246658140521643,12988.988241772162
1682302390868074417,107,1682302390868074417,camera_2,108,0,-1.2390933811039748,0.3124568712895097,1.745591611550352,0.9568080234621128,-0.0025785192483328283,0.28209247938938714,-0.07025375825505095,0.28245460195466876,0.03948914968902272,12997.626248593675
1682302390878068208,108,1682302390878068208,camera_2,109,0,-1.2397634742700374,0.3101045549803913,1.7465455232592884,0.9570296327414991,-0.0027426200443986127,0.2812791243420643,-0.07048981699029327,0.3164548869826831,0.044231687316489875,13004.677280794596
1682302390887792825,109,1682302390887792825,camera_2,110,0,-1.2392808225942327,0.3075745262706276,1.7458447616964747,0.9568730039790833,-0.00268418175150643,0.28178093126315357,-0.07061413598451878,0.31650198204442853,0.0441849697101133,13010.891219046898
1682302390897841691,110,1682302390897841691,camera_2,111,0,-1.2382993236605706,0.3051814849114386,1.7443982464362093,0.956690937015759,-0.0024993682706960932,0.28232191624676817,-0.07092629834489694,0.3257758566760458,0.04539989206421687,13025.286773351954
1682302390908128738,111,1682302390908128738,camera_2,112,0,-1.23799203904374,0.3035203801394704,1.7439546607891159,0.956661395520978,-0.002537574275053128,0.2823400129578201,-0.07125062890692087,0.3271047488087788,0.045549063412711026,13033.931332152806
1682302390918056964,112,1682302390918056964,camera_2,113,0,-1.2378254841962857,0.3024856935287574,1.7436553779764732,0.9566645281664208,-0.002355579694635001,0.2824380511585163,-0.07082498888246354,0.29034389450680465,0.04038903634716699,13040.263707033359
1682302390928175926,113,1682302390928175926,camera_2,114,0,-1.2374615513975205,0.3020111548757765,1.7431471094322963,0.9565822771211883,-0.002454598534757073,0.2825784880624296,-0.07137030284387838,0.2994602608960122,0.041652355249599315,13043.580443924993
1682302390938360929,114,1682302390938360929,camera_2,115,0,-1.237829207700871,0.3023719228889852,1.7436767228044976,0.9566417624863294,-0.0023170693692026716,0.28251692915832294,-0.07081916545356212,0.3092310033389367,0.043017151696361146,13038.964184817854
1682302390948012351,115,1682302390948012351,camera_2,116,0,-1.238113301737449,0.30337256671313517,1.7441170901036451,0.9566322126135046,-0.0025127580703908784,0.28243159221130226,-0.07128037288103145,0.31802647234871984,0.04429465774454262,13029.899335634196
1682302390958195447,116,1682302390958195447,camera_2,117,0,-1.2385517435359694,0.30496126751740016,1.7447503929023935,0.9567331499608921,-0.00259444136222805,0.2821898369566995,-0.07087908406771645,0.3159556434256956,0.04403910854404348,13023.466389887502
1682302390968210220,117,1682302390968210220,camera_2,118,0,-1.2390224543216626,0.3070236058605752,1.7454725189024547,0.956869698702746,-0.0025556944419602573,0.28180405210936665,-0.07057141308757443,0.32022184296511114,0.04467534551858387,13017.307424860544
1682302390978182554,118,1682302390978182554,camera_2,119,0,-1.2390048995473066,0.30931553858601024,1.7454422758813013,0.9568564416205949,-0.0026414026318581888,0.28192871449972895,-0.0702493634265816,0.3239811457460746,0.04523005760009318,13010.937685482675
1682302390988382816,119,1682302390988382816,camera_2,120,0,-1.2398381857198646,0.3120672520350679,1.7466488462106429,0.956973563733958,-0.0027663946747757567,0.28151437047226713,-0.07031077152495746,0.3059933889308013,0.042807117137436186,12994.388439862993
1682302390997849702,120,1682302390997849702,camera_2,121,0,-1.2396327619078253,0.31469942946934415,1.746376049554699,0.9568243572504503,-0.0026336281986333097,0.28197522324828594,-0.07049955211810527,0.28356501884991303,0.03971690716293116,12981.567919230787
1682302391009054660,121,1682302391009054660,camera_2,122,0,-1.239651101503262,0.31717931536637484,1.7464002210004375,0.9568779465180551,-0.002571705528735305,0.2818906209587241,-0.07011176515798567,0.27274752175435424,0.03822256368340166,12977.957326279027
1682302391019673109,122,1682302391019673109,camera_2,123,0,-1.2396306307949116,0.3193572256278372,1.7464495943197829,0.9568632924343514,-0.0026802726995953253,0.28191226986614937,-0.07022056556924203,0.30970755411544815,0.04344558491879443,12970.94530869601
1682302391030354499,123,1682302391030354499,camera_2,124,0,-1.2393844533298286,0.32109948642552494,1.7461343263078923,0.9568026792488352,-0.0027069937910044134,0.2822130377965265,-0.06983628329545075,0.30696923175128177,0.04307117247675768,12966.872762812069
1682302391038265943,124,1682302391038265943,camera_2,125,0,-1.2385312765312144,0.32223901703348673,1.7449415921103237,0.9567469220460689,-0.0025762963067759337,0.2823539353310285,-0.07003531291994411,0.3018628038116731,0.04232982620806545,12977.058966548178
1682302391048337459,125,1682302391048337459,camera_2,126,0,-1.2389673507407226,0.32311390408405644,1.7455868187313315,0.9568548251400307,-0.0026383285316116008,0.28186315569237097,-0.07053399387486062,0.3218038452323526,0.045174635651174126,12972.682578732023
1682302391058281660,126,1682302391058281660,camera_2,127,0,-1.2390067416254777,0.3231790495018065,1.745621736515018,0.9568721939499842,-0.0026565162866632034,0.28180483834285597,-0.07053070574664137,0.31456706731114537,0.04416008319988183,12972.91285090684
1682302391068384885,127,1682302391068384885,camera_2,128,0,-1.2389694376277414,0.32259698146600896,1.7455655578055056,0.9568109575038819,-0.002475718005529063,0.28213006938041185,-0.07006629983284512,0.31867467204574496,0.044715703006122993,12971.328925910406
1682302391078322649,128,1682302391078322649,camera_2,129,0,-1.2392600451620481,0.32153604389647483,1.745936499311676,0.9567943146169723,-0.002660000293464237,0.2821518148888506,-0.07019912584929308,0.2976870916318149,0.0417779279350952,12967.727169770751
1682302391088196039,129,1682302391088196039,camera_2,130,0,-1.2394152422265667,0.3198206134605902,1.7461167587439972,0.9568141235611588,-0.002651895283337798,0.2821052590209965,-0.07011649761642531,0.30111043370561674,0.0422350028593786,12970.918191382423
1682302391098200798,130,1682302391098200798,camera_2,131,0,-1.239329469782588,0.3175576773421249,1.7459587311137401,0.9567791083473562,-0.002657187616054089,0.2821945791563405,-0.07023458321074441,0.3016397375613451,0.04227326191671633,12976.950097039811
1682302391108154058,131,1682302391108154058,camera_2,132,0,-1.2391198378794204,0.31506268674175236,1.7456673467748218,0.956781944401064,-0.0024824495187804794,0.2821547861670817,-0.07036209885666019,0.28123037063051015,0.03936425015543092,12988.12732721819
1682302391118204355,132,1682302391118204355,camera_2,133,0,-1.239566133155679,0.3125968906991653,1.7462887327890513,0.956911551553178,-0.0025966752488478816,0.2817095192760481,-0.07037958888058249,0.3010874962201342,0.04211936344959437,12994.34417063184
1682302391128209829,133,1682302391128209829,camera_2,134,0,-1.239921817812758,0.31016858974333184,1.7467587574654448,0.9569714256321815,-0.0027045314538460177,0.2814904781002943,-0.07043782202760816,0.311072081385646,0.04349510318937229,12997.598533726992
1682302391138052463,134,1682302391138052463,camera_2,135,0,-1.2394846272776743,0.30763071707579664,1.7461306636013711,0.9568710614032766,-0.0026115409711254746,0.2818473184564054,-0.07037784297388255,0.31649399851448834,0.04419086186010736,13006.447510690658
1682302391148177623,135,1682302391148177623,camera_2,136,0,-1.2383098390651035,0.30518384063433823,1.7444093157704719,0.9566714948602366,-0.002654137835617828,0.2824070434773237,-0.07084397129344774,0.30398709245491773,0.04236511706222108,13023.81758992793
1682302391158135890,136,1682302391158135890,camera_2,137,0,-1.2374059966230866,0.3033839790919242,1.7430894342428445,0.9564809318406652,-0.002467467102915126,0.2829346593898161,-0.0713170186370527,0.3148985945736058,0.04382934564373883,13034.593888253672
1682302391168167352,137,1682302391168167352,camera_2,138,0,-1.237791522036453,0.30247452193390145,1.743613470180514,0.9566062489526759,-0.0022802622148682043,0.2826005304445661,-0.0709663657049749,0.29985905677312985,0.041720137932536094,13037.191667403556
1682302391178189516,138,1682302391178189516,camera_2,139,0,-1.2374198985137292,0.3020085054958745,1.743077062291357,0.9565550061286455,-0.0023828070219857264,0.2827096717497886,-0.07121856485530913,0.2923701452673413,0.040661390444187595,13042.65017879522
1682302391188226699,139,1682302391188226699,camera_2,140,0,-1.237731690341714,0.3023405148324838,1.7435488439877211,0.9565745603908223,-0.0023330023010462875,0.28274644738838767,-0.07081040885783668,0.3006927983951755,0.04183045838828226,13036.504988564186
1682302391198148965,140,1682302391198148965,camera_2,141,0,-1.2383414675372895,0.30341030186530943,1.7444310539419674,0.9566972451471947,-0.002498514364694493,0.28221246271259603,-0.07127597381607162,0.33254258829401806,0.04632461885634528,13029.520121199082
1682302391208113908,141,1682302391208113908,camera_2,142,0,-1.2385354919152416,0.3049677055702317,1.7447495750528048,0.9567911002347842,-0.002561928522370513,0.2819473749517493,-0.07106268213046424,0.33684876665938646,0.04694878594224553,13027.59451737767
1682302391218416929,142,1682302391218416929,camera_2,143,0,-1.2387603557928832,0.3069507623676854,1.74508923304637,0.9567899059221902,-0.0026375163434525194,0.2820780379470936,-0.07055565137437604,0.32403882581274956,0.04519831937275414,13017.70537986793
1682302391228078365,143,1682302391228078365,camera_2,144,0,-1.2397979042193972,0.3095099072909789,1.7465393803937475,0.9570813391764642,-0.002759093033180449,0.28115792914468773,-0.07027031012377205,0.32572927774162963,0.04550607052360122,13009.208309050184
1682302391238004207,144,1682302391238004207,camera_2,145,0,-1.2398990689498797,0.312075335888806,1.746724021213176,0.9570057549384999,-0.002717359543555901,0.2814186313050156,-0.07025777484460205,0.3119206077535637,0.043634646208515655,12995.248929339463
1682302391248019695,145,1682302391248019695,camera_2,146,0,-1.2396404883826069,0.31469317466594915,1.7463875367709334,0.956868792104677,-0.0026231402468386055,0.2818856221500428,-0.07025474970751112,0.29061463550897315,0.0406928867321436,12984.365715391938
1682302391258099794,146,1682302391258099794,camera_2,147,0,-1.2393728763454257,0.31709639002258844,1.7459983633859086,0.9567740618472449,-0.0026301811291089853,0.28219715037563964,-0.07029399009460895,0.2806387192104012,0.03932707478326196,12977.060985019429
1682302391268159627,147,1682302391268159627,camera_2,148,0,-1.239600854294082,0.31934896401158813,1.7463899509198595,0.9568372386270886,-0.0027074069264410366,0.2820487503552042,-0.07002621757092337,0.30878772388678044,0.04331146029992457,12970.018851738887
1682302391278092861,148,1682302391278092861,camera_2,149,0,-1.239462958411218,0.32111902381798374,1.7462312348255484,0.9568055687182258,-0.0026148577530177917,0.2821277727221104,-0.07014403786199697,0.32421087013790384,0.04550461876985498,12965.393149960082
1682302391288115024,149,1682302391288115024,camera_2,150,0,-1.2385674276265353,0.3222449707412364,1.7450072971423463,0.9567424846644589,-0.002649397094183697,0.282254378739229,-0.07049300969349188,0.30645763949723914,0.04299169813804225,12975.919278582793
1682302391298137187,150,1682302391298137187,camera_2,151,0,-1.2393137391999725,0.32321717544119394,1.746072996314334,0.9568782343452408,-0.0027230764751125544,0.2817953619479425,-0.07048406540114727,0.3105846451362595,0.04362057213918088,12966.97473078384
1682302391308186054,151,1682302391308186054,camera_2,152,0,-1.2392858148178738,0.3232664156493625,1.7460022656690624,0.9569251891360419,-0.002754724545466894,0.2816984261788415,-0.0702324040453756,0.30252803169423714,0.042475293397524906,12970.571443722347
1682302391318172931,152,1682302391318172931,camera_2,153,0,-1.2390768227583784,0.3226426674621181,1.7456903261220997,0.9568058916696254,-0.0024738107317870644,0.28220834175411025,-0.06981989523876114,0.29281497676856816,0.041087274671919104,12968.842382288776
1682302391328364610,153,1682302391328364610,camera_2,154,0,-1.2391083336713984,0.3214864123693277,1.7456951153114753,0.956762434345642,-0.002621481364790928,0.2823082502438145,-0.07000588478643048,0.30523040413390845,0.04282322486555427,12968.979544883823
1682302391337839126,154,1682302391337839126,camera_2,155,0,-1.2394028455511061,0.31980679669892054,1.7461011117360374,0.9567599050683351,-0.00277513424616251,0.28234481972457787,-0.06988694769584612,0.30401304649421945,0.04264191891727155,12967.71503682807
1682302391348206758,155,1682302391348206758,camera_2,156,0,-1.2393530120837084,0.317574425333242,1.745984710995252,0.9567690623510182,-0.0025137286374100065,0.28227240195153674,-0.07006378231869174,0.28015653212787583,0.039259074121373895,12975.729113869831
1682302391358127355,156,1682302391358127355,camera_2,157,0,-1.2394632354410482,0.3151331977946566,1.746128973122808,0.956832764521132,-0.0025744860438781624,0.282028814708155,-0.07017250483466381,0.28444650495657703,0.039826188870380703,12984.41916834493
1682302391368136644,157,1682302391368136644,camera_2,158,0,-1.2398201146524466,0.3126752284951796,1.7466188983823903,0.9569635549474388,-0.0026292335310247198,0.281589437302845,-0.07015148204326789,0.29661474318709224,0.041498711153681325,12992.44582711835
1682302391378157615,158,1682302391378157615,camera_2,159,0,-1.2398194315076865,0.31012566521335466,1.7466084136818718,0.9569969207812675,-0.002764226079894236,0.28136167109806065,-0.07060356015285908,0.3208239884697832,0.044853755652744305,13001.468390470602
1682302391388253450,159,1682302391388253450,camera_2,160,0,-1.239210755657779,0.30752824806655593,1.7457177476952372,0.9568353264006901,-0.002566647836437416,0.2820022014143458,-0.07024477822608291,0.33961692318553105,0.04739721381959324,13010.100525030868
1682302391398193836,160,1682302391398193836,camera_2,161,0,-1.2383614136939567,0.3051925695172415,1.744508521261636,0.9566793617597638,-0.0025717282129864576,0.28236566161742394,-0.07090569889849661,0.3443981544696726,0.048001993115360304,13023.195145665897
1682302391408144474,161,1682302391408144474,camera_2,162,0,-1.2377107561904475,0.3034715791536477,1.743530916333675,0.9565710201675722,-0.002589980444305622,0.2826593899157197,-0.07119581918442565,0.31320272578159347,0.04360264724148475,13033.944397585237
1682302391418098926,162,1682302391418098926,camera_2,163,0,-1.2381044817612894,0.3025559043247294,1.7440784490328725,0.9567031003055123,-0.002218044014188816,0.28232613326996286,-0.07075459433424149,0.29782679316122085,0.04144174165640303,13036.755367151694
1682302391428061485,163,1682302391428061485,camera_2,164,0,-1.237022140020558,0.30190260844926786,1.7425194071731815,0.9564541435543925,-0.002537746834069995,0.28303881169763806,-0.07126052337324514,0.29628934583161026,0.04119358327557251,13044.46986710537
1682302391438109636,164,1682302391438109636,camera_2,165,0,-1.2381382347953211,0.3024552181021949,1.7441310798361118,0.9567465756213004,-0.0023689363250027056,0.28212699938878705,-0.07095586229116567,0.31228821427794173,0.043457278529593815,13039.220075150244
1682302391448119878,165,1682302391448119878,camera_2,166,0,-1.2382740618004031,0.3034161715842992,1.7443428466342437,0.9567212542388402,-0.002471926042793551,0.28213173937774166,-0.07127420925544706,0.3300935535808094,0.04597572497802881,13032.40159780159
1682302391458164930,166,1682302391458164930,camera_2,167,0,-1.238434151963272,0.30494931432108185,1.7445921753925124,0.9567174194031194,-0.0025703481853400763,0.28234001532857556,-0.07049318027371101,0.3057056842953898,0.042592694563069175,13024.840631908737
1682302391468230962,167,1682302391468230962,camera_2,168,0,-1.2388163293848171,0.3069646361919817,1.7451789317982438,0.9567469921673664,-0.0025562730569382588,0.282228609714353,-0.07053843140770359,0.31474671146133915,0.04391010341419611,13013.614643735351
1682302391478196620,168,1682302391478196620,camera_2,169,0,-1.2394806997142536,0.3094213314063258,1.7461206298343643,0.9568894610750549,-0.0028066966782746595,0.28173994476748077,-0.07054987781466467,0.3452383312978782,0.04824199726778491,13003.268874326259
1682302391488499402,169,1682302391488499402,camera_2,170,0,-1.23940979218814,0.31196916707423467,1.7460562551340812,0.9568559185159162,-0.0027403324346318273,0.28188970098815863,-0.07040907793755424,0.30400129297049716,0.042515402140722025,12995.591331151547
1682302391498177766,170,1682302391498177766,camera_2,171,0,-1.2397841595495898,0.31474281292041784,1.746587952013797,0.9568699326729149,-0.0027189361944842906,0.281901431648483,-0.07017208965847845,0.2923154731397517,0.04093908790886395,12981.456656944938
1682302391508315324,171,1682302391508315324,camera_2,172,0,-1.2395270497363005,0.31713938662193775,1.7462589759199738,0.9567639179712546,-0.0025587137118051467,0.2822346623921249,-0.07028409206099812,0.2977190689416602,0.04173235201292465,12972.938730020534
1682302391518049478,172,1682302391518049478,camera_2,173,0,-1.2396947758747154,0.3193537670644011,1.746517522625845,0.9568451254762651,-0.0027452557348613205,0.2820448800388785,-0.06993250365256212,0.291590676701162,0.04090210838003484,12968.575696409678
1682302391528171300,173,1682302391528171300,camera_2,174,0,-1.2395523469810414,0.32114464293725564,1.7463634073083871,0.9568413534951671,-0.0026218326767596094,0.28205051909239104,-0.06996609832386325,0.31035864469595253,0.043557068081568284,12965.858902367296
1682302391538253307,174,1682302391538253307,camera_2,175,0,-1.2386718707078268,0.3222761420375011,1.745147287497357,0.9567430919723324,-0.002701674167512722,0.28225596156989163,-0.07047644342735754,0.30971915047848597,0.04345664322948941,12973.783517526233
1682302391548313140,175,1682302391548313140,camera_2,176,0,-1.239066051399493,0.32315442968143027,1.7457330220733158,0.9568313937036912,-0.0026555738948374963,0.28197853863185995,-0.0703898835158993,0.3180396109819412,0.044652236107898466,12969.038442372806
1682302391558238983,176,1682302391558238983,camera_2,177,0,-1.2393967657283618,0.3232964422811296,1.7461680225866352,0.956903947227731,-0.002738159157398612,0.2817539650598742,-0.07029965460410145,0.31365871388697997,0.04405075446864967,12966.805571831537
1682302391568178415,177,1682302391568178415,camera_2,178,0,-1.239269552301831,0.32269289528387224,1.7459767812970362,0.9569287522350665,-0.0024802081682258168,0.2817153002760311,-0.07012632389956447,0.31353344378294423,0.04400349837379924,12972.716955758397
1682302391578078031,178,1682302391578078031,camera_2,179,0,-1.2392068573668906,0.3215289269607131,1.7458441156476396,0.9567973269889946,-0.0027198870585518203,0.28213480223547954,-0.07022414576661387,0.3062968345475383,0.04298337605421586,12969.129670238126
1682302391588227272,179,1682302391588227272,camera_2,180,0,-1.2392121051051859,0.3197663577333144,1.7458280764549323,0.956732451731513,-0.002835111907849655,0.28239120403886336,-0.07007271812737943,0.28791928180726245,0.04038071414461481,12969.880731406622
1682302391598140954,180,1682302391598140954,camera_2,181,0,-1.2395050868170234,0.31761458354200933,1.7462143635521066,0.9567773102038083,-0.002735993224651424,0.2822216905596129,-0.07014706264637491,0.3062741367612034,0.042933618499857946,12973.142844801307
1682302391608445882,181,1682302391608445882,camera_2,182,0,-1.2397436997610414,0.31520079547355284,1.7465255406826163,0.9569155047232027,-0.0026589940162550178,0.2817742364271987,-0.07006372996800152,0.29201792256208137,0.040893268313579,12984.041653458025
1682302391618066787,182,1682302391618066787,camera_2,183,0,-1.239583030045789,0.31260792635974594,1.7463220932745664,0.9569164145338034,-0.002619667161487577,0.28171678536015105,-0.07028346737374255,0.30536230676807463,0.042715827463183254,12994.236678838492
1682302391628235578,183,1682302391628235578,camera_2,184,0,-1.2395507282125826,0.3100448785470451,1.7462229584730884,0.9569272574390882,-0.0026846298325152395,0.28167098296849896,-0.07031695447277964,0.32860839739441866,0.04592079622799201,13002.568844315128
1682302391638084888,184,1682302391638084888,camera_2,185,0,-1.2386675583866464,0.3074173445020224,1.7449625439660217,0.9567463612434067,-0.002760870659032284,0.2822172491609792,-0.07058471588605261,0.32225692534120753,0.044958802786566866,13015.55052963435
1682302391648035764,185,1682302391648035764,camera_2,186,0,-1.2383640821045292,0.3051990967144675,1.74449185180588,0.9566869489164374,-0.0025535733575754254,0.2823670871692809,-0.07079822822360096,0.3231146583566442,0.045030820858616295,13023.662225170996
1682302391658230781,186,1682302391658230781,camera_2,187,0,-1.2378387305882412,0.3035141473908914,1.7437288971987868,0.9566148738731604,-0.002513315010477408,0.2824631037148142,-0.07138810385554342,0.3105279121082276,0.04323936298216088,13034.061177069558
1682302391668020009,187,1682302391668020009,camera_2,188,0,-1.237829380765412,0.3025046181946527,1.7436664904654307,0.9566526865754275,-0.0022689031663050622,0.2824118241432799,-0.07109184855174266,0.29565526312217116,0.0411363300525232,13039.406251723176
1682302391678081274,188,1682302391678081274,camera_2,189,0,-1.2375342143309904,0.30204769301648143,1.7432538096886692,0.956525590256317,-0.002494377122365819,0.28281355749435205,-0.07119736627828765,0.3069338377681561,0.04269916884240759,13038.25535409456
1682302391688234806,189,1682302391688234806,camera_2,190,0,-1.2378379028565631,0.302379235540465,1.7436853416275842,0.9566469976112969,-0.0022967728693513976,0.2824878094395606,-0.07086525462958826,0.29438010300509637,0.04095222980286341,13039.102897109691
1682302391698126077,190,1682302391698126077,camera_2,191,0,-1.2380592111131286,0.3033705409259678,1.7440320378050271,0.956608068962989,-0.002493651109762563,0.2825519995046322,-0.07112771383208207,0.30656195903429756,0.042691892271741236,13029.489643972367
1682302391708117008,191,1682302391708117008,camera_2,192,0,-1.2386183889420748,0.304994197016616,1.7448568037951528,0.9568111912935997,-0.0024327434478305303,0.28185362705597095,-0.07116852457395294,0.31056367128621787,0.043290160713225376,13027.15486767888
1682302391718065738,192,1682302391718065738,camera_2,193,0,-1.238636755880356,0.3069254272837759,1.7449207961133346,0.9567551732935947,-0.002635200405367937,0.2821780950050377,-0.0706266011789823,0.3165362035506405,0.04414928316635881,13017.99251305055
1682302391728190422,193,1682302391728190422,camera_2,194,0,-1.2397050620257317,0.30951205084358957,1.746440284334067,0.9569945753887795,-0.0026636088752603755,0.28147976379655,-0.0701671606754035,0.3166569185559638,0.04423950981072482,13005.149440023353
1682302391738161087,194,1682302391738161087,camera_2,195,0,-1.2394701680188338,0.3119880481183201,1.746105940480356,0.9568793416118416,-0.002775390674954778,0.28181713088505034,-0.0703798802415035,0.301479087327607,0.042163029711453304,12996.00880512712
1682302391748005390,195,1682302391748005390,camera_2,196,0,-1.2396676213115245,0.3147130452232481,1.746421515286874,0.9568603433823037,-0.002647345624379604,0.281877674741364,-0.070400648476038,0.28003643039846793,0.03921811132204896,12983.29421037971
1682302391758248805,196,1682302391758248805,camera_2,197,0,-1.239815209504009,0.3172097784392539,1.7466192287033937,0.9568860914091104,-0.0026450570777044745,0.2819029634401392,-0.06994805890458229,0.29013431433122605,0.040665169500159505,12975.140197161581
1682302391768212318,197,1682302391768212318,camera_2,198,0,-1.2391516572298704,0.3192215484378614,1.74575029983104,0.9567129077221606,-0.002745606136689841,0.2824298795699795,-0.0701871567370966,0.30040861445013434,0.04212455171525196,12971.31274875417
1682302391778093814,198,1682302391778093814,camera_2,199,0,-1.239471687259773,0.32111156470166,1.7462361471769416,0.9568014825715503,-0.0025956353067655086,0.28221697219833236,-0.06984100679001992,0.30846119939815253,0.04328547545269533,12965.016366495749
1682302391788394212,199,1682302391788394212,camera_2,200,0,-1.2387359914993523,0.32229136608542786,1.7452442509299237,0.9567897623113352,-0.0026535706464100154,0.28211640242532643,-0.07040344296719156,0.310075577639509,0.04350308410768701,12975.461322125979
1682302391798295974,200,1682302391798295974,camera_2,201,0,-1.2392499390627756,0.3231916000031383,1.7459932411451193,0.956937216671512,-0.002739750746021397,0.281604973169097,-0.07044356749385713,0.32218167989049107,0.04523674589780185,12972.119370476115
1682302391808154106,201,1682302391808154106,camera_2,202,0,-1.2391246735128312,0.3232364348684467,1.745767575532213,0.9568389266693421,-0.002744489972887313,0.2819884202544954,-0.07024433804531498,0.29965736187295994,0.042071532226650506,12968.284951120619
1682302391818164587,202,1682302391818164587,camera_2,203,0,-1.239182298838201,0.32267362432703506,1.745850880419726,0.9568894414896293,-0.00249242806858828,0.28185891681559094,-0.0700852022864315,0.32410479529062286,0.04548438393942431,12972.041042404484
1682302391828135728,203,1682302391828135728,camera_2,204,0,-1.2392585133747842,0.3215351943904668,1.7459365639449347,0.9568188500609822,-0.002713642699409792,0.28210576590383324,-0.07004756352002006,0.2907533188117668,0.04079833443407398,12969.349056534003
1682302391838032484,204,1682302391838032484,camera_2,205,0,-1.2390358795860892,0.31972034266817606,1.7456017168169207,0.9567206392461732,-0.002640327284047517,0.2824497494562889,-0.07000561509126604,0.30178877827711403,0.04231217514522274,12972.617164671887
1682302391848021745,205,1682302391848021745,camera_2,206,0,-1.2395504201088205,0.3176092351963177,1.7462732755330652,0.9568276570885449,-0.002384725214544985,0.282080058246867,-0.07004276162131988,0.29513335117371753,0.0413624474761804,12975.479973834237
1682302391858184099,206,1682302391858184099,camera_2,207,0,-1.2395064598271834,0.3151582350575823,1.7461980808318527,0.9568439483496315,-0.0025905057608703445,0.28199228317043207,-0.0701662313290207,0.2729103295132518,0.03821275382539771,12984.13941210787
1682302391868094205,207,1682302391868094205,camera_2,208,0,-1.2395694877168482,0.3126274644758402,1.7462740039099203,0.9569106058206833,-0.0027419833225169428,0.2816789583126546,-0.07050913727489332,0.2950113284168765,0.04127510017230405,12994.170995819848
1682302391878451108,208,1682302391878451108,camera_2,209,0,-1.2397175454308829,0.31010372754158066,1.7464766222609491,0.9569789649490469,-0.002769649270377399,0.2814007657880351,-0.0706908671744632,0.31705103121930733,0.044323907320553343,13002.39530310058
1682302391887991905,209,1682302391887991905,camera_2,210,0,-1.239641221403134,0.30765230276459465,1.746316013380007,0.9569472085034825,-0.0027649223597498995,0.28147311012743614,-0.07083278631343848,0.3153008930385113,0.04404038892579584,13008.462760592345
1682302391898043155,210,1682302391898043155,camera_2,211,0,-1.2382472209939939,0.3051718187828427,1.7443430623920895,0.956674620289989,-0.0026423935008042174,0.2823208186151211,-0.07114523192794053,0.32422478357329965,0.04519033327084503,13025.31143185404
1682302391907651185,211,1682302391907651185,camera_2,212,0,-1.2378219703387618,0.30350107206248783,1.7436783225029946,0.9566532682693444,-0.002499009064693272,0.282357600898922,-0.071291405357739,0.31170275097247213,0.04339359623768228,13037.086072311035
1682302391917937040,212,1682302391917937040,camera_2,213,0,-1.23763948798867,0.3024677274530807,1.7434178765956454,0.9565638713210873,-0.0022577406109042784,0.2827983688280325,-0.07074987829496518,0.2977053248905577,0.04140962061214634,13037.371584331153
1682302391928333520,213,1682302391928333520,camera_2,214,0,-1.2374270438469526,0.30200808406059326,1.7430860416727723,0.9564575998046321,-0.0023333884944336486,0.28304489479693734,-0.07119692832901554,0.2847365453490056,0.03960918094673503,13036.125322361477
1682302391938076019,214,1682302391938076019,camera_2,215,0,-1.2376288465941416,0.30233359255889847,1.7434082990873419,0.9565769618808069,-0.002282818706929818,0.28275516395206396,-0.07074476656317547,0.3028895317693241,0.0421267989532186,13038.746795890853
1682302391947999238,215,1682302391947999238,camera_2,216,0,-1.238104649010998,0.30340057794434555,1.7440965183261163,0.9566607685097825,-0.0025410917311072074,0.28235723633485527,-0.07119064500641487,0.3114645390305668,0.043374320202597,13031.98375462904
1682302391958378553,216,1682302391958378553,camera_2,217,0,-1.238430027475931,0.3049368575145514,1.7445854893497732,0.9566792826246253,-0.0024713121135092036,0.28244620300234324,-0.07058884630612036,0.3165410662186332,0.04410840711945362,13022.447508073647
1682302391968086004,217,1682302391968086004,camera_2,218,0,-1.2389028644944569,0.30698019181867664,1.7453118377556929,0.9568465936297623,-0.0026906315715906496,0.28182300103426955,-0.0708036217216648,0.322110146342311,0.04494103667229864,13018.413366327291
1682302391978133916,218,1682302391978133916,camera_2,219,0,-1.2398088150588962,0.30954021954345834,1.7465840811543847,0.9570066061383465,-0.002568670364156828,0.2813989384022246,-0.07033061357776565,0.33826933230739087,0.047269254632793495,13003.895977463575
1682302391988072395,219,1682302391988072395,camera_2,220,0,-1.2396997675177481,0.31206668091063433,1.7464441728844264,0.956950478439951,-0.0025719343738298452,0.28166169017225534,-0.07004183932789122,0.29513836756814266,0.041272893179531304,12995.633389395192
1682302391997933864,220,1682302391997933864,camera_2,221,0,-1.239603360541398,0.31471009425450575,1.7463235322136788,0.9568717013052189,-0.0026618569280671607,0.28188217935783116,-0.07022747837869624,0.2947556088329293,0.04126954314396045,12985.383775332706
1682302392008903741,221,1682302392008903741,camera_2,222,0,-1.239684366192986,0.31719381250265144,1.7464611977399347,0.956864798620655,-0.0026251264233552183,0.2819604822329959,-0.07000823045079409,0.28990695864195004,0.04062909156368202,12976.353345859328
1682302392019603252,222,1682302392019603252,camera_2,223,0,-1.2395747103868613,0.31934550999594336,1.7463409025590961,0.9568768912864951,-0.00268801318388495,0.28185915574855386,-0.0702481731273411,0.2920670295134187,0.04096581314116312,12973.138452904996
1682302392028401613,223,1682302392028401613,camera_2,224,0,-1.239788475755204,0.32122059117561147,1.7467127064112158,0.9569410417031557,-0.002633011689411822,0.28172011352968085,-0.06993345112567112,0.30653189012082294,0.04302454346966678,12967.288003027672
1682302392038457155,224,1682302392038457155,camera_2,225,0,-1.2388253084103829,0.3223358865662128,1.745390958153572,0.9568148548983237,-0.0027854712167984293,0.2820857174469742,-0.07017993023953499,0.32551369216525927,0.04566774014928853,12975.175415069096
1682302392048311233,225,1682302392048311233,camera_2,226,0,-1.239002552516026,0.3231487292959516,1.7456212015930126,0.9568880369924652,-0.0026451985133393494,0.28179270828558545,-0.07036445937124008,0.2966918587917462,0.0416432637771461,12974.072015851269
1682302392058454513,226,1682302392058454513,camera_2,227,0,-1.2390670021735648,0.32320982018808897,1.7456842124536418,0.956865192164333,-0.0026996766830705587,0.2818643679134183,-0.07038603462967785,0.30418476392515004,0.04270359263667081,12971.243844374085
1682302392068256139,227,1682302392068256139,camera_2,228,0,-1.239288620131149,0.32270341470224045,1.7460300002242062,0.9569302569454078,-0.002466970630995722,0.281668831380673,-0.07029272243232224,0.3220559316687286,0.04520630076051445,12972.31277855858
1682302392078309059,228,1682302392078309059,camera_2,229,0,-1.239325759600232,0.32155280129723607,1.746016251325211,0.9568233005056812,-0.0027118999076546847,0.2820405171037842,-0.07024929836045368,0.30793315783375874,0.04321877159060759,12968.36222301237
1682302392088086128,229,1682302392088086128,camera_2,230,0,-1.23919551080453,0.3197595903225499,1.7458002521944784,0.956726868035741,-0.0029187574104908172,0.28247945266272484,-0.06978925173024815,0.3030798445106484,0.04249905687838686,12969.965064696498
1682302392098381996,230,1682302392098381996,camera_2,231,0,-1.2391135183504303,0.31749426049924234,1.745644407694713,0.9567529476677317,-0.002620347769641415,0.2822847869944303,-0.07022983652395849,0.29051242663990706,0.040701813504187605,12979.756603562037
1682302392108097314,231,1682302392108097314,camera_2,232,0,-1.2396685931344986,0.3151971343790674,1.746412083975581,0.9568559715801086,-0.0024686184547562592,0.2820097907560664,-0.0699359241887243,0.273627309827134,0.03831429768529883,12981.650975654837
