%time,field.header.seq,field.header.stamp,field.header.frame_id,field.image_seq,field.transforms0.fiducial_id,field.transforms0.transform.translation.x,field.transforms0.transform.translation.y,field.transforms0.transform.translation.z,field.transforms0.transform.rotation.x,field.transforms0.transform.rotation.y,field.transforms0.transform.rotation.z,field.transforms0.transform.rotation.w,field.transforms0.image_error,field.transforms0.object_error,field.transforms0.fiducial_area
1683662253030865430,0,1683662253030865430,camera_2,1,0,-0.16965606738545258,0.912888297121627,4.622933811594527,-0.7186669653535849,0.6853619130242641,-0.08947236939046616,0.07610214320797082,0.005860782548552379,0.0018124827003085547,11615.209057084168
1683662253049876451,1,1683662253049876451,camera_2,2,0,-0.16969958969849258,0.9133133788214778,4.624936684765502,-0.7188169307170638,0.6855206738516602,-0.08941108246016395,0.07327539948555367,0.0048306966200470924,0.0014951972344399503,11613.030033068031
1683662253068411111,2,1683662253068411111,camera_2,3,0,-0.16971733537178807,0.9131849422191074,4.624294819539056,-0.718759070722866,0.6854145833800572,-0.08897295902418394,0.07533962905420948,0.006056586382328532,0.0018738434716113921,11612.345944456787
1683662253087069272,3,1683662253087069272,camera_2,4,0,-0.16982748273806045,0.9135740043002725,4.626572769359754,-0.7187563634437749,0.6857206642948233,-0.0883436655797919,0.07329295546007454,0.0031708033493487164,0.000981756798783516,11608.69743741009
1683662253105714082,4,1683662253105714082,camera_2,5,0,-0.16969510810994926,0.9128881953620958,4.622917928070483,-0.7185104052842548,0.6853163836309597,-0.08927626611089381,0.07819207206958946,0.002228915589512326,0.000689260368559255,11610.108457357126
1683662253124303579,5,1683662253124303579,camera_2,6,0,-0.16958544287372168,0.9123184993488875,4.619951102291871,-0.7185247408355849,0.6851745458076112,-0.09155144796942227,0.07665749121378441,0.004840609602979384,0.0014960688536044843,11620.570856969833
1683662253143524408,6,1683662253143524408,camera_2,7,0,-0.16969485410347943,0.9129860523299899,4.62352238122,-0.7186717135171453,0.6852833892582323,-0.08980844731698356,0.07636810451748297,0.003927634854335338,0.001215129122857439,11610.240789418662
1683662253162661552,7,1683662253162661552,camera_2,8,0,-0.16975133438856702,0.9132299190931219,4.624639729101575,-0.7185346369299405,0.6856576773986285,-0.0879209941943579,0.07649459939206665,0.005180736014153808,0.001602520914850221,11611.336772743463
1683662253181577205,8,1683662253181577205,camera_2,9,0,-0.16976894708806675,0.913477821318939,4.625801774130903,-0.7188991972856368,0.685552567535131,-0.08878360799009961,0.07293210706072539,0.013326424959814176,0.004125354723891328,11611.903815557831
1683662253200248003,9,1683662253200248003,camera_2,10,0,-0.16978242214545658,0.9135067332108338,4.626219124640865,-0.719211912323122,0.6853129171205915,-0.08694564515948279,0.07430266205180375,0.0034254665952175856,0.0010599789710281796,11613.052590426372
1683662253219590902,10,1683662253219590902,camera_2,11,0,-0.16963613558442414,0.9128038082380838,4.622517209901959,-0.7185858082301776,0.6853393551358604,-0.09010277280137012,0.07632754971601036,0.0050140834209742025,0.0015506662785580252,11614.268824405095
1683662253238346576,11,1683662253238346576,camera_2,12,0,-0.16974589451523203,0.913334726049874,4.625290034078765,-0.7188402288429111,0.6854729982905713,-0.0885162461513305,0.07456787632005285,0.003659972280729562,0.0011326716963756082,11611.167169768367
1683662253257289171,12,1683662253257289171,camera_2,13,0,-0.16959052468514813,0.9126255659312081,4.62151791754872,-0.7186255773778066,0.6851501766467137,-0.08989468622270726,0.07788106553143624,0.0049363366852048784,0.0015259011961955191,11615.756051837085
1683662253276771306,13,1683662253276771306,camera_2,14,0,-0.16970487378166577,0.9130848222465473,4.62387707669354,-0.7189352343766524,0.6854146173404573,-0.08843871999153267,0.07428003711685795,0.004837250424316153,0.001496044978193407,11619.300048575387
1683662253296171665,14,1683662253296171665,camera_2,15,0,-0.16975532016905814,0.9134190855232627,4.625616005872247,-0.7187835348455913,0.68555228442545,-0.0883407365961337,0.07459362983241942,0.007356553935096599,0.002276907588796765,11610.137564270754
1683662253314731836,15,1683662253314731836,camera_2,16,0,-0.1696903836452292,0.9130615504509498,4.623877977593438,-0.7186335025882085,0.6854394542257246,-0.08956766953211122,0.075606058772633,0.005211011404753663,0.0016122415737734393,11611.467520244074
1683662253334051132,16,1683662253334051132,camera_2,17,0,-0.16974972705256028,0.9134222999670027,4.625701443714311,-0.7190307844490822,0.6852812841071935,-0.08856756818543025,0.0744317038139848,0.005437744621303864,0.0016831674270176014,11609.29861930403
1683662253353607416,17,1683662253353607416,camera_2,18,0,-0.16968502662269425,0.91307331523436,4.623804936626557,-0.7187124834970907,0.6855166726904014,-0.0884428689756209,0.07547924520215138,0.005514216696610674,0.0017053467212553373,11616.419504756284
1683662253373764038,18,1683662253373764038,camera_2,19,0,-0.16978319039500017,0.9135278446761494,4.6260606271244225,-0.7189628307124541,0.6857071610635704,-0.08718610527803981,0.0727785707919607,0.007066158490488306,0.0021864954870231207,11616.926188908343
1683662253393384933,19,1683662253393384933,camera_2,20,0,-0.16969977469841047,0.9131626692442506,4.624365190831295,-0.7189819190968478,0.6853696795180538,-0.08774686019745588,0.07505924949413123,0.006337948740110733,0.001960182340863427,11617.386222625446
1683662253413410663,20,1683662253413410663,camera_2,21,0,-0.16973524877983998,0.9132930174572136,4.624891544709437,-0.7185586433479673,0.6857547022829408,-0.08774257590371604,0.07559897314477669,0.007704884134000167,0.002383446617254334,11613.244027064411
1683662253432242393,21,1683662253432242393,camera_2,22,0,-0.16967020855251683,0.9129187991320933,4.62308604514037,-0.7185231081705459,0.6853498268628229,-0.08996545276600575,0.07698295364978053,0.005849501088960096,0.0018094465900288551,11610.118734915071
1683662253450182676,22,1683662253450182676,camera_2,23,0,-0.16976259645777492,0.9133907710734123,4.625335818038696,-0.7189318293043554,0.6856259061249204,-0.08765718052884439,0.07328274261522115,0.006846313117421232,0.002118123925455431,11617.496724641445
1683662253470577478,23,1683662253470577478,camera_2,24,0,-0.16967066566442585,0.9129939909325118,4.623332734911129,-0.7187542901367998,0.6853271097914494,-0.08957588869970996,0.07546643729831913,0.0066904814302688465,0.0020695217760088925,11614.563972560543
1683662253490358591,24,1683662253490358591,camera_2,25,0,-0.16977540732151544,0.913347103203652,4.625232108934407,-0.7187728434832383,0.6855038976220184,-0.0888506755524031,0.0745356509995279,0.009486763723543845,0.0029360990369618287,11610.234724832148
1683662253509767770,25,1683662253509767770,camera_2,26,0,-0.1696982843310943,0.9129379196909353,4.623136366466588,-0.7185074465330757,0.6854376823309561,-0.08989225737394506,0.07643045846717758,0.013332394199096598,0.004124023949947646,11611.637638816755
1683662253529199361,26,1683662253529199361,camera_2,27,0,-0.16975698156709884,0.9133462660979649,4.6252360876040015,-0.7187243261704772,0.6854869395359173,-0.0888500807071504,0.07515758015535212,0.009154921019217,0.002833375598809901,11608.556953790601
1683662253548843622,27,1683662253548843622,camera_2,28,0,-0.16972100309761096,0.913410788220412,4.625431214112914,-0.7188052618532543,0.685678694408887,-0.08835672963191524,0.07319024453129933,0.0055563757923664525,0.001719552140205363,11614.7270475449
1683662253568112373,28,1683662253568112373,camera_2,29,0,-0.16974492825447338,0.9133272744655757,4.625078802500892,-0.7187057123660177,0.685518938050655,-0.08932276673279205,0.07448038620708507,0.005508808637387119,0.0017050915644318812,11609.38809241992
1683662253587680101,29,1683662253587680101,camera_2,30,0,-0.1697004986358758,0.9130133187864922,4.623434432990614,-0.7186707993086985,0.6853728484927866,-0.08959443876835264,0.07582332960022396,0.004399577286676503,0.0013609201638026885,11612.944321552812
1683662253606822490,30,1683662253606822490,camera_2,31,0,-0.16974328848191994,0.9131565844138173,4.624390015757161,-0.7187145859963961,0.6853851927031667,-0.0888630182731249,0.07615671659586155,0.0036449323379201815,0.0011277024942086607,11610.013865810703
1683662253626549482,31,1683662253626549482,camera_2,32,0,-0.1696810970062666,0.9131769497759619,4.62425642397439,-0.718796204646191,0.6856423404843188,-0.086286374299205,0.07603458904810428,0.011081240285420789,0.0034253934706954584,11620.654431525149
1683662253645920038,32,1683662253645920038,camera_2,33,0,-0.16980113268346742,0.9135196494741397,4.626216686775995,-0.7188332822557859,0.6855681352210744,-0.08784514120873652,0.07455384267017759,0.004735766822705045,0.0014658568785909517,11609.03005878063
1683662253665231704,33,1683662253665231704,camera_2,34,0,-0.1698694132000282,0.9139206431393585,4.6281975081343445,-0.7190356377192818,0.6855576155991946,-0.08763843478519066,0.0729247017955816,0.006675348762655631,0.0020678658558305764,11604.190978380037
1683662253684459686,34,1683662253684459686,camera_2,35,0,-0.16974899409032534,0.913223523305993,4.624583654170916,-0.7187813874097856,0.6855197494680698,-0.08906516623146439,0.0740498910644726,0.009763787151314318,0.003021208424394175,11613.979832042067
1683662253704032421,35,1683662253704032421,camera_2,36,0,-0.16974584567507184,0.913339632855549,4.62521774398226,-0.7187160681251384,0.6854505399339829,-0.08836386441863202,0.07613539379262714,0.005094472871860489,0.0015764615005118292,11607.821748422895
1683662253723606824,36,1683662253723606824,camera_2,37,0,-0.1697290629342218,0.91329488590622,4.625048827354769,-0.7184816359530249,0.6855834496621719,-0.08938753667472345,0.07595617575158824,0.006020788729074411,0.0018636036531597107,11605.317360550951
1683662253743141651,37,1683662253743141651,camera_2,38,0,-0.16981395614270092,0.9136221455303765,4.626605841180181,-0.7189021121549449,0.6854619940860105,-0.0873131604677066,0.07548522909768328,0.006351773292408325,0.001966106738083329,11606.557466866392
1683662253762449502,38,1683662253762449502,camera_2,39,0,-0.16969730049441112,0.9130978996040764,4.62403291382369,-0.7186526642376826,0.6854024849050387,-0.0884044931041135,0.07711308234718398,0.0021802882838528603,0.0006743728355060428,11610.92351184471
1683662253782327651,39,1683662253782327651,camera_2,40,0,-0.16976562072055318,0.9134796182349614,4.625855548780396,-0.7187791367081534,0.6855699746683684,-0.0886360924315326,0.07412155951383637,0.009978570204111747,0.003089049876982604,11609.088558896008
1683662253801299571,40,1683662253801299571,camera_2,41,0,-0.16975457333853894,0.9133409407939024,4.6251309814496375,-0.7186924399317911,0.685628607991877,-0.08874203205853437,0.07429293663688387,0.009316471114289016,0.0028831831444458534,11611.820006357506
1683662253820901632,41,1683662253820901632,camera_2,42,0,-0.16976050429212025,0.9133765037211834,4.625518315834656,-0.7186718566648516,0.6856433573952794,-0.08832465361606903,0.07485121549598091,0.007658195274416357,0.0023699943232565073,11609.935358758787
1683662253840096950,42,1683662253840096950,camera_2,43,0,-0.16970810975083306,0.9132593519980626,4.62478707554656,-0.7188645596840747,0.685209009176811,-0.08887474271145787,0.07631276879478553,0.005860231598489918,0.0018134755042680164,11607.642546872426
1683662253859933614,43,1683662253859933614,camera_2,44,0,-0.16979931810015264,0.9133868883702161,4.625653934514269,-0.7186871076405579,0.6858637460839565,-0.08738197832264759,0.07378450368032362,0.0026162975991610438,0.0008095059029399003,11615.583790163335
1683662253878787517,44,1683662253878787517,camera_2,45,0,-0.16967932260647245,0.9129228392742985,4.62323936609127,-0.7186223361646363,0.6851185233872839,-0.08998815529032109,0.07808123195975647,0.0039976332627702504,0.0012366888349179006,11606.16073881072
1683662253898300647,45,1683662253898300647,camera_2,46,0,-0.1697713451356818,0.9133321101760374,4.625204215483221,-0.718906992433715,0.6852973844643973,-0.0888418091510923,0.0751489455875956,0.0049524508795002475,0.001532761879526592,11608.773891591176
1683662253917646408,46,1683662253917646408,camera_2,47,0,-0.16967795515175535,0.9128226244719981,4.6226528849943,-0.7187071374803712,0.6854396318501869,-0.08928708506881831,0.07523548407343965,0.009649203057051636,0.002983503692200348,11619.654148213589
1683662253937272071,47,1683662253937272071,camera_2,48,0,-0.16964937794813628,0.9128534574513107,4.622541923910742,-0.7185844455432149,0.6852202818568064,-0.09102211208322489,0.07631864167644761,0.01243083825102076,0.003845671251534096,11610.629188348481
1683662253956714391,48,1683662253956714391,camera_2,49,0,-0.16968523834859062,0.9128950485373102,4.62307098786882,-0.7186674049492492,0.6853984130076478,-0.08850994384495245,0.07689061289047683,0.003996279367129318,0.0012355671733387016,11615.940490328245
1683662253975974559,49,1683662253975974559,camera_2,50,0,-0.16979830947870694,0.9134917061729011,4.626072257324326,-0.7188034645941053,0.6856330973394349,-0.08801104768003919,0.07404654351491191,0.0027214423462282866,0.0008423564994207458,11610.478986565864
1683662253995510339,50,1683662253995510339,camera_2,51,0,-0.16977664113185836,0.9136525779222299,4.626755241718055,-0.7190573779536519,0.6854309418826294,-0.08601909098797092,0.07577352509890228,0.008480183852952905,0.0026239921845165716,11609.81492172158
1683662254014344453,51,1683662254014344453,camera_2,52,0,-0.1696474897855353,0.9128264072035729,4.622457966555087,-0.7186269584363781,0.685470647232336,-0.08950172240147086,0.07546342212312163,0.006564240247826092,0.002029590860930902,11619.204799513333
1683662254034260034,52,1683662254034260034,camera_2,53,0,-0.16970956339998122,0.9130759714275622,4.623822209845109,-0.7187746042702524,0.685149296880847,-0.08927536019553807,0.07722317852678802,0.005250725502264686,0.0016243997713422786,11608.38105018984
1683662254053752422,53,1683662254053752422,camera_2,54,0,-0.1696135647428524,0.9126284978933781,4.621644398095893,-0.7187851897399056,0.685194904230318,-0.08990657105524508,0.07597764611029627,0.001032099055009894,0.00031905825194802873,11620.375653691153
1683662254073062658,54,1683662254073062658,camera_2,55,0,-0.1696665856721395,0.9129709902652313,4.623188859209375,-0.7188838089515608,0.685292391278056,-0.08888168373626595,0.0753687865094441,0.010625181850627996,0.0032855763608810253,11618.170552338412
1683662254092756032,55,1683662254092756032,camera_2,56,0,-0.16985993971243113,0.9136902322350839,4.627106488834555,-0.7191675368715241,0.6855361960712727,-0.08765226743153647,0.07180012395800713,0.0059577090869424865,0.0018445859129874844,11612.42376389695
1683662254112010955,56,1683662254112010955,camera_2,57,0,-0.16976994256071046,0.9135055583619538,4.625938799841058,-0.7189711046107933,0.6855759683441748,-0.08697068921731461,0.07417709606575557,0.00445928008412011,0.0013797333572869177,11614.691627978642
1683662254131517171,57,1683662254131517171,camera_2,58,0,-0.16970474695424437,0.9131016251342337,4.624151898811076,-0.7188764471358685,0.6855041790314652,-0.08828330413847586,0.07420736145491945,0.0037698873929912224,0.0011660073500069403,11618.704770131008
1683662254151008367,58,1683662254151008367,camera_2,59,0,-0.16980500302548468,0.9134705100033995,4.625995488323619,-0.7186651671033544,0.6855891194643133,-0.08785097186322809,0.07596146132837145,0.004901454143691808,0.0015169954726899782,11606.277522716437
1683662254170197486,59,1683662254170197486,camera_2,60,0,-0.16975204683233386,0.9133064551703661,4.625111418637106,-0.7186644212109952,0.685553157871791,-0.08900391731565571,0.07494411331084225,0.006691552393021993,0.002071065709495119,11609.206183544975
1683662254189970493,60,1683662254189970493,camera_2,61,0,-0.1697362912551193,0.9132337477485186,4.62468497716257,-0.7187967817995466,0.6853286625330895,-0.08925833897247694,0.07542386697257221,0.003860103868646547,0.001194582197226506,11609.073501670498
1683662254208604812,61,1683662254208604812,camera_2,62,0,-0.16966634385512108,0.9128196409818097,4.622529363592735,-0.7187535353560781,0.6853647015288971,-0.08931818581075776,0.07543767622892265,0.007066779857268557,0.002184996660637322,11619.63104850231
1683662254227817773,62,1683662254227817773,camera_2,63,0,-0.1696710438840538,0.9130812482812147,4.623788647339836,-0.7187849010870415,0.6853720388036276,-0.08778287158250261,0.07686092539242927,0.006984314095461741,0.002159586110795921,11615.197874442209
1683662254247272014,63,1683662254247272014,camera_2,64,0,-0.1697175355290834,0.9131114721277511,4.624017381290545,-0.718771252933182,0.6853301573256976,-0.09010123086505663,0.07464736842916905,0.004216240355162881,0.0013047948745750519,11611.311092127966
1683662254266683101,64,1683662254266683101,camera_2,65,0,-0.16968285724833015,0.9129564187491933,4.623401576926449,-0.7188166549307385,0.6854076992871437,-0.08899734167710176,0.07482229297807692,0.0016635508800391108,0.0005144837309815426,11618.129657130456
1683662254286063432,65,1683662254286063432,camera_2,66,0,-0.1697512126665981,0.9134881465367429,4.626027503855777,-0.7187694985580555,0.6858666759521254,-0.08630860823354453,0.07421681012932678,0.0027871403872268274,0.0008621955797058371,11616.569613172442
1683662254305402517,66,1683662254305402517,camera_2,67,0,-0.16970824752561678,0.9130889175321746,4.6239381628275895,-0.7184844776388569,0.6854140015722636,-0.09055267566326884,0.07607834626842844,0.0070607436064165086,0.002185341787234809,11606.089880560234
1683662254324576616,67,1683662254324576616,camera_2,68,0,-0.16981552874208794,0.9136590769314841,4.626688640981296,-0.7189959085281094,0.6856078620229762,-0.08662700142908177,0.07404394421914723,0.0044037576008122414,0.001362816048035797,11612.505554243837
1683662254344224214,68,1683662254344224214,camera_2,69,0,-0.16971450215402678,0.9131125281919353,4.624105834025581,-0.7187954693640316,0.6855241695630123,-0.08786566108502672,0.07529483228465943,0.006986862979829311,0.00216064734292311,11617.547162457744
1683662254363466739,69,1683662254363466739,camera_2,70,0,-0.16964813852616445,0.9127559912692877,4.622314714195882,-0.7187929862435642,0.6853663938083907,-0.08943439983857744,0.07490685743411342,0.00699769014318008,0.002163386787088552,11621.681859159613
1683662254383054494,70,1683662254383054494,camera_2,71,0,-0.16981401359962836,0.913698662291305,4.627079546824663,-0.7190592445497784,0.6857119351095035,-0.08723827463839212,0.07171072663136588,0.004991901776520535,0.001545360222015605,11614.378316789776
1683662254402482271,71,1683662254402482271,camera_2,72,0,-0.16981094019254672,0.9135856539562117,4.6263804275451,-0.7189541408076322,0.6854559642834521,-0.08773181503528626,0.07455329016493313,0.004267421056283638,0.0013209222140278306,11608.618588653306
1683662254422092437,72,1683662254422092437,camera_2,73,0,-0.1697082821890184,0.9132880292686899,4.624780009055301,-0.7187540755890149,0.6853457641383017,-0.08930134834894536,0.07562427907046891,0.007390208513243124,0.002287214450718995,11607.941964648075
1683662254441553354,73,1683662254441553354,camera_2,74,0,-0.16970226876816594,0.9129087121368278,4.62316246306249,-0.7187801657087829,0.6853539583666077,-0.08892228140541228,0.07574861717901775,0.00602612596412655,0.0018634521292969885,11617.069848545736
1683662254460238933,74,1683662254460238933,camera_2,75,0,-0.1697370864086553,0.9131914802968369,4.624435519657571,-0.7188865898971636,0.6852228839883548,-0.08871471170796379,0.07616672535485405,0.002657364748301916,0.0008221318858866916,11610.323121518682
1683662254479494333,75,1683662254479494333,camera_2,76,0,-0.16971584574482057,0.913155219153682,4.624386977703624,-0.7188191920545602,0.6853719666377996,-0.08957840611701136,0.07443081108385143,0.0033422534179408103,0.0010343067363994816,11612.052766381854
1683662254500517368,76,1683662254500517368,camera_2,77,0,-0.1697054340960389,0.9131665325599144,4.62428498631876,-0.7185516765511382,0.6855153236556065,-0.08901457987688853,0.07634548924618191,0.005229054047958925,0.0016178612372667162,11609.500383758275
1683662254519854068,77,1683662254519854068,camera_2,78,0,-0.1696389408616841,0.9129160537663753,4.622949542720807,-0.7187292739982012,0.6853991918606498,-0.08914332320821443,0.07556220233809076,0.014047050761291757,0.004343830359323424,11617.912067607542
1683662254538975238,78,1683662254538975238,camera_2,79,0,-0.16972863483290263,0.9132109385721578,4.624633986704474,-0.7188744821717437,0.6852204286020588,-0.0876309862222701,0.0775451698201172,0.004159545889706351,0.001286551922390103,11609.566241665303
1683662254558611631,79,1683662254558611631,camera_2,80,0,-0.16972937118040854,0.9132199996896879,4.624623669793258,-0.7187984282351949,0.6855467377814113,-0.08786066272872756,0.07506659595817011,0.006699622928863391,0.0020723251108667514,11615.604994374673
1683662254577849149,80,1683662254577849149,camera_2,81,0,-0.16978076580229007,0.9136392786267982,4.6266357386904735,-0.7188852529735039,0.6856972934670202,-0.086973877973767,0.07388341721542623,0.006502413933048956,0.0020125298898105767,11611.991805259024
1683662254597187042,81,1683662254597187042,camera_2,82,0,-0.16967539803173792,0.9128879598103616,4.62294753486253,-0.7186415689748008,0.6854432872028776,-0.08974368178529822,0.07528523726182251,0.005908365448703989,0.001827375653725328,11616.319396105828
1683662254616254568,82,1683662254616254568,camera_2,83,0,-0.16972082368421307,0.9130880699762858,4.623998848275001,-0.718627768134772,0.6854156140104062,-0.08893088044676097,0.07662157293698726,0.0039418742671841756,0.0012193758278959835,11610.428638586593
1683662254636289119,83,1683662254636289119,camera_2,84,0,-0.16970967646582205,0.9131881507446473,4.6245281478337255,-0.7189628533467514,0.6853289023328651,-0.08731332659517976,0.07611237832055451,0.0035922649258282036,0.0011109067511773081,11615.275691744839
1683662254655526161,84,1683662254655526161,camera_2,85,0,-0.16977450528548493,0.9134588496644214,4.625761645016495,-0.7188489940731252,0.685611672221739,-0.08676429149050531,0.07526430997170945,0.011168093435117044,0.0034549687406870574,11613.40503960464
1683662254674933433,85,1683662254674933433,camera_2,86,0,-0.16971861790800571,0.9132617484641881,4.624978369338929,-0.7187454641021201,0.6856052766023635,-0.08836731260812435,0.07444179330216809,0.007152825521188788,0.0022132928608313306,11613.669321181573
1683662254694198369,86,1683662254694198369,camera_2,87,0,-0.16978658998464613,0.9136135892910353,4.626632508566112,-0.718867673331726,0.6855479098760355,-0.08732851417034815,0.07501374618047991,0.004635057150153443,0.0014347288175348388,11607.671524179987
1683662254714170455,87,1683662254714170455,camera_2,88,0,-0.16968947193088837,0.9130028363759994,4.6235211393936195,-0.7183919181829505,0.6854734297600009,-0.09049701009102866,0.0764821557428035,0.001677955937338993,0.0005192265673028385,11607.259353606609
1683662254733063459,88,1683662254733063459,camera_2,89,0,-0.16975694244397588,0.9133388981019819,4.625316929054135,-0.7186803816398278,0.6855860801226147,-0.08838662033085495,0.07521995170583692,0.007287628715857863,0.0022552375940855436,11609.736783313452
1683662254752636671,89,1683662254752636671,camera_2,90,0,-0.16975092226459046,0.913408791621775,4.625613859622414,-0.7189105837688956,0.6855780939757296,-0.0873863374194473,0.07425548894247423,0.004276128456695005,0.001323086290805347,11614.605889011698
1683662254771865367,90,1683662254771865367,camera_2,91,0,-0.16970392468928713,0.9131118701290237,4.624078324202011,-0.718808848135705,0.6856009754046493,-0.08850285429831255,0.07370472947556629,0.00563558739668224,0.0017431347887986199,11619.582671909651
1683662254791389465,91,1683662254791389465,camera_2,92,0,-0.16963816876492205,0.9126381584325496,4.621705030626351,-0.718502095406476,0.6853260319332505,-0.09166925198123517,0.07536389780477946,0.0016688338509993628,0.0005161951415614243,11614.879158508993
1683662254811122655,92,1683662254811122655,camera_2,93,0,-0.16961881376606175,0.9126326325952653,4.621577352545393,-0.7188298097582217,0.6851704544803422,-0.09004462384289297,0.07561163023736389,0.0073275156901218,0.0022651313372443306,11621.161152995159
1683662254830372333,93,1683662254830372333,camera_2,94,0,-0.16969599998530402,0.9131221422951529,4.624130238011624,-0.7186699659789189,0.6852728857330146,-0.08972637090313534,0.07657499881527532,0.00631837775290478,0.0019551948924305066,11606.947085774653
1683662254849386453,94,1683662254849386453,camera_2,95,0,-0.16970864809908137,0.9130995728093502,4.623947773845995,-0.7187133874292889,0.6853461013183356,-0.08949248788882837,0.07578181014691054,0.007339250631048344,0.0022708533725854085,11610.94318319421
1683662254869312286,95,1683662254869312286,camera_2,96,0,-0.1697394471365991,0.9133472424606832,4.625324118909916,-0.7187772491559998,0.6855387237250017,-0.08906467532350079,0.07391486980810635,0.004575369646772742,0.0014162614611431675,11610.690290665862
1683662254888472318,96,1683662254888472318,camera_2,97,0,-0.16975654889320815,0.9134408459820345,4.625513130028833,-0.7190395532816565,0.6856222732022718,-0.0868144039560307,0.07326307781703209,0.010521162665099837,0.0032545441674044664,11619.817380546878
1683662254907774686,97,1683662254907774686,camera_2,98,0,-0.16968646566044765,0.9128417677473992,4.622700220909035,-0.7187924617111469,0.6853836287377318,-0.08908276850301866,0.0751727264462725,0.008405155240325257,0.0025987039532595828,11620.345058787992
1683662254927299261,98,1683662254927299261,camera_2,99,0,-0.16982288152637795,0.9136423340197952,4.626710694576331,-0.7189316251304305,0.685661216036335,-0.08747571396379697,0.07317113281490491,0.004442427103640512,0.0013751868923639486,11611.57299841172
1683662254946823120,99,1683662254946823120,camera_2,100,0,-0.16971782327098633,0.9131694720108033,4.624336783827266,-0.7186468022718342,0.6854928777347424,-0.0884298336933021,0.07633120379231448,0.006979431782383472,0.0021590376690726605,11611.466708623342
1683662254965605020,100,1683662254965605020,camera_2,101,0,-0.16977683405041286,0.9135157972854389,4.626135041826948,-0.7188932878646928,0.6853990947781354,-0.08797973919088369,0.07536635212287209,0.005545224805246107,0.0017164542842112193,11606.790209313564
1683662254983965396,101,1683662254983965396,camera_2,102,0,-0.16972911001844962,0.9131664013235604,4.624313142754431,-0.7188919873190653,0.6853399876493237,-0.08840072367832308,0.07542362992072625,0.006656399258645251,0.0020590419124673336,11614.168927806897
1683662255004420280,102,1683662255004420280,camera_2,103,0,-0.16968332149753967,0.9129969548020306,4.6233836876066565,-0.7185577397378546,0.6856188224696217,-0.0894903723805962,0.07478688514289843,0.00634786588489078,0.0019634738727821637,11616.431112608727
1683662255024533748,103,1683662255024533748,camera_2,104,0,-0.16971609469287915,0.9131564069787361,4.624249116961762,-0.7188095184852136,0.6856341651238848,-0.08799903593777773,0.07399214433945471,0.009708089084597304,0.003002530921716699,11619.846699399179
1683662255043759822,104,1683662255043759822,camera_2,105,0,-0.1697159766303924,0.912971026029792,4.623280403779589,-0.7188481056892446,0.6852840194025637,-0.08882578540865221,0.07584980912954022,0.004002220201073214,0.00123760759278054,11616.532767678147
1683662255062748432,105,1683662255062748432,camera_2,106,0,-0.16971395728521899,0.9129879656883235,4.623489930592219,-0.7186011534149195,0.6855182856737796,-0.08932886157158983,0.07548123480676108,0.0038464326062239707,0.001189748925730411,11614.60162021534
1683662255082520484,106,1683662255082520484,camera_2,107,0,-0.16971340259174109,0.9132647048917599,4.624780726085982,-0.7190607423375904,0.6853207873360501,-0.08828397870236425,0.0741148188859052,0.005901881289901212,0.0018259103504070656,11615.814647402003
1683662255102206945,107,1683662255102206945,camera_2,108,0,-0.16965592002762642,0.9127904648709732,4.622455478993799,-0.718542885454904,0.6851871718858432,-0.08955236566753945,0.07870854495268141,0.004923152824630961,0.0015222334424617192,11609.928595554404
1683662255121459484,108,1683662255121459484,camera_2,109,0,-0.16969681390516828,0.913095981877418,4.623998967040885,-0.7187426975102137,0.6853763066268587,-0.08924370793441701,0.0755235968713369,0.005048604711191728,0.0015619446148116805,11612.329592496684
1683662255140858650,109,1683662255140858650,camera_2,110,0,-0.16964498807290385,0.9129465663935039,4.623306506624412,-0.7186996174782391,0.6850987714418726,-0.08991848900888247,0.07762215237823006,0.003402907881536521,0.0010527114939259557,11607.439188032731
1683662255160446643,110,1683662255160446643,camera_2,111,0,-0.16963840562154486,0.9127113413735523,4.621963534638015,-0.7186531804619652,0.6853130885130414,-0.09115415620394905,0.07466255240322586,0.0033721373474691063,0.00104297668527717,11617.49509922028
1683662255179730415,111,1683662255179730415,camera_2,112,0,-0.16975561800107047,0.913426130455288,4.6256478970518495,-0.7188552319768992,0.6855141618541479,-0.08831321021928351,0.07428503387364409,0.00399185843707528,0.0012354765626236487,11610.882887351854
1683662255199067354,112,1683662255199067354,camera_2,113,0,-0.169794180687999,0.9135588995169697,4.626225933174542,-0.7189682322781138,0.6855506580371125,-0.08789150819257491,0.07334888565888892,0.009197078485158272,0.002846787176122449,11612.014671655108
1683662255218253374,113,1683662255218253374,camera_2,114,0,-0.1696931260083147,0.9130805075993516,4.623909054965848,-0.7187530120368218,0.6854003057835971,-0.0887932922249785,0.07573823192811825,0.010626428105751984,0.0032870829989200445,11613.918332608913
1683662255237545013,114,1683662255237545013,camera_2,115,0,-0.16975972221393731,0.9135391565147817,4.626305880320066,-0.7189737291636971,0.6856114292693101,-0.08750542842191472,0.0731884200159963,0.0047008142282720655,0.001454944106655272,11613.521054670735
1683662255257259845,115,1683662255257259845,camera_2,116,0,-0.1698015524027195,0.9135472696803912,4.626293059221608,-0.7189408573339152,0.6856377296951487,-0.08754473099238766,0.07321794417987817,0.005337566399248317,0.001651959448326478,11613.272981596123
1683662255276497840,116,1683662255276497840,camera_2,117,0,-0.16976021566186297,0.9133405042374161,4.625247037926656,-0.7184299462665888,0.6858000604565697,-0.0883394977582525,0.07571540477981575,0.008872668899130076,0.002745499204162155,11608.86191762711
1683662255296094655,117,1683662255296094655,camera_2,118,0,-0.16967393051474228,0.9129408803106362,4.62313589768254,-0.7186443776158191,0.6853470498522005,-0.08984842491458778,0.07600618606682612,0.005586848492384888,0.0017281363117682062,11613.012074743801
1683662255315228223,118,1683662255315228223,camera_2,119,0,-0.169738869681257,0.9132482345275575,4.624584125306069,-0.7186840663722875,0.6854666930157086,-0.08884191325953487,0.07573466813214962,0.0035266626364318654,0.0010911932827901395,11610.282659485358
1683662255334383964,119,1683662255334383964,camera_2,120,0,-0.16971220509514773,0.9130716471544107,4.623899914070023,-0.7186042027471575,0.6855924051441978,-0.088129265304863,0.07618586745283826,0.0063248333462979645,0.0019559537339949103,11615.159686474308
1683662255354290485,120,1683662255354290485,camera_2,121,0,-0.16968365967755994,0.913138305374849,4.62428348032787,-0.7188714917147896,0.6853031722579573,-0.08895806880083958,0.0752980908666254,0.005978146888082847,0.0018495991639658287,11612.640268623276
1683662255374017000,121,1683662255374017000,camera_2,122,0,-0.16973565008058988,0.9132324283714826,4.624535922157529,-0.7188438449685914,0.6854223682378883,-0.08899363517691833,0.07443007838188727,0.0036175138811813667,0.001119325835136802,11613.48504522539
1683662255393254518,122,1683662255393254518,camera_2,123,0,-0.1697117004312365,0.9130494290135629,4.6239064300196695,-0.7188989728633172,0.6852581502759713,-0.08923893964709394,0.07511288802252561,0.002471896121278405,0.0007647176707700301,11613.901443054434
1683662255412687301,123,1683662255412687301,camera_2,124,0,-0.16984454243640287,0.9138296292856072,4.627802394160084,-0.7192182434724377,0.685532175167542,-0.08634437824797535,0.07290681320322821,0.007538792851846665,0.002333976579166052,11610.992751362697
1683662255431954860,124,1683662255431954860,camera_2,125,0,-0.16970061471988612,0.9131424081578063,4.624265946914414,-0.7189206340603189,0.6852708305153501,-0.08724019885837102,0.07711133814338461,0.007426521435263567,0.002296414996695732,11614.114452737416
1683662255451456785,125,1683662255451456785,camera_2,126,0,-0.1696602729741305,0.912881389017267,4.622845402594449,-0.7186739100603866,0.6854820128951986,-0.08947201780367779,0.07494650776254023,0.007753946279990487,0.002397768854977636,11618.769389454766
1683662255470564603,126,1683662255470564603,camera_2,127,0,-0.16965303394212342,0.9128017653534973,4.622563643042576,-0.7186133431253415,0.6854182162826112,-0.08942088465515134,0.07616191474532416,0.005572903362917714,0.0017232091366803936,11617.105999090041
1683662255488454818,127,1683662255488454818,camera_2,128,0,-0.1697447762273201,0.9132102505148361,4.624579386717889,-0.7185971880243944,0.6854936416634916,-0.089778899580228,0.07520836251721683,0.002007217481150292,0.0006212278335297119,11608.153985283894
1683662255508401632,128,1683662255508401632,camera_2,129,0,-0.1697296355614372,0.9132767042075416,4.62511984381052,-0.7186892014025481,0.6853683311236649,-0.08906509723058181,0.07631180076133187,0.00142387836240232,0.00044069424537944413,11605.201479403066
1683662255528941631,129,1683662255528941631,camera_2,130,0,-0.16972645271494935,0.9131971019450249,4.624565079263845,-0.7190315424463688,0.6854240531424236,-0.08709249236515641,0.07484922253860135,0.002877658946090378,0.0008898584631437752,11619.319794266574
1683662255548295021,130,1683662255548295021,camera_2,131,0,-0.16971547143596444,0.9129943665188571,4.623591014274685,-0.718532687934808,0.6854543997988964,-0.08920155306525532,0.07685131811661497,0.006527331774123013,0.0020189910627711844,11610.806617416236
1683662255567921638,131,1683662255567921638,camera_2,132,0,-0.1697730514082195,0.913450879537316,4.625837489458535,-0.71887840806476,0.6856569609020639,-0.08615638014610472,0.07526914736425536,0.0023182104487204924,0.0007170628326247687,11615.23729126103
1683662255587117195,132,1683662255587117195,camera_2,133,0,-0.16979151851575772,0.9135306262134788,4.626284851761631,-0.718919230762469,0.6855957682648234,-0.08669045877497955,0.07482209923979859,0.0034675705392146483,0.00107294762352854,11612.242992735179
1683662255606635332,133,1683662255606635332,camera_2,134,0,-0.1696636748355273,0.9131177923345263,4.624029231289375,-0.7189686961563047,0.6853724596446071,-0.08805958778996312,0.07479381328870895,0.005011668385122903,0.0015499287005780187,11618.650726856167
1683662255626061201,134,1683662255626061201,camera_2,135,0,-0.16977837534267093,0.9133742274805343,4.625560212890939,-0.7186581740601032,0.6856191755066064,-0.0890551186572468,0.07433680700153436,0.0015264635439962149,0.0004725241336592164,11608.335008848695
1683662255645473957,135,1683662255645473957,camera_2,136,0,-0.16974343476889958,0.9132677677179015,4.624800691129721,-0.7187317513889534,0.6854934144099555,-0.08816342653477767,0.07583309678231269,0.00811514534871094,0.002510641878109503,11611.498309280832
1683662255665108919,136,1683662255665108919,camera_2,137,0,-0.16972290007673393,0.9132613451927016,4.624766077497411,-0.7190114067422976,0.685473026409232,-0.08746560264345477,0.07415588576807568,0.009332222849479876,0.0028864278137614497,11618.819748172824
1683662255684267759,137,1683662255684267759,camera_2,138,0,-0.1697344780703581,0.9133162941418175,4.625093928484506,-0.7187007946899789,0.6854934124299533,-0.08892429656074854,0.07523575418846173,0.0067977666622027755,0.0021038528636449765,11608.822321477262
1683662255703700304,138,1683662255703700304,camera_2,139,0,-0.1698418735136205,0.9138226707254673,4.627616398948316,-0.7192440673117023,0.6854006795580525,-0.08661075687179745,0.07356940187587237,0.0055931463721208274,0.001731612695348603,11609.207434654265
1683662255723284721,139,1683662255723284721,camera_2,140,0,-0.16984848174477254,0.913972222903285,4.628410435497842,-0.7190577164428168,0.6856992709592669,-0.08610451957081998,0.0732019257905819,0.005648630394716747,0.0017490819229004756,11608.045606586064
1683662255742583990,140,1683662255742583990,camera_2,141,0,-0.16984102757694705,0.9136845628670192,4.627039220904761,-0.7188702064463005,0.6856610675996268,-0.08706747140857868,0.07425484552882584,0.006898088831803761,0.002135325837133267,11608.552608452392
1683662255761773109,141,1683662255761773109,camera_2,142,0,-0.16975435860673188,0.9133584451566852,4.625293391391043,-0.7187414679674796,0.6854683864495583,-0.08793454033682505,0.07623194880063673,0.003511827831971459,0.0010866210422728517,11608.779878619476
1683662255781227827,142,1683662255781227827,camera_2,143,0,-0.16974509167425325,0.9134831081022632,4.626018232320534,-0.7188940109143693,0.685743879061619,-0.08705037590047644,0.07327322469060575,0.007391866383841261,0.0022872278555836068,11616.426248465523
1683662255800943374,143,1683662255800943374,camera_2,144,0,-0.16974248280002258,0.9133319533747686,4.625363999106571,-0.7190449208342082,0.6852366581281569,-0.08673937973734758,0.07682059738548748,0.00538961922575254,0.0016670888776072399,11611.261837525995
1683662255820003509,144,1683662255820003509,camera_2,145,0,-0.1697315021732146,0.9132799874594268,4.625018224661338,-0.7187459455430438,0.6853272721931263,-0.08919615526436522,0.07599237882721883,0.005137961910804734,0.001590329772727327,11606.141305300813
1683662255839357852,145,1683662255839357852,camera_2,146,0,-0.16967755683251057,0.9128706398623067,4.622855686525758,-0.7185177421862933,0.6853914941087562,-0.08862896806719786,0.07820268528779614,0.005205222842050716,0.001609269786155658,11612.866565403325
1683662255858671188,146,1683662255858671188,camera_2,147,0,-0.16972804286648274,0.9131578184800077,4.624374796133823,-0.7189599189395004,0.685370641472795,-0.08725920405344727,0.07582578765588482,0.007564194063888863,0.00233900903952262,11617.002852284902
1683662255878308296,147,1683662255878308296,camera_2,148,0,-0.16970296177760838,0.9131454185709396,4.624409813011114,-0.7189209687143014,0.6853829271389148,-0.08721383433914559,0.0761356094692064,0.0005868542211828753,0.0001814714013392169,11616.17505950932
1683662255898124217,148,1683662255898124217,camera_2,149,0,-0.16966054771380612,0.9128551375576124,4.622583669781883,-0.7185545062295641,0.685376797857477,-0.09064232397815256,0.0756441381711636,0.005668236306519248,0.0017533610122069843,11613.71798545009
1683662255917369365,149,1683662255917369365,camera_2,150,0,-0.16962200596003857,0.9126173402726429,4.6217321347302045,-0.7183416004035442,0.6855415814775719,-0.09107167208378797,0.07565735746619379,0.001357827481115237,0.0004199190460577952,11616.289587362786
1683662255936622381,150,1683662255936622381,camera_2,151,0,-0.16979647694559322,0.9136862986376941,4.626921892027521,-0.7189762258997898,0.685624965546488,-0.08779122999848485,0.07269314373188658,0.008510232233675197,0.002634911052312286,11610.64082434849
1683662255956074714,151,1683662255956074714,camera_2,152,0,-0.16967099284190326,0.9130208263443917,4.6236002041387625,-0.71886272784738,0.6854795306336208,-0.08879171242365354,0.07396095861337881,0.007244850741699338,0.0022406823866119316,11620.256817457848
1683662255975491046,152,1683662255975491046,camera_2,153,0,-0.1696946469489503,0.913117740071513,4.624129680481801,-0.7187439561508873,0.6855573807351769,-0.0887060041503798,0.07449461754897514,0.003361413750099018,0.0010398238974618935,11616.480735501624
1683662255994282484,153,1683662255994282484,camera_2,154,0,-0.16974490686802743,0.9131923060192169,4.6244383048581374,-0.7188578421554923,0.685472667898217,-0.08734261719109322,0.07577527009691337,0.004897727150819264,0.001514577646281281,11616.490876920088
1683662256013939619,154,1683662256013939619,camera_2,155,0,-0.16973358274314684,0.9133747293467622,4.625301241765458,-0.7187878772832299,0.6855464065791594,-0.0877241178861014,0.07532988144273021,0.009492382450844161,0.0029369034379393127,11612.025051858862
1683662256033411979,155,1683662256033411979,camera_2,156,0,-0.16973318696813905,0.913339363502683,4.625088379975941,-0.7187958255798566,0.685472642860159,-0.08828349483783937,0.0752717846108254,0.012382008586428128,0.003831384748799862,11611.178461030937
1683662256053365707,156,1683662256053365707,camera_2,157,0,-0.1696886105524836,0.9131153422945046,4.6239977651431206,-0.7188105287330344,0.6854191077022477,-0.08806783290412978,0.07586914647444269,0.007272981267306022,0.0022492663317618252,11615.82472415889
1683662256072829008,157,1683662256072829008,camera_2,158,0,-0.16975402769551917,0.9133747369096856,4.625450819302455,-0.7187168870899902,0.6854939525450975,-0.08916070801245146,0.07479602517843226,0.005924514407524839,0.0018339761765114608,11607.30703321865
1683662256092200517,158,1683662256092200517,camera_2,159,0,-0.16967110574352554,0.9129706609828315,4.623344595582029,-0.718745644212067,0.6853438614942439,-0.0887291068080788,0.07639133487104309,0.005019000702304766,0.0015520709421029694,11615.167221897198
1683662256111328363,159,1683662256111328363,camera_2,160,0,-0.1696414236125064,0.912762849227996,4.622256555903508,-0.7186580943353762,0.6852828802808276,-0.09047696005726223,0.07570889735727811,0.003980217006755993,0.0012309547805576771,11615.830204515743
1683662256130571603,160,1683662256130571603,camera_2,161,0,-0.16977527230109007,0.9134677498539269,4.625917894637872,-0.7189334452972235,0.6854510206472382,-0.08786233888157852,0.07464455059133401,0.0024056898982962593,0.0007445391160960281,11610.238505803223
1683662256150093317,161,1683662256150093317,camera_2,162,0,-0.16976389643386802,0.9133958979145012,4.625648056888795,-0.7189318055297479,0.6856059726491401,-0.08670293482835247,0.07459296453227798,0.001673104939982295,0.0005175588111285308,11616.010437954737
1683662256169209957,162,1683662256169209957,camera_2,163,0,-0.16976777630678885,0.9132355575800604,4.624783474946985,-0.7187203101224537,0.6856388858055885,-0.08827756743993342,0.07448157608189547,0.0032516986393602565,0.001005981247693887,11614.743534141538
1683662256189241886,163,1683662256189241886,camera_2,164,0,-0.1697860343656454,0.9135184701617841,4.6262405622839005,-0.7188935785641614,0.6855878188043568,-0.08679098106537346,0.07502460271143327,0.006768926527001895,0.002094571560179953,11611.585902015651
1683662256208251714,164,1683662256208251714,camera_2,165,0,-0.16972153971920614,0.9132758457024622,4.624890835451828,-0.7189729313619206,0.6854240736699332,-0.08672754663198738,0.07582938650521688,0.005513134063221514,0.0017048652334684465,11616.384061742103
1683662256227931737,165,1683662256227931737,camera_2,166,0,-0.1698436926594485,0.9137424276504571,4.6272779736478045,-0.719066345718041,0.6853704206726825,-0.08717595072950769,0.07490881481547926,0.0011730346886906773,0.00036317141992537905,11605.213814009305
1683662256247103214,166,1683662256247103214,camera_2,167,0,-0.16974762687996353,0.9132807492981292,4.6248865919147395,-0.7185299168028765,0.6854283112622575,-0.08957160896963035,0.07667930389624754,0.0058332613843958825,0.0018055573267454629,11603.407592134901
1683662256266658782,167,1683662256266658782,camera_2,168,0,-0.16973536071064094,0.9132693445804554,4.624863786319928,-0.7186394052823841,0.6854627944972028,-0.08827757213144533,0.07684551251728654,0.009450163168366998,0.002923906786232122,11607.981649425754
1683662256286223888,168,1683662256286223888,camera_2,169,0,-0.1696915633696836,0.9131143757605101,4.624146868556944,-0.7186145158689269,0.6855133474583464,-0.08882568717774854,0.07599095562184409,0.002917066478403285,0.0009024079312387889,11611.8823426505
1683662256305682659,169,1683662256305682659,camera_2,170,0,-0.1697164374985106,0.9131721363175543,4.6243531746976485,-0.7188483367628251,0.6852298440023775,-0.08833527820091784,0.07690258933848641,0.002639157901285216,0.0008164029112858935,11610.16724214278
1683662256324199914,170,1683662256324199914,camera_2,171,0,-0.16983363546025432,0.9136370989047129,4.626723569515295,-0.7189217457296118,0.685771285650957,-0.08689213593607177,0.07293163926711266,0.008323914647917263,0.002576169683676638,11614.250173691595
1683662256344336032,171,1683662256344336032,camera_2,172,0,-0.16972503954901538,0.9131603330061805,4.624125206778616,-0.7188592977259582,0.6854197305736521,-0.08889627544692645,0.07442147018803418,0.009439868983463384,0.002920182476189466,11615.920365765054
1683662256363536119,172,1683662256363536119,camera_2,173,0,-0.16971659328111385,0.9131441437195662,4.6243126235697956,-0.7185489378350355,0.6854630568401718,-0.0900895723048431,0.07557572762071241,0.002956549942609854,0.0009150652180824606,11607.362179781318
1683662256382682561,173,1683662256382682561,camera_2,174,0,-0.1696634611601614,0.9128300553525899,4.622740117825997,-0.7187187972674598,0.6854164743410447,-0.08890402376661541,0.07578668560118834,0.006747010251274332,0.0020859361677322934,11619.168123101761
1683662256402437686,174,1683662256402437686,camera_2,175,0,-0.1697626910681405,0.9135124299312416,4.625947177830778,-0.7188446813215136,0.685553718211238,-0.08843117067555555,0.07388065806061124,0.007880476274294779,0.0024394222906492123,11610.02673346596
1683662256421971559,175,1683662256421971559,camera_2,176,0,-0.1696376307484736,0.9129481550657554,4.623317557348267,-0.7186789281804584,0.6853503158264438,-0.08902088694643492,0.07662130560915358,0.003127002826659009,0.0009670752924927869,11613.60474715941
1683662256441303968,176,1683662256441303968,camera_2,177,0,-0.16965133763736368,0.9127871768762847,4.622412254734008,-0.7184828647852862,0.68530460240341,-0.08959950166726596,0.07817866867381651,0.008187569706933573,0.002531580624053233,11611.492154835256
1683662256460118055,177,1683662256460118055,camera_2,178,0,-0.16971371308290237,0.9131409251146565,4.624166436164878,-0.7185871415148622,0.6855774464041968,-0.08940236276234541,0.07498868290555596,0.0021299603540683165,0.0006590269259745378,11612.283563716017
1683662256479875802,178,1683662256479875802,camera_2,179,0,-0.16968295734633804,0.9127020155930698,4.622342911019454,-0.7184251090095946,0.685208558217325,-0.09095161811724799,0.0779897278629779,0.0026630626671249047,0.0008237743678150228,11607.158685385191
1683662256499100208,179,1683662256499100208,camera_2,180,0,-0.16962850727469997,0.9128439003180668,4.622568161539139,-0.718828190924533,0.6853918688986348,-0.08825420347359243,0.07573119270843316,0.00735108501976356,0.002272188314704091,11622.703354396508
1683662256517324686,180,1683662256517324686,camera_2,181,0,-0.1696322491767653,0.9127146758091043,4.621997026066637,-0.7184066092819552,0.6855207950648073,-0.09087810832060453,0.07546093493846445,0.0029027289419900626,0.0008977655241917603,11616.265062434137
1683662256538272857,181,1683662256538272857,camera_2,182,0,-0.16971181675095243,0.9131719478910032,4.624367147860942,-0.7187630378102966,0.6854980623385629,-0.08829421760216208,0.07534078009824456,0.008188321880879812,0.0025328918058673757,11614.54544323214
1683662256557874202,182,1683662256557874202,camera_2,183,0,-0.16970665638539362,0.9131630259807381,4.624251430466457,-0.7187705904099061,0.6853817004712742,-0.08861580752903955,0.07594736122391557,0.0048582811577944085,0.0015029035655168353,11612.26237152901
1683662256576864004,183,1683662256576864004,camera_2,184,0,-0.16966756056876803,0.9128993179729417,4.6231143843943,-0.7186747159495208,0.6852608466962862,-0.08926647967396095,0.07717331304656389,0.0033292958687525243,0.0010296378297028647,11612.11279123166
1683662256596707582,184,1683662256596707582,camera_2,185,0,-0.1696686000950967,0.912995518831756,4.62335548488012,-0.7185775652626456,0.6855244896732521,-0.08790346267034449,0.07730095736793341,0.0060018889780621976,0.0018554827680247231,11615.64121582091
1683662256616178750,185,1683662256616178750,camera_2,186,0,-0.16985196655774126,0.913802309431987,4.627714002415664,-0.7191045967832481,0.6859242051707425,-0.08553694039430786,0.07127408697463657,0.0018133924313588068,0.0005612177745909807,11618.459184160427
1683662256635509967,186,1683662256635509967,camera_2,187,0,-0.16971575409580636,0.9133029879755861,4.625010556857145,-0.7190147708456863,0.6853556773612406,-0.08794738554638037,0.07463653388252102,0.003747520109754987,0.0011594287381733095,11614.549324423191
1683662256654824018,187,1683662256654824018,camera_2,188,0,-0.1696853087040799,0.9132172090865385,4.624743191487276,-0.7188254578981688,0.6857068860233508,-0.08674376683183216,0.07464279237456423,0.002947129964013584,0.000911334453633327,11620.334351699774
1683662256674327611,188,1683662256674327611,camera_2,189,0,-0.16974259086206334,0.9131337117135527,4.624324015515467,-0.7185768125417714,0.6854697731564767,-0.08978192741050006,0.07561587185619131,0.00898038168088533,0.002779040007911453,11608.306539006002
1683662256693576335,189,1683662256693576335,camera_2,190,0,-0.16975132957937777,0.9134104337446962,4.625697871291117,-0.7188889708200363,0.6855280134768363,-0.08758192331880912,0.07469536183452023,0.003091710910666734,0.0009566950482112423,11612.278915372788
1683662256713139533,190,1683662256713139533,camera_2,191,0,-0.16966735510539327,0.9129867212887012,4.623352174772593,-0.7183444247414476,0.6855389796983501,-0.09005337533583922,0.07686341358310002,0.008834584063151851,0.002733212014237817,11608.788331514457
1683662256732556343,191,1683662256732556343,camera_2,192,0,-0.1697246097598874,0.9132211355026575,4.624629872056539,-0.7189551249911682,0.6853750495019322,-0.08885737659846049,0.07395225752603629,0.0043418292625574395,0.0013434383592304372,11614.829921787405
1683662256751706600,192,1683662256751706600,camera_2,193,0,-0.16979905066623902,0.9134635469731497,4.625779076471025,-0.7188209292526732,0.6853752720600449,-0.08855706253279637,0.07559665860674752,0.005935259672696702,0.0018372123884168384,11605.72774061517
1683662256771351575,193,1683662256771351575,camera_2,194,0,-0.16974325855698008,0.9132819283802078,4.624895575070295,-0.718772700557113,0.6853529089054824,-0.08980845642624934,0.074777244820619,0.004293158504879102,0.0013289695449083348,11607.681962704726
1683662256848559617,194,1683662256848559617,camera_2,196,0,-0.16974651996784734,0.9132485621634499,4.6247544604225554,-0.7187953866316026,0.6855080068163508,-0.0879428228026846,0.07535266860101664,0.005291005611070432,0.0016367853963065928,11613.863353819615
1683662256868390560,195,1683662256868390560,camera_2,197,0,-0.1696195557834302,0.9126791126650028,4.621807102811414,-0.7185057556858887,0.6852662345523379,-0.09152272085594035,0.07604773761155552,0.003977255822974257,0.0012302370816216393,11613.109588114537
1683662256887923240,196,1683662256887923240,camera_2,198,0,-0.16968194822713648,0.9129006130790388,4.623017313133303,-0.7183935637518744,0.6855459095126198,-0.08971894858924138,0.07673332896751862,0.0038832589489175007,0.0012010654451162458,11612.060724262261
1683662256907130002,197,1683662256907130002,camera_2,199,0,-0.16959097246921143,0.9126796572577928,4.621851898149796,-0.7187731009510916,0.6852380057081753,-0.08909196878548974,0.07665980681008808,0.003180119951139204,0.000982897200058789,11620.576443926895
1683662256926643371,198,1683662256926643371,camera_2,200,0,-0.16975443775924814,0.9135028428661005,4.625932780260311,-0.7190637082111019,0.6854871838220247,-0.08778304777209295,0.07313577013535605,0.00960355278220959,0.002972087337022871,11614.478780259262
1683662256945965051,199,1683662256945965051,camera_2,201,0,-0.16985433804520636,0.9139568928529744,4.628518245647833,-0.7194229761640971,0.6855387243351123,-0.08449265913779114,0.07299472142562625,0.0037774134398205206,0.001169163251097346,11613.863624513384
1683662256965718269,200,1683662256965718269,camera_2,202,0,-0.16971481614932382,0.9129941722091808,4.623627926018756,-0.7187066973848096,0.6854055628125648,-0.0895564783841081,0.07522987956422555,0.002829729739460163,0.0008753844182936342,11613.736168374307
1683662256985134601,201,1683662256985134601,camera_2,203,0,-0.16981053700980953,0.9136659003737826,4.6267454733181035,-0.7187534502645756,0.68577375573997,-0.0881857136523391,0.07301447513125062,0.013896661781473085,0.004302973374199464,11609.20869041476
1683662257004009485,202,1683662257004009485,camera_2,204,0,-0.16976205729030386,0.9134046435716836,4.625369053191931,-0.7186225387983436,0.6856097984354266,-0.08871035455958123,0.07517528858787444,0.006417688477085904,0.0019863418058962976,11608.387311654398
1683662257023331642,203,1683662257023331642,camera_2,205,0,-0.1697929868400117,0.9134973423128426,4.625945494266818,-0.7187084453581546,0.6857191058476911,-0.08784673726792523,0.07436685550490604,0.011414313907152973,0.0035325158295025586,11610.854955469695
1683662257043089389,204,1683662257043089389,camera_2,206,0,-0.16970097862142797,0.9132022565619629,4.624408101804812,-0.718673719490144,0.6855152971313097,-0.08924519411394265,0.07491433534870849,0.0034131146530853584,0.0010561081938414154,11611.905667084557
1683662257062777042,205,1683662257062777042,camera_2,207,0,-0.1697237682105357,0.9132601983796733,4.624684674426644,-0.7186731299230606,0.6855042325314965,-0.09008502709973944,0.07401058978575012,0.0015603561187162995,0.00048301188063696644,11609.72588531411
1683662257081879615,206,1683662257081879615,camera_2,208,0,-0.16975946479024828,0.9134305475267521,4.62558549559339,-0.7186502567935119,0.6856742850945959,-0.08865745213555791,0.07438036939586544,0.006297408224781975,0.0019491550490889156,11609.616853832498
1683662257101230382,207,1683662257101230382,camera_2,209,0,-0.169684267795139,0.9130302477299835,4.6238655796690065,-0.7185778401339978,0.6854413644954795,-0.08918461164354781,0.0765645384817507,0.003518288111081347,0.0010883933696378496,11610.354519652286
1683662257120736360,208,1683662257120736360,camera_2,210,0,-0.1696649997866846,0.9129360941054444,4.623245041853256,-0.718828959215626,0.6852668058945837,-0.08900607530599432,0.07597532948687309,0.0032749128731666133,0.0010127913603119316,11615.783824423212
1683662257140274763,209,1683662257140274763,camera_2,211,0,-0.16981904305215761,0.913598410348727,4.626627917831844,-0.7189429692985093,0.6854470267322781,-0.0877323590884991,0.07474231471455202,0.003514272000757046,0.0010879316089580553,11606.886274638673
1683662257159231185,210,1683662257159231185,camera_2,212,0,-0.1697480600958877,0.9131857391193858,4.624540659703835,-0.7188093182645752,0.6856349842598752,-0.08879972128147216,0.07302357040921971,0.003681307949591428,0.0011389796202652517,11617.885757216956
1683662257179119825,211,1683662257179119825,camera_2,213,0,-0.16966987934645114,0.9129036704739758,4.623134876256316,-0.7186032800430351,0.6852867648620082,-0.09022553565156817,0.07649005512314364,0.0034181343944510445,0.0010574653656176822,11610.260899033196
1683662257198489665,212,1683662257198489665,camera_2,214,0,-0.16969091473979503,0.9129392980247019,4.623135081991903,-0.718581287767896,0.6853359038475576,-0.08995217826496993,0.07657830889142561,0.006576835497980937,0.002034388921138351,11611.000038311231
1683662257217653989,213,1683662257217653989,camera_2,215,0,-0.16975579164404117,0.9133103563848459,4.625141182515596,-0.7187165252470018,0.6854380624790322,-0.08816499467746862,0.07647321462700774,0.0019053909491049126,0.000589568737004736,11608.008350628403
1683662257236798286,214,1683662257236798286,camera_2,216,0,-0.16979971571109875,0.9137141737239511,4.62713606597757,-0.7193945836461613,0.6855319560841678,-0.08546314803350273,0.07220402022175972,0.006849552213679999,0.002119364226129288,11619.361132376012
1683662257256229877,215,1683662257256229877,camera_2,217,0,-0.16972523087608948,0.9131304540535318,4.624127979067664,-0.7188996747854346,0.6854254768765323,-0.08871079782233048,0.0741995120718477,0.006031257027643733,0.001865688741321856,11617.220418745306
1683662257275861501,216,1683662257275861501,camera_2,218,0,-0.16973752416286908,0.9132285392587925,4.624820776051192,-0.7188235722560811,0.6855950824039598,-0.0891330584500029,0.07285158092905551,0.0034173975145677105,0.0010575721621502365,11615.700809952024
1683662257295504808,217,1683662257295504808,camera_2,219,0,-0.1696701583455351,0.9130046417449302,4.623604226667304,-0.7187591384336143,0.6852988599563182,-0.0890689056001503,0.07627256070128072,0.005321000891854055,0.0016458335655278346,11612.930889517127
1683662257314682006,218,1683662257314682006,camera_2,220,0,-0.16977459982803816,0.9134165081417289,4.625480707701994,-0.718776542350085,0.6855194044442087,-0.08884512323999436,0.07436378402276303,0.007359106297371909,0.00227783898422605,11609.474306853663
1683662257334271430,219,1683662257334271430,camera_2,221,0,-0.1697098462067896,0.9129011368473097,4.623130183984131,-0.7185512504204208,0.6854972413215407,-0.08924631118078785,0.07624125261581995,0.005688542543794029,0.0017591456208694573,11614.593658438822
1683662257353286027,220,1683662257353286027,camera_2,222,0,-0.16972107943886877,0.9133156181742047,4.6251632571680235,-0.7187861440533644,0.6854924722535993,-0.0881331255449421,0.07535981543384959,0.0026397624606033787,0.0008167933532534157,11611.117394744186
1683662257373125553,221,1683662257373125553,camera_2,223,0,-0.16975637689608108,0.9133442015882846,4.625229457644273,-0.7187909657750591,0.6853706852217661,-0.0890978905805508,0.07528703243521248,0.006563474686117843,0.0020315770722173845,11607.33092532173
1683662257392447948,222,1683662257392447948,camera_2,224,0,-0.16973507752625805,0.9133425437495588,4.625150897157059,-0.7186690050224527,0.6855898316537363,-0.08894929341424897,0.0746288627418723,0.003060249873669818,0.0009471405827952711,11610.060841991186
1683662257411952733,223,1683662257411952733,camera_2,225,0,-0.1697286436760236,0.9133416076946415,4.6252937516506485,-0.7189510524998771,0.6854983234676967,-0.08933662577703766,0.07225233509769531,0.006407387234503403,0.0019834137753317405,11614.150331063607
1683662257431244850,224,1683662257431244850,camera_2,226,0,-0.16989304796230292,0.9139348891788054,4.628347261613193,-0.7189432580465417,0.6857936857665513,-0.08656569985214792,0.07289713218817503,0.0031680013198638335,0.0009810692757430473,11607.40252405079
1683662257450738668,225,1683662257450738668,camera_2,227,0,-0.16972641977633826,0.9132204825914454,4.624615071782662,-0.7188678171089109,0.6853736984178302,-0.08846107076716211,0.0752767826149719,0.0071869548701215535,0.0022235124517695506,11612.851117410177
1683662257470444440,226,1683662257470444440,camera_2,228,0,-0.16969923667790182,0.9131927935796058,4.624582099881811,-0.7187839254255958,0.6853473457838107,-0.0885826146313957,0.07616957766669603,0.0032010880386224017,0.0009903690909159161,11610.133878895107
1683662257489455938,227,1683662257489455938,camera_2,229,0,-0.16971273660787345,0.9131783336535755,4.624318708048648,-0.7186520698555516,0.6854129589764772,-0.08947068113602807,0.07578440061448365,0.0033490738278487697,0.0010363148194996903,11609.103545124734
1683662257509140729,228,1683662257509140729,camera_2,230,0,-0.1697276367267866,0.9132242820365504,4.6245515967100745,-0.7187766107529299,0.6855525978499414,-0.08893688186469637,0.07394626738323376,0.003458550971117802,0.001070146966828243,11614.930098749432
1683662257527106285,229,1683662257527106285,camera_2,231,0,-0.16976978981226562,0.9135429529972379,4.626251880974193,-0.7187767061862296,0.6855926340375775,-0.08776300984790121,0.07496959983838843,0.0028172403399366885,0.0008719903306468103,11608.059117788565
1683662257546692132,230,1683662257546692132,camera_2,232,0,-0.16969473065797258,0.9131720927967687,4.624373719139839,-0.7184682954288544,0.6855452498916751,-0.08916419054056401,0.07668615220340076,0.005979417430353351,0.0018501453833836203,11607.549426717509
