%time,field.header.seq,field.header.stamp,field.header.frame_id,field.image_seq,field.transforms0.fiducial_id,field.transforms0.transform.translation.x,field.transforms0.transform.translation.y,field.transforms0.transform.translation.z,field.transforms0.transform.rotation.x,field.transforms0.transform.rotation.y,field.transforms0.transform.rotation.z,field.transforms0.transform.rotation.w,field.transforms0.image_error,field.transforms0.object_error,field.transforms0.fiducial_area
1684305240194323778,9,1684305240194323778,camera_1,12,0,-0.08716815523473007,0.8194004893694203,5.256158569925084,-0.6970052807229118,0.7136560912048625,0.06118569083877387,-0.03368877212297985,0.003458445949945599,0.002330269628996913,3107.5699313008217
1684305240200985193,10,1684305240200985193,camera_1,13,0,-0.08860970925064832,0.8206609609140477,5.26488565710826,-0.6972825956144415,0.7134418303875874,0.06293267270765619,-0.02893467145601099,0.003697961277794093,0.0025010753316877248,3098.731899025034
1684305240207719564,11,1684305240207719564,camera_1,14,0,-0.09166357488030652,0.8213483935878436,5.2696343698897845,-0.6973884209018052,0.7139135483215359,0.05700447927526184,-0.026968968419222087,0.00047099584480747575,0.0003186887317208287,3098.4617622779924
1684305240214393854,12,1684305240214393854,camera_1,15,0,-0.09323630541055902,0.8207408603637365,5.265819331116223,-0.6972459662511412,0.713418779386024,0.06309784803857064,-0.03000615501476,0.00313387718051672,0.0021206014176637653,3095.967667301885
1684305240221056938,13,1684305240221056938,camera_1,16,0,-0.09471839816260827,0.8205411082341936,5.26489620051651,-0.6974789909594615,0.713406155727217,0.061003672842334836,-0.029210717903377783,0.0027061767177656293,0.0018295047167516142,3098.954802768423
1684305240227738142,14,1684305240227738142,camera_1,17,0,-0.09795523366956727,0.820283447294079,5.264456837872063,-0.6977739516795317,0.7134583558064664,0.05719206308211266,-0.028596412500102895,0.004470773274078964,0.0030191215167951137,3102.150855060667
1684305240234697103,15,1684305240234697103,camera_1,18,0,-0.0996036102356536,0.8211412425620769,5.269368680191817,-0.69457667332873,0.7139024904906771,-0.05889523650164489,0.06661704028414057,0.005036927934270352,0.0034070762902261393,3101.3775035766903
1684305240241104364,16,1684305240241104364,camera_1,19,0,-0.10127537366593468,0.820821884569179,5.26911593418712,-0.6980100564979588,0.7134843735105365,0.05616798345850746,-0.02381527699185402,0.004272897087503225,0.002890036279193652,3099.657514275458
1684305240247728586,17,1684305240247728586,camera_1,20,0,-0.10443254480861022,0.8206052534286502,5.268531486548284,-0.6981662893877316,0.7136840096862546,0.052587020493472886,-0.021297228841690313,0.004272676262189634,0.002887023215275473,3103.641549727299
1684305240254325389,18,1684305240254325389,camera_1,21,0,-0.1061575519057184,0.8201370714991811,5.2647839329818105,-0.6947203920093948,0.7133544017011306,-0.06129204362999305,0.06879214989803532,0.005193051139940508,0.0035094012790647376,3102.379668677284
1684305240261092662,19,1684305240261092662,camera_1,22,0,-0.10751540594980782,0.8200000615891887,5.265588446337348,-0.6977697563376618,0.7137649128231901,0.05479152013210165,-0.025591125113942972,0.0007173968042479828,0.0004844896051005512,3102.4668519205293
1684305240267769098,20,1684305240267769098,camera_1,23,0,-0.1104315829343098,0.8190891010856293,5.2607811157777595,0.6981736290760454,-0.7129121382404022,-0.06056560420239266,0.025331292897940786,0.0034379480639472604,0.0023207036015685588,3103.354440295603
1684305240274464845,21,1684305240274464845,camera_1,24,0,-0.11203746783329362,0.8202244029661139,5.268369777585237,-0.6980120918601087,0.7133263110191642,0.05854928912116571,-0.022730472240410558,0.005470550881000236,0.003701538046190943,3097.2098696741737
1684305240281094074,22,1684305240281094074,camera_1,25,0,-0.11323864198994364,0.8184910190667081,5.257700654694145,-0.6974916482095677,0.7135413991012776,0.05898344045984682,-0.02974938987629444,0.011334691094816662,0.007638525754614281,3104.8289354120498
1684305240287778854,23,1684305240287778854,camera_1,26,0,-0.1158762029645999,0.8179431979342782,5.255203675201525,-0.6974187638542877,0.7132039740509668,0.06180573778677359,-0.03357394821134664,0.010732628550613299,0.007231199386108821,3102.376893152425
1684305240294680833,24,1684305240294680833,camera_1,27,0,-0.11733912587654305,0.8196323052888708,5.266463953125312,-0.6980536197358491,0.7129009453593099,0.06301907763100052,-0.022846923950916007,0.00830484252946917,0.005621627686233067,3094.7962108571073
1684305240301058292,25,1684305240301058292,camera_1,28,0,-0.1185635367709878,0.820026029985059,5.2693029848798725,-0.6976324711482391,0.7135768966593105,0.06010103542774693,-0.022468050520284208,0.013314164389157668,0.009015314400208085,3093.7335650005853
1684305240307772874,26,1684305240307772874,camera_1,29,0,-0.12049954443284581,0.8195143360278636,5.266383426871414,-0.6980802344133638,0.7126281606114737,0.06554092981453384,-0.023440937351933325,0.015688161976868287,0.010625674680595663,3091.810969267796
1684305240314334154,27,1684305240314334154,camera_1,30,0,-0.12151941601176233,0.8196044662039766,5.267032646539548,-0.6978851310172626,0.7131039626252705,0.06291818240718047,-0.0219176804368441,0.012297395049245097,0.008325941083058832,3093.8654215188585
1684305240321218252,28,1684305240321218252,camera_1,31,0,-0.12213523668259021,0.8184041321176266,5.259580830241125,-0.6971750017354513,0.713416721341647,0.06468152564498184,-0.028282484076648594,0.012014002553769387,0.008114650133971687,3097.1664750446216
1684305240327760219,29,1684305240327760219,camera_1,32,0,-0.12362760805143971,0.819186730657743,5.264754092272082,-0.6972761017252763,0.7133959214861549,0.06547330969878037,-0.024197993445936043,0.01271297928178683,0.008605508325250547,3092.6764681140203
1684305240334333181,30,1684305240334333181,camera_1,33,0,-0.12442583376111638,0.8206799423056305,5.274688452793663,-0.6977083962626489,0.7136880258499647,0.059634907579812796,-0.017206781829557524,0.012187091298983432,0.008268668205907112,3089.3847120135333
1684305240341096401,31,1684305240341096401,camera_1,34,0,-0.12472797630465679,0.8189241201934594,5.263570506952906,-0.6974295285662822,0.7131488280049066,0.06665774439604441,-0.023823243084710795,0.0039049835468176752,0.002643295043101084,3093.0548988347873
1684305240347865104,32,1684305240347865104,camera_1,35,0,-0.12515465052652275,0.8178183715419918,5.25667955991192,-0.6968881198149424,0.713464278424838,0.06638931990500817,-0.030135196615762513,0.010581462527625263,0.007142655892968075,3097.255057619187
1684305240354280710,33,1684305240354280710,camera_1,36,0,-0.1254074760192579,0.8182938956594489,5.2593222919906095,-0.6973354620232112,0.7134197213416766,0.06384788591856193,-0.02605766814911473,0.008118398502119817,0.005482299069629344,3098.844726072508
1684305240361276149,34,1684305240361276149,camera_1,37,0,-0.1253529402764506,0.8177409128665367,5.256176764287726,-0.6969716554277221,0.7135275783856164,0.0651679026830359,-0.029360702876348885,0.013727339071920142,0.009261275112592,3099.340531182357
1684305240368241310,35,1684305240368241310,camera_1,38,0,-0.12519514750612903,0.8177939910232752,5.256329032981679,-0.6973908985949391,0.7132854499086753,0.06321479468548329,-0.029558268528357193,0.007379714064882137,0.004976929819333175,3100.638880059123
1684305240375196933,36,1684305240375196933,camera_1,39,0,-0.12501191093350272,0.8181797311408794,5.259019447138562,-0.6971000681567779,0.7132481060837849,0.06803015252389029,-0.026467574337024947,0.008970861992565915,0.006063755216031475,3095.542973374947
1684305240381835460,37,1684305240381835460,camera_1,40,0,-0.12483734936625943,0.8196429659713242,5.26797050891191,-0.6976507011173426,0.7131252084494749,0.06631368023892029,-0.018396524605031286,0.009200031345244497,0.006237354675230739,3091.2329555880287
1684305240388543844,38,1684305240388543844,camera_1,41,0,-0.12379037735477104,0.8191621937214968,5.264695424865495,-0.6974395166480755,0.713260274175146,0.06435952408784285,-0.02637714087009343,0.017654380193562247,0.011946177794858385,3092.286169566271
1684305240395317077,39,1684305240395317077,camera_1,42,0,-0.12291189631541366,0.8181349082280878,5.257842741617877,-0.6977943070015528,0.7126929684423362,0.06844627509830971,-0.02160891654480349,0.014747707231435925,0.009964769610945803,3099.9118664655252
1684305240401892423,40,1684305240401892423,camera_1,43,0,-0.12222440783790396,0.817231902594164,5.2518252898114985,-0.6974821851594222,0.7126462191298762,0.06907184578621646,-0.029716121294927976,0.006659089078311808,0.004490166166966231,3101.567756864126
1684305240408727884,41,1684305240408727884,camera_1,44,0,-0.12089253389966187,0.8201205095234945,5.270002974928024,-0.6982218380732161,0.7126046260923357,0.06498162951327136,-0.02140793159700531,0.010147532462724485,0.006881900169462011,3089.133886057185
1684305240415311098,42,1684305240415311098,camera_1,45,0,-0.1195750208819991,0.8181762420399996,5.257073882881281,-0.6976394714846885,0.7128365384385891,0.06573722664492783,-0.02901472602814091,0.013815950864227489,0.009325094173262858,3099.300045000274
1684305240421390295,43,1684305240421390295,camera_1,46,0,-0.11867735864147641,0.8187046305952037,5.2592716390900485,-0.6937606798190805,0.7131578300141094,-0.06350717952800827,0.0779029317479866,0.010132472874829546,0.006840442049529669,3098.6171557661155
1684305240428232431,44,1684305240428232431,camera_1,47,0,-0.11612743974100942,0.8179072663647158,5.254779173640252,-0.6972681700741828,0.713237344608456,0.06370378087700014,-0.032425569528598194,0.0103138596896315,0.0069513487124838015,3102.113309878506
1684305240435119867,45,1684305240435119867,camera_1,48,0,-0.1153399670728229,0.8208795380705737,5.273508615976626,-0.6977480620804826,0.7141203914684657,0.051594282119011875,-0.02275386570410063,0.008044114918448031,0.005444993968968028,3095.3862770291744
1684305240441668748,46,1684305240441668748,camera_1,49,0,-0.11364812252851034,0.8191039208887647,5.261638373107141,-0.6981818696457749,0.7130484545716481,0.059188982744335414,-0.024508012008427008,0.006381051905918867,0.004307216295154157,3103.231681981414
1684305240448498010,47,1684305240448498010,camera_1,50,0,-0.11104300580980211,0.820885999577094,5.271909150624088,-0.6981400820423271,0.7138398742400222,0.05081066715576746,-0.02124466742756936,0.004691474663559347,0.003173103593389825,3099.517925898254
1684305240454898595,48,1684305240454898595,camera_1,51,0,-0.10941169247813914,0.8201779536737012,5.266193075821839,-0.6940950734314335,0.7140056880114241,-0.057298099685761994,0.07172750029065875,0.004738958086818457,0.0032016262507556857,3101.157189003715
1684305240461532354,49,1684305240461532354,camera_1,52,0,-0.10819230613852801,0.8217369489752387,5.276478150462611,-0.6983181226748323,0.713949689866074,0.04906886934598209,-0.014828551687250053,0.0025547384284436703,0.0017303121624245152,3099.1449578359025
1684305240468189477,50,1684305240468189477,camera_1,53,0,-0.10481234623999185,0.8210245542728571,5.271028057052808,-0.6983037311938739,0.7135225791724924,0.05356762274658924,-0.01969613680464802,0.004948355723172426,0.0033474608946204546,3100.8197023020466
1684305240474732398,51,1684305240474732398,camera_1,54,0,-0.1031193767713894,0.8193804381294136,5.2599944169373245,-0.6976876175981807,0.7134923059943067,0.05867884759061858,-0.026786384275194787,0.0056350753584410995,0.0038005583940080518,3106.383434821444
1684305240481599092,52,1684305240481599092,camera_1,55,0,-0.10145771748118391,0.8206557941207789,5.267723234249413,-0.6980705731161329,0.7131062865693049,0.059521018527528675,-0.025182282622827065,0.0027740851073758677,0.0018768924633583723,3097.951263145311
1684305240488407135,53,1684305240488407135,camera_1,56,0,-0.0981250296245664,0.8198941046549881,5.261724316546216,-0.697545264423887,0.7133996477656235,0.06104998863552588,-0.027648608198174534,0.0034296143130632117,0.002315857505579116,3102.961486947256
1684305240495107650,54,1684305240495107650,camera_1,57,0,-0.09654927503409945,0.8198711174029154,5.2609823045542585,-0.6970305332689134,0.7137236154393729,0.060980925717804335,-0.03206810180855591,0.0026426019612699747,0.0017838832543827373,3101.3457192063806
1684305240501773595,55,1684305240501773595,camera_1,58,0,-0.09505209230685654,0.8210339745443316,5.268159595998254,-0.6975632414210393,0.7133932109780124,0.061461405420018836,-0.026422459999971396,0.0027912252116948366,0.0018895782550020965,3096.4236849163435
1684305240508467912,56,1684305240508467912,camera_1,59,0,-0.09192653343538164,0.8213656940825588,5.269709130088193,-0.6976932781005308,0.7134277018942276,0.059019226103492264,-0.027599543717272242,0.003214211610611528,0.002175800811763242,3096.4028920305427
1684305240515004634,57,1684305240515004634,camera_1,60,0,-0.09035829817018362,0.8202271741540743,5.260791386095172,-0.6933382327097164,0.7130037229146683,-0.07237076477171198,0.0753011193751312,0.00208735658088699,0.0014114709271058653,3097.2167679278637
1684305240521285772,58,1684305240521285772,camera_1,61,0,-0.08878092768740165,0.8208731433804161,5.265523064770517,-0.697243898037722,0.7132310540339257,0.06521168988831152,-0.029997428435261927,0.003423742367886007,0.0023175991905186127,3095.373651481349
1684305240527966499,59,1684305240527966499,camera_1,62,0,-0.0859878758226601,0.8218235085359438,5.270995137443241,-0.6971557506399946,0.7139317743436985,0.05920031996354534,-0.027759737899660845,0.005375711421947926,0.003640703114644933,3095.7900754145808
1684305240534712553,60,1684305240534712553,camera_1,63,0,-0.08448350629130061,0.8197561518625263,5.257461231664739,-0.6967130023457397,0.7139539048465937,0.0607595617354837,-0.03419195481978662,0.0025794540997594595,0.0017387210752688364,3106.5444053971446
1684305240541263580,61,1684305240541263580,camera_1,64,0,-0.0832307610136002,0.8204882212883212,5.260771776450444,-0.6930784014596172,0.7132249364405976,-0.07443358778544402,0.07356738733211807,0.005211348528973758,0.0035251188530217655,3097.9982277285308
1684305240548199415,62,1684305240548199415,camera_1,65,0,-0.08076123040382702,0.8191685523932067,5.251740712753927,-0.6924957409748327,0.7132635683752894,-0.0737152228678733,0.07918836200987037,0.004489477199967951,0.0030253795224257267,3105.7916669030674
1684305240554790735,63,1684305240554790735,camera_1,66,0,-0.07988419850503245,0.8220510875982693,5.271097243786817,-0.697109149068967,0.7136634583610388,0.0647409106764815,-0.02306332520003648,0.009123149735387415,0.0061875224439645335,3094.9504512257417
1684305240561659574,64,1684305240561659574,camera_1,67,0,-0.0788026802115927,0.8207677239279881,5.262783094629968,-0.6965542182963073,0.7139152568676748,0.0650572487912784,-0.030079583855040323,0.007847455213777721,0.005305746315293857,3100.4661879044734
1684305240568175077,65,1684305240568175077,camera_1,68,0,-0.07726453671887201,0.822143252835512,5.27092359702762,-0.6970421903375121,0.7139388527568916,0.0596963681006943,-0.029323080486935747,0.009860270249191672,0.006677927367033566,3096.0868446502136
1684305240574861288,66,1684305240574861288,camera_1,69,0,-0.07647503664906136,0.8220259109514302,5.270032331923944,-0.697506852326287,0.7134722560024273,0.061634863608636126,-0.025351024843727317,0.01233287068316713,0.00835361846142447,3098.0710082920264
1684305240581451177,67,1684305240581451177,camera_1,70,0,-0.07564404222484475,0.8206805929386287,5.261146160772926,-0.6969432000716184,0.7135902214600235,0.06512020333928971,-0.028609977763296258,0.013329799345228821,0.009006839506045528,3103.80376225314
1684305240588188171,68,1684305240588188171,camera_1,71,0,-0.07467646995292604,0.8206042396249711,5.260428405439794,-0.6973720751275195,0.7135283908477789,0.06000379112373999,-0.030805345920721677,0.01560424652416259,0.010526020253952724,3107.6754551109625
1684305240594731330,69,1684305240594731330,camera_1,72,0,-0.07443521212175355,0.8208256459215717,5.261903392433811,-0.6972336507051697,0.7134012719730534,0.0632638970556069,-0.03035689050131079,0.012076704704668373,0.008158508400993879,3103.601360711734
1684305240601400613,70,1684305240601400613,camera_1,73,0,-0.07427295736037648,0.8213511682902033,5.2641752801591375,-0.6938715359224661,0.7135764380582608,-0.0652521052974683,0.07136610847546267,0.010246027959510684,0.006921125319896595,3104.84182385297
1684305240608196258,71,1684305240608196258,camera_1,74,0,-0.07404063803870617,0.8217057244786403,5.266561029882431,-0.6941758966312193,0.7135999949226428,-0.0633695457870384,0.06985107335890617,0.010716905584558845,0.007242507462298214,3104.4827106546145
1684305240614890336,72,1684305240614890336,camera_1,75,0,-0.07416513105587581,0.8226684410531164,5.272330974591177,-0.6944126939153453,0.7138964857593408,-0.058677053586741704,0.06855524438053488,0.02015213790582493,0.013635625168231436,3101.860900429426
1684305240621250629,73,1684305240621250629,camera_1,76,0,-0.07430810324539872,0.8217392835073366,5.266921973817909,-0.6941040963822386,0.7136860428569436,-0.06039274989354518,0.07228036646897035,0.013044110033661127,0.008810556705274194,3104.642366625485
1684305240627974748,74,1684305240627974748,camera_1,77,0,-0.07472433857287039,0.8202523816899585,5.258251513836969,-0.697055088061198,0.7138082095562571,0.05874580550537283,-0.03377831425057909,0.010486667393706739,0.007066058860892611,3109.270839182893
1684305240634566545,75,1684305240634566545,camera_1,78,0,-0.0752257603335717,0.8213277902264738,5.2640473061480915,-0.6938643092142122,0.7138088331548864,-0.06073290801234517,0.07308066771115167,0.01568910083733499,0.010586868159748327,3107.0775806674487
1684305240641361236,76,1684305240641361236,camera_1,79,0,-0.07578274838982073,0.8210233692639156,5.263643251672007,-0.6971910694601925,0.7136560235037345,0.06258616722049831,-0.02650781874160526,0.011190472228918225,0.007563299273724653,3104.239159800345
1684305240648024797,77,1684305240648024797,camera_1,80,0,-0.07721389618701144,0.8213675011296975,5.2649026125747165,-0.6934546608449684,0.7135503605488787,-0.06608454728518728,0.07482879741828587,0.00998819200322032,0.006750740482650409,3100.4920600305777
1684305240654702901,78,1684305240654702901,camera_1,81,0,-0.07800076948598164,0.8204916844926577,5.260794859290584,-0.6968140006057435,0.7137688073368622,0.06385349521137691,-0.030117592566852713,0.005666183715220541,0.0038269607450113624,3103.9448443424208
1684305240661661386,79,1684305240661661386,camera_1,82,0,-0.07879752216861013,0.8206349203336128,5.261461649288281,-0.6971537794217129,0.7134468881557509,0.06370675387975329,-0.03019263368773691,0.010068651055917144,0.006801564351526969,3103.0887880108803
1684305240668398618,80,1684305240668398618,camera_1,83,0,-0.0809620405084634,0.821129654394284,5.264481071687433,-0.6934306240626534,0.7134565457602334,-0.06596970335124995,0.07603765622179134,0.0064017861150205135,0.00432635700771183,3099.552233224269
1684305240674841880,81,1684305240674841880,camera_1,84,0,-0.08186178039882666,0.819949990904745,5.25817151754222,-0.6967630576536388,0.7136698458383444,0.06425826391121525,-0.03267213108051473,0.004111695569008589,0.0027746360142244892,3104.3287759767836
1684305240681622505,82,1684305240681622505,camera_1,85,0,-0.08333369470172913,0.8208200577170025,5.262844553243047,-0.6931975341787396,0.7133476872057763,-0.0721275807806979,0.07355180390316086,0.00387355632847175,0.002620516989736917,3097.590977039654
1684305240688368558,83,1684305240688368558,camera_1,86,0,-0.08599031897685647,0.8213577532720964,5.2681654090609085,-0.6969176413119853,0.713911262275848,0.06171258500191139,-0.028776165071569514,0.0036190832615830004,0.002449962046286481,3096.480191776646
1684305240694852828,84,1684305240694852828,camera_1,87,0,-0.08710124139626092,0.8187358020118138,5.251766512403976,-0.6968996445310462,0.7130792424823464,0.06544118452464265,-0.03957689681261045,0.006362056999932975,0.0042840991918816325,3104.9289215960302
1684305240701518774,85,1684305240701518774,camera_1,88,0,-0.08876828085618926,0.8213236584181576,5.268435784614833,-0.6973809090284109,0.7134791835382905,0.06353465931174472,-0.0238886886702107,0.003385362506378442,0.0022931646365884494,3097.062832640484
1684305240708139181,86,1684305240708139181,camera_1,89,0,-0.09167269677042314,0.8206400156692246,5.265207161227819,-0.6973302397286455,0.7130903909013618,0.06476617647545103,-0.03221759688250597,0.005526487890165299,0.003740028496984943,3094.1211942648515
1684305240714730262,87,1684305240714730262,camera_1,90,0,-0.09329245785434555,0.8205834158984513,5.264059644085438,-0.6934017705784382,0.7138634068400631,-0.06693133276424373,0.07150676630772473,0.004950365226250142,0.003347307488437502,3099.865853060036
1684305240720958709,88,1684305240720958709,camera_1,91,0,-0.09488399221079838,0.8212277055739321,5.269486536386256,-0.697661614777507,0.7134965843022043,0.05872371044674219,-0.027247408803336103,0.0019175350898876786,0.0012979145491419386,3096.547353514704
1684305240727625370,89,1684305240727625370,camera_1,92,0,-0.09809608085018015,0.8202029654500081,5.263912786822895,-0.6973786529076444,0.7135375022089288,0.061155217705890844,-0.028058630713337532,0.0025873766862787306,0.0017486490258930055,3100.0577184017757
1684305240734329462,90,1684305240734329462,camera_1,93,0,-0.09967328147369435,0.8205379021126328,5.26637519562437,-0.6977755992584356,0.7137533583593939,0.05646331629577779,-0.021846061958642825,0.004004406160674989,0.0027058871446289556,3104.102481719748
1684305240741157770,91,1684305240741157770,camera_1,94,0,-0.10133547622456705,0.8206443401677349,5.2679401283091725,-0.697897401629134,0.7136964513965564,0.05536671138255241,-0.022607948468342822,0.004461754841031506,0.0030158591727054923,3102.293173881306
1684305240747998714,92,1684305240747998714,camera_1,95,0,-0.10453218511410525,0.8211092549131469,5.271589562420122,-0.6980938312107041,0.7138700535895656,0.05241998776833258,-0.01751268956955286,0.006702913640765473,0.004534066073840056,3102.1244583800444
1684305240754848241,93,1684305240754848241,camera_1,96,0,-0.10616035300881474,0.8199367165415261,5.264464413424247,-0.697576753407664,0.7139215923056725,0.05523165906252593,-0.025536189656194582,0.005100427981233224,0.003443110669230034,3103.805355394027
1684305240762181043,94,1684305240762181043,camera_1,97,0,-0.10755863817658397,0.8202596680047105,5.267047926614888,-0.697772201355895,0.7137971559506459,0.05307603527196109,-0.028116003477159104,0.004512761210207827,0.0030479349338766613,3100.3700346190017
1684305240768398284,95,1684305240768398284,camera_1,98,0,-0.11050394406597924,0.8188983361456059,5.259290126459896,-0.6979177303960562,0.7129546528807874,0.06131538771092856,-0.029102023371449185,0.003610739964642562,0.002436342870662254,3102.153944559745
1684305240774809360,96,1684305240774809360,camera_1,99,0,-0.11210667135166476,0.8201882663706042,5.268036246458751,-0.6981434111510829,0.7133469297374716,0.05801696611209405,-0.01913026250737218,0.007746982868411579,0.0052406621312758965,3099.964616155484
1684305240781543970,97,1684305240781543970,camera_1,100,0,-0.11336173901027972,0.8184494708506368,5.257786868114523,-0.6975249292012329,0.7131926638657473,0.06256119519203539,-0.030021562368382396,0.008307297262945212,0.0056037055249699855,3101.731971661503
1684305240788513422,98,1684305240788513422,camera_1,101,0,-0.11596200189689604,0.8178301424287953,5.254251212692645,-0.6973258334482502,0.7131733364310878,0.06388375485065244,-0.032238797676642915,0.007873385460698046,0.00530586642630951,3102.7535861656083
1684305240795552015,99,1684305240795552015,camera_1,102,0,-0.11747550706206106,0.819964010078495,5.268058448783356,-0.6983409062784568,0.7125326646108111,0.06382994998807351,-0.023300600106459547,0.01421530923107639,0.009629740973037973,3091.975972171116
1684305240802073955,100,1684305240802073955,camera_1,103,0,-0.11854876347524959,0.8198197925243046,5.266697526320091,-0.69395210949666,0.7136793140159976,-0.061000699910329484,0.07328861494966911,0.01500537975516636,0.010153144024895824,3094.9211545897406
1684305240808863162,101,1684305240808863162,camera_1,104,0,-0.12053909910546869,0.8194502626191769,5.266268489827759,-0.6980842756565684,0.7126252099354894,0.06729714795573838,-0.01774114208464684,0.016024033451685682,0.010857914389191734,3093.5959677896462
1684305240815188884,102,1684305240815188884,camera_1,105,0,-0.12171434689064341,0.8207226640788963,5.273047625984091,-0.6944116562775161,0.7138411783740425,-0.0602371320026545,0.06778430210284624,0.016910618403926492,0.01146991553979977,3090.601159673533
1684305240821227312,103,1684305240821227312,camera_1,106,0,-0.12212577781585905,0.8177669608682234,5.255607521300486,-0.697533847700988,0.7128262790284102,0.06742480080890915,-0.027912783341059816,0.011263111620792188,0.007601975297627403,3099.7677940718127
1684305240828059196,104,1684305240828059196,camera_1,107,0,-0.12358903477601073,0.8188731731642037,5.263081567503774,-0.6975010051115963,0.7128329293212875,0.0684335330454816,-0.026046387435852608,0.019105670347926207,0.012934309457389898,3090.9956933450303
1684305240835195064,105,1684305240835195064,camera_1,108,0,-0.12437985261035092,0.820083480447648,5.270784466473182,-0.6973916535761729,0.7134796518548163,0.06592094765610856,-0.0156874654275889,0.01493195680086501,0.010132284442080617,3089.7561249209098
1684305240841621160,106,1684305240841621160,camera_1,109,0,-0.12479017391094219,0.8196024782060115,5.267646405935362,-0.6976084180363372,0.7131960419736344,0.06609303468118773,-0.01804471015595133,0.012674102224991657,0.008590912045940511,3091.9954820447597
1684305240847979545,107,1684305240847979545,camera_1,110,0,-0.12523456156335172,0.8184221323067538,5.260337974027289,-0.697175215075442,0.7136145050791597,0.06367435912052369,-0.025428991638046492,0.012958045190316625,0.008752997158588982,3098.229272046125
1684305240854686021,108,1684305240854686021,camera_1,111,0,-0.12521954609335867,0.81748437741615,5.253293037353846,-0.6929597098742466,0.713645595488715,-0.06707271023416664,0.07757613081612799,0.016578629263676703,0.011180941620955273,3101.4503112994134
1684305240861335039,109,1684305240861335039,camera_1,112,0,-0.12532206593033127,0.8174672936447709,5.254174618448651,-0.6966900398312713,0.7135406743437475,0.06775177840285769,-0.0298729138220886,0.008640757194370963,0.005829482577962651,3099.1899515430555
1684305240867907762,110,1684305240867907762,camera_1,113,0,-0.1252313913043047,0.8182119632449113,5.259171659119671,-0.696933097196984,0.7135371599555557,0.06637902115222864,-0.027254448166327272,0.006627275331993587,0.004477973684410872,3096.2217040968226
1684305240874713420,111,1684305240874713420,camera_1,114,0,-0.1250127779868735,0.8182101198277569,5.258958605463512,-0.6969525856480662,0.7133905951225347,0.0687157756292334,-0.02467983648373042,0.009672886182670482,0.006539611349209759,3096.1435973778134
1684305240881274938,112,1684305240881274938,camera_1,115,0,-0.12482849353932565,0.8195968909836338,5.266564432098847,-0.6940660684781755,0.7136978750924297,-0.0640888132760892,0.06928390641889245,0.011038607932277955,0.007476348629593783,3093.6171797825955
1684305240888021945,113,1684305240888021945,camera_1,116,0,-0.12379267622244677,0.8194868690936772,5.26677640093471,-0.6976802613669318,0.7131330384347379,0.06472414574584172,-0.022233023844711722,0.014524810860166326,0.009837594482792316,3092.04083877476
1684305240894773006,114,1684305240894773006,camera_1,117,0,-0.12288870712604416,0.8181039218395555,5.257739616989702,-0.6975190016574777,0.7126851930304658,0.06969650296267588,-0.026257483441048775,0.00932390327216126,0.006302095390839035,3096.1673673167243
1684305240901458024,115,1684305240901458024,camera_1,118,0,-0.12220369698984546,0.8174322815770323,5.253491198244619,-0.6973556643993208,0.7128324765244898,0.06837930337139836,-0.029819601147346466,0.013994560111314058,0.009439800243701566,3100.153275775141
1684305240907831907,116,1684305240907831907,camera_1,119,0,-0.12088992736862178,0.8210288648732245,5.2763580868696005,-0.6977505877338985,0.713477016911933,0.062168958166748785,-0.01515533885829514,0.01908156969875563,0.012961319455899099,3087.2427942260406
1684305240914351701,117,1684305240914351701,camera_1,120,0,-0.11950475706670957,0.8177036078905062,5.254078064635562,-0.6977039195315414,0.7126589397644796,0.06655833535739555,-0.02994101265062374,0.00897916019312106,0.0060551913852262005,3101.5225090224403
1684305240921220302,118,1684305240921220302,camera_1,121,0,-0.11876450059591298,0.8196717691582299,5.266560115527799,-0.6979070541759999,0.7129948475108052,0.06289971532583225,-0.024651916078695213,0.011527929236763157,0.007803357051428529,3093.4241182398396
1684305240928057193,119,1684305240928057193,camera_1,122,0,-0.11617791416014867,0.8184188380581321,5.258049474568929,-0.6973885840058671,0.7134866189118553,0.05909306969991176,-0.033075922443099204,0.01117401990632061,0.007531692246190158,3101.4179361544084
1684305240934694290,120,1684305240934694290,camera_1,123,0,-0.11517507827316781,0.8204844238078601,5.270046085945114,-0.6942913059104832,0.7132801525752501,-0.057856934304482716,0.07644332300620066,0.006884344096761197,0.004659551242770516,3092.0083072624398
1684305240941295623,121,1684305240941295623,camera_1,124,0,-0.11357573905530545,0.8188067335405943,5.260211956384914,-0.6977124555763795,0.7131471221008103,0.06234571210937763,-0.027046695814559693,0.010895939776673913,0.00735610119017199,3100.918287678564
1684305240948294162,122,1684305240948294162,camera_1,125,0,-0.11076204413421903,0.8194416328029499,5.26246657430065,-0.6981026436513995,0.7130063428719323,0.05999875739958805,-0.025976971760097087,0.005826157255796716,0.003934577156173201,3101.3659719587886
1684305240954849481,123,1684305240954849481,camera_1,126,0,-0.10939826847327228,0.8202324933063976,5.267300656016779,-0.697647170961425,0.7140371461747742,0.05396487148822554,-0.02296021292069818,0.004867967756581493,0.0032889434200386093,3102.202594451839
1684305240961593389,124,1684305240961593389,camera_1,127,0,-0.10797771343348542,0.8211886447726086,5.273192831394864,-0.6982848650206971,0.7136285257406845,0.05074203318004063,-0.023618226033294443,0.006931164301931858,0.004689780245037529,3097.3686277300594
1684305240968106985,125,1684305240968106985,camera_1,128,0,-0.10470423171464074,0.8208690740921463,5.270065783908716,-0.6980331785340529,0.7136218546547877,0.05467423138547954,-0.022455704110872037,0.00561086782545317,0.0037951213513139443,3099.6993898985093
1684305240974900007,126,1684305240974900007,camera_1,129,0,-0.10312537183078485,0.8196844879637039,5.26066890623601,-0.6943727366787478,0.713081158999828,-0.0633324333122924,0.07314893114374658,0.0036843934940407053,0.0024868008719347878,3103.628388232901
1684305240981642246,127,1684305240981642246,camera_1,130,0,-0.1013961103202094,0.8208224471574528,5.268427283684065,-0.6981575226094399,0.7132744320605651,0.05760595537036244,-0.022298253258847635,0.0032524936978006735,0.002200107864790071,3100.2422086990564
1684305240988670825,128,1684305240988670825,camera_1,131,0,-0.09799306524435199,0.8194207245626395,5.258917314070582,0.697566309419605,-0.7131562093349765,-0.061945841626988594,0.031179765149904774,0.006629144307225943,0.004472536473669011,3103.2749273655945
1684305240995093107,129,1684305240995093107,camera_1,132,0,-0.09658185912688769,0.8206477963841703,5.264617052120329,-0.6937950151986498,0.7133418751073419,-0.06694747344195984,0.07286893647903062,0.0016000454197637737,0.001082204434714434,3097.642073047464
1684305241001729965,130,1684305241001729965,camera_1,133,0,-0.09495212921323888,0.8208659960257905,5.266906469968361,-0.6973865751662742,0.7135027902774147,0.06139569641276482,-0.028218814755226487,0.0018805285217240453,0.0012724494439177482,3096.8653408305245
1684305241008155584,131,1684305241008155584,camera_1,134,0,-0.09181292430194897,0.820924043284118,5.265645476281427,-0.6933209378271201,0.71362818869473,-0.0681269128358746,0.07348203330239893,0.00501126644667238,0.0033913116455803714,3096.057839520508
1684305241015193939,132,1684305241015193939,camera_1,135,0,-0.09031215013801835,0.8209990865339473,5.265806645538373,-0.6934385409599182,0.7135959993025406,-0.06821117701774086,0.07260148084332003,0.0066215778933838,0.00448137881804246,3096.678377489209
1684305241022057533,133,1684305241022057533,camera_1,136,0,-0.0886944678743323,0.821041991529008,5.2669634789406246,-0.6972504565361286,0.7134840687227065,0.06363033626906564,-0.027082556107911836,0.006634425546508282,0.004491349900479526,3096.846206559101
1684305241028371095,134,1684305241028371095,camera_1,137,0,-0.08594992917087926,0.8217456581243119,5.270284699533835,-0.6970138660808477,0.7142163859357616,0.05767644937694107,-0.0272038919854938,0.004181719210464507,0.002830269940358568,3098.138926883228
1684305241035004615,135,1684305241035004615,camera_1,138,0,-0.08441450561917899,0.8196033110617998,5.256610375912607,-0.696370502600254,0.7141965806230073,0.06184607153700392,-0.03415304920667717,0.004995374474674463,0.0033668316459722516,3106.7149407756515
1684305241041662931,136,1684305241041662931,camera_1,139,0,-0.0832606027295743,0.8209098130260466,5.264604735534074,-0.6969012114737336,0.7137106601230989,0.06474929861748215,-0.027446737540865192,0.003914922766853124,0.0026488726716328652,3099.451517313487
1684305241048154115,137,1684305241048154115,camera_1,140,0,-0.08089010764822088,0.8204400305511071,5.25976830576952,-0.6930426009828798,0.7135776260407627,-0.06763643122373696,0.07696907176412672,0.00489583658054471,0.0033039328882739807,3103.1003944987897
1684305241054887533,138,1684305241054887533,camera_1,141,0,-0.07991091863468024,0.8224801798791467,5.273672053826266,-0.6974711621481807,0.7136622828188198,0.06060191918532509,-0.023399389832911722,0.0066519477986730635,0.0045110299096489314,3095.153775066138
1684305241061588048,139,1684305241061588048,camera_1,142,0,-0.07867885221623672,0.820301109663304,5.259704478166982,-0.6967136190085306,0.7132953970917055,0.0687366959100779,-0.032788354810631304,0.007746589137241244,0.005236878037727102,3099.0699074378936
1684305241068214893,140,1684305241068214893,camera_1,143,0,-0.07718619259979384,0.822178401942669,5.270260288521325,-0.6937408484047496,0.7141397035611787,-0.0618189515223638,0.07004667218994579,0.010255732107907534,0.006938776554072113,3100.581408552942
1684305241074843645,141,1684305241074843645,camera_1,144,0,-0.0764898411283203,0.8226955340053526,5.274528492121142,-0.6976788853437057,0.71370656175159,0.058292620300176845,-0.021658418151555975,0.013351175759453326,0.009051036486313613,3097.4826100337086
1684305241081525564,142,1684305241081525564,camera_1,145,0,-0.07566743970634182,0.82159060388713,5.266928160237334,-0.6971883135879785,0.7138000687986729,0.060282716754240004,-0.027998414956719415,0.015775970765389502,0.01066888175630436,3101.3819732123525
1684305241087979078,143,1684305241087979078,camera_1,146,0,-0.07464438056591088,0.8193846636006462,5.252747396642057,-0.697047580597527,0.7133773810147677,0.062448685270572596,-0.036297993713454366,0.01237464853329584,0.00832851569732949,3111.029689055402
1684305241094897270,144,1684305241094897270,camera_1,147,0,-0.07444780130219918,0.8214464231466854,5.2659059116385,-0.6973715555518751,0.7138708786502096,0.058072525813233494,-0.02624621626076824,0.01900131395086646,0.012838020845498437,3105.590271419612
1684305241101516008,145,1684305241101516008,camera_1,148,0,-0.07417145535319354,0.8207286515637564,5.260359167710719,-0.6938257515844124,0.7132704700591821,-0.06707076097050862,0.07316130126450374,0.01072525733616203,0.007237534589591183,3106.7498497528727
1684305241108175039,146,1684305241108175039,camera_1,149,0,-0.07400956429158385,0.8214589647700818,5.2647818297018665,-0.6941460599463135,0.7133754557503618,-0.06091107806857525,0.07447514459533748,0.015362749516498297,0.010369514254421727,3105.369402944344
1684305241114871263,147,1684305241114871263,camera_1,150,0,-0.07416158958373159,0.8222074039675739,5.269698085087655,-0.6943353726085741,0.7136458047246557,-0.06261332540134018,0.06846624880623312,0.014939043147023767,0.010106612024631544,3102.1939657793855
1684305241121504306,148,1684305241121504306,camera_1,151,0,-0.07433361912370992,0.8217367300012144,5.266571565879612,-0.6943400589232788,0.7133753803019394,-0.06307395886346678,0.0707751726721377,0.009254194505047053,0.00625356847278803,3104.053405186976
1684305241128215551,149,1684305241128215551,camera_1,152,0,-0.07479220087181682,0.8202774226432568,5.258440930394254,-0.6969557940928927,0.7137855686607617,0.06020097136556878,-0.033743534175017055,0.009309229673817754,0.006275463813838584,3107.901502904598
1684305241134682893,150,1684305241134682893,camera_1,153,0,-0.07521287159751908,0.8207653281732582,5.261431862002282,-0.6968103218898268,0.7142329878230158,0.05760404528235647,-0.03175513155872605,0.009774114878382534,0.006592076521245878,3107.6777422187156
1684305241141603469,151,1684305241141603469,camera_1,154,0,-0.07575032116398936,0.8211489541527739,5.264462038278553,-0.69745245697452,0.7137058256886244,0.05889931384886433,-0.02673827717818132,0.01508653414202854,0.010189729517958485,3106.1231404254218
1684305241148810863,152,1684305241148810863,camera_1,155,0,-0.0772547243884413,0.8213928563476716,5.265383302460372,-0.6936247981612887,0.7136233450564026,-0.06531537944624838,0.07321380999521013,0.008366534078959376,0.005654611470813425,3101.6192784383898
1684305241155560731,153,1684305241155560731,camera_1,156,0,-0.07797233084331856,0.8201343965572712,5.258297581427128,-0.6972702773888638,0.7132929632424365,0.06267465997931294,-0.03315412275055173,0.009715381776914,0.006553421255989186,3105.8876412400277
1684305241161880493,154,1684305241161880493,camera_1,157,0,-0.07883671989540375,0.8209049883389601,5.263828388470834,-0.6970746730509072,0.7136886690374109,0.06227918202158797,-0.02926922215061266,0.006096927041653544,0.004120884667656366,3102.0681501167132
1684305241168805360,155,1684305241168805360,camera_1,158,0,-0.08101732623657898,0.8213713368377492,5.266204813421686,-0.6934652804075843,0.7138957097465973,-0.06316142583578802,0.07395576218945399,0.004401013080496341,0.0029740214069151633,3101.1065998551194
1684305241175401926,156,1684305241175401926,camera_1,159,0,-0.08193318867370003,0.8203145240067093,5.260585802917553,-0.696850906682197,0.7133121724395481,0.06727200935318998,-0.0325428219943635,0.002998945885337889,0.0020273208272040635,3098.947271348792
1684305241181622743,157,1684305241181622743,camera_1,160,0,-0.08342471370896898,0.8208816112572672,5.2634496013514305,-0.6936606319802622,0.7131612043380325,-0.07005381164048295,0.07299649130273336,0.005688802513759583,0.003847382964253472,3099.021149952896
1684305241188202857,158,1684305241188202857,camera_1,161,0,-0.08609345551398014,0.8217034822029519,5.270429948479143,-0.6969495902604494,0.7140937628531128,0.05883260489556483,-0.02949730650884016,0.0038284772890619934,0.0025920999456067514,3095.639493875205
1684305241194787502,159,1684305241194787502,camera_1,162,0,-0.08732605302683356,0.8191876088156547,5.25469319942954,-0.6967396031984472,0.71351253871546,0.0654839269505046,-0.034141437313486594,0.003071269311476499,0.0020706005598455568,3105.378217848368
1684305241201510906,160,1684305241201510906,camera_1,163,0,-0.08873288359272308,0.8204002371059733,5.2630884939011695,-0.6973961451207676,0.7130150369589373,0.06441312247605208,-0.033153031445459745,0.00265049614245072,0.0017921363583876181,3096.815553550493
1684305241208145618,161,1684305241208145618,camera_1,164,0,-0.09176974429781355,0.8206126767606353,5.264884402808584,-0.6972427207791141,0.7134758648050932,0.06270157799919548,-0.029551493660618086,0.0028859006706625223,0.0019518302836459872,3097.9548594659436
1684305241214781522,162,1684305241214781522,camera_1,165,0,-0.09338751995486286,0.820472846750565,5.264471676944955,-0.697177551763979,0.7137195403767941,0.061964142848076983,-0.026614357062036024,0.00343448668718338,0.0023220913014373955,3100.5656563529046
1684305241221457004,163,1684305241221457004,camera_1,166,0,-0.09489249240652116,0.8203670307361239,5.263831485966531,-0.6975954919164888,0.7133106842626971,0.061833653950606256,-0.026925761151571772,0.0020076861837878823,0.0013570655407590421,3100.9311634604815
1684305241228061676,164,1684305241228061676,camera_1,167,0,-0.09811848444371876,0.8198357927530252,5.261804233515725,-0.6974663414099366,0.7134819071622474,0.06094870050724896,-0.027740343524154304,0.002391692018136382,0.0016150315295428745,3102.88727737905
1684305241234909772,165,1684305241234909772,camera_1,168,0,-0.09981376163223502,0.8206092291990242,5.266183141712488,-0.6945927381692564,0.7135709348337838,-0.057626709745812556,0.07096908740322642,0.005096153661725111,0.0034419346090310316,3103.418532102485
1684305241241436958,166,1684305241241436958,camera_1,169,0,-0.10138941913564406,0.8206547489037626,5.267799902846065,-0.6980307693998284,0.7134506979648011,0.056655545057885004,-0.023049853769941554,0.007355485766311176,0.004972911542718833,3101.2683032039795
1684305241248215436,167,1684305241248215436,camera_1,170,0,-0.10452004986217019,0.8200014433634514,5.264888143970032,-0.6980827401882116,0.7135019699282291,0.05525187266787664,-0.0232950064723547,0.0033101190929301083,0.00223490260518739,3104.9270053358628
1684305241254973411,168,1684305241254973411,camera_1,171,0,-0.10629997849491105,0.8202014831533782,5.266636735313824,-0.6978138734016973,0.7138551096218974,0.05514003261500964,-0.02064600101822349,0.003358825109899044,0.0022693171854868753,3104.0757886604415
1684305241261714935,169,1684305241261714935,camera_1,172,0,-0.10768355220160145,0.820343056752548,5.267684377884368,-0.6978917568471945,0.7139033565753901,0.05097585969944954,-0.026278411729594175,0.005734295307775028,0.003872070024303707,3102.156485458256
1684305241268410205,170,1684305241268410205,camera_1,173,0,-0.11058091676260862,0.8189435648074326,5.259745010480462,-0.697779434302653,0.7133499318566888,0.05973719468844133,-0.02583027981037868,0.006491864172858186,0.004379261995227001,3104.8941234495733
1684305241275162696,171,1684305241275162696,camera_1,174,0,-0.11211061556191537,0.8199564533771737,5.2657449181389575,-0.6948225156160857,0.7132622627817657,-0.05819275714929729,0.07135978769399842,0.005074534972663969,0.0034288220108474794,3100.7147473215587
1684305241281728267,172,1684305241281728267,camera_1,175,0,-0.11334205207551412,0.8178782970692114,5.25413832227704,-0.6976871576304248,0.7128449360075509,0.06449420429942924,-0.03041750972306712,0.012606846023118123,0.008496072062141544,3104.178641092266
1684305241288273811,173,1684305241288273811,camera_1,176,0,-0.1159816092474866,0.8171968718717237,5.250206628491622,-0.6970906399017006,0.7132219219224704,0.0636880668860137,-0.03637251691838034,0.003912442087312229,0.0026324843292040282,3104.6779381014057
1684305241294834613,174,1684305241294834613,camera_1,177,0,-0.11741842995402935,0.8196312587827124,5.266291063127277,-0.6980288856170298,0.7127389261429742,0.06599718659635513,-0.020081567821600508,0.015262323460774496,0.010337994418283213,3094.0880689348564
1684305241301744699,175,1684305241301744699,camera_1,178,0,-0.11855890748086328,0.819488739089529,5.264757254289373,-0.6941673620661238,0.7134722571874165,-0.05947451216321703,0.0745103621585581,0.011330615161568858,0.007658002546497103,3097.5556662424924
1684305241308543205,176,1684305241308543205,camera_1,179,0,-0.12072041089729005,0.8204495817075623,5.272731517442036,-0.6981364528852491,0.7131854308344592,0.0609751136029019,-0.015939570865700692,0.02047624994884245,0.013885244701574387,3092.04741699592
1684305241315344095,177,1684305241315344095,camera_1,180,0,-0.12166310117395782,0.8196245592641325,5.26729592009679,-0.6976494455100251,0.7132133673169754,0.0639926554271285,-0.022735081071349545,0.0122310058795847,0.00828427580005707,3092.205321993911
1684305241322472810,178,1684305241322472810,camera_1,181,0,-0.12221131325444001,0.8181382681790617,5.257870489410734,-0.6975356857799825,0.7128425690894368,0.06790555767323855,-0.026234976548637937,0.01266694872174412,0.008557986645113192,3097.751667710371
1684305241328439712,179,1684305241328439712,camera_1,182,0,-0.12371197419752758,0.8193749869999529,5.2662467931424946,-0.6973033773580111,0.7134087224417567,0.06569016535960452,-0.022378490658658434,0.015119668038096279,0.010240803211841813,3091.796251092922
1684305241335341930,180,1684305241335341930,camera_1,183,0,-0.12431437132892176,0.8194180796467734,5.266963423203281,-0.6972853931493308,0.7134993298665875,0.06627543545893216,-0.017870462647691987,0.01580136109259911,0.010707252583066627,3092.8226983578647
1684305241342035055,181,1684305241342035055,camera_1,184,0,-0.12471367442012138,0.8188529522795183,5.2627991636624865,-0.6973977305303881,0.7132383887465981,0.06748668714522171,-0.019311999569799038,0.012224237900227308,0.008273651163680005,3095.8353158800173
1684305241348661899,182,1684305241348661899,camera_1,185,0,-0.125184243792746,0.8179176835872364,5.2572936438145055,-0.6969225881142382,0.7134256024161273,0.0675698187935668,-0.027516096771569368,0.010884636561968364,0.0073516462947139545,3097.2675716078384
1684305241354629039,183,1684305241354629039,camera_1,186,0,-0.1252974775138871,0.817757433976736,5.256302958579484,-0.6971363398852023,0.7134013625566468,0.06503657260569841,-0.028803884069470424,0.012123138236347586,0.008179243789849295,3099.677870934479
1684305241361020565,184,1684305241361020565,camera_1,187,0,-0.1253361292976883,0.8174835582143265,5.254835790902431,-0.6969857440144763,0.7130621859047649,0.06926679536410452,-0.030907972002267654,0.01008454489056021,0.006808082146981398,3096.3841743880193
1684305241367787837,185,1684305241367787837,camera_1,188,0,-0.1251934830963335,0.8182043444234756,5.2590584636484765,-0.6970652644031967,0.7136487077509641,0.06368012353138376,-0.02739308224548752,0.014989972958574072,0.010120294735253646,3098.4978922300506
1684305241374552488,186,1684305241374552488,camera_1,189,0,-0.1250531939831046,0.8183633509602786,5.260085596151068,-0.6973927658269959,0.7131997424003899,0.0648369220374831,-0.028029112595581912,0.008663926448207349,0.0058538098491679414,3095.9643617167603
1684305241381192445,187,1684305241381192445,camera_1,190,0,-0.12469376260131028,0.8187019222181798,5.262119106905361,-0.6975860483163816,0.7126997164588899,0.06922380067680696,-0.025315702115699553,0.009232292330125347,0.006250200239156097,3091.662106471077
1684305241388001203,188,1684305241388001203,camera_1,191,0,-0.12365153435939492,0.818887439311048,5.262979569783133,-0.6974407283474661,0.7130522309198982,0.06778829077622178,-0.023188230979333042,0.01711129026080016,0.011582046480926879,3093.400499679846
1684305241394414901,189,1684305241394414901,camera_1,192,0,-0.12274850911047386,0.817468911073198,5.253900836325666,-0.6976387464639078,0.7125897965874236,0.07037268872094671,-0.023741228147391547,0.011997072972008027,0.008098485760809924,3101.6356760216872
1684305241401098728,190,1684305241401098728,camera_1,193,0,-0.12226454690178687,0.8181003383260319,5.257954502348436,-0.6974431051354364,0.713033597972794,0.06720505238110022,-0.02529197887604563,0.009132240171311423,0.006168937565065189,3098.821264311788
1684305241407738924,191,1684305241407738924,camera_1,194,0,-0.12076480993271191,0.8201530908857921,5.270308057725455,-0.6978673497214726,0.7129777211140008,0.06563827141536353,-0.018317988792906654,0.013992442953167483,0.00949173516439321,3089.9381324586575
1684305241414381742,192,1684305241414381742,camera_1,195,0,-0.11944519657950825,0.8176365457677266,5.253882109740034,-0.6974992658043924,0.7127854852386682,0.06618212844772475,-0.032427644218147915,0.01139050064375624,0.0076796724738889405,3100.3812203812404
1684305241421049594,193,1684305241421049594,camera_1,196,0,-0.11867159407007723,0.8196144001241947,5.266338983868163,-0.6976241771197187,0.7133028614627984,0.06240745933752027,-0.024996886727250364,0.008878000735421665,0.006008483298830002,3093.8925345258313
1684305241427727222,194,1684305241427727222,camera_1,197,0,-0.11606132869338608,0.8184094200621652,5.258175553572734,-0.6974023447017438,0.7136250869803478,0.06010875768521943,-0.027498037863470083,0.013236460232292302,0.008924402625924217,3104.268904902564
1684305241434379577,195,1684305241434379577,camera_1,198,0,-0.11506340948704172,0.8200885491398848,5.267371738018792,-0.6943274151050893,0.7132608973853448,-0.05538787236122183,0.07810580317642664,0.014275230540079065,0.009647626413210193,3095.753530656685
1684305241441165208,196,1684305241441165208,camera_1,199,0,-0.11339450915314396,0.8182153430285718,5.256251525207704,-0.6977733566929871,0.7126935448614578,0.0652638371149827,-0.030346093113280147,0.010769600077765062,0.007265378101367604,3101.0905320519814
1684305241447739124,197,1684305241447739124,camera_1,200,0,-0.11073488566123563,0.8194784797151842,5.263131873487207,-0.6977673201164254,0.7135016393249367,0.057961885463286046,-0.026011487687382127,0.004392122398712672,0.0029654542916332538,3102.1202999344086
1684305241454457283,198,1684305241454457283,camera_1,201,0,-0.10929458947734391,0.8205049616077562,5.267889327013855,-0.6944949515499653,0.7135817586173201,-0.055030393380504125,0.07382067355836988,0.005433400423498824,0.003671385784730034,3099.4351668751915
1684305241460914611,199,1684305241460914611,camera_1,202,0,-0.10786410718044923,0.8209680605157728,5.271771317233312,-0.6982338812605715,0.7138619356700101,0.04737654939281702,-0.025020919825110812,0.004883536210400052,0.0033003801831083777,3100.361480550026
1684305241468013525,200,1684305241468013525,camera_1,203,0,-0.10461317475492271,0.820709742207261,5.269228972117813,-0.6984281568402742,0.7132873107888915,0.054390249166965124,-0.021471441400244887,0.0032318355079041794,0.0021852405796532774,3101.438104522298
1684305241474313735,201,1684305241474313735,camera_1,204,0,-0.1031195088005997,0.8199840987086419,5.263985021939938,-0.698049940750688,0.713431530948529,0.057005173358662724,-0.02218425290037476,0.004971187285264023,0.0033566236376629706,3105.6366264777603
1684305241481009483,202,1684305241481009483,camera_1,205,0,-0.10131875108690788,0.8203791818028481,5.266086691193148,-0.6978569802021437,0.713648672521787,0.055471010184756704,-0.02498348294610918,0.004997669268050231,0.0033757782716829685,3103.028318974364
1684305241487626314,203,1684305241487626314,camera_1,206,0,-0.09799592616786532,0.8201411686669898,5.263233826096269,-0.697323498686695,0.7134489806159013,0.062139636425456495,-0.029481448783768006,0.0033978353603743017,0.0022963364958193968,3099.1804788623713
1684305241494343280,204,1684305241494343280,camera_1,207,0,-0.09638520388346777,0.8202580948423269,5.262273073475086,-0.6936495189723011,0.7129836620043396,-0.0670365454331335,0.07752898890588154,0.004558694432489574,0.0030807398108833738,3097.240934202797
1684305241501056432,205,1684305241501056432,camera_1,208,0,-0.09488269952172347,0.8206096387222838,5.265638756918813,-0.6972659640849009,0.7135751304184503,0.06287038558612446,-0.02603887849538313,0.004044570552650839,0.0027363794768104637,3098.516773159152
1684305241507766485,206,1684305241507766485,camera_1,209,0,-0.09175940931133768,0.8212559673509612,5.26882367666133,-0.6973166104175029,0.7136442983747256,0.06181159299094722,-0.025311799718940438,0.0031139362254180014,0.0021087063775324663,3096.656040708302
1684305241514449596,207,1684305241514449596,camera_1,210,0,-0.09022017686724823,0.8203507084057751,5.261828969916748,-0.6937280941421343,0.7131664850314664,-0.07041164592993891,0.07195204057719493,0.002722493140026927,0.0018406988814333141,3099.940549304477
1684305241520898342,208,1684305241520898342,camera_1,211,0,-0.08862960004497172,0.8212416148612086,5.268341918571286,-0.6974394308902491,0.7133004956546987,0.06296011560679024,-0.028577385832623012,0.005605810962151736,0.003796393350612981,3094.8861141196685
1684305241527707815,209,1684305241527707815,camera_1,212,0,-0.08586836565398591,0.8214828557546463,5.268888375018309,-0.6970141982371324,0.7137207577477551,0.06163644269506095,-0.031222369348212927,0.001463221327867359,0.000990828363427499,3094.148344482644
1684305241534299373,210,1684305241534299373,camera_1,213,0,-0.08445851114989776,0.8206035940142626,5.261698518962362,-0.6931903931479054,0.7137898523809857,-0.06203212488426572,0.07837819191411449,0.0051021521794609725,0.003441387854315496,3103.5169618492946
1684305241540949106,211,1684305241540949106,camera_1,214,0,-0.0831804238499978,0.8213999256891389,5.266359381024194,-0.693605314448161,0.7134695652881899,-0.06848829556801785,0.07198750271357413,0.005311945569701493,0.0035950308680166567,3097.600015575882
1684305241547738552,212,1684305241547738552,camera_1,215,0,-0.08079420731623281,0.8199769819145876,5.258609049860504,-0.6966397375958726,0.7137903437418898,0.06311724624681898,-0.03482290064608512,0.006021453940775245,0.004062750652809326,3103.504495249595
1684305241554372549,213,1684305241554372549,camera_1,216,0,-0.0799313985577172,0.8228256219450221,5.275784886839494,-0.6974334994571556,0.7136005008322696,0.06253698909361016,-0.021212355880137538,0.009074878180399537,0.006162172714208392,3092.2893523641387
1684305241560741186,214,1684305241560741186,camera_1,217,0,-0.078683411641087,0.8204984869410941,5.261080777333002,-0.6967720022229261,0.7137157591937554,0.06288061991478187,-0.03412652393474666,0.0030268849222920835,0.002044097404344311,3101.6415990461824
1684305241567640542,215,1684305241567640542,camera_1,218,0,-0.07713528142557613,0.8222798556924256,5.272009051993235,-0.6973833084665523,0.7139989476876616,0.05759475830535324,-0.023342398953525238,0.010644292226061225,0.007208108353664378,3099.96826249687
1684305241574436187,216,1684305241574436187,camera_1,219,0,-0.07643686953513854,0.8225064763715899,5.273339342513445,-0.6976293281508524,0.7134859310279007,0.06194422771426673,-0.020348449128207748,0.01155253266915679,0.007835570404518087,3096.6460967899748
1684305241581072807,217,1684305241581072807,camera_1,220,0,-0.07558738626065853,0.8210039154805525,5.263306469244114,-0.697519040526596,0.7134170943709628,0.0607102484827898,-0.02859201446746642,0.01802432182012126,0.012174038718439426,3104.9534432482906
1684305241587713718,218,1684305241587713718,camera_1,221,0,-0.07469612453141783,0.8202362639111849,5.258155011860199,-0.697282796734634,0.7136776425608772,0.05804859553959642,-0.03303459463284445,0.013165852229576558,0.008869282736559446,3110.4325217967857
1684305241594384670,219,1684305241594384670,camera_1,222,0,-0.07445756196378311,0.8220440278770014,5.268498436911471,-0.694482566148279,0.7135810862590668,-0.0620574107739167,0.06815333020087,0.01568385533755645,0.010604497119184967,3104.1476654144935
1684305241601058244,220,1684305241601058244,camera_1,223,0,-0.07430049431580207,0.822049815114948,5.268544605647996,-0.6944132551155848,0.7133429355827999,-0.06129926940726114,0.07193390677578332,0.011211947712581605,0.007579186683092155,3102.305389786373
1684305241607872724,221,1684305241607872724,camera_1,224,0,-0.07407567981535354,0.8219314584378895,5.268103487283954,-0.6943983840245794,0.7134408216782784,-0.06096375518443281,0.07138976663982267,0.014840882504358888,0.01003014873764476,3103.4683626657343
1684305241614448070,222,1684305241614448070,camera_1,225,0,-0.0741604495466224,0.8222171269501426,5.269912736788806,-0.6943246419573309,0.7135798360871579,-0.06093466126646708,0.07073949502922694,0.012579287867993116,0.008507291973434234,3101.761103179772
1684305241621074676,223,1684305241621074676,camera_1,226,0,-0.07429208767483958,0.8214167874892078,5.264290898601219,-0.694066879015779,0.7131810470323952,-0.06635874283233738,0.0723911517851761,0.012514513393398373,0.008456323401829422,3103.169887692203
1684305241627886056,224,1684305241627886056,camera_1,227,0,-0.0747154393117827,0.8195341813885615,5.253726350680667,-0.6969267849400516,0.7135533170667329,0.06271128358438581,-0.03467008865556313,0.014528583153150976,0.009782284563650828,3110.7864501335425
1684305241634381294,225,1684305241634381294,camera_1,228,0,-0.07525654394644642,0.8203953410851753,5.259231160823871,-0.6966919337628482,0.7140599369628546,0.058620044393676234,-0.03608942019028056,0.006986046093516052,0.004709021856883044,3106.5177549633654
1684305241641042470,226,1684305241641042470,camera_1,229,0,-0.07583622291204623,0.8216872224760328,5.26790027690233,-0.6973564779580407,0.7138583974644392,0.058326878870756486,-0.026421699806320576,0.01388854964170605,0.009391513210075792,3102.6964329322786
1684305241647728919,227,1684305241647728919,camera_1,230,0,-0.07735110935346876,0.8219595580800727,5.269379508921646,-0.6935971261725737,0.7135091684959699,-0.06421208870125851,0.07552814509809247,0.010561870818492025,0.007147301418234024,3096.2059008397628
1684305241654300928,228,1684305241654300928,camera_1,231,0,-0.077965887796622,0.8196475688857024,5.255474329054673,-0.6967867540478073,0.7134069004708048,0.06581351573610783,-0.034747588270450706,0.01114818366477266,0.0075177760477419696,3105.446487636772
1684305241660907030,229,1684305241660907030,camera_1,232,0,-0.07900038527705028,0.8214097808927059,5.267110705733917,-0.6968795359880999,0.7140025106308778,0.06058711907920003,-0.029808189067718465,0.005798609752673655,0.003922433960771416,3099.21958991699
1684305241668082237,230,1684305241668082237,camera_1,233,0,-0.08109478339905205,0.8206300484634929,5.262493575571252,-0.696948648354468,0.7140086745485827,0.059479087422437925,-0.030272634270085374,0.005414645478595048,0.003655419028158962,3104.874302302139
1684305241675204515,231,1684305241675204515,camera_1,234,0,-0.08203847699009681,0.8200832567262668,5.259259365470769,-0.6968168791321463,0.7133278981704436,0.06656280470492025,-0.034335691023886096,0.0014285689103417099,0.0009650728777957613,3099.889731743373
1684305241681838750,232,1684305241681838750,camera_1,235,0,-0.08347126854931844,0.8206478965142188,5.26201661099785,-0.6934766380543009,0.7133479127751783,-0.06968198604475823,0.07327570288341836,0.003675731015391648,0.002484275696677272,3100.8177671700246
1684305241688415765,233,1684305241688415765,camera_1,236,0,-0.0861853144129989,0.8217060770020198,5.270787163912403,-0.6969554958338962,0.7141032318331916,0.058293331137499765,-0.030191036040732366,0.0016278170514851809,0.0011021531447882014,3095.1692641952545
1684305241694904327,234,1684305241694904327,camera_1,237,0,-0.08741351990271129,0.8197723505757986,5.258616437259252,-0.6969646290884353,0.7138800177297726,0.05964134196768718,-0.032535156585651155,0.006856023625005037,0.0046218867982633985,3106.6503712043623
1684305241701650142,235,1684305241701650142,camera_1,238,0,-0.08883728919915573,0.8209587994024001,5.266589734223639,-0.6971637092367561,0.7133427159196799,0.06568031342274609,-0.028125230599458522,0.006449887121561915,0.004368210788602412,3094.895350737732
1684305241708281755,236,1684305241708281755,camera_1,239,0,-0.09188742086278158,0.8206306081737259,5.26511226100848,-0.697556175275513,0.713144933415745,0.06461706761512795,-0.02577442242364826,0.0029228529310785234,0.001978042762076336,3098.3963495821235
1684305241714936256,237,1684305241714936256,camera_1,240,0,-0.09346766779993328,0.8209175405790434,5.26739813519894,-0.6972615916717002,0.7136776668909447,0.060198887272309196,-0.02943729830879442,0.0037201401428319514,0.002516818769681815,3096.76270850969
1684305241721683740,238,1684305241721683740,camera_1,241,0,-0.09511551161342179,0.8214258227165446,5.270464846410638,-0.6974153240078468,0.7139274388036451,0.058201687632200766,-0.02306602521158639,0.004627888964023441,0.003133061957571699,3098.2118098796354
1684305241728349685,239,1684305241728349685,camera_1,242,0,-0.09830278029945702,0.8207317595102794,5.26764879631615,0.6974478022653625,-0.7139502986599289,-0.05586063695674242,0.026853740845575985,0.003944466894608922,0.002666187174309383,3100.3951350068673
