%time,field.header.seq,field.header.stamp,field.header.frame_id,field.image_seq,field.transforms0.fiducial_id,field.transforms0.transform.translation.x,field.transforms0.transform.translation.y,field.transforms0.transform.translation.z,field.transforms0.transform.rotation.x,field.transforms0.transform.rotation.y,field.transforms0.transform.rotation.z,field.transforms0.transform.rotation.w,field.transforms0.image_error,field.transforms0.object_error,field.transforms0.fiducial_area
1683086454272979497,1,1683086454272979497,camera_1,3,1,-0.09690970656643377,-0.1504118280574861,1.1940363326383012,0.9954565392319168,0.0203863470801849,0.058450491503392134,0.07234787762024283,0.29059434089867864,0.01003272619698182,60379.83988082327
1683086454286249876,2,1683086454286249876,camera_1,5,1,-0.09692953888557182,-0.15040697421247393,1.1940764892761293,0.9954777627084689,0.020404408356240404,0.05914445543929387,0.07148158828231778,0.2886440303118434,0.009965348578540523,60381.89336330262
1683086454299641132,3,1683086454299641132,camera_1,6,1,-0.09691697155974505,-0.15043203706924424,1.1940858143692152,0.9954855862442763,0.020337089754507157,0.058406000470265264,0.07199714903573676,0.2648780907766195,0.009145958217414816,60380.31934404071
1683086454306304693,4,1683086454306304693,camera_1,7,1,-0.09691649383497677,-0.1503971444537516,1.1940179864205613,0.9954594474182998,0.020349415488419512,0.05992383677882386,0.07110220545551178,0.32416348747210577,0.011189286698851752,60385.480406762406
1683086454312950134,5,1683086454312950134,camera_1,8,1,-0.09691745600449017,-0.15041142799653742,1.194070186244215,0.9955177009844454,0.020373418297520374,0.05889883852731073,0.0711361910257541,0.27865453221602365,0.009620448738446944,60390.10713902023
1683086454319565773,6,1683086454319565773,camera_1,9,1,-0.09691606565239538,-0.15044187461849606,1.1941815644441516,0.9955155540331991,0.020249997285003794,0.058654366588181094,0.07140297310385205,0.2780053797905566,0.009600072109896038,60377.154291408246
1683086454326209783,7,1683086454326209783,camera_1,10,1,-0.09694527099257892,-0.1504187492045917,1.1941005312112287,0.9954608010354243,0.02036677162600691,0.058868728297202244,0.07195457625554756,0.2803369435860077,0.009679499709114888,60375.01405753754
1683086454332850217,8,1683086454332850217,camera_1,11,1,-0.09689518043044239,-0.15035590353996228,1.1937020337620168,0.995356105693157,0.02030662850589354,0.06014422440991878,0.07236391343899219,0.28777176632138435,0.009929170913062094,60395.87957147561
1683086454339548349,9,1683086454339548349,camera_1,12,1,-0.09692356357986473,-0.15041204232194227,1.1940539837891868,0.9954936375611794,0.020456571850723176,0.05901201731720847,0.07135494415582497,0.27123574663710315,0.009364319790210171,60387.28382510069
1683086454346240520,10,1683086454346240520,camera_1,13,1,-0.0969393072140251,-0.15042871729939233,1.194128857537765,0.9955154818756811,0.020382150560642926,0.05880649084175189,0.0712410690489193,0.2665019748965278,0.009202138119074336,60383.366355251404
1683086454352891206,11,1683086454352891206,camera_1,14,1,-0.09692290907452387,-0.1504089749614145,1.1940392921749063,0.9954950321822975,0.020388140591322417,0.05919097698715989,0.0712066911666361,0.28801610246591736,0.00994289086378437,60389.10226768965
1683086454359505891,12,1683086454359505891,camera_1,15,1,-0.09690866905480591,-0.15040533156301308,1.193982111993474,0.9954628535461885,0.020327504279066027,0.05872877952657913,0.07205158037671883,0.28119684879493434,0.00970728885291833,60386.844501846535
1683086454366271972,13,1683086454366271972,camera_1,16,1,-0.09692507408755477,-0.1504377375358965,1.1942545238540658,0.9955689868352504,0.02038144080716013,0.05813227964280071,0.07104665640259515,0.2990463074238505,0.010327462360492647,60380.70163010631
1683086454372892141,14,1683086454372892141,camera_1,17,1,-0.09692041421011421,-0.1504136396750984,1.1939657900818854,0.9954586013175961,0.020385599891580775,0.059224801969560745,0.07168698076737601,0.2841736086993478,0.009809402544774037,60388.72117164591
1683086454379610061,15,1683086454379610061,camera_1,18,1,-0.09691640481516922,-0.15041797368761556,1.193971755704787,0.9954797600507089,0.020394239882594766,0.058405285268021294,0.07206209101708964,0.2777613737998763,0.009588844725694925,60390.848565939166
1683086454386243820,16,1683086454386243820,camera_1,19,1,-0.09691847706593416,-0.15041283274754103,1.1941301840108824,0.9954697667833479,0.020303858887407114,0.05913503366072775,0.07162921560740486,0.31504422827856615,0.010877310853600018,60374.492242961736
1683086454392891168,17,1683086454392891168,camera_1,20,1,-0.09691129965040389,-0.15043223758895635,1.1940995437251505,0.9955070486802149,0.02035650104804689,0.05815830007615708,0.07189534773085879,0.29588584108569194,0.010216271355602536,60383.083851674004
1683086454399677515,18,1683086454399677515,camera_1,21,1,-0.09691195226311498,-0.15042476432564278,1.1940012943469809,0.9954354769107516,0.02040311383101366,0.059174520514180345,0.07204373932119565,0.28130004968261346,0.009711052898533263,60380.22910517997
1683086454406182765,19,1683086454406182765,camera_1,22,1,-0.09691102363442797,-0.15040418719181123,1.1939613561615277,0.9954561998871971,0.02043294349413132,0.05915347950983298,0.07176569367174157,0.26692569443548564,0.009214289934698713,60388.830355006394
1683086454412930727,20,1683086454412930727,camera_1,23,1,-0.09692222219311655,-0.15041950590719735,1.1941463340236755,0.9955054670761055,0.02041077036601858,0.05809706627446596,0.07195134720733896,0.27757963597832713,0.009585305687459116,60378.433435684536
1683086454419511795,21,1683086454419511795,camera_1,24,1,-0.0969135033867706,-0.15043357698554072,1.1940690602354587,0.9954725360219868,0.020349683194842563,0.059145353637233986,0.07156918025903541,0.269045901222853,0.009289063072209438,60380.85586666639
1683086454426225423,22,1683086454426225423,camera_1,25,1,-0.09693391496291721,-0.15041791022020676,1.1940628409202276,0.995503104321231,0.020469730311004117,0.058590108907808684,0.0715664625782087,0.2734264884638833,0.009440295818781782,60387.3891792521
1683086454432893514,23,1683086454432893514,camera_1,26,1,-0.09692768629299153,-0.15041897482682914,1.1940330828768937,0.9953992528123536,0.020276081708334465,0.05957493136528415,0.07224981359136434,0.2876372055761749,0.009930168611791234,60369.85237945676
1683086454439476251,24,1683086454439476251,camera_1,27,1,-0.09690955448099733,-0.15040039510301884,1.1939722111140512,0.9954551860597147,0.020438209829342347,0.05918672942733958,0.0717508410089076,0.2766317012865329,0.009549344675018086,60387.82911495213
1683086454446645498,25,1683086454446645498,camera_1,28,1,-0.09692678110210601,-0.15044070494679634,1.1942370655061767,0.9955147944499291,0.020363757791973653,0.05907972700787977,0.07102955199478479,0.3032413527398603,0.010471585501148127,60372.93746237502
1683086454453075885,26,1683086454453075885,camera_1,29,1,-0.09692841151504095,-0.15041973354777874,1.194141318782041,0.9955231111665505,0.020317934308204465,0.05851253961461991,0.0713946733767104,0.3164086865290301,0.010924704247517606,60383.083739249385
1683086454459795713,27,1683086454459795713,camera_1,30,1,-0.0969126833198277,-0.15040576668356295,1.1939337463422304,0.995407316551319,0.0203312003746547,0.05954729107707549,0.0721459394062476,0.26034135080408305,0.008986805501044736,60381.75660904434
1683086454466381788,28,1683086454466381788,camera_1,31,1,-0.09692798128449102,-0.15040699067914637,1.1940496456536287,0.995413410487511,0.02027834632950051,0.059145170028174966,0.07240704215821234,0.28960135419038124,0.009998451276332351,60370.56297886605
1683086454472998857,29,1683086454472998857,camera_1,32,1,-0.09692911990670103,-0.15042979676163262,1.1940822020612776,0.9954961159094194,0.0204016952063744,0.059563267406174916,0.07087645037575276,0.2582198242889717,0.008915221744573544,60385.573956103704
1683086454479597091,30,1683086454479597091,camera_1,33,1,-0.09693170992644823,-0.15042193710315982,1.1940578007769795,0.9954707579774352,0.020426967899252375,0.05848978655075539,0.07210862544467661,0.2504604357818607,0.008648011762234153,60380.647004754035
1683086454486366033,31,1683086454486366033,camera_1,34,1,-0.09689956408521377,-0.15040318820931034,1.1939907525276567,0.9954352049032748,0.020347538454527365,0.05891522301295551,0.07227535551867476,0.33413390032364987,0.011533885433703284,60380.96132129985
1683086454493120908,32,1683086454493120908,camera_1,35,1,-0.09693197349794835,-0.15043893708055422,1.194265145547233,0.9955466920225648,0.02037448501211174,0.059167157052817096,0.07050469409696823,0.3036563311761711,0.010486103611887182,60377.1576030008
1683086454499719381,33,1683086454499719381,camera_1,36,1,-0.09690689905393193,-0.15041282567603953,1.1938978050239257,0.9954400075499414,0.020485875564464115,0.059068740301966786,0.0720444598180087,0.2775802247051615,0.009581087156307408,60391.64308915029
1683086454506175994,34,1683086454506175994,camera_1,37,1,-0.09691280330500582,-0.1503828314718976,1.1938751791672813,0.9953812162565373,0.020312202127894197,0.05926304350747004,0.07274297521138201,0.25541704695206136,0.008816403449939777,60381.745199087716
1683086454512866735,35,1683086454512866735,camera_1,38,1,-0.09693573218825381,-0.15042855624774523,1.194224758248194,0.9955101677220419,0.020361387226190204,0.05880863124793803,0.0713194557116163,0.29236959015543107,0.010096433352033822,60372.85016169761
1683086454519433021,36,1683086454519433021,camera_1,39,1,-0.0969301712442906,-0.1504441918599381,1.1942013557620073,0.9954556526030358,0.020419542476463017,0.05902742923269191,0.07188079426310964,0.26832143825595267,0.009266281395813479,60364.17961789355
1683086454526257753,37,1683086454526257753,camera_1,40,1,-0.0969387704195865,-0.15042790036475698,1.1941739637295075,0.995532193998973,0.02042116984321976,0.05871770723847989,0.07106938434010615,0.2931370913865976,0.0101220013723657,60382.496567612805
1683086454532812356,38,1683086454532812356,camera_1,41,1,-0.0969160178506224,-0.1504113800570639,1.1939527847968123,0.9954543709134375,0.020329248404777327,0.060397234309233945,0.07077775905201487,0.30210731786792167,0.010426956839652394,60391.301236856394
1683086454539535522,39,1683086454539535522,camera_1,42,1,-0.09692846265407193,-0.15042568782962973,1.1941312507994133,0.9954864424440609,0.02043329867558441,0.058964333648918496,0.07150126273459044,0.25939550073235296,0.008956971839305468,60377.709569667364
1683086454546267747,40,1683086454546267747,camera_1,43,1,-0.09692403004323566,-0.15043039161028082,1.1941108213558431,0.9955115552803814,0.020442077870157664,0.059374673271143485,0.07080616448821253,0.27507452183635905,0.009497261323613301,60385.75734605838
1683086454552876710,41,1683086454552876710,camera_1,44,1,-0.09695127146248693,-0.15042381448463304,1.1941728010373178,0.9954769770440992,0.020392884533023035,0.059613920794934695,0.07110484430065403,0.30224567011464387,0.010435982303945398,60372.877708434884
1683086454559454441,42,1683086454559454441,camera_1,45,1,-0.09694211305102093,-0.15041652776345657,1.19409431360387,0.9954158942535066,0.020399864704671013,0.05973076815632572,0.07185595537586444,0.2851915516803274,0.009846549130747877,60368.275329705044
1683086454566238403,43,1683086454566238403,camera_1,46,1,-0.09693282243322067,-0.15043002290447907,1.1941640577240042,0.9955035991278129,0.020409130712510142,0.0594587966591253,0.07085691925972601,0.2959346142306458,0.010217954615388705,60378.939171846265
1683086454572885036,44,1683086454572885036,camera_1,47,1,-0.09693061696495585,-0.15042139220658018,1.1941221297505946,0.9955054687285024,0.020348683018089515,0.05934435680141278,0.07094392255084789,0.32415773162210826,0.011191212206761648,60383.20536953927
1683086454579558610,45,1683086454579558610,camera_1,48,1,-0.09693314241671562,-0.15042763803259962,1.1941244951283092,0.9954892418157706,0.020376584730768633,0.05885701196261194,0.07156686640202278,0.2867339201766299,0.009900390804338566,60378.44799990652
1683086454586209058,46,1683086454586209058,camera_1,49,1,-0.0969227634151951,-0.1504280752358944,1.1941230778320022,0.9954786787901325,0.020391946683971124,0.058640011557939256,0.07188683905399584,0.3036604725784855,0.010484785300135609,60376.11881107597
1683086454592927694,47,1683086454592927694,camera_1,50,1,-0.09694405257832797,-0.1504466266900597,1.1943361413597526,0.9955652830967566,0.02031859521041417,0.0584708357063489,0.07083842991591101,0.2867072465160163,0.009902719883696518,60372.17293807585
1683086454599531888,48,1683086454599531888,camera_1,51,1,-0.0969448109288032,-0.1504218140885344,1.1941287148946753,0.995420539049824,0.020427366401648755,0.06037599626227698,0.07124192736716438,0.2946473743650131,0.010172861467471105,60367.23560670052
1683086454606328010,49,1683086454606328010,camera_1,52,1,-0.09693386265408802,-0.1503990743844423,1.1940886707319798,0.995491339791579,0.020310548803835822,0.05948033742711475,0.07103916853969114,0.30629561255045695,0.010574264772108793,60383.9963445979
1683086454612876892,50,1683086454612876892,camera_1,53,1,-0.09694581753548584,-0.15044250874911927,1.1943383109135612,0.9955301131179608,0.020379498105352698,0.05862138737667649,0.07118990711012287,0.2897091149643529,0.010006476616297897,60365.26164788258
1683086454619636058,51,1683086454619636058,camera_1,54,1,-0.09693188616573145,-0.15043118783940287,1.1942313925989267,0.9955395866707343,0.0203156102385519,0.058456911399264434,0.07121093217868674,0.300680988948443,0.010383500262985866,60377.38602402324
1683086454626241207,52,1683086454626241207,camera_1,55,1,-0.0969416050831553,-0.15043302786140672,1.194160233193472,0.9954715277177137,0.0203551630038381,0.059324056045414526,0.07143361405367032,0.29147411754820496,0.01006433633303667,60372.0349728837
1683086454632916450,53,1683086454632916450,camera_1,56,1,-0.096912548594431,-0.15043750025533992,1.1940926525913147,0.9954705360348344,0.02034394955325113,0.05827742200094084,0.07230683016160101,0.27519530209247023,0.009502313898561907,60376.16466774628
1683086454639469146,54,1683086454639469146,camera_1,57,1,-0.09694465083244247,-0.15044683825441238,1.194294326041315,0.9954751806187525,0.02030618381309595,0.059231000396505404,0.0714738571999581,0.27263916652009357,0.009416482971767037,60359.00631579306
1683086454646205902,55,1683086454646205902,camera_1,58,1,-0.09691928163010777,-0.1504013933342641,1.1939838398590037,0.9954466208007084,0.020393573954260447,0.05979794329095129,0.07137459811442003,0.2994375750567997,0.010335889895672244,60385.92919347076
1683086454652985334,56,1683086454652985334,camera_1,59,1,-0.09695216428575798,-0.15045461466500817,1.1943101314940527,0.9955473836127805,0.02043117137210393,0.05881246283380968,0.07077477257846128,0.2740403457573848,0.009464883726636567,60371.935927319704
1683086454659497261,57,1683086454659497261,camera_1,60,1,-0.09692570471671222,-0.15040666980655693,1.1940986837865766,0.9954548483252179,0.020264411956443924,0.05955370729018505,0.07150073077858916,0.30980848721810617,0.010695891840231776,60375.280905190084
1683086454666301965,58,1683086454666301965,camera_1,61,1,-0.0969274070100182,-0.15044161403034098,1.1941840613024375,0.9954407131353502,0.020403729162789888,0.058816454908099204,0.07226409274930824,0.265963090248988,0.00918490417732052,60362.33174159414
1683086454673061609,59,1683086454673061609,camera_1,62,1,-0.09696004234597512,-0.15045722531316863,1.1943594623436562,0.9955319645500398,0.020450921804728163,0.05920536689452985,0.07065827543437199,0.28340066121018026,0.009788633569839746,60364.830074497426
1683086454679487466,60,1683086454679487466,camera_1,63,1,-0.09694302587393511,-0.1504409625318858,1.1942051740206618,0.9954849582229814,0.020389463486604028,0.058996766374601904,0.071507686914472,0.2868568829871947,0.009905928466398968,60369.79808756098
1683086454686322689,61,1683086454686322689,camera_1,64,1,-0.096902377478013,-0.15041224469413744,1.1940675168427852,0.9955042594610282,0.020518825903171334,0.059201775636984755,0.07103095761661489,0.2750932159979129,0.009497369586274295,60388.89945049287
1683086454692854881,62,1683086454692854881,camera_1,65,1,-0.0969286572914695,-0.150425966650401,1.1941537020762154,0.995497409410596,0.02039403085282497,0.05935910511602614,0.07103159861773277,0.25408896479348186,0.008773833951833334,60378.462968089225
1683086454699553489,63,1683086454699553489,camera_1,66,1,-0.0969234566102445,-0.15041203382037,1.193998544847059,0.9954649631627078,0.020415999930790633,0.05956863453134238,0.07130408012425372,0.2665739891381236,0.009202407844506474,60387.702443765345
1683086454706185817,64,1683086454706185817,camera_1,67,1,-0.09689480150068921,-0.15037932758187353,1.1937327109331308,0.9952999005228065,0.020303823120343335,0.06080180645864628,0.07258789924880454,0.2859500035701785,0.009866771096821098,60382.070523021226
1683086454712944030,65,1683086454712944030,camera_1,68,1,-0.0969263008696525,-0.15043044332023683,1.1941817830348382,0.9955253673876476,0.020284592421576805,0.05812745348720553,0.07168666088661538,0.29086272174026817,0.010044193364606805,60378.45183433563
1683086454719555377,66,1683086454719555377,camera_1,69,1,-0.09693725262755004,-0.15046008562259633,1.1943401070992459,0.9955139129472382,0.02034233209163005,0.05841325590034857,0.07159699846133939,0.27888718541362323,0.009633254695928855,60360.83406152709
1683086454726209640,67,1683086454726209640,camera_1,70,1,-0.09692941029450879,-0.15041778423505417,1.1941584013639552,0.9955340680442599,0.02026644253547992,0.05859249358294885,0.07119066206979152,0.3090950342739234,0.010672455095548811,60383.62288497062
1683086454732892513,68,1683086454732892513,camera_1,71,1,-0.09693503155312952,-0.1504176564433672,1.1941630454866299,0.9954778364808936,0.020365865069855747,0.059529277324710514,0.0711714391906861,0.278410603874363,0.009613329460445606,60373.84617275314
1683086454739568710,69,1683086454739568710,camera_1,72,1,-0.09692169560616501,-0.150420185229314,1.1940762368781395,0.9954797908085463,0.02035741360123041,0.058662051276604364,0.0718632419479009,0.2654094365570927,0.00916398620940934,60380.89056719217
1683086454746221780,70,1683086454746221780,camera_1,73,1,-0.09693865416204281,-0.15044624212408347,1.1942851783852282,0.9955634963404288,0.02037935424525035,0.05905052031425908,0.07036364633518283,0.289073846739484,0.00998309378091725,60378.248315074714
1683086454752908945,71,1683086454752908945,camera_1,74,1,-0.09693261291756108,-0.1504274663593229,1.194178471370832,0.9955070004409563,0.0203775650218253,0.058939126911243284,0.07125128936216758,0.30857856992224697,0.010654917556036545,60377.069004737205
1683086454759583950,72,1683086454759583950,camera_1,75,1,-0.0969275543505693,-0.1504260566444542,1.1941379260429252,0.9954783934883631,0.020485478634343683,0.05934969094461127,0.07127922171102045,0.28734321481897496,0.00992134607332751,60376.50415944395
1683086454766188144,73,1683086454766188144,camera_1,76,1,-0.09691934042418318,-0.15041352247768783,1.1941116998914332,0.9955697057450006,0.020424954015589563,0.058722590067409174,0.07053679658199125,0.24918146723939572,0.00860377777167296,60396.600714996806
1683086454772824287,74,1683086454772824287,camera_1,77,1,-0.09693193075317424,-0.1504238051633599,1.194099541209527,0.9954928465818537,0.020253199635382132,0.060129139462031224,0.07048607590469988,0.28634783666348085,0.009885675817344614,60383.81651153989
1683086454779443025,75,1683086454779443025,camera_1,78,1,-0.09694954726616506,-0.15043102121706517,1.1942359133634068,0.9954694370036826,0.020415295959629674,0.05985981263772332,0.0709973134240197,0.2887066478142515,0.009969668993948242,60365.60280160455
1683086454786305189,76,1683086454786305189,camera_1,79,1,-0.096915797743513,-0.15042725430667997,1.1941809116890099,0.9954810667017622,0.02035527938305776,0.058876469353111124,0.07167056436272637,0.28575816327065695,0.009867698899163682,60371.29558420159
1683086454792906284,77,1683086454792906284,camera_1,80,1,-0.09693691104401736,-0.15044879030016806,1.1942655426223783,0.9955299462439317,0.02032335045878434,0.059107358877122436,0.07080542129141676,0.29728880248148926,0.010266542934420381,60373.07533721953
1683086454799536466,78,1683086454799536466,camera_1,81,1,-0.0969641193911095,-0.15044822480453074,1.1943518372871273,0.995553390005638,0.02027679011478549,0.05968351761450604,0.07000126538914841,0.29236556847172324,0.010097532318277971,60370.45126399328
1683086454806289911,79,1683086454806289911,camera_1,82,1,-0.09693995930339544,-0.1504182909586777,1.194179316084971,0.995458236074708,0.02032065122418375,0.060045574119947334,0.07102464638040792,0.3015506788797211,0.01041189678725236,60369.054750021154
1683086454812882184,80,1683086454812882184,camera_1,83,1,-0.09692775906876458,-0.1504249754670498,1.1942381710945342,0.9954722534923475,0.0203509315907276,0.05951432809025427,0.07126623928777655,0.30955434194765985,0.010689432815298789,60365.1752455642
1683086454819602251,81,1683086454819602251,camera_1,84,1,-0.09692548496067846,-0.15043859566740153,1.1941362629401722,0.9955378036251553,0.020396942922895678,0.05840901651007959,0.07125189866191123,0.25468934631498996,0.008794705062659587,60386.35206129348
1683086454826281309,82,1683086454826281309,camera_1,85,1,-0.09693471080961369,-0.15042104438076317,1.1940910518216603,0.9954627858443328,0.020391924344846657,0.05887580720678513,0.07191419015954786,0.2715973595768446,0.009377727042750429,60376.46404816228
1683086454832850456,83,1683086454832850456,camera_1,86,1,-0.09694466628208723,-0.1504145478578065,1.194168876520033,0.9954451714237843,0.02031816149341043,0.06020136864597255,0.07107656586915469,0.2740266929322388,0.00946186271279563,60367.65701826229
1683086454839601755,84,1683086454839601755,camera_1,87,1,-0.0969433128159542,-0.15044500555018883,1.194306505665354,0.9955254450713372,0.020395674247794857,0.059435283738553696,0.07057302412686732,0.2865549834241392,0.009896478187281363,60369.11276889383
1683086454846215248,85,1683086454846215248,camera_1,88,1,-0.09692783884332809,-0.15042175593141277,1.1940452912312725,0.9954724665411004,0.020372527232468105,0.05897695474945269,0.0717024915970229,0.26797583980078343,0.00925186688245921,60383.01954607403
1683086454853039264,86,1683086454853039264,camera_1,89,1,-0.09694798950418669,-0.15043031538273846,1.194194655229174,0.9955167058010314,0.020332987393269823,0.05963202998073165,0.07054841667327014,0.29061908439325634,0.01003482094473077,60378.626615812
1683086454859551429,87,1683086454859551429,camera_1,90,1,-0.0969261055276886,-0.150425645063778,1.1941573403410166,0.9954509625539522,0.020444972812218826,0.05943201067892857,0.07160461119074411,0.2613033178204205,0.009023108172782852,60368.835501178735
1683086454866195440,88,1683086454866195440,camera_1,91,1,-0.09691744811500697,-0.15040813364522945,1.1941038135779374,0.9954808237365286,0.020315737567668007,0.059238252744864134,0.0713864818551782,0.30288714946073014,0.010457167008628853,60379.70290344327
1683086454872931957,89,1683086454872931957,camera_1,92,1,-0.09695034973437586,-0.1504726573247513,1.194534508486703,0.995614005138881,0.020369131277526174,0.05817191392356008,0.07038380277297569,0.3059334465942811,0.010569690883783428,60361.999435219805
1683086454879463195,90,1683086454879463195,camera_1,93,1,-0.0969040105881259,-0.1503972516811564,1.193821652431115,0.9954091743170871,0.020467828867831085,0.059288745334235955,0.07229445582826201,0.28427622161689214,0.009810878593035189,60393.34068630355
1683086454886202096,91,1683086454886202096,camera_1,94,1,-0.09694602165753252,-0.1504563076331906,1.1943505888256316,0.9955464810134718,0.020266766358720843,0.0588271155663744,0.07082254441344528,0.2810762248263927,0.009708428513055242,60367.15207785927
1683086454892854452,92,1683086454892854452,camera_1,95,1,-0.09692951791543356,-0.15041288696412444,1.1940794596803301,0.9954648940227095,0.020342878732737806,0.05877417697557658,0.07198199895852017,0.2984629301499808,0.01030470660939389,60377.841796920875
1683086454899528741,93,1683086454899528741,camera_1,96,1,-0.09694004745420912,-0.15044140562820768,1.1942717428408018,0.9955321058732061,0.020434883473915835,0.058843318970995234,0.0709627051735279,0.2932416635012487,0.010127098842484021,60372.91603271382
1683086454906247615,94,1683086454906247615,camera_1,97,1,-0.09693877783768029,-0.15044104915899018,1.1942259131538937,0.9954210190264364,0.020356818959389563,0.05978340482127683,0.07175332264223763,0.26211827983206604,0.009052226195409586,60355.840267546344
1683086454912900209,95,1683086454912900209,camera_1,98,1,-0.09693494890504252,-0.15043358682527377,1.1941669953904988,0.9954775075339104,0.02034393872825391,0.05903831681261839,0.07159003631111935,0.2731602805433795,0.009432585589421168,60371.93469640099
1683086454919553518,96,1683086454919553518,camera_1,99,1,-0.09691937308972937,-0.15042689583130825,1.194116471646742,0.99544834964552,0.020324256962150462,0.05919033189114902,0.07187497740912797,0.29375048477959353,0.010142458517144527,60371.31207958632
1683086454926219940,97,1683086454926219940,camera_1,100,1,-0.09695013937445673,-0.15044491510700475,1.194309007657319,0.9955518147976007,0.02032785024445003,0.05886572753080318,0.07069786899130862,0.27204095521301497,0.009395794131573876,60372.85900970042
1683086454932936668,98,1683086454932936668,camera_1,101,1,-0.09691727636978355,-0.15040132503547368,1.1939476060825838,0.9954131522587091,0.0203570235506538,0.059813362100689035,0.07183738314241428,0.25554173097771127,0.008821157331645542,60382.3059910991
1683086454939503431,99,1683086454939503431,camera_1,102,1,-0.0969044667235742,-0.15040569912623208,1.1939277643567003,0.9954035892512725,0.020462898533964394,0.05938961468803744,0.0722899575077992,0.28223753948986996,0.009742253590312524,60381.880948917526
1683086454946339130,100,1683086454946339130,camera_1,103,1,-0.09693689688242599,-0.15044286056600653,1.1941647660608734,0.9954548086723201,0.02036712642514998,0.05892760422889667,0.071989176354361,0.27142786624608556,0.009373053624993428,60367.18104781996
1683086454952915191,101,1683086454952915191,camera_1,104,1,-0.09692949113206463,-0.1504205060050106,1.1940930852535667,0.9954476880100319,0.02042218992094097,0.05931489244815173,0.07175359313776299,0.27581109589664266,0.00952289538103689,60374.17308601142
1683086454959571361,102,1683086454959571361,camera_1,105,1,-0.09693275080871752,-0.1504178659550087,1.1941699255904725,0.9955403962805666,0.020365497239242407,0.05838119152653587,0.07124747273884882,0.30741573945851997,0.010614854144798904,60383.831730783095
1683086454966232061,103,1683086454966232061,camera_1,106,1,-0.09693766584149038,-0.1504363242168558,1.1941893072487428,0.9954627764924285,0.02047615686365341,0.059780731989688675,0.07113966334512237,0.3037137773062568,0.01048690842819657,60368.86124870251
1683086454972863912,104,1683086454972863912,camera_1,107,1,-0.09692524771055372,-0.15041879105552616,1.1939875073766086,0.9954328771809862,0.020385380710446804,0.05958703588129311,0.07174404808313697,0.2878428874537349,0.009936261799015526,60381.89148395992
1683086454979529380,105,1683086454979529380,camera_1,108,1,-0.0969273415983794,-0.15040214786105072,1.1939152215460949,0.9954320034939714,0.02038169883077527,0.05911777260639921,0.07214431186731088,0.25555769076163415,0.0088216939378776,60388.08379193343
1683086454986315011,106,1683086454986315011,camera_1,109,1,-0.09691817517131004,-0.1504396746177036,1.19406958464438,0.9954816275826976,0.020319878856831095,0.05936616105258974,0.07126773877726948,0.26257898929179646,0.009065718645248981,60382.90570558004
1683086454992997407,107,1683086454992997407,camera_1,110,1,-0.09692235577133115,-0.15041123432828507,1.193976917052214,0.995447492093942,0.02033922134089867,0.059397835132129054,0.07171125253922028,0.31639939059095923,0.010921308984722544,60385.597435003394
1683086454999528646,108,1683086454999528646,camera_1,111,1,-0.0969456239454492,-0.1504306412647124,1.1941852019203691,0.995511333787852,0.020374552853190887,0.05954218650752512,0.07068797579410445,0.270876072885585,0.009353474837398562,60378.468429432854
1683086455006357908,109,1683086455006357908,camera_1,112,1,-0.09691394681137794,-0.15039247048018728,1.1938761898017614,0.995373439373048,0.020343158961434304,0.0604873307987898,0.07182725727032045,0.2789298104180489,0.009626679164130335,60382.56388760729
1683086455012858867,110,1683086455012858867,camera_1,113,1,-0.09692695879726085,-0.15041932677127273,1.1941305840849998,0.9954810548639094,0.02031455198988019,0.05906243753622823,0.0715291329233607,0.2821985089685768,0.00974389109718746,60376.51537797762
1683086455019750356,111,1683086455019750356,camera_1,114,1,-0.09692671242929873,-0.1504279016780117,1.1941279375273477,0.995449904825502,0.020398051045937872,0.059388852020043875,0.07166847809300686,0.29060158936772496,0.010033818681750151,60371.219272175345
1683086455026216506,112,1683086455026216506,camera_1,115,1,-0.09693605305555847,-0.15041613789752317,1.1940669175717684,0.9954793349706396,0.020318097573305854,0.05937074731828618,0.07129644395257785,0.27095812193874735,0.009354790743047051,60383.046428482216
1683086455032756805,113,1683086455032756805,camera_1,116,1,-0.09693283496259651,-0.1504304821756881,1.1943059973344532,0.9955365921064872,0.020356411518030578,0.05896830023418158,0.0708184287781212,0.33735673713090364,0.011650135986864745,60370.722618869964
1683086455039537429,114,1683086455039537429,camera_1,117,1,-0.09690533258648315,-0.1504276905310349,1.1940801518185062,0.9954886490818455,0.020448188390630076,0.05828676121950873,0.07201995978396258,0.2895251529989764,0.009996433988421597,60381.86797868986
1683086455046421527,115,1683086455046421527,camera_1,118,1,-0.09695790421631531,-0.15045806031998152,1.19437399207252,0.9955736453668301,0.02039385374733632,0.05874450574719866,0.07047191231158006,0.28214463920448907,0.00974560214352426,60370.88227613547
1683086455052869081,116,1683086455052869081,camera_1,119,1,-0.09690386162401965,-0.15038246321936946,1.193858488246964,0.9954169127417822,0.020388425762079037,0.05942830682532544,0.07209548023585274,0.28045729246514384,0.009679557643635093,60391.57337687706
1683086455059492826,117,1683086455059492826,camera_1,120,1,-0.09691355119349154,-0.15039635686043892,1.1940748848682992,0.995499284784871,0.020412307891145516,0.05855301488356173,0.07166628305844094,0.2905617773940321,0.01003184642255919,60385.62162013812
1683086455066205978,118,1683086455066205978,camera_1,121,1,-0.09693876477252558,-0.15044846920808905,1.194316744225214,0.9955702720490998,0.02039834960187414,0.05803701866678536,0.07110165405862683,0.28905198493157513,0.00998367259515845,60374.55425987214
1683086455072863340,119,1683086455072863340,camera_1,122,1,-0.09693471808480589,-0.1504318744520383,1.1941213585483392,0.9954613705342811,0.02031678200067521,0.05900838427421706,0.07184635501188892,0.3118716140888864,0.010767930157892344,60373.01413512434
1683086455079559087,120,1683086455079559087,camera_1,123,1,-0.09693253499120683,-0.15042137219269414,1.1941500664317755,0.9955472527037814,0.020280601113916878,0.058588987220173395,0.0710048972179101,0.2996086519706296,0.010344859973249144,60387.14289224929
1683086455086179733,121,1683086455086179733,camera_1,124,1,-0.09692971771366846,-0.15042979325491032,1.1941407348432647,0.9954667607533373,0.020417796616440824,0.05908434219336348,0.07168041799658582,0.2643581698794151,0.009128464885108495,60372.833016712124
1683086455092907667,122,1683086455092907667,camera_1,125,1,-0.0969275591543913,-0.15042532619279517,1.1940594810923721,0.9954443438818605,0.02032085781566978,0.05945113617600405,0.07171599109424652,0.2550220515258843,0.008804969740339333,60376.52357448643
1683086455099489688,123,1683086455099489688,camera_1,126,1,-0.0969124529794518,-0.15040594524644982,1.1938614666343124,0.9953645566113702,0.02034493059491434,0.05949447215715424,0.07277287285575691,0.25378375938453246,0.008759890952043855,60379.89046215569
1683086455106269836,124,1683086455106269836,camera_1,127,1,-0.09688547126103786,-0.15039135616443552,1.1939332499488513,0.9954193034543737,0.02035625392352887,0.058632552932776916,0.07272040272987838,0.2553002115455456,0.008813391399010289,60382.77846731543
1683086455112958192,125,1683086455112958192,camera_1,128,1,-0.09690176243670073,-0.1503776372692245,1.1938626201262579,0.9954092416518089,0.02029815522358005,0.060051917533778726,0.07170909098019912,0.3023867088049883,0.010435622807160115,60390.64289543603
1683086455119418621,126,1683086455119418621,camera_1,129,1,-0.09693275237360727,-0.15042885075667642,1.1941436714255476,0.9954902720499217,0.020325203624310284,0.05913628259930237,0.07133655747187913,0.2744029635214247,0.009474955299833469,60377.13317879849
1683086455126237154,127,1683086455126237154,camera_1,130,1,-0.09691321369930597,-0.150409560089227,1.1940114822009333,0.995476217769133,0.020433306473623448,0.05891160121552841,0.07168684038817313,0.28243632864905516,0.009750287626194,60387.5616220923
1683086455132892131,128,1683086455132892131,camera_1,131,1,-0.09692986699137637,-0.1504283620677158,1.1942883018017245,0.9955462891006169,0.020309717904406627,0.05887181855423647,0.07077577690673137,0.30328962982457597,0.010474043550966186,60374.06405868847
1683086455139525413,129,1683086455139525413,camera_1,132,1,-0.09692027584336539,-0.15042845824648,1.1940683845508258,0.9954612644061239,0.020361012107614335,0.059256632262384284,0.07163066233000549,0.2621004406391876,0.009049362855723567,60378.898068072376
1683086455146232366,130,1683086455146232366,camera_1,133,1,-0.09692004619555941,-0.1504129843901297,1.1940171340575647,0.9954405613686024,0.020280756425793023,0.05951991540267507,0.07172279534024004,0.2983872368640732,0.010300520509569538,60380.046607527765
1683086455152872800,131,1683086455152872800,camera_1,134,1,-0.0969340176357521,-0.15041431335765834,1.1941725511068815,0.9955160952134545,0.020453531655337063,0.05927244153454921,0.07082467711408051,0.28465046438213903,0.00982869685051999,60380.759125453114
1683086455159512758,132,1683086455159512758,camera_1,135,1,-0.09690013299692349,-0.1504109905827948,1.1940794564518706,0.995502436977281,0.02043153306965173,0.05863796823250475,0.07154746054390931,0.28422361926641315,0.00981306936314959,60385.82382090215
1683086455166202545,133,1683086455166202545,camera_1,136,1,-0.0969206542499662,-0.15040647194201817,1.1939041975105935,0.9954140490036162,0.02035303688966201,0.05909546649430423,0.07241788988513248,0.26711046854325105,0.009220221034965016,60385.185208586394
1683086455172947645,134,1683086455172947645,camera_1,137,1,-0.09692734662024374,-0.15042389861391697,1.1941756188695019,0.9954812617014613,0.020319024568860648,0.05918440215342043,0.07142409525908511,0.31578685496060643,0.01090363004261939,60372.376456444326
1683086455179538249,135,1683086455179538249,camera_1,138,1,-0.09691956660511417,-0.15040583296164353,1.1939446637881503,0.9954429405048538,0.02034250804858935,0.05881898486935717,0.07224860956642432,0.28619169106241316,0.009879125514665644,60386.62401451693
1683086455186269283,136,1683086455186269283,camera_1,139,1,-0.09691700786143324,-0.15041479918953535,1.1941217509312922,0.995470415009536,0.02035536176514318,0.05848603313442767,0.07213664821954897,0.3035179905418772,0.010480048894568194,60374.30917382187
1683086455192855834,137,1683086455192855834,camera_1,140,1,-0.09693460394928813,-0.15043279289047545,1.1941526869662922,0.9954895956118858,0.020285682233083243,0.059669683159874386,0.07091181168481542,0.2700643962889444,0.009324999878496864,60376.97058530769
1683086455199496984,138,1683086455199496984,camera_1,141,1,-0.09693898845083611,-0.15043418260265132,1.1942191142240128,0.995553521974888,0.02030147347963774,0.05792241908656541,0.0714564792381501,0.2919682857755106,0.010082929933008607,60380.18749908736
1683086455206185817,139,1683086455206185817,camera_1,142,1,-0.0969261830357298,-0.1504251783466024,1.1941631499459624,0.9954780634419622,0.020399756855357595,0.058902929558018374,0.07167789070254633,0.27931427097064443,0.009645038900393407,60372.66397012518
1683086455212882518,140,1683086455212882518,camera_1,143,1,-0.0969416211166354,-0.15042432273177203,1.194259024530324,0.9955417824941913,0.0202846242275479,0.05911784998508161,0.07064115755971757,0.2745750929607311,0.009482365884292559,60376.42250703041
1683086455219572305,141,1683086455219572305,camera_1,144,1,-0.09693968457801769,-0.15044079091343995,1.1941922109397913,0.995467113096402,0.020447292999135756,0.059072751323879465,0.07167666986928056,0.2767434421257349,0.009556699421968696,60367.711251992936
1683086455226318836,142,1683086455226318836,camera_1,145,1,-0.09691784453970598,-0.15040065239536338,1.1938897080589628,0.9953921747893393,0.02041692581664247,0.0600767266534806,0.07189126805774437,0.28377050285052974,0.009794095911475613,60384.52308229788
1683086455233024358,143,1683086455233024358,camera_1,146,1,-0.09692657203267732,-0.1504202221119867,1.194109948312876,0.9954502719143319,0.02047355332806136,0.05906642108278835,0.07190791097144024,0.2700594956113491,0.009324836921422254,60372.776937773684
1683086455239550828,144,1683086455239550828,camera_1,147,1,-0.0969165102435127,-0.15044216967926838,1.1941758522922823,0.9954705129341703,0.02033082578961605,0.059169139990263075,0.0715830166597143,0.2673750521207694,0.009233018486609536,60369.7125154191
1683086455246308326,145,1683086455246308326,camera_1,148,1,-0.09693942940625944,-0.15041943900846372,1.1940823569149146,0.9954326084547767,0.020269977224883436,0.060035903410535364,0.07140546442607383,0.2839576462865807,0.00980345327962149,60372.95265296
1683086455253048896,146,1683086455253048896,camera_1,149,1,-0.09695220255965734,-0.15042858587904825,1.1942215036256036,0.9955035229903338,0.02032521336864689,0.05989681178715226,0.07051236312227444,0.27698376182524953,0.009564593256511782,60373.785095307045
1683086455259568929,147,1683086455259568929,camera_1,150,1,-0.09692228111852913,-0.15041791792046924,1.1941101293089227,0.9954491422143993,0.020325044726794184,0.05886170346057331,0.07213319407311841,0.29627932919538574,0.010229901215744887,60371.582599438276
1683086455266270160,148,1683086455266270160,camera_1,151,1,-0.09690676142709231,-0.15041992455261718,1.194043313500605,0.9954607840863373,0.02047522269509581,0.05966779810672316,0.07126251799435827,0.306417052182951,0.010577710705012287,60382.88082566628
1683086455272968769,149,1683086455272968769,camera_1,152,1,-0.09693897489957606,-0.15043351741015987,1.194225973138855,0.9954824439927643,0.02039032296750334,0.059491112470651614,0.07113189136019117,0.29271637499914505,0.010108124210942395,60368.45254332968
1683086455279799699,150,1683086455279799699,camera_1,153,1,-0.09695416039879473,-0.15045104763670503,1.1943526658361359,0.9954866866981713,0.020300911821591525,0.05941087733960504,0.07116514062128482,0.2656452616502065,0.0091757296660069,60355.91416540977
1683086455286279201,151,1683086455286279201,camera_1,154,1,-0.09691235919084773,-0.1504060546583146,1.1940495478878903,0.9954998009735118,0.02041863603841753,0.05952608072891803,0.07085104993635116,0.27993100009916816,0.009663785370073905,60389.985052984164
1683086455292873144,152,1683086455292873144,camera_1,155,1,-0.0969187634009198,-0.150421404195551,1.1940371001174024,0.9954182674322769,0.02045994372095889,0.05887241699384259,0.07251139277632444,0.3001379517954774,0.010362018485474741,60372.84457967103
1683086455299673557,153,1683086455299673557,camera_1,156,1,-0.09692565350661578,-0.15041362859051502,1.1940503326891434,0.9954408054319153,0.020338613728555915,0.05919438406404796,0.07197199849898984,0.2704792882577749,0.00933839528224842,60376.43874793463
1683086455306250810,154,1683086455306250810,camera_1,157,1,-0.09692181381729806,-0.15042685568818537,1.194200951888551,0.9954646634497343,0.02038181868062438,0.05901122126571306,0.07177994883605199,0.2855864555458538,0.009862070979359386,60366.238446208605
1683086455312943696,155,1683086455312943696,camera_1,158,1,-0.09692049803568595,-0.15043514956814927,1.19416280631031,0.9954634061428874,0.020415889979731212,0.05927956010997829,0.07156627851092845,0.26813148632936645,0.00925888077230003,60370.288117330194
1683086455319585084,156,1683086455319585084,camera_1,159,1,-0.09693764718607926,-0.15041785494464055,1.194150274112696,0.995509713885541,0.02043309911533132,0.058851042741302664,0.07127027983902406,0.2599473275040509,0.00897625929958208,60380.60858283106
1683086455326432466,157,1683086455326432466,camera_1,160,1,-0.09692106093483574,-0.1504177450421083,1.194147150134335,0.9955348678141692,0.020378312229511038,0.05879182930879706,0.07098290050023688,0.2800133542041294,0.009668512548756314,60385.80338475643
1683086455333141088,158,1683086455333141088,camera_1,161,1,-0.09689931067378169,-0.15038809243468026,1.1938959842595749,0.9954065006923849,0.02035234065283997,0.06015637157775141,0.071644201216089,0.28707548925012816,0.009908039173523104,60387.097407781184
1683086455339552879,159,1683086455339552879,camera_1,162,1,-0.0969154628661564,-0.15042172488352223,1.1941584465425588,0.9954750918086201,0.02032765883099196,0.059681280079327784,0.0710934081554889,0.3150991874426836,0.010879193529794712,60373.908228407556
1683086455346306085,160,1683086455346306085,camera_1,163,1,-0.09693851399573555,-0.15041221902028076,1.1940118862275428,0.9954694761930469,0.020312055804849103,0.05936751568625713,0.07143836810960504,0.25901788275223225,0.008942060800415638,60386.415654096636
1683086455352847814,161,1683086455352847814,camera_1,164,1,-0.09693625022212075,-0.15044233395087514,1.1942879023012445,0.9955380517253388,0.02032247784378083,0.05864500665137304,0.07107564741925293,0.30820156053232495,0.0106438983321371,60371.75159172312
1683086455359421491,162,1683086455359421491,camera_1,165,1,-0.09693245503690255,-0.15041991068623808,1.1941225768673562,0.9954798283938868,0.020344129955160804,0.059126714031976176,0.07148467895308895,0.2941191149438965,0.010155086744922916,60377.30276154728
1683086455366245985,163,1683086455366245985,camera_1,166,1,-0.09693388075767628,-0.15043506676325163,1.1941700704028233,0.9954943412725145,0.020314887427272908,0.058757643067271416,0.07159512011582231,0.31941615529649425,0.011029118050747706,60374.55637451529
1683086455372836589,164,1683086455372836589,camera_1,167,1,-0.09691554480409448,-0.15041396137199067,1.1940138923638366,0.9954116428443711,0.020196546307149087,0.059050885126718494,0.0725310538520199,0.30464601069979835,0.010517090723371088,60373.10447694641
1683086455379608631,165,1683086455379608631,camera_1,168,1,-0.09692728078557704,-0.15041747885991946,1.1941219936858845,0.9954809550952688,0.02037747130931238,0.058542551856449465,0.07193883740918118,0.27363343973411247,0.009448590911208062,60376.54713244946
1683086455386270761,166,1683086455386270761,camera_1,169,1,-0.09693802114897201,-0.15042671318437373,1.19412522810216,0.995460759991944,0.020397082221466353,0.059423429984629586,0.07148909232864618,0.27843317290535197,0.009613734849149666,60373.742748086814
1683086455392950057,167,1683086455392950057,camera_1,170,1,-0.09691898782668312,-0.15043361133656044,1.1941294564231228,0.9955527592891498,0.020408027692343778,0.05871649338107449,0.07078551605024261,0.2535396644670982,0.00875458546796478,60390.89342504042
1683086455399565458,168,1683086455399565458,camera_1,171,1,-0.09692879034325197,-0.15041363366582858,1.1940607395536889,0.9954587131682102,0.02037582499408024,0.06005560780506621,0.07099366242465407,0.3003304472222226,0.010367748358622144,60381.14714762345
1683086455406343221,169,1683086455406343221,camera_1,172,1,-0.09694734532354024,-0.15043144346340329,1.1941953952449336,0.995451850774953,0.020414732675074553,0.06031342042755208,0.07086002254342877,0.25648254514089786,0.00885669473816286,60366.78845199564
1683086455412899255,170,1683086455412899255,camera_1,173,1,-0.0969171684078659,-0.15042476734948748,1.1940570255251037,0.9954685131088741,0.020305604194820328,0.05953892584033746,0.07131085581361148,0.3100482710287906,0.010703360576970843,60382.06340316357
1683086455419573068,171,1683086455419573068,camera_1,174,1,-0.09694099346289078,-0.15045696540450487,1.1942439717325477,0.9955173371721823,0.020293523244792715,0.05970068235765929,0.07049278565889396,0.27646020927932113,0.009546973093264645,60373.452981896626
1683086455426234483,172,1683086455426234483,camera_1,175,1,-0.09694163701678774,-0.150422075305786,1.1941970839773388,0.9954826269454892,0.020390802673694756,0.05968941649155169,0.07096286475987781,0.2758628293668153,0.009525798380429525,60371.855780781596
1683086455432920217,173,1683086455432920217,camera_1,176,1,-0.09693965995109646,-0.15042356737938994,1.1941772691308896,0.99548663839174,0.020283574508902422,0.06001899886490613,0.07065868073994434,0.29730994964484125,0.010265344712662522,60374.83544611446
1683086455439586162,174,1683086455439586162,camera_1,177,1,-0.09692620656782555,-0.15041132231417467,1.1940662907204487,0.9954495905606204,0.020301024605326023,0.059392133899786696,0.07169766721098415,0.29613268173125107,0.010223602392166811,60377.02549000217
1683086455446224689,175,1683086455446224689,camera_1,178,1,-0.09693931635718431,-0.15043042393886372,1.1941709881839269,0.9954367701548414,0.02032389975463915,0.05973510507984259,0.0715841668496663,0.2780481336667435,0.009601115512936647,60364.52577128907
1683086455452966451,176,1683086455452966451,camera_1,179,1,-0.09691413296824329,-0.15040889887529735,1.1940328370907098,0.9954575637515874,0.020316734103154353,0.058415105561706,0.07238193508984754,0.31149740210094023,0.010753965494626833,60380.09938964329
1683086455459796667,177,1683086455459796667,camera_1,180,1,-0.09693845546130876,-0.15044241662060326,1.1942601569577764,0.9955578334060656,0.020329347383248146,0.059294336593355354,0.07025311115349614,0.2826857917534653,0.009762058392989067,60379.82421668194
1683086455466165542,178,1683086455466165542,camera_1,181,1,-0.09694191416658242,-0.1504414854638086,1.1942881428608123,0.995529795806863,0.020376000803288167,0.05937933749628894,0.07056442822351737,0.30080028700467665,0.01038788758424966,60371.7488182668
1683086455473126649,179,1683086455473126649,camera_1,182,1,-0.09692780480464627,-0.15042888932928336,1.19405590883754,0.995441740948728,0.020256654166949085,0.0594748277712676,0.0717506320564812,0.28085083403857425,0.009696190162792407,60376.0670838542
1683086455479787826,180,1683086455479787826,camera_1,183,1,-0.09693015329947735,-0.15042472478950678,1.1941360949027156,0.9955109761218391,0.020375508664111683,0.058801282675719886,0.07131019719024582,0.3229953371628653,0.011151746761718177,60381.86032184701
1683086455486304521,181,1683086455486304521,camera_1,184,1,-0.09692758573547675,-0.15045003401109042,1.1943338974196283,0.9955644960109633,0.020326340648773252,0.05792334168980146,0.07129558643950729,0.28896502465067897,0.009981025836060333,60371.0454521575
1683086455492958068,182,1683086455492958068,camera_1,185,1,-0.0969505224336737,-0.15044261837402745,1.1943116782584087,0.9954778982094298,0.020333568633472493,0.05895794459303128,0.07165375728131096,0.3078661911567906,0.010633019460000693,60357.60087458911
1683086455499608993,183,1683086455499608993,camera_1,186,1,-0.0969320084197837,-0.1504199724010108,1.1942700230816725,0.9955543592948919,0.020292942411097963,0.059219520599532345,0.07037586629803377,0.30962375583476387,0.010692023272648569,60378.37541905688
1683086455506228446,184,1683086455506228446,camera_1,187,1,-0.09693983049181407,-0.15044991214961212,1.1944106838919286,0.9955629249286321,0.02035186926043412,0.0589853288805975,0.07043433042203781,0.27104766518459655,0.009362874708559375,60365.47702068108
1683086455512963533,185,1683086455512963533,camera_1,188,1,-0.0969395091895239,-0.15044245902505543,1.1942215490485772,0.995449741643913,0.02030331723189569,0.05955950201480461,0.07155594238214215,0.2855266823899001,0.009860112044425596,60361.65146521978
1683086455519579172,186,1683086455519579172,camera_1,189,1,-0.0969093356326357,-0.15041739879521301,1.1939592488449466,0.9954602462230236,0.02040383699852231,0.058911077166127375,0.07191708150684084,0.27445730999170337,0.009474315244233474,60389.084922368405
1683086455526220321,187,1683086455526220321,camera_1,190,1,-0.09693977259303042,-0.15042989030242737,1.1942404371623678,0.9955074948319211,0.020356076402309846,0.059078758533259904,0.07113478879665441,0.25370620033936575,0.00876200323243039,60371.20101953787
1683086455532903432,188,1683086455532903432,camera_1,191,1,-0.09690550889438324,-0.1504192647899859,1.193948102797779,0.9954031605398627,0.02021997495401112,0.059354811902861807,0.07239272687285286,0.2837289433373371,0.00979410469363085,60378.36953471562
1683086455539489030,189,1683086455539489030,camera_1,192,1,-0.09690876485037032,-0.1504048259172679,1.1939956077163019,0.9955000146999171,0.020362838443427053,0.058348587878678186,0.07183674432737075,0.29631456796778366,0.010229133044387164,60392.68186074933
1683086455546259641,190,1683086455546259641,camera_1,193,1,-0.09695327028546985,-0.15044570021618414,1.1943743127974513,0.9955658581525089,0.02044073408485833,0.05898803162950607,0.07036483919975486,0.309842761955224,0.010701503722070283,60370.14841196499
1683086455552923917,191,1683086455552923917,camera_1,194,1,-0.09695906026025049,-0.15042904255351316,1.1943088043550014,0.9955886902912744,0.020360674987819193,0.059035215660012595,0.07002460988910336,0.30226534402754623,0.010438649288598658,60381.35581008211
1683086455559729337,192,1683086455559729337,camera_1,195,1,-0.0969065800307578,-0.15042874576086707,1.1941119807574643,0.9955483522155036,0.02040169628080384,0.05798970852512961,0.0714453840008702,0.2923012459068559,0.010092570173652886,60390.37684592453
1683086455566328048,193,1683086455566328048,camera_1,196,1,-0.09693364475354584,-0.15043184787332686,1.1941960568735954,0.9955277249568646,0.020358583479759742,0.05937903233259341,0.07059891953954942,0.30372041719965637,0.010487081144400556,60380.44629968008
1683086455572948694,194,1683086455572948694,camera_1,197,1,-0.09693761396677261,-0.15041814893478586,1.1940251060832356,0.9953986574257503,0.020291532768969334,0.060358620909924214,0.0716003028956694,0.2639556754438672,0.009112371649099069,60372.20613080631
1683086455579678535,195,1683086455579678535,camera_1,198,1,-0.0969118315419993,-0.15038659549592948,1.1938511213568055,0.9954059287247623,0.020378069647169126,0.05914502394787076,0.07248198037618965,0.25618668959941715,0.008842525927100494,60389.235995099894
1683086455586479187,196,1683086455586479187,camera_1,199,1,-0.09692207195379002,-0.15041414143574205,1.194100420229662,0.9954963089222245,0.020303251377350052,0.05922751198613608,0.07118271369979695,0.30042353134194855,0.010371996158774495,60383.0327203209
1683086455592876911,197,1683086455592876911,camera_1,200,1,-0.09692377664914337,-0.15042185679672168,1.194121284156208,0.9955219286102645,0.020390960406577584,0.05810959260029111,0.07171871190718139,0.3060076297260821,0.01056584255179811,60384.27124388587
1683086455599615812,198,1683086455599615812,camera_1,201,1,-0.09692438736575716,-0.15041786630170376,1.1940693757036391,0.9954701965021099,0.020483139278291953,0.05943622124441872,0.07132225799525438,0.2777652950753691,0.009589674471196073,60381.732892278626
1683086455606417417,199,1683086455606417417,camera_1,202,1,-0.09693516280258707,-0.15043686879195353,1.1942511057408982,0.9954568309144591,0.0204269638154848,0.058866121078553074,0.07199456037915608,0.28782068434520625,0.009940235319512996,60359.43708289041
1683086455612885713,200,1683086455612885713,camera_1,203,1,-0.09691415877159068,-0.15040969229963197,1.1939484052929392,0.99541196114121,0.020322757209109855,0.05971242058119837,0.07194748073952376,0.30877956148469815,0.010657945259954062,60381.6066515399
1683086455619527339,201,1683086455619527339,camera_1,204,1,-0.096931286229713,-0.15042867745622995,1.1940914616831386,0.9954480927989899,0.02031221631214046,0.059131538920946775,0.07193031013545508,0.292870960503933,0.010111738127363903,60373.41992429407
1683086455626254796,202,1683086455626254796,camera_1,205,1,-0.09690705036230593,-0.15039178438710019,1.1938016603588562,0.9953377856738571,0.020406044045866652,0.05980202359433469,0.07286977254173295,0.26621532429999206,0.009187723497140017,60381.311200287004
1683086455632846117,203,1683086455632846117,camera_1,206,1,-0.09694140090047099,-0.15042245931185078,1.194149608204008,0.9954806560513911,0.020463011942922292,0.059833270500032044,0.0708484884170832,0.24904532673826907,0.008599487317559574,60376.66583212202
1683086455639575242,204,1683086455639575242,camera_1,207,1,-0.09695305188929006,-0.15044814750691257,1.1942842089020118,0.9955089824045601,0.02036903455683013,0.06012267671933966,0.07022985210835762,0.268875129884691,0.009285540781571542,60369.08582217805
1683086455646264553,205,1683086455646264553,camera_1,208,1,-0.09694021689792501,-0.15041732518700607,1.1941378858830092,0.9954808616823236,0.020341378921844008,0.059514135325010965,0.07114878793270277,0.28837559233943466,0.009956800975134053,60376.79293015179
1683086455652999639,206,1683086455652999639,camera_1,209,1,-0.09692844126640138,-0.15040364879330165,1.1940031333989745,0.995469290246959,0.020496742152087716,0.05890552543263132,0.0717698739714108,0.26840034482302144,0.009265906439415765,60387.21986026745
1683086455659447193,207,1683086455659447193,camera_1,210,1,-0.09690014874170691,-0.1504020477261551,1.1938947661396888,0.9954266902703182,0.020449243269941873,0.05913792353615658,0.07218198353466417,0.26741025591036305,0.009230216688221462,60389.347502722965
1683086455666108131,208,1683086455666108131,camera_1,211,1,-0.09692933820982536,-0.15041511786794012,1.194075853225567,0.995507747359454,0.02042129461860307,0.059027410703396045,0.07115518574958832,0.30125958341523074,0.01040053919794145,60387.93215162502
1683086455672995328,209,1683086455672995328,camera_1,212,1,-0.09692923853642152,-0.15039955828562215,1.1939329560128285,0.995427008845603,0.020353254404056484,0.05920230521069981,0.07215193797534937,0.2878549678280251,0.009936114843268376,60385.382437400345
1683086455679600238,210,1683086455679600238,camera_1,213,1,-0.09690017967162187,-0.15040828273263118,1.1939155077829926,0.9953875635895074,0.0203850530304782,0.05859947865070654,0.07317205044382895,0.28962217080697883,0.009997596457356954,60377.64214813399
1683086455686286926,211,1683086455686286926,camera_1,214,1,-0.09692512364950748,-0.15040831552262157,1.1940083868802138,0.9954714397327146,0.020326451445720883,0.05912681063103137,0.07160634268487205,0.2666044425277505,0.009203897468257411,60386.833851015304
1683086455692868709,212,1683086455692868709,camera_1,215,1,-0.09694044363090984,-0.15041243988475142,1.1940416434816814,0.995524801178155,0.020344658063468333,0.05885238696113522,0.0710834838514016,0.3084007413854124,0.010646369875741536,60394.14315226144
1683086455699577808,213,1683086455699577808,camera_1,216,1,-0.09692154101749614,-0.15041790976958488,1.1940325556380318,0.9954663215361795,0.020366209956642064,0.05885469907160021,0.07188980857132055,0.28796188076375984,0.009941462815062217,60382.89049307395
1683086455706294059,214,1683086455706294059,camera_1,217,1,-0.09691702369189201,-0.15041122919991368,1.1940585673999546,0.9954374267975816,0.02043333529802799,0.05966397383606662,0.07160320080343305,0.29071448622562457,0.010036375188825053,60376.4327825443
1683086455712871789,215,1683086455712871789,camera_1,218,1,-0.09693249299644996,-0.15041035114963447,1.1939885992816004,0.9954240257525747,0.020400675402451263,0.05929641634791703,0.0721024022204253,0.3120653807709459,0.01077230035518261,60379.60936223976
1683086455719652891,216,1683086455719652891,camera_1,219,1,-0.09693456195156308,-0.15042817140898945,1.1941811683708163,0.9955303941732432,0.020376969340517397,0.05850308724140039,0.071283954582975,0.2833513682708144,0.009784543421157704,60380.70712208712
1683086455726230621,217,1683086455726230621,camera_1,220,1,-0.09692051416217276,-0.15039890103531559,1.1939465710442734,0.9954587976363941,0.02035970062283648,0.05941902365918169,0.07153072365244598,0.29605932541016955,0.010218985558383908,60391.260041764464
1683086455732893466,218,1683086455732893466,camera_1,221,1,-0.0969131411136682,-0.15040133898139224,1.193940395549897,0.9954119789730113,0.020328927448653045,0.05909323422387211,0.07245492733267705,0.2933874813024886,0.010127319531231848,60381.23708764462
1683086455739552497,219,1683086455739552497,camera_1,222,1,-0.09694036775981309,-0.15045079788921298,1.1944313435687788,0.9956219919973499,0.02029607609907445,0.058457235720879144,0.07005476385002775,0.29049188586941455,0.010034529492242768,60374.46749990068
1683086455746186733,220,1683086455746186733,camera_1,223,1,-0.09692035288191556,-0.15041132427131457,1.1940090497241767,0.9953925744284939,0.02036695259110239,0.06006812897490404,0.07190709211351398,0.2915624665620271,0.010064847475808571,60372.4733888826
1683086455752954483,221,1683086455752954483,camera_1,224,1,-0.09693595010936286,-0.15042948574760498,1.1941842603140431,0.9955158854597691,0.020300577053155407,0.05936737615291672,0.07079211126445521,0.2776323155412683,0.009586698962631942,60378.861605980215
1683086455759577274,222,1683086455759577274,camera_1,225,1,-0.09693636330142144,-0.15043178847809457,1.1941741301023587,0.9954946033831229,0.020425661822307123,0.05953797549532634,0.07091203316869106,0.29893255524802953,0.010321582409746606,60376.26404260076
1683086455766184091,223,1683086455766184091,camera_1,226,1,-0.0969448157872594,-0.15044938058889337,1.1942851109075607,0.9955357380382868,0.0203040604641881,0.0590754120895618,0.07075616654171377,0.31873535220802296,0.01100708143977412,60372.21870461946
1683086455772779703,224,1683086455772779703,camera_1,227,1,-0.09693067966878705,-0.15042526144820323,1.194097349628736,0.99539014461746,0.020330624314706693,0.05903407614345779,0.07280181019243279,0.25116104337212164,0.008672889961321062,60360.596866840104
1683086455779578447,225,1683086455779578447,camera_1,228,1,-0.09694181640961916,-0.1504245915037131,1.1941799528662096,0.9955154953875823,0.02035110698848245,0.05961510120054917,0.07057457471645402,0.2924066885025241,0.01009628337893603,60380.0088046199
1683086455786171913,226,1683086455786171913,camera_1,229,1,-0.09692429665298541,-0.15041384698764582,1.1940226473426154,0.9954684447986182,0.02038587061287817,0.05924172028799327,0.07153607668089315,0.26907360677432735,0.00928922053778712,60385.18929273619
1683086455792909383,227,1683086455792909383,camera_1,230,1,-0.09692559704495489,-0.15044377395776592,1.1941093366364641,0.9954863394645108,0.020334293034603105,0.05873031188993478,0.07172318266531931,0.2973507397255162,0.010266668405215066,60378.60006543494
1683086455799564361,228,1683086455799564361,camera_1,231,1,-0.09694669943932682,-0.15043471968664718,1.1942496697742426,0.9955336364004875,0.020343445990517024,0.05912923760625531,0.07072945822325977,0.28670937119750306,0.009901085583254601,60375.73674253339
1683086455806256294,229,1683086455806256294,camera_1,232,1,-0.0969322960781177,-0.1504351025355063,1.1941853293559537,0.9954739645545776,0.020351791429797435,0.060019192575796125,0.07081727898005667,0.2984705845883582,0.010305625534041388,60371.504951781586
1683086455813001394,230,1683086455813001394,camera_1,233,1,-0.09693228382795159,-0.15043712523537803,1.194224432406167,0.9955073318854145,0.020251065719749578,0.05847122558721828,0.07166702364355676,0.2885800902295159,0.009965958880927429,60370.93947384402
1683086455819738388,231,1683086455819738388,camera_1,234,1,-0.09694281000059748,-0.15040233287641133,1.1940106820463654,0.9954761979472909,0.020310324772924437,0.05897242142113576,0.07167205550109698,0.2917809452628717,0.01007274594390207,60387.32674136279
1683086455826249361,232,1683086455826249361,camera_1,235,1,-0.09691749388827692,-0.15040736035556296,1.1939877325529613,0.995503431640776,0.02029961885852758,0.05913471655294136,0.07116128416379533,0.282994248875184,0.009768804758266136,60395.46275380719
