%time,field.header.seq,field.header.stamp,field.header.frame_id,field.image_seq,field.transforms0.fiducial_id,field.transforms0.transform.translation.x,field.transforms0.transform.translation.y,field.transforms0.transform.translation.z,field.transforms0.transform.rotation.x,field.transforms0.transform.rotation.y,field.transforms0.transform.rotation.z,field.transforms0.transform.rotation.w,field.transforms0.image_error,field.transforms0.object_error,field.transforms0.fiducial_area
1684732762749598264,13,1684732762749598264,camera_2,37,0,0.5563884295124903,-0.15668899382433898,1.4196888288934197,-0.979338210057911,0.0301099731147499,0.1932616953575107,-0.05138070598130069,0.00514845026191324,0.002713269281183757,7056.206946623511
1684732762769754171,14,1684732762769754171,camera_2,39,0,0.5569042556822699,-0.15709930710910508,1.421070818295538,-0.9798149292888422,0.029499011253513657,0.19133835287527542,-0.0498211541088996,0.0063523222343064845,0.0033483411184126923,7055.70492768241
1684732762789945840,15,1684732762789945840,camera_2,40,0,0.5566448814275117,-0.15810036880620068,1.4205471803742682,-0.9796206704861701,0.029850203438131745,0.19206913687451616,-0.0506137725447051,0.006911487667821348,0.0036437539704320654,7055.3322770465165
1684732762810065984,16,1684732762810065984,camera_2,42,0,0.5565521263688229,-0.15884729348851875,1.42040268248159,-0.979546511638661,0.030077257478675897,0.19211712387482338,-0.051720410218382834,0.008875594474375248,0.0046815624337270415,7054.586086312314
1684732762829704999,17,1684732762829704999,camera_2,44,0,0.5567602809489284,-0.15947541118497582,1.4209370724802697,-0.9797491513817148,0.029941248921213262,0.1910953047502099,-0.05174656010086204,0.007311762543395162,0.0038579443596932243,7054.71666971175
1684732762849447250,18,1684732762849447250,camera_2,46,0,0.556575215651182,-0.15923867075622108,1.420408409718971,-0.979590930986711,0.02973984004905909,0.19209192128416647,-0.051164867045688546,0.006036287464667112,0.003183170549809243,7055.2263077942225
1684732762869537353,19,1684732762869537353,camera_2,48,0,0.5566221882240251,-0.15826727616011296,1.420404863294979,-0.9794477574111925,0.029898394846647493,0.19257809261595504,-0.051979368331872375,0.00785646663280204,0.004145222584770475,7051.617066862296
1684732762899917125,20,1684732762899917125,camera_2,50,0,0.5566125777385182,-0.15714026803742867,1.4202824330485102,-0.9795080762110244,0.029910526245032997,0.19253413152258228,-0.05098918763785278,0.007506951747927815,0.003957465849117205,7054.933948789959
1684732762920194387,21,1684732762920194387,camera_2,52,0,0.5564003315605085,-0.1566943375350889,1.41971516863826,-0.9793532320400246,0.030081078480330654,0.19316282884660868,-0.05148297934457228,0.008205203630495816,0.004324399935727502,7056.350420294562
1684732762930351257,22,1684732762930351257,camera_2,53,0,0.556646452726877,-0.1568495839437763,1.4203798100239966,-0.979518135690445,0.030181988203393864,0.1924422168344417,-0.050982964031635665,0.00856241607107222,0.004514163224379174,7054.623597814936
1684732762950102806,23,1684732762950102806,camera_2,55,0,0.556725958473547,-0.1577789632424858,1.4207351515373752,-0.9796655233702033,0.030102065971749817,0.191711155090936,-0.05095253632271074,0.005681974871549755,0.002996199098773687,7055.13020669785
1684732762970362424,24,1684732762970362424,camera_2,57,0,0.5566588824659419,-0.1585580105914828,1.4206474247846521,-0.9795398209561623,0.02993165774624275,0.192412646934458,-0.050825272506961776,0.008190084132365882,0.004319952028662552,7051.947640202942
1684732762990371942,25,1684732762990371942,camera_2,59,0,0.5565798398984989,-0.15937386692737032,1.4204982903290795,-0.9796865630443008,0.030291986201909402,0.19136763410277888,-0.051721005213489935,0.009039211319759488,0.00476713413951817,7057.633789384503
1684732763010306119,26,1684732763010306119,camera_2,61,0,0.5565595588165498,-0.15937495466282375,1.4204044332886347,-0.9794857719307828,0.030109791887146676,0.1924697042999826,-0.05154062421380347,0.007761853747069835,0.004094853997184706,7052.523458413316
1684732763030200004,27,1684732763030200004,camera_2,63,0,0.5569085641611156,-0.1586718839458896,1.4211592344016133,-0.9796177624549823,0.029662162071183013,0.19188077322501565,-0.05148751781283504,0.006101002043578774,0.0032205697578381424,7048.710861165304
1684732763049623727,28,1684732763049623727,camera_2,65,0,0.5569694321900636,-0.15788107028900758,1.4212333693199195,-0.9796614003461175,0.02985521565986407,0.1916385754434289,-0.051447674114585944,0.00848548935027793,0.004478698941016507,7049.686233677437
1684732763080104112,29,1684732763080104112,camera_2,67,0,0.5564373478623861,-0.1567083047239332,1.419819097666398,-0.9793858040528876,0.030055298092981242,0.19303043117527668,-0.051374882155659905,0.008461634744890034,0.0044596415131496064,7056.251025996864
1684732763100021839,30,1684732763100021839,camera_2,69,0,0.5569243351787484,-0.15695635364312574,1.4210835487402114,-0.9796318354190734,0.029914392307530863,0.19177723850640488,-0.05145956623589356,0.006749747844878584,0.0035616110985703803,7050.692416819513
1684732763119917869,31,1684732763119917869,camera_2,71,0,0.5567937614164568,-0.15786899445684943,1.4209281547182464,-0.9796394761955723,0.030130802282815287,0.19183272450775737,-0.050978792070716934,0.010354171507060528,0.005461932985557355,7052.480996873
1684732763139876842,32,1684732763139876842,camera_2,73,0,0.5567037601774365,-0.15863566648507552,1.4207530702064886,-0.9796192080428803,0.02977040898757418,0.19203199240072827,-0.05082955711748229,0.0052080993191339076,0.0027469313413903125,7053.011740358779
1684732763169859647,33,1684732763169859647,camera_2,75,0,0.5566707165070613,-0.15945634092186878,1.4207087736314654,-0.9797338736569969,0.030185887497498107,0.1912983219971045,-0.0511400137479065,0.005322060140315444,0.0028066854413771286,7056.749924551927
1684732763199744939,34,1684732763199744939,camera_2,77,0,0.5568177889218415,-0.15859435073002082,1.4209246037097396,-0.9795930950139098,0.029643547291402235,0.192043160454896,-0.05136197842321365,0.00764208089094609,0.0040327992738776125,7050.331199525626
1684732763209841251,35,1684732763209841251,camera_2,78,0,0.5564225714261956,-0.15808657590686165,1.4198791191280156,-0.9794179019921119,0.02939138386814087,0.19338463086244845,-0.049790605116629395,0.0064375249203294516,0.003391559837270455,7055.5203864518535
1684732763229660272,36,1684732763229660272,camera_2,80,0,0.5565781198599407,-0.15703765686436574,1.420179181653353,-0.9793990182579242,0.029467016551188715,0.19341040907731727,-0.05001671352189392,0.008250410028267652,0.004348438671000483,7052.394055749057
1684732763249470710,37,1684732763249470710,camera_2,82,0,0.5565054752667624,-0.15672127867969254,1.4199800679110222,-0.97942242959998,0.029948566284295663,0.1928198092896051,-0.05152968968961041,0.006267861579544842,0.0033040361886316925,7055.610640927681
1684732763269731760,38,1684732763269731760,camera_2,83,0,0.5566159297666583,-0.157173719327756,1.420380746176154,-0.9795214141560533,0.030049426632060592,0.19261935667727587,-0.05032508919060431,0.007810284907463938,0.004116768047762009,7054.547857223081
1684732763289711475,39,1684732763289711475,camera_2,85,0,0.5567196267242861,-0.15793702499286177,1.4207412825661896,-0.9795871388966614,0.03015001354809724,0.19204810284082852,-0.05116190170958386,0.009753390215337276,0.0051447615025200155,7052.805055690002
1684732763309927225,40,1684732763309927225,camera_2,87,0,0.5566090735802792,-0.15901790891106155,1.4205539293211606,-0.979732975709351,0.029981054777859662,0.19160447318822132,-0.05012143769258209,0.005160864559002221,0.0027199079093424,7058.302472568116
1684732763329570055,41,1684732763329570055,camera_2,89,0,0.5565743402325761,-0.15939979252105238,1.4204817333784676,-0.979643313358663,0.03008848623691244,0.19172085270500555,-0.05134954942058594,0.007760956650599837,0.0040928444945460135,7056.340689139441
1684732763349665641,42,1684732763349665641,camera_2,91,0,0.5563125392765098,-0.1590575394575718,1.4197129197926224,-0.9792771930122025,0.02980380462894248,0.1936960021583638,-0.05108592001372354,0.007897047384176403,0.004163589677579203,7053.122939626452
1684732763369729280,43,1684732763369729280,camera_2,92,0,0.5566817582887043,-0.15850736729989492,1.4205771431854033,-0.9795221728072785,0.029747495171883274,0.19239740756264723,-0.051328715872109826,0.007020394434221089,0.003703520076576738,7051.8357733031735
1684732763389878034,44,1684732763389878034,camera_2,94,0,0.5565446807318337,-0.157298268908799,1.420118522762455,-0.9794962878131561,0.029962845320766488,0.19258568228734352,-0.05099024454196243,0.006673872529063374,0.0035176706980894405,7056.204418591226
1684732763409927368,45,1684732763409927368,camera_2,96,0,0.5567658659298782,-0.1568581043855031,1.420648320611364,-0.9795510280446268,0.03008639928540347,0.19204599595866303,-0.05189342415951584,0.005747712450101972,0.0030320991445405574,7052.817899927726
1684732763439767360,46,1684732763439767360,camera_2,98,0,0.5567539580192455,-0.1572632564968533,1.4207291148990588,-0.9796693515292254,0.029990638861985688,0.19187536166459288,-0.050322647396956986,0.006630971154663712,0.0034955510337870547,7055.299867228376
1684732763459598779,47,1684732763459598779,camera_2,100,0,0.5566646641506976,-0.15798796529673043,1.4205932436013182,-0.9795771005206874,0.030033050654559,0.19235548168896344,-0.05026020959039836,0.004944621352478862,0.002606885766370551,7053.821166194975
1684732763489709138,48,1684732763489709138,camera_2,102,0,0.556364475034789,-0.15924116481496992,1.4199605660586598,-0.9796515699205892,0.030029144941470683,0.19178668160235907,-0.050979611279063815,0.005805513937957585,0.0030588237434220366,7061.774973734745
1684732763510129928,49,1684732763510129928,camera_2,104,0,0.5564508591281085,-0.1592728651900517,1.4201241689284274,-0.9796522860041862,0.0300907800357791,0.19177036124817243,-0.05099090144678711,0.006013479782268405,0.0031691746947917795,7060.144757953941
1684732763530409097,50,1684732763530409097,camera_2,106,0,0.5566061112514978,-0.15879098352185694,1.4204411409408952,-0.9795223949628011,0.030028609908964176,0.19225931653102404,-0.05167703126435334,0.005368019046727568,0.002831722255390399,7053.367626821851
1684732763550083398,51,1684732763550083398,camera_2,108,0,0.5566449845746764,-0.15763479985259982,1.4204074769063193,-0.9795439319812236,0.029688910506177172,0.19249040250174415,-0.05059346653903696,0.008978498226497322,0.00473328946493694,7054.383287252862
1684732763580284357,52,1684732763580284357,camera_2,110,0,0.5565810542390991,-0.15679390632229268,1.4201787754222361,-0.9794955292958271,0.0301056420255338,0.19235519637975376,-0.05178452310704985,0.00723923702025786,0.0038168157803443155,7055.888909715459
1684732763600208282,53,1684732763600208282,camera_2,112,0,0.5567969101616093,-0.15702848226632982,1.4207894298200217,-0.9796944109790765,0.029627515657408537,0.19206852195911553,-0.04930268030007455,0.006919410545378923,0.0036462467057174586,7055.103365009884
1684732763619516849,54,1684732763619516849,camera_2,114,0,0.5565578059103162,-0.1576242860825032,1.4202851756945922,-0.9795348187998261,0.029877346496019624,0.19257342390641963,-0.05034242078115936,0.007082653348334134,0.0037328546368802966,7055.6153105362355
1684732763659337282,55,1684732763659337282,camera_2,116,0,0.5563033802589635,-0.15925413631496535,1.4198018299195894,-0.9795061631465102,0.030074422644908616,0.19247810692701398,-0.05114082336422146,0.00634188367985189,0.0033421615219162517,7059.158311790323
1684732763679473638,56,1684732763679473638,camera_2,118,0,0.5565981832047818,-0.15927293925222627,1.4204759953889181,-0.9795740592381679,0.029937741058355644,0.19222219162673174,-0.05088244465626014,0.008444132283329964,0.00445312081807377,7054.238429639256
1684732763699406385,57,1684732763699406385,camera_2,120,0,0.5567490205797156,-0.15875121406583126,1.4207783438559525,-0.9795374662439142,0.029646988214852045,0.19246742850365964,-0.05083008242595927,0.007464747643098235,0.003938308259673303,7050.114445049314
1684732763719597101,58,1684732763719597101,camera_2,122,0,0.5569772863942634,-0.15764120871517576,1.4212351695251277,-0.9797014243097568,0.02945300479004861,0.19198328929678157,-0.04959895508032159,0.01042760448763147,0.005499399085467503,7050.511985419789
1684732763749633789,59,1684732763749633789,camera_2,124,0,0.5562739686478907,-0.15665084759996384,1.4194101039047873,-0.9792391262101902,0.030106614081964047,0.1938329064696791,-0.051118781843268284,0.00876574160065502,0.004618573110208088,7056.11014365661
1684732763779565811,60,1684732763779565811,camera_2,126,0,0.5566797442017851,-0.15734033263109365,1.4205519422828428,-0.9796165831415987,0.029934160929622356,0.19205583229163453,-0.05069372077670198,0.008729253779165447,0.004601851385877441,7055.470178231363
1684732763799523353,61,1684732763799523353,camera_2,128,0,0.5567719768350857,-0.1585437202659989,1.420934099873567,-0.9797547929759611,0.02999024352006896,0.19122415580828236,-0.0511317237109059,0.007360787247307599,0.0038823191298054172,7055.402702502908
1684732763819468259,62,1684732763819468259,camera_2,130,0,0.5565700292813681,-0.15914460223390503,1.4204681558888161,-0.9795629334350924,0.030008782867544225,0.1924689717311948,-0.050116138234925084,0.007446289877407253,0.0039257352893413795,7054.201968065931
1684732763839377641,63,1684732763839377641,camera_2,132,0,0.5565263920935636,-0.15938625848817842,1.4203266878020977,-0.9795780396361131,0.030218098990226514,0.19194044284955178,-0.051697167763857,0.0051789321587421,0.0027313839533558175,7056.061700516614
1684732763869637012,64,1684732763869637012,camera_2,134,0,0.5566964994128073,-0.15828625296416868,1.4206049967504475,-0.9795083675527998,0.029754413105897205,0.19234726415229775,-0.051774151542052685,0.006456333794631065,0.00340663928281476,7051.269375438798
1684732763889561891,65,1684732763889561891,camera_2,136,0,0.5567632114215569,-0.157504225565887,1.4206930523174945,-0.9795191780229258,0.02968839341475572,0.19261192151956838,-0.05061054109849378,0.01240743394009769,0.006543953704774048,7050.879999367751
1684732763909640073,66,1684732763909640073,camera_2,138,0,0.5564133742150829,-0.15671370514236094,1.419750274032914,-0.9793363454031888,0.030214959440988957,0.19317004259225778,-0.051698292459335354,0.007620012271218002,0.00401666497207232,7055.637744128937
1684732763929522991,67,1684732763929522991,camera_2,139,0,0.5565271495315549,-0.15682230043009088,1.420090820570246,-0.9794522115467943,0.030220840056394686,0.19280378830536887,-0.0508602530221592,0.009451639838516712,0.004981571984907743,7055.627401832258
1684732763949842691,68,1684732763949842691,camera_2,141,0,0.5567397607730439,-0.15778418664715696,1.4207792700246942,-0.9796911877475601,0.030164552749944677,0.19163726393072622,-0.05069946232768019,0.008014570688828826,0.004225830781790234,7055.4947404358545
1684732763979693412,69,1684732763979693412,camera_2,143,0,0.5567353232597559,-0.1589378926132028,1.4208788432616057,-0.979654786605281,0.030103999750497698,0.19155562842593865,-0.05173673258649964,0.008878622727934271,0.004685027066470497,7053.009727351835
1684732763999763011,70,1684732763999763011,camera_2,145,0,0.5565985247165384,-0.15943418195665862,1.420547434483908,-0.9796887340830129,0.02992639942623163,0.19162725544379253,-0.050925336516166306,0.008635671576485038,0.0045533613434097075,7056.8450941259525
1684732764019562244,71,1684732764019562244,camera_2,147,0,0.5565389708470768,-0.15919260810236524,1.4203351166800509,-0.979509118846591,0.029973004706514504,0.19262248926521822,-0.050597250068646855,0.010562720301095396,0.005569600814668429,7053.834903343118
1684732764039820432,72,1684732764039820432,camera_2,149,0,0.5564525438608671,-0.15815829521142796,1.4199877024461036,-0.9793957040359316,0.02970679682037049,0.19305652266613196,-0.05129074180294409,0.008288723009172827,0.004370179112399267,7054.119751120454
1684732764059878110,73,1684732764059878110,camera_2,151,0,0.5566411938579966,-0.15741583812808632,1.420380303184179,-0.9794948588259959,0.02993521186906918,0.19248655576958432,-0.05140652168508509,0.006726679916027933,0.0035473976884183864,7053.534137772864
1684732764099907398,74,1684732764099907398,camera_2,153,0,0.5566624230293943,-0.1568924876727177,1.4204405058920337,-0.9795485875753969,0.03006658459920395,0.1923337000643864,-0.05087546451018075,0.0067120546591468155,0.003538521093179539,7054.806905604895
1684732764120141983,75,1684732764120141983,camera_2,155,0,0.5569063951888819,-0.15790626883632733,1.4212088981624946,-0.9797481263854146,0.030017034416996928,0.1912578107467947,-0.051117866909931794,0.008743044512812048,0.004612794527838119,7052.731705499813
1684732764139875888,76,1684732764139875888,camera_2,157,0,0.5568262741979227,-0.15867748379741126,1.421076152210895,-0.9797067479145576,0.029918139296866646,0.1916899119568452,-0.050344519916985214,0.007068170292768627,0.0037282045423189737,7052.4756000081525
1684732764159938812,77,1684732764159938812,camera_2,159,0,0.5564584119505785,-0.15935528226916637,1.4202071916607382,-0.9795691268131448,0.03012724835722557,0.1919555820785605,-0.0518625993355165,0.010913014644756913,0.005755085468852442,7056.98917666427
1684732764179980278,78,1684732764179980278,camera_2,161,0,0.556334381981767,-0.1592926603797701,1.4198353898623384,-0.9794178245733364,0.03024793750539287,0.19285393596317113,-0.05131419460750009,0.00515403354074806,0.002717115035884769,7056.340820654295
1684732764209996223,79,1684732764209996223,camera_2,163,0,0.5563413010600692,-0.1580689590201885,1.419671226831563,-0.9792364533926896,0.02951960140773078,0.1940748431931362,-0.050591666499486244,0.008960324863437563,0.0047229205219603155,7052.446281486655
1684732764229864597,80,1684732764229864597,camera_2,165,0,0.5566378613292455,-0.15706185867031294,1.4203468356608633,-0.9794942058796964,0.029670910924003046,0.1929053935714381,-0.04998246516621069,0.005934707005508243,0.00312783087127011,7053.683446849467
1684732764250017881,81,1684732764250017881,camera_2,167,0,0.5563192228053003,-0.15667808695355265,1.4195352510259454,-0.9793882572360294,0.030156780075374343,0.1931605433488603,-0.05077612329463407,0.004527137498371303,0.002384472735448938,7059.232419519449
1684732764270062446,82,1684732764270062446,camera_2,169,0,0.5565055420290885,-0.15714188032198698,1.4200845559335078,-0.9795305015204279,0.029962531530820395,0.19258023393613358,-0.05034974471144375,0.010444922430906445,0.005503153170345318,7057.659414116293
1684732764290076017,83,1684732764290076017,camera_2,171,0,0.556694316555498,-0.1579299900013663,1.4206879281848854,-0.9796055122135802,0.03003629319153804,0.19208696366352046,-0.050729280722387075,0.006492575048469007,0.0034237448367662724,7053.772235870825
1684732764319873094,84,1684732764319873094,camera_2,173,0,0.556474906512661,-0.15923285500071965,1.4202447639213445,-0.9796604988106803,0.030116519712386318,0.19183775761024213,-0.050562605406531055,0.006161210418213159,0.003246947788268711,7059.305712881496
1684732764339873313,85,1684732764339873313,camera_2,175,0,0.5566370859143074,-0.15944483492154712,1.4206347236833303,-0.9797578530462561,0.030109745397901625,0.1911027192801977,-0.051455838444034084,0.007510098861530423,0.0039603937416982215,7058.131379224358
1684732764359815835,86,1684732764359815835,camera_2,176,0,0.55664270623501,-0.1588514710158348,1.4205302008418887,-0.9794712819736349,0.029974338049473064,0.19240721271101507,-0.05212495893713923,0.00562058761715889,0.0029662386833730807,7050.926017955411
1684732764379825592,87,1684732764379825592,camera_2,178,0,0.5569643766151582,-0.15818048656158612,1.4212714176140848,-0.9796678094240988,0.02969075350485962,0.1917606275245791,-0.050963752470563874,0.008081978478003293,0.004265298097778632,7049.270908713806
1684732764399990558,88,1684732764399990558,camera_2,180,0,0.5566653417180604,-0.15703635314165632,1.420419868858608,-0.9795916223852777,0.029679503925593712,0.19260066005350787,-0.04923785277876404,0.006757838244084269,0.0035601556257831243,7055.779989893084
1684732764419924974,89,1684732764419924974,camera_2,182,0,0.5564333398424565,-0.1566929887908135,1.419810170006724,-0.9794342079809718,0.029958399653029398,0.19280506078230794,-0.05135499064011698,0.008581838570535183,0.004522336598801948,7057.66008194536
1684732764439780712,90,1684732764439780712,camera_2,184,0,0.5567138504858004,-0.15725082920302672,1.420629003481059,-0.9796719310169915,0.029890143061226466,0.1918545448115434,-0.05041151218099002,0.006903346977196634,0.0036387184430829883,7056.283362646819
1684732764459842205,91,1684732764459842205,camera_2,186,0,0.5567025743214364,-0.15800163760961455,1.4207043029117932,-0.9796957041889369,0.030065702353613933,0.19171866884597513,-0.050362016953791736,0.006418752775061876,0.003383693764208717,7056.200989137173
1684732764490034341,92,1684732764490034341,camera_2,188,0,0.5561526568418008,-0.1591785862429677,1.4194162479695152,-0.9794909172758414,0.030004949354306754,0.19279297310441612,-0.05028036903142609,0.005711006058845669,0.0030072190315602763,7062.494467264507
1684732764509966850,93,1684732764509966850,camera_2,190,0,0.5562406331359113,-0.15921258559674664,1.419581769131831,-0.979422201565563,0.030143410541807022,0.19293890632011745,-0.05097160297038617,0.005006183520890773,0.0026378569655890628,7058.899899769573
1684732764530055522,94,1684732764530055522,camera_2,192,0,0.5565018746473004,-0.1587443742788769,1.4201650889157305,-0.9794071127031613,0.029830960368653396,0.19277473876581314,-0.0520549851955955,0.009009281930048019,0.004752843797029976,7052.5911968383025
1684732764559814214,95,1684732764559814214,camera_2,194,0,0.556857594318019,-0.1573283523343149,1.4209352335134335,-0.9796538335673104,0.02972527805377095,0.19199083105388684,-0.05034178197816001,0.010668401198927313,0.005625960488958969,7052.486550122965
1684732764579792737,96,1684732764579792737,camera_2,196,0,0.5566452430996476,-0.15680453154078727,1.4203523186233824,-0.979476601036066,0.030171626561828754,0.1924880749374921,-0.0516100957207733,0.00978313182713464,0.005159261275896842,7053.688121030109
1684732764609879732,97,1684732764609879732,camera_2,198,0,0.5565723450132619,-0.15725727939377226,1.4202798153316685,-0.979650865326113,0.029953259495512943,0.1920924862682161,-0.04987445268559433,0.007533550087828189,0.0039684095793612525,7059.184458478353
1684732764630071401,98,1684732764630071401,camera_2,200,0,0.5569212237397896,-0.15851711285247158,1.421315039626081,-0.9798792460358701,0.029933070316912155,0.19073865187739175,-0.050590919833235916,0.006680941034574062,0.0035237680748560958,7055.197488748234
1684732764649717092,99,1684732764649717092,camera_2,202,0,0.5566217075121476,-0.1591244011542732,1.4206078928790387,-0.9796098352629338,0.029986190661265448,0.1922373051206849,-0.05010207127146289,0.006953934964258224,0.0036663834885379714,7054.185772225494
1684732764679750680,100,1684732764679750680,camera_2,204,0,0.5565178723215736,-0.159251713401448,1.42028735113788,-0.979519658834011,0.029947951202780845,0.19254052875327943,-0.05071984782968046,0.009148458135314286,0.0048236662368495555,7054.563484120186
1684732764699734687,101,1684732764699734687,camera_2,206,0,0.5565621255154648,-0.15869574790630525,1.4203193767724924,-0.9795488463071513,0.029726943263129343,0.19254264709232685,-0.050276193106076186,0.007011618290562183,0.003695979704560043,7055.087028755806
1684732764739784717,102,1684732764739784717,camera_2,208,0,0.5569223423939875,-0.15702083100736983,1.4210706443274141,-0.979718415200535,0.02982798700696549,0.1915216959222162,-0.05080903560531944,0.0077590118744410574,0.004092277075949415,7053.197409747867
1684732764760071992,103,1684732764760071992,camera_2,210,0,0.5565906344379571,-0.15681148188805988,1.4202487096950758,-0.9796051237740133,0.030007061159892098,0.19181984066181268,-0.05175448275003292,0.009407172328792512,0.004958857498725438,7058.337648268089
1684732764779891014,104,1684732764779891014,camera_2,212,0,0.556683870449957,-0.1573393773276217,1.4205766344878534,-0.9797802770540538,0.029986788226657533,0.1910453000165752,-0.05131368793322081,0.006120387348346412,0.0032259441704748123,7060.048377769768
1684732764799977779,105,1684732764799977779,camera_2,214,0,0.5568106555675281,-0.15853912333490647,1.421035880325203,-0.9797993048893526,0.02991726589168319,0.19104718294899198,-0.05098287189990572,0.0060285713989287615,0.0031795630534910803,7055.626804925503
1684732764819895505,106,1684732764819895505,camera_2,216,0,0.5565512339341435,-0.15913411574463326,1.420422806117837,-0.9797637277233977,0.029833481622759252,0.1913685309206851,-0.050508282341365694,0.005465276364702731,0.002880039835006569,7060.324293122629
1684732764839786291,107,1684732764839786291,camera_2,218,0,0.5564456101942998,-0.1593551954084137,1.4201277992280203,-0.9795033841360485,0.030186603228830478,0.19250653199408221,-0.051020825073150367,0.007809125352650881,0.004117219578388648,7055.856250664221
1684732764859881877,108,1684732764859881877,camera_2,220,0,0.5570913785002796,-0.15911852788713834,1.4217010766823202,-0.9797737456102459,0.029637825051260818,0.1912334133241096,-0.050939065239856675,0.007483097549993545,0.003950981410513391,7047.7243385126385
1684732764889868736,109,1684732764889868736,camera_2,222,0,0.5569076157478752,-0.15754003573600733,1.4210546194187716,-0.9795925326359831,0.029523071668368442,0.19223582179881354,-0.050717325051894906,0.011392567364964634,0.0060108391186263046,7049.269389127845
1684732764909981012,110,1684732764909981012,camera_2,224,0,0.5564102143393599,-0.15671007770002915,1.4197443236043783,-0.9793205747553864,0.03010447287461182,0.19339971463392092,-0.051200419463511254,0.0060900108073838055,0.0032096861772656937,7055.125701145501
1684732764929963111,111,1684732764929963111,camera_2,226,0,0.5568100196412195,-0.15690081753848065,1.420800639145573,-0.9796560253771425,0.030129789850405608,0.19170411480527055,-0.05114489292742528,0.006283232709392905,0.00331351645840019,7054.399529878518
1684732764949903726,112,1684732764949903726,camera_2,228,0,0.5565591495036641,-0.15773663402535906,1.4203211448779614,-0.9795767194706951,0.03013899109699483,0.19217212019783378,-0.05090155307410121,0.00962591968709603,0.0050740699054268356,7056.71232855087
1684732764979799032,113,1684732764979799032,camera_2,230,0,0.55666714123412,-0.15891647066384754,1.4206965347311207,-0.9797109086016095,0.030098656575270572,0.19129692921174724,-0.051634206816107774,0.008287660137284547,0.004371262469911623,7056.430012796074
1684732764999806642,114,1684732764999806642,camera_2,232,0,0.556660962496889,-0.15945091675344422,1.420685984642818,-0.9797064952098177,0.030118088924886002,0.1915219081845816,-0.05086691113626784,0.00743592792423442,0.003921264579498293,7056.126092253019
1684732765019735097,115,1684732765019735097,camera_2,234,0,0.5565682952515827,-0.15921074489428125,1.420406716844312,-0.9795878962347547,0.029833709996681883,0.19209026859573797,-0.05117452500041922,0.007040301396045834,0.0037126410461628696,7055.275430715174
1684732765039730548,116,1684732765039730548,camera_2,236,0,0.5564601753552777,-0.15816632276252693,1.4199969961664927,-0.9794170705448181,0.029770946410075726,0.19301171781004509,-0.05101342434370534,0.008459418604616076,0.0044595523049029365,7054.681833376644
1684732765070103406,117,1684732765070103406,camera_2,238,0,0.5567691506665258,-0.1568948066455161,1.4206518934286996,-0.9794897345779074,0.029939925521991935,0.1924168416418131,-0.05176118013364287,0.0106823286623694,0.005636046503335865,7050.852512092794
1684732765089682579,118,1684732765089682579,camera_2,240,0,0.5564045623811603,-0.15670423826018623,1.4197479516457174,-0.979412374091473,0.030056942267048654,0.19283761696279408,-0.051591037808621974,0.007201818109024317,0.003795302095333171,7057.749668227276
1684732765110379934,119,1684732765110379934,camera_2,242,0,0.5566453884301308,-0.157445858910855,1.4204797976353871,-0.9795769910216724,0.02984032995040292,0.1923932781821606,-0.05023245842778474,0.013412050961051136,0.0070695208630902505,7054.918787403038
1684732765130579471,120,1684732765130579471,camera_2,244,0,0.5564885201135835,-0.1582072604806347,1.4201792937524023,-0.9794433500716435,0.0299411075368158,0.19289674475298507,-0.05084387813303252,0.007115325657650828,0.0037513820617352247,7053.909919002099
1684732765150562047,121,1684732765150562047,camera_2,246,0,0.5566832804893423,-0.15924815150103802,1.420763594519891,-0.9797858696269488,0.029986280847014646,0.1911564636810778,-0.05079054078539457,0.005941445764619857,0.0031326439785867776,7057.681250302818
1684732765170663595,122,1684732765170663595,camera_2,248,0,0.5564464161004384,-0.1593872076294522,1.4201398397474918,-0.9795978481887886,0.030119638216665783,0.19195273347575484,-0.05133236141829207,0.007468272757250816,0.003937066220261503,7058.408236713147
1684732765190659999,123,1684732765190659999,camera_2,250,0,0.5566636258004972,-0.15890669854386708,1.4205931780993368,-0.9795047662544718,0.029912814223350286,0.19228400833950207,-0.051985541902593406,0.009560958831571043,0.005045590138198915,7051.20350841107
1684732765220353126,124,1684732765220353126,camera_2,252,0,0.5567402121349636,-0.15777354513366215,1.4206413644686464,-0.9795045428241438,0.029723880922394422,0.1923404576841101,-0.05188920723660547,0.010319651861209422,0.005445336361592722,7050.919253294821
1684732765260132074,125,1684732765260132074,camera_2,254,0,0.5564023642226866,-0.1567115806506474,1.4197525528750188,-0.9793427773234782,0.030108470564930212,0.19327127217828757,-0.051258363758154304,0.009501011401880533,0.005007308740776849,7055.7344159083505
1684732765280009508,126,1684732765280009508,camera_2,256,0,0.5569404867965588,-0.1576019388988815,1.4212418083863725,-0.9797339458533983,0.029585854802758885,0.19187747112421,-0.049285987999616476,0.009275889955461025,0.004890944220075383,7051.6361502429945
1684732765300455570,127,1684732765300455570,camera_2,258,0,0.5566994305195737,-0.1583386009708095,1.4207272928470238,-0.9796343326958592,0.029962449920942255,0.19164001381385354,-0.051893457234027246,0.009094182285480201,0.004797890644049074,7054.017054340803
1684732765330404758,128,1684732765330404758,camera_2,260,0,0.556681982272471,-0.15943018421266114,1.4207733194940955,-0.97975925739024,0.030281690201874278,0.1912421940572628,-0.05080590525527008,0.007749954063910991,0.004086663702728543,7056.99500776571
1684732765349813938,129,1684732765349813938,camera_2,262,0,0.5565616817326839,-0.15912280615967883,1.4203678590425717,-0.9795761360336641,0.029816034044603364,0.19228812724324632,-0.05066432619203186,0.006931303534656763,0.003654361064404918,7055.322416268286
1684732765369492053,130,1684732765369492053,camera_2,264,0,0.5566183086854153,-0.15848290450855262,1.420415816944635,-0.9794749559018784,0.029949432153415865,0.19268959372894381,-0.051015318711892584,0.0065202286932617435,0.0034388919815211178,7052.250237451166
1684732765409785270,131,1684732765409785270,camera_2,266,0,0.5567182339364593,-0.15684493665243696,1.420523385828842,-0.9795001747580061,0.030171534377345304,0.19216592315188089,-0.05235784699104196,0.009265647153370082,0.004888572319780176,7052.669212080769
1684732765429566621,132,1684732765429566621,camera_2,268,0,0.5570242308670799,-0.15703933981096868,1.4213574103533306,-0.9796700367224391,0.029619156869254797,0.1920274600689456,-0.049947765456313596,0.011085994367022067,0.005848295796255289,7048.783110634193
1684732765449388980,133,1684732765449388980,camera_2,269,0,0.5569097540538379,-0.15764725435970336,1.4211697536387062,-0.9797895978337464,0.029612638256146566,0.19173136534493568,-0.048729038316624645,0.009243241045624018,0.004871589379035328,7053.95960288216
1684732765469438791,134,1684732765469438791,camera_2,271,0,0.5564732191854475,-0.15872296126094596,1.4201952344519249,-0.9795447039735294,0.030110879182384063,0.1922489121890397,-0.05124318134547436,0.007007590320426971,0.0036944862962539054,7056.660020939073
1684732765489813566,135,1684732765489813566,camera_2,273,0,0.5564538318439103,-0.1592590145404207,1.420183978198922,-0.979606887329551,0.02992164371209109,0.19215466787094168,-0.050513613506492194,0.008208452316466719,0.00432605700248557,7058.160600107161
1684732765509911537,136,1684732765509911537,camera_2,275,0,0.5565433332732901,-0.1592901573213981,1.4203508784931071,-0.9796462986874526,0.029883020229483866,0.1917912551586586,-0.05114928166265129,0.005898010276723653,0.0031095450148286886,7057.529993929432
1684732765539537191,137,1684732765539537191,camera_2,277,0,0.5569450138643182,-0.15848643913338936,1.4212240259972837,-0.9795941270558809,0.029700691197931076,0.19197082218810615,-0.05157924590777087,0.0074621293460950255,0.003939714981189374,7047.477726013865
1684732765559916496,138,1684732765559916496,camera_2,279,0,0.5567626582802179,-0.1572900642137076,1.4206846372029553,-0.9796873331973882,0.029738973316292317,0.19161806095370154,-0.05109639277900234,0.011405039229430258,0.006013426959864615,7055.968082717156
1684732765579923152,139,1684732765579923152,camera_2,281,0,0.556471386611262,-0.1567568171965161,1.4198880296930059,-0.9793555595285414,0.030028698270124925,0.19305717817514145,-0.05186416157416644,0.008830906939692795,0.004655952425188903,7054.64433013927
1684732765599682807,140,1684732765599682807,camera_2,283,0,0.556862565679529,-0.1570351053069959,1.4209579751023764,-0.9797375119568061,0.029556465011263848,0.19175839264090652,-0.049694485534123416,0.008794199035037309,0.004635443482925009,7054.637758731844
1684732765629930973,141,1684732765629930973,camera_2,285,0,0.5568268762876738,-0.15848615070195354,1.421056844097826,-0.9797247355047135,0.029992189229982407,0.19141037581613468,-0.051009599639071396,0.006761929951608181,0.0035671597852249383,7053.322602053171
1684732765649763107,142,1684732765649763107,camera_2,287,0,0.5566089206143254,-0.1591118964351209,1.4205743728636915,-0.979622931128761,0.029934156558968274,0.19223999224670757,-0.04986626573931328,0.008155570190865546,0.004299229845075297,7054.852087077223
1684732765670031547,143,1684732765670031547,camera_2,289,0,0.5565494873999476,-0.15939191266871547,1.4203999586965494,-0.9796211135146727,0.030135861244871266,0.19193066674678688,-0.05096001359337245,0.006545689015183598,0.0034512754415176603,7056.522218974074
1684732765690039873,144,1684732765690039873,camera_2,291,0,0.5567540181588633,-0.1590704756034332,1.4208403605398952,-0.9796703237119141,0.029743036812806583,0.19186594594051837,-0.0504863089133646,0.006197800161316991,0.003268755577667651,7053.327045186422
1684732765720131874,145,1684732765720131874,camera_2,293,0,0.5570562102098116,-0.15764158806651857,1.4214276160459145,-0.9797565575018206,0.02942307504927332,0.19149179368913397,-0.05042086509119976,0.011934636044315994,0.006296869927166547,7050.186797234927
1684732765739773511,146,1684732765739773511,camera_2,295,0,0.5570114606462532,-0.15702469565881572,1.4212679404344892,-0.9797081051498102,0.029584074061190825,0.1917379318139502,-0.05033266106038407,0.010717817582190037,0.005653636849626301,7050.685807976404
1684732765759697675,147,1684732765759697675,camera_2,297,0,0.5566962184208678,-0.15684101268756676,1.4204975838270704,-0.9794853242969772,0.029976013037577662,0.1923850995245361,-0.05194142479900562,0.010885728290304542,0.005742488562618329,7052.346625447271
1684732765779943704,148,1684732765779943704,camera_2,299,0,0.5565847776573516,-0.15730266068682663,1.4203186830911458,-0.97954737975068,0.03015855940653396,0.1925437326104989,-0.05004301300397828,0.007928331033326684,0.004177986736595438,7055.972650187321
1684732765809875726,149,1684732765809875726,camera_2,301,0,0.5566154435008868,-0.15884866443815804,1.4205657642368361,-0.9795279989456104,0.030140076014339382,0.19226990348385592,-0.0514660986841529,0.007951534353196621,0.004194913438213359,7052.49240377103
1684732765830048322,150,1684732765830048322,camera_2,303,0,0.5567233696901817,-0.15946295822034895,1.4208658640702723,-0.9797465232411263,0.03018011522535599,0.1911293234337732,-0.051531471603842194,0.006470710097346455,0.003413559300727337,7055.590666311326
1684732765850100278,151,1684732765850100278,camera_2,305,0,0.5566316388713041,-0.1592480034125892,1.42056802008552,-0.9795483199674906,0.029717541250007366,0.19240249191884648,-0.050825561426698224,0.00996927177766338,0.005258338063345046,7052.411773167087
1684732765870396375,152,1684732765870396375,camera_2,307,0,0.556457006572822,-0.1582168077894215,1.4199868964347864,-0.979482566557478,0.029999539469515914,0.19240068247960823,-0.0519221226739994,0.008081088599283248,0.004260747545381318,7056.869430040478
1684732765890460491,153,1684732765890460491,camera_2,309,0,0.556781802984445,-0.15749707752060363,1.4207299295169735,-0.9795335870715971,0.02966494854340027,0.19255648593509386,-0.0505563284950107,0.010928753355983645,0.005764021023421983,7050.898538435111
1684732765910110235,154,1684732765910110235,camera_2,311,0,0.5565206942084654,-0.15672908252144938,1.4200254680068387,-0.9793973366057979,0.03005560358988285,0.1929627045105375,-0.05140926385678331,0.008774957503192127,0.004626049944889198,7054.52866678685
1684732765940137386,155,1684732765940137386,camera_2,313,0,0.556585773085822,-0.15706013648275768,1.4202886000794428,-0.9794487166772912,0.02988764587878349,0.19318214372233966,-0.04967493703944772,0.009830734285060316,0.005180779260669996,7053.216105116766
1684732765960066080,156,1684732765960066080,camera_2,315,0,0.5567067543919533,-0.15818694803523614,1.4207364260926805,-0.9797106616296883,0.029788837969016983,0.19175788614920802,-0.05008550410209846,0.004664642328862101,0.002458824991809698,7056.009307285773
1684732765990218162,157,1684732765990218162,camera_2,317,0,0.5565115410786144,-0.1593452995318782,1.4203407917540312,-0.9796284565025217,0.030330418357113226,0.191879786312941,-0.05089499520846217,0.007994505867827684,0.004214596404958822,7057.568746139757
1684732766009903192,158,1684732766009903192,camera_2,319,0,0.5564976641298776,-0.15935443454905932,1.4202656323115315,-0.9795519826044238,0.030212031506565293,0.1922096267474543,-0.05119185397691073,0.005763813445810229,0.003039230965139023,7055.933404156704
1684732766029861450,159,1684732766029861450,camera_2,321,0,0.5569907146717803,-0.15870719765669067,1.4213885671979702,-0.97967084008164,0.02977078898064261,0.1916259479598986,-0.051363812997812834,0.005567661602981389,0.0029394301896334568,7048.089892146647
1684732766059825658,160,1684732766059825658,camera_2,323,0,0.5567011397291628,-0.15742379125294245,1.420520780146015,-0.9794738399574541,0.029865480388103546,0.19282135479355283,-0.050586312929156094,0.010942529886960983,0.005770492516873971,7051.435836418762
1684732766080009937,161,1684732766080009937,camera_2,325,0,0.5564837077226704,-0.15671342392477838,1.4199439303673538,-0.9794065414259491,0.03008230171029344,0.19289592338661524,-0.05146886900541448,0.007929107057861984,0.00417961305860111,7055.650022827554
1684732766099996089,162,1684732766099996089,camera_2,327,0,0.5568722820906632,-0.15694514868040618,1.4209817530574145,-0.9795863009078355,0.03009936408271712,0.1920676316407734,-0.051134452489722676,0.01181243598693982,0.006232164607821977,7050.576221253725
1684732766119920969,163,1684732766119920969,camera_2,329,0,0.556900110605314,-0.15790796710990437,1.4211989462531718,-0.9797693621719413,0.03004846758033772,0.19137638483779135,-0.05024107753301329,0.006559570843819529,0.0034594520430115,7053.462723504753
1684732766140415906,164,1684732766140415906,camera_2,331,0,0.5566962994740204,-0.15864663057359718,1.4207646566761216,-0.979660175160157,0.0299307496831185,0.19188570588513862,-0.05049720096737181,0.006927182083018124,0.003652867536194097,7054.25154646067
1684732766160117149,165,1684732766160117149,camera_2,333,0,0.5564456947172682,-0.159346499120749,1.4201828227620115,-0.9795169148051555,0.03029086498987661,0.1925399440416897,-0.05057120778840424,0.007766564667690545,0.004094232045904572,7055.868245813996
1684732766180246829,166,1684732766180246829,camera_2,335,0,0.5566422054139909,-0.15937657204436503,1.4206400839806972,-0.9796560364872465,0.03017824391423844,0.19165065089762803,-0.05131619411908115,0.005684689909685403,0.0029983955885773766,7055.221599159995
1684732766200216293,167,1684732766200216293,camera_2,337,0,0.5568116877526778,-0.15859945036678552,1.4209265352598919,-0.979570717565588,0.02978850818872229,0.19213300674631031,-0.05136887955320429,0.00871269340859726,0.004598060097627227,7049.809590946184
1684732766240549564,168,1684732766240549564,camera_2,340,0,0.556791578375335,-0.15688421080238935,1.4207289016812803,-0.9796040568638719,0.0300856603462844,0.19167006285460964,-0.05228127602385155,0.006021378154400736,0.0031768329661131514,7053.577012497932
1684732766260120868,169,1684732766260120868,camera_2,342,0,0.5564992359018726,-0.15673953677067348,1.4200150002136105,-0.9794068400105753,0.030216759405630168,0.19296489916175222,-0.051124718904033174,0.006816213310230523,0.0035928609703798275,7055.096140694339
1684732766289921283,170,1684732766289921283,camera_2,344,0,0.5567506561505597,-0.15793810505381303,1.4208399650046493,-0.9796223514269734,0.030102916960297568,0.1920170760050585,-0.05062909734171172,0.01189426810014993,0.006273135578359435,7052.822877876695
1684732766309907197,171,1684732766309907197,camera_2,346,0,0.5567810929122688,-0.1590739924652299,1.4210270128644678,-0.9797493138190706,0.0298475732505942,0.1918084142364186,-0.04909110581583146,0.007643286662641913,0.004029221412661454,7054.00075670192
1684732766329627037,172,1684732766329627037,camera_2,348,0,0.5567365146867275,-0.15944577537770552,1.4209160701032724,-0.9798026415683815,0.030163880558397554,0.1910638247370237,-0.05071034176714111,0.006717448588460684,0.0035423915064858543,7056.732297463571
1684732766350418090,173,1684732766350418090,camera_2,350,0,0.5567392228190146,-0.15916812205901484,1.420852487821758,-0.9796858500869204,0.029937740409958183,0.19174139718945546,-0.05054308501120126,0.007778692350257188,0.004102537460596041,7053.845610628372
1684732766370120048,174,1684732766370120048,camera_2,352,0,0.5570735253127935,-0.1586022357738126,1.421599183786595,-0.9797255830559618,0.02982930096407877,0.19123326519024936,-0.05174778250636251,0.0075879847863689065,0.004007159971169788,7047.705092586346
1684732766390180110,175,1684732766390180110,camera_2,354,0,0.5564979668355363,-0.1572752122418443,1.4200186790477018,-0.9793684509060786,0.029871276392304413,0.19338186331972324,-0.050483652359098144,0.00821022444870323,0.00432747931111607,7053.424977888123
1684732766400347709,176,1684732766400347709,camera_2,355,0,0.5568782074309792,-0.1570873871258387,1.4209913565797316,-0.9796969747171265,0.02969859855726725,0.1919254307731762,-0.04976404320767091,0.012017974746413529,0.006335907656783844,7053.237967743539
1684732766420134067,177,1684732766420134067,camera_2,357,0,0.5564437372319998,-0.1566941835186532,1.4198521144596348,-0.9794566384751945,0.03009199770537269,0.19264826261715742,-0.051437456503630165,0.006070765433833003,0.0031991449087105848,7058.038095652359
1684732766450166940,178,1684732766450166940,camera_2,359,0,0.5569111797755214,-0.1576394057574151,1.4212055195495321,-0.979835307883261,0.029595958096043096,0.19147755028504898,-0.04881799285641445,0.006367113965097815,0.0033555782602968176,7054.957462149674
1684732766469575405,179,1684732766469575405,camera_2,361,0,0.5565236157705364,-0.1587315559439533,1.420362584522363,-0.9795762672468641,0.030033015581654974,0.1921999911598737,-0.050867651999253666,0.005530957714654505,0.0029160035087061834,7055.893503419124
1684732766490161418,180,1684732766490161418,camera_2,363,0,0.5565041689542294,-0.1592792675278565,1.420343033873785,-0.9797232698382454,0.030099645557574467,0.19163101303097627,-0.0501386150535374,0.007965606928337365,0.004197145086923958,7060.144048845159
1684732766509978294,181,1684732766509978294,camera_2,365,0,0.5564446189730525,-0.15926390687111985,1.4201381745338544,-0.9796193908577966,0.030052669062654636,0.19209802758955347,-0.05040866923271569,0.005627911305055021,0.00296564080419119,7059.0571323630875
1684732766529905080,182,1684732766529905080,camera_2,367,0,0.556594992116293,-0.15876473813693595,1.4204307281226733,-0.9794906202070696,0.03003499380127975,0.1925614632763004,-0.051147892768102096,0.004812722676433622,0.0025384590601201895,7052.584898558449
1684732766549710750,183,1684732766549710750,camera_2,369,0,0.5566972365345569,-0.15763087721217647,1.4205774831242806,-0.9795215440645401,0.029860077063738867,0.19280995626106656,-0.049701521885879424,0.008929931151214987,0.004707505461713931,7052.232703316491
1684732766569588422,184,1684732766569588422,camera_2,371,0,0.5566644801827575,-0.15697351217927447,1.420411180515458,-0.9795035381426703,0.029569789149806062,0.19304409154866198,-0.0493196213872166,0.011497952858917415,0.006058838669658961,7053.235143953469
1684732766599434137,185,1684732766599434137,camera_2,373,0,0.5570650546186672,-0.15709665633603315,1.421526945825334,-0.9798594645268239,0.029868483420622316,0.19124677082193936,-0.04907113332233777,0.009227635688148439,0.004865130111496344,7052.843974946065
1684732766619629859,186,1684732766619629859,camera_2,375,0,0.5566969280013979,-0.15764400981922141,1.4206719986658296,-0.9796464441494902,0.0297991735834564,0.1922681731909404,-0.04937411565609371,0.009587502689100802,0.0050525256108502675,7054.965580643158
1684732766639537096,187,1684732766639537096,camera_2,377,0,0.5566405465338524,-0.15881481250539525,1.4206531187091633,-0.9795735196137672,0.03028733009631948,0.19218463219158008,-0.05082779216649517,0.006949107046239078,0.0036651882739978108,7053.117406923558
1684732766659467220,188,1684732766659467220,camera_2,379,0,0.5565025186510796,-0.15930599762256528,1.4203457945322135,-0.9796550737826282,0.030243816204985598,0.1918024352823858,-0.05072547499096149,0.00624801660887897,0.0032934102849514076,7058.270174213683
1684732766679681539,189,1684732766679681539,camera_2,381,0,0.556617240103578,-0.1592819757109922,1.4205833079843304,-0.9797056713400214,0.030131486036500628,0.1916014670722802,-0.05057438985475167,0.005349732527974993,0.002820336022227094,7057.229233227206
1684732766709739685,190,1684732766709739685,camera_2,383,0,0.5567821195451005,-0.1579727378715539,1.42082632924003,-0.9796337181930048,0.030066722675310752,0.19173799025295898,-0.051481195214082454,0.0071737561374902725,0.003784516821837554,7053.138660836734
1684732766729656934,191,1684732766729656934,camera_2,385,0,0.5568388367899806,-0.1572436436857531,1.4208963965375851,-0.9796186420866265,0.029803148026152068,0.19207668320500546,-0.05065210966040168,0.009419674053788185,0.004968100272122595,7051.969644428233
1684732766749670505,192,1684732766749670505,camera_2,387,0,0.5564533358608966,-0.15670282641619607,1.4199086071135916,-0.9794361017966452,0.030224737522088655,0.1929740301841359,-0.050521395602305674,0.007100545393768698,0.0037410545680941964,7057.010963225971
1684732766779659509,193,1684732766779659509,camera_2,389,0,0.5567637274540002,-0.15736538235420974,1.4208042387343698,-0.979624463643149,0.03017061209001007,0.19214458390888906,-0.05006099552013094,0.01280857907840982,0.006753090995614522,7053.435676836405
1684732766789620876,194,1684732766789620876,camera_2,390,0,0.5569771506000178,-0.1581878976306632,1.4214485934054892,-0.9797891606626951,0.029862196935029988,0.1912955355535226,-0.050273928823956066,0.00932466663653031,0.004919459581674627,7051.351444639499
1684732766809862613,195,1684732766809862613,camera_2,392,0,0.5567137276865344,-0.15888376947660643,1.4208479744134708,-0.9797094579508321,0.030238899590997792,0.19129714897972203,-0.05157894672676521,0.007621013384778053,0.0040203725633232495,7055.073898986917
1684732766829816818,196,1684732766829816818,camera_2,394,0,0.556792378056877,-0.1594937117603222,1.4210754128045036,-0.979868107877141,0.030136717381856862,0.19068858289869095,-0.05087370423712704,0.006007311458233744,0.0031682633186182014,7057.02385699982
1684732766849917173,197,1684732766849917173,camera_2,396,0,0.5566781399137201,-0.15927201454384637,1.4207220198307466,-0.9796783701496328,0.02986818202422924,0.19173593644176595,-0.050749516651154666,0.008255692722741514,0.00435381002301925,7054.82630085526
1684732766880125284,198,1684732766880125284,camera_2,398,0,0.5566344391531001,-0.15786314428898568,1.4204295884906475,-0.9795501075435852,0.02977687861358904,0.19247998995919244,-0.05046164659116419,0.00751052430132404,0.003959359103518349,7054.376032683534
1684732766900046348,199,1684732766900046348,camera_2,400,0,0.5567590147666174,-0.15717626821313263,1.4206716956341268,-0.9795113005068894,0.02962748518315372,0.192657140378261,-0.05062657960296398,0.008027046744246036,0.004233382283670591,7050.925407523987
1684732766920608520,200,1684732766920608520,camera_2,401,0,0.5564286270859863,-0.15670286525948549,1.4198510512414848,-0.9794040403700808,0.030056110345427593,0.19308110057481392,-0.05083349819246722,0.0104440045543015,0.005503307889476812,7056.51864232542
1684732766940247058,201,1684732766940247058,camera_2,403,0,0.5565197227754461,-0.1570560839866535,1.4201537342375552,-0.979555313940431,0.029896337017669746,0.19269045715764296,-0.04947710262705486,0.005559697514399886,0.002928332955466361,7057.685061366297
1684732766959660291,202,1684732766959660291,camera_2,405,0,0.5562969929841026,-0.15808580963129848,1.4197117876536514,-0.9793728540012819,0.029712146716228006,0.1937329237132989,-0.04912794980857731,0.0070536486455239356,0.0037147173516556137,7056.326694504358
1684732766989580869,203,1684732766989580869,camera_2,407,0,0.5566094841166828,-0.15938129821116395,1.4206148335331275,-0.9796772493859126,0.030281306606674892,0.19158446768426202,-0.05109717455968459,0.0065921510686166584,0.003476422996701304,7056.245164054446
1684732767009772062,204,1684732767009772062,camera_2,409,0,0.5566507687706125,-0.15940813160638834,1.4206816017881259,-0.979730058362821,0.030168656578102845,0.19126695630667614,-0.05134020184841386,0.007418170920573175,0.003912255295114987,7056.953569036439
1684732767029820203,205,1684732767029820203,camera_2,411,0,0.5568970485547879,-0.15868488002432396,1.421170230681644,-0.9796618444166642,0.029870034889882668,0.19174169072718591,-0.051044839571667715,0.007590504363179207,0.0040057934208372415,7050.100571342279
1684732767049702644,206,1684732767049702644,camera_2,413,0,0.556859024029037,-0.1578784754650196,1.421000564241464,-0.9796848447617389,0.029830221298726995,0.1916620502863036,-0.05092564502769887,0.006404161511454731,0.003378178095354521,7052.690582602052
1684732767069798946,207,1684732767069798946,camera_2,415,0,0.556617744330026,-0.15685830735067383,1.4203006188480523,-0.9794201125914178,0.03004777349412521,0.19297175717365014,-0.05094384450327969,0.009850365575402975,0.0051938865992373524,7052.435848977417
1684732767089903593,208,1684732767089903593,camera_2,417,0,0.5564917228484945,-0.1567302863826429,1.4200158136196317,-0.9794435163201023,0.03029120918429272,0.1928241228073694,-0.05090872860557241,0.0071544089005328715,0.0037704627724877114,7056.237871326737
1684732767119930267,209,1684732767119930267,camera_2,419,0,0.5567563630262091,-0.1578816616103085,1.4208481094807535,-0.9797280070347594,0.030045489516069928,0.19148447782646366,-0.05063591159409588,0.010807247890625149,0.005698295813296003,7055.764955710154
1684732767139741420,210,1684732767139741420,camera_2,421,0,0.5566895209078183,-0.1586593271067617,1.420769059736056,-0.9797045813909057,0.030083120716091375,0.19168304161740932,-0.05031451685100304,0.005080978851765393,0.0026788278540549534,7055.648614445005
1684732767160139322,211,1684732767160139322,camera_2,423,0,0.5564929940768966,-0.15936877629068838,1.4203113705730983,-0.9795632538866672,0.030438770447896956,0.19234288792728735,-0.0503341469817049,0.00864892645040527,0.004559265854215675,7056.072336863723
1684732767180115222,212,1684732767180115222,camera_2,425,0,0.5565069313767642,-0.15934408338232692,1.4203092918717277,-0.9795611079671327,0.030313577999127112,0.19218198389925972,-0.05106082462748748,0.007212801661808043,0.003803221882691176,7055.8916993925795
1684732767199882745,213,1684732767199882745,camera_2,427,0,0.5566909363692131,-0.158575034059968,1.420650327772662,-0.9795989320292363,0.029882510616345902,0.19199783407265442,-0.05128157210785589,0.005756648373790085,0.003036485740528569,7053.486515880792
1684732767230131387,214,1684732767230131387,camera_2,429,0,0.5565269948994496,-0.15704041678700692,1.4200781260334219,-0.9793722852417812,0.029771508076939558,0.19340819603484097,-0.05036719084547671,0.006358540442306548,0.0033514623365865515,7052.929823269602
1684732767249966621,215,1684732767249966621,camera_2,431,0,0.5564088953874262,-0.15669882149325945,1.419783756934655,-0.9793833911720062,0.030111983543456237,0.1929427370155094,-0.05171597216009472,0.008486970386002213,0.0044733202285336246,7056.639987809584
1684732767269853115,216,1684732767269853115,camera_2,433,0,0.5566057193286039,-0.1571631230159489,1.4203773837358353,-0.9795550937893682,0.030084293799470203,0.19249896448401893,-0.05010890310583346,0.010943220986519009,0.005767150764071204,7055.618486562512
1684732767299839735,217,1684732767299839735,camera_2,435,0,0.5566820788419122,-0.15833433855527793,1.4207128776511888,-0.9796265432392535,0.030156678561872537,0.19178385663023303,-0.05139419087077219,0.009122158458922058,0.004811750023607672,7054.1371750270455
1684732767320209980,218,1684732767320209980,camera_2,437,0,0.5566085132923242,-0.15927459608997924,1.4205967966613573,-0.9796544118324267,0.030176601423913502,0.19187298327882227,-0.05051103237362607,0.008525765792001039,0.004495298330583947,7055.702181520641
1684732767339920043,219,1684732767339920043,camera_2,439,0,0.5566977378262167,-0.15946374960991394,1.4208161095973215,-0.9796953154727307,0.030145895216170934,0.19141740009207026,-0.051455736166095396,0.005535867181606591,0.002920486708479393,7054.58625732665
1684732767359988927,220,1684732767359988927,camera_2,441,0,0.5566626718419584,-0.15884520865869253,1.4205962908896566,-0.9795516715786934,0.029988019780677215,0.19209959798319104,-0.051739596362146055,0.006068535440135747,0.0032018043580070237,7052.635765981164
1684732767380198240,221,1684732767380198240,camera_2,443,0,0.5568831993072714,-0.15814426189552436,1.4210944366819414,-0.9796112439776966,0.02968324803330394,0.19209150692470603,-0.05080913723001804,0.007051927037537098,0.003721056352680229,7049.4251663000305
1684732767400128364,222,1684732767400128364,camera_2,445,0,0.556481481033187,-0.15697943466000555,1.4199646575497424,-0.9794421412551602,0.029501767067894265,0.19322222076519416,-0.049878964262955974,0.00986867817118764,0.005198911196731604,7055.854335044509
1684732767419941186,223,1684732767419941186,camera_2,447,0,0.5564558547166248,-0.1567029812729668,1.4199006011753983,-0.9794215336959743,0.030093828065228482,0.19299479966224334,-0.05080185181995578,0.009958680544514209,0.005247651865670411,7056.541394317288
1684732767450078010,224,1684732767450078010,camera_2,449,0,0.5567691616363426,-0.15759840584940468,1.420838582949601,-0.9797265946149445,0.029569891401237062,0.19205465526306523,-0.04874864837621964,0.010970947914756835,0.00578043412345289,7055.423537083902
1684732767470139741,225,1684732767470139741,camera_2,451,0,0.5564233210281945,-0.15870228189256946,1.4200953584176323,-0.9796589179672316,0.02994683336428891,0.1918120433211395,-0.05079105881642983,0.005552233080379665,0.00292542095043317,7060.849220776694
1684732767489784717,226,1684732767489784717,camera_2,453,0,0.5563477298277903,-0.15923518944410023,1.4199370128661264,-0.9795803669252656,0.030335222930934876,0.19210456540848814,-0.0509697452760793,0.006455115333665162,0.00340157575313967,7060.242670817068
1684732767509633064,227,1684732767509633064,camera_2,455,0,0.5562991726637229,-0.1592276672145416,1.4197546871990543,-0.9795121363333481,0.030075454208935083,0.19262742300885324,-0.050459069896056044,0.007450194680131972,0.003924973797807792,7059.760611145059
1684732767540062427,228,1684732767540062427,camera_2,457,0,0.5569267956433427,-0.15848285934411355,1.4212341581684205,-0.9797813977332857,0.0299005399731889,0.19090825789694282,-0.051849854694833795,0.007905915437731892,0.004172399845620729,7053.053688046524
1684732767559955596,229,1684732767559955596,camera_2,459,0,0.5566353182082838,-0.15724613502470047,1.4203801345186753,-0.9794933469757907,0.029874615094007916,0.1928159779078545,-0.05022239805690198,0.010325202078092843,0.0054427065846841816,7053.494870255468
1684732767569645643,230,1684732767569645643,camera_2,460,0,0.5570561695960323,-0.15709171079183223,1.42143031703849,-0.9797325500417782,0.02971905311003249,0.1917969216919719,-0.049546433780460454,0.006254939187783748,0.003299038476694599,7049.919361271197
1684732767589980363,231,1684732767589980363,camera_2,462,0,0.5565803394806922,-0.15679788212829598,1.4202293839304427,-0.9794724060538349,0.03018216076420619,0.19265071695699085,-0.051073909255828935,0.006083643180318177,0.003207095270182942,7054.829609178937
1684732767610092401,232,1684732767610092401,camera_2,464,0,0.5566190592256657,-0.15725638682543996,1.4204265050044504,-0.9796176692529962,0.030004403839187076,0.19222334307274605,-0.04999144142270385,0.013195966428611428,0.006953540592166381,7056.851601055125
1684732767630220174,233,1684732767630220174,camera_2,466,0,0.5569475043581562,-0.15851260844408804,1.4213965695915363,-0.9798897855479906,0.03011474589585683,0.19065736482762935,-0.050585368391712904,0.006043676054105163,0.003187895594224164,7054.878220895537
1684732767659905910,234,1684732767659905910,camera_2,468,0,0.5564662957202701,-0.159294310509029,1.4202472363904663,-0.9796460264602147,0.030123924395485065,0.1918645070551628,-0.0507368007683475,0.006226962781511247,0.003281956932092151,7058.871862523493
1684732767679827451,235,1684732767679827451,camera_2,470,0,0.5564427629445026,-0.1592401089777533,1.4201135899238457,-0.9795310946287831,0.02993117552400151,0.1925113363587006,-0.05061960845835276,0.007829760201275349,0.0041270549163441245,7056.618810057873
1684732767709570646,236,1684732767709570646,camera_2,472,0,0.5567854962512099,-0.15797408099492496,1.4208252654056952,-0.9795569837365985,0.030094307075549404,0.1920330253480243,-0.05182437139208575,0.008120952406898141,0.00428560771783123,7050.945489667354
1684732767729786634,237,1684732767729786634,camera_2,474,0,0.5566642633553784,-0.1571976026268053,1.4204472722833181,-0.979509823827798,0.02983851631713768,0.19262473113872924,-0.050654525193316265,0.007461261528078467,0.00393380779040153,7053.298421572427
1684732767749672889,238,1684732767749672889,camera_2,476,0,0.5562443921453987,-0.15664346902449292,1.4193545245589707,-0.9793573801141087,0.030192175590434897,0.1932350431986501,-0.05106635515837606,0.008076724479906261,0.004253796417505901,7060.191155577548
1684732767769681215,239,1684732767769681215,camera_2,478,0,0.5566365740849936,-0.15703190477755474,1.4204198277108167,-0.9795668889824635,0.029801940098819445,0.19266424670602408,-0.04940690656947454,0.009640830103307962,0.005079566887014238,7055.271160227712
1684732767800316333,240,1684732767800316333,camera_2,480,0,0.5565948351237298,-0.1584843232890089,1.4205012997171602,-0.9795734641463633,0.029958045912374023,0.19235705594940772,-0.05036970172516468,0.008680870581883937,0.004576676212000375,7054.437879372852
1684732767830444335,241,1684732767830444335,camera_2,482,0,0.5566538101206888,-0.15944882960802004,1.4207098505079152,-0.9797015021271775,0.030064164959625137,0.19154776478985297,-0.05089760818588183,0.008025507209822536,0.0042323907488562,7055.753634640716
1684732767850255012,242,1684732767850255012,camera_2,484,0,0.5567077388285339,-0.1592843147586871,1.4207879918710462,-0.9797088046522214,0.029848426268500112,0.19153903291121074,-0.05091687743418375,0.00740071275504306,0.0039032101679585085,7055.019941708772
