%time,field.header.seq,field.header.stamp,field.header.frame_id,field.image_seq,field.transforms0.fiducial_id,field.transforms0.transform.translation.x,field.transforms0.transform.translation.y,field.transforms0.transform.translation.z,field.transforms0.transform.rotation.x,field.transforms0.transform.rotation.y,field.transforms0.transform.rotation.z,field.transforms0.transform.rotation.w,field.transforms0.image_error,field.transforms0.object_error,field.transforms0.fiducial_area
1684747102754419565,21,1684747102754419565,camera_1,22,0,-0.9153079855978158,-0.09338500211182842,1.9003544404637556,0.9748664036771468,-0.05545574624535147,0.2146942432646175,0.021599469877535575,0.0009901987068587914,0.0011969743015669454,2364.8704778226092
1684747102764265775,22,1684747102764265775,camera_1,23,0,-0.9143720952314123,-0.09274646803919318,1.8984657499397897,0.9748685868877095,-0.055504390388486,0.21449101670638449,0.023326051946794307,0.0005331462743924931,0.0006426974782121853,2369.794357456267
1684747102774487972,23,1684747102774487972,camera_1,24,0,-0.9138705937274351,-0.09172535046043921,1.897533424898238,0.9747665086057063,-0.05539879107623346,0.2150110629793721,0.023053642758006993,0.0010349464864702895,0.0012466969942224254,2371.7621628269553
1684747102784492731,24,1684747102784492731,camera_1,25,0,-0.9149863842046091,-0.09145274469832369,1.8998687195668398,0.9749649377784202,-0.05574553863693812,0.21432075520277918,0.020060381703979772,0.0005998115084366873,0.0007249672020931431,2368.9035949857207
1684747102794456720,25,1684747102794456720,camera_1,26,0,-0.9134892338879966,-0.09102313341625416,1.8968511347417771,0.9744972464981615,-0.05530376912546898,0.21643505202358793,0.02127152894281898,0.00016325563774444163,0.0001967581666755703,2371.322920996231
1684747102804599761,26,1684747102804599761,camera_1,27,0,-0.9137556426711421,-0.09088770439893668,1.897409536215434,0.9744848356477902,-0.05525369756671819,0.21653671641893676,0.02093285551972871,0.0010471928544575348,0.0012630636945643243,2369.920817656559
1684747102814394950,27,1684747102814394950,camera_1,28,0,-0.9126680287877711,-0.09087165308888037,1.8951971908408807,0.9740219278200544,-0.05530028111703002,0.21846434312274077,0.022282141235339788,0.0007191546319518238,0.0008656163658555282,2370.3654797421777
1684747102824642419,28,1684747102824642419,camera_1,29,0,-0.9151332625291784,-0.0913366495079839,1.9002734589414587,0.9750195043543168,-0.05536839220044856,0.21394502056427017,0.022334624455178722,0.0011597426637308672,0.001400783363638954,2368.1045224730624
1684747102834662675,29,1684747102834662675,camera_1,30,0,-0.9139479667233308,-0.09158916943664286,1.897797560703939,0.9745127534163349,-0.05500556312720982,0.21623149344118064,0.023307138352208698,0.0016696526581654325,0.0020125079952215143,2368.337907945038
1684747102844558000,30,1684747102844558000,camera_1,31,0,-0.9155099577233587,-0.09216665261324335,1.9010441819638113,0.9750294659982223,-0.055767640011837524,0.213818598116608,0.02211600918294448,0.0008981610444607213,0.0010858202299156691,2366.0275721694343
1684747102854391574,31,1684747102854391574,camera_1,32,0,-0.9150547391163473,-0.09314058737879771,1.9000573318952179,0.9746056304844711,-0.055291165404197797,0.21593687480394566,0.02140135874466134,0.0008607140771346167,0.001040655350447273,2363.1330074004354
1684747102864425420,32,1684747102864425420,camera_1,33,0,-0.9135481346993248,-0.0935197468596419,1.8968756688180874,0.9742101380799661,-0.05526168105557943,0.21751926217265227,0.02336929722926631,0.0034241328394273296,0.004125854433882172,2366.169779606863
1684747102874387502,33,1684747102874387502,camera_1,34,0,-0.9145929941615841,-0.09411221681531254,1.8990278831482645,0.9742994233453002,-0.05561750710645618,0.2170894286013561,0.02279268658617651,0.0005001135868951678,0.0006040231154853445,2361.7083309493023
1684747102884356021,34,1684747102884356021,camera_1,35,0,-0.9123267908682386,-0.09430314469931696,1.894294769326693,0.9739983415413103,-0.05489009643842791,0.21873185511149595,0.021695242502466867,0.0001935777981998399,0.00023288158100262882,2369.755173555459
1684747102894366741,35,1684747102894366741,camera_1,36,0,-0.9146088312776263,-0.09510598818451213,1.8989357262199038,0.9745403250737287,-0.05530378720300947,0.2161622936427636,0.022056942972567703,0.001447772519895807,0.0017482796101297565,2363.6403258455675
1684747102904328823,36,1684747102904328823,camera_1,37,0,-0.9137198932785208,-0.09510106148113019,1.8970972995214144,0.9744082229206882,-0.05467658225827441,0.21675915130392162,0.023549029345263157,0.001388244010740891,0.0016724926563561303,2366.1971034684684
1684747102914248704,37,1684747102914248704,camera_1,38,0,-0.9139984624459674,-0.09509091623929486,1.8975968785485215,0.9743069744456939,-0.05558126547381272,0.21709075760867555,0.022544299405809137,0.0011075060756411403,0.0013358272483910774,2364.501429664786
1684747102924268245,38,1684747102924268245,camera_1,39,0,-0.9136210953991384,-0.09489101158364409,1.8968293469625834,0.9741116819517808,-0.0554716936981343,0.21801325858749993,0.022350421995854672,0.0014546139282174408,0.0017538597182755397,2364.433783207437
1684747102934363126,39,1684747102934363126,camera_1,40,0,-0.9144533094577265,-0.09429607449687832,1.8985725418363066,0.9744348696142971,-0.05561064557652664,0.21657643484729477,0.021881244186868397,0.0010102598607772961,0.0012198167464361255,2364.1200994949313
1684747102944406270,40,1684747102944406270,camera_1,41,0,-0.9149507603638781,-0.09386466065979424,1.8996216141827333,0.9748162046292633,-0.05616267207049796,0.21486004102803277,0.02035397326155078,0.0011064572026953101,0.0013373370118004103,2366.4008618642115
1684747102954554796,41,1684747102954554796,camera_1,42,0,-0.9163457482647193,-0.09348228669199365,1.9025521217116523,0.9751268658974371,-0.05582955362917097,0.21333987990808634,0.022287933673011566,0.0013700629497179762,0.0016586765195682003,2362.3061705110595
1684747102964368343,42,1684747102964368343,camera_1,43,0,-0.9138800208416993,-0.09268286976570422,1.8974793532347909,0.9744920018495495,-0.0551996752555597,0.21625351956807737,0.02351062435065325,0.0016332157101714986,0.0019679787308872765,2368.1144058272466
1684747102974640846,43,1684747102974640846,camera_1,44,0,-0.9132052760659359,-0.09166600345635449,1.896169502758968,0.9745497833695125,-0.05472658666490352,0.21623570406968295,0.02235711814911797,0.0019666691223392263,0.0023673338929118487,2372.593469667714
1684747102984635829,44,1684747102984635829,camera_1,45,0,-0.9158165977312822,-0.09151773832869683,1.9016502835262736,0.9752414852549335,-0.055822823540364885,0.21296913886231858,0.020784698746324118,0.000968895576079376,0.0011722696104002112,2367.385573884006
1684747102994554996,45,1684747102994554996,camera_1,46,0,-0.9132739559716405,-0.09098832474669855,1.8964194526417881,0.9745913029999712,-0.055417580340173356,0.21591361125917094,0.021954415935809955,1.8275706679560244e-05,2.2005595119397915e-05,2373.398385925335
1684747103004421472,46,1684747103004421472,camera_1,47,0,-0.9133345870692513,-0.09085242223412973,1.8965811660790497,0.9745034287487772,-0.05546097243544544,0.21638263096449506,0.02111172447420478,0.00017917307559400797,0.0002158908501085618,2372.317751239053
1684747103014465093,47,1684747103014465093,camera_1,48,0,-0.9128233859480208,-0.09088923818334793,1.8955692815855845,0.9739364891897632,-0.0555420626983554,0.21870269730263117,0.023063488211546516,0.001386945543345064,0.001669743525832243,2368.5974350441256
1684747103024350881,48,1684747103024350881,camera_1,49,0,-0.9155243439275553,-0.09136535046554925,1.9011508922237712,0.9748917990077983,-0.055920936497228006,0.21448693023745474,0.021311636397162853,0.003095137493801303,0.0037444087994092305,2365.082440924365
1684747103034407138,49,1684747103034407138,camera_1,50,0,-0.9137719003752622,-0.09157709225676161,1.8974437535756425,0.9742480529708452,-0.05490428351360715,0.21743120388706588,0.023450426661275437,0.00189453101484105,0.0022837019740263704,2366.344200504362
1684747103044435501,50,1684747103044435501,camera_1,51,0,-0.9139234743787918,-0.09199822142886849,1.8977745290413537,0.9743295025422335,-0.05524017698282191,0.2171240262752837,0.022083942961355466,0.0007858750323066488,0.0009480536132541089,2366.5121359216273
1684747103054356813,51,1684747103054356813,camera_1,52,0,-0.9151331571852891,-0.09312825700402538,1.9001868281290375,0.9745150802940367,-0.05585124242841414,0.21615922051079692,0.021821741151304253,0.0006496031710412353,0.0007855168672620571,2362.0910086721406
1684747103064408063,52,1684747103064408063,camera_1,53,0,-0.9131290082016378,-0.09347242889650309,1.8959661399662762,0.9739863066542271,-0.05542426111192411,0.21853375183348253,0.02284349009755179,0.0019293286750325933,0.002323999513309374,2366.206395695452
1684747103074556589,53,1684747103074556589,camera_1,54,0,-0.914380405594454,-0.09409340971725681,1.898556091940809,0.974423041408592,-0.05573311673648055,0.21654373337059504,0.02241355859278204,0.0005592705711023882,0.0006750976901105337,2364.2779343069997
1684747103085105180,54,1684747103085105180,camera_1,55,0,-0.9134350865157493,-0.09442829031718711,1.8965637725166824,0.974082102140977,-0.05532987230775864,0.21800044885707334,0.02405135790630642,0.001158616942120716,0.001395566122835123,2364.8481809915984
1684747103094732999,55,1684747103094732999,camera_1,56,0,-0.9142230863765161,-0.09506179078621596,1.8982394113484728,-0.9705065244487687,0.04925156963650668,0.2305241080038028,0.05049756944411242,0.003262781450757757,0.003938845738626487,2363.8636000938714
1684747103104841232,56,1684747103104841232,camera_1,57,0,-0.9135286324069815,-0.09508720671178661,1.896589157093674,0.9741937491844694,-0.05516947529051939,0.21763897009695846,0.02315484271617514,0.0010674673540052027,0.001286109910797221,2365.4344408267643
1684747103114434719,57,1684747103114434719,camera_1,58,0,-0.9136523776127355,-0.09506306540064662,1.8968096540309018,0.9743339570589428,-0.05522181237898785,0.21689532335849496,0.024089629815672177,0.001096067440812476,0.0013200048014169168,2366.257240455364
1684747103124275922,58,1684747103124275922,camera_1,59,0,-0.913747279170752,-0.09489902285652389,1.8970157239312346,0.9741136686983464,-0.05630643406981226,0.21773062770933777,0.022924216337492632,0.0008376698970096186,0.0010099485757018919,2364.330057092361
1684747103134403228,59,1684747103134403228,camera_1,60,0,-0.9152133734658824,-0.09436617947282153,1.9000468700988176,0.9747162947694121,-0.05570222309007306,0.21517842891975753,0.02288341717132664,0.002067545603495091,0.0024979547965697543,2363.2417671656
1684747103144460916,60,1684747103144460916,camera_1,61,0,-0.9149435999758339,-0.09384000327115136,1.8994842936838994,0.9746487433379198,-0.05597881682234193,0.21551393480862074,0.021907603252986078,0.005458912928588688,0.006594936100419852,2364.548439028674
1684747103154394149,61,1684747103154394149,camera_1,62,0,-0.9154567318015011,-0.0934028253329657,1.9005643485163117,0.9750294025622365,-0.05600240405339041,0.21384013179650715,0.021302415652260417,0.0041169787873514,0.004977078431043403,2366.324709990876
1684747103164306640,62,1684747103164306640,camera_1,63,0,-0.9135585989279311,-0.09266342263360189,1.8966782398011528,0.974663597761254,-0.055341024997524725,0.21550766531464383,0.022906076528797028,0.0012132923147873953,0.0014607086432707004,2371.9756665898017
1684747103174482583,63,1684747103174482583,camera_1,64,0,-0.9140325303244897,-0.09172926098774734,1.8977417450782579,0.9746303399806051,-0.05498759324200285,0.21578735312405756,0.022536264341179328,0.0012975925055798143,0.001564215688832113,2369.5402225832227
1684747103184649229,64,1684747103184649229,camera_1,65,0,-0.9155140451125507,-0.0914896483419063,1.9008626135296598,0.9748472227826077,-0.05606340148973391,0.21469650532176465,0.020861396143576533,0.001217725977767259,0.0014732134698226102,2365.183280122932
1684747103194716691,65,1684747103194716691,camera_1,66,0,-0.9138190698685973,-0.09105417413178395,1.897414194527851,0.9744572712376209,-0.05524418436290225,0.2165487309120757,0.022085148099498284,0.0001503581297583878,0.00018127700295755462,2369.249304454657
1684747103204618692,66,1684747103204618692,camera_1,67,0,-0.9126449772860205,-0.09077747173544569,1.8949737065202248,0.9740305461423441,-0.05538797105989828,0.21848731852430853,0.02144666611788682,0.000467481353553012,0.000562773711187338,2371.0913095283327
1684747103214254617,67,1684747103214254617,camera_1,68,0,-0.9128313685317083,-0.09087691631106443,1.895397377996152,0.9738643462245715,-0.05499482326832618,0.21922156426302564,0.022488004098751718,6.550202670041472e-05,7.887653767590184e-05,2367.890185449853
1684747103224870204,68,1684747103224870204,camera_1,69,0,-0.9154286395155347,-0.09136330400063492,1.9007305746289274,0.9747102808506329,-0.055688193777490985,0.21537575745609489,0.02125974078144947,0.0005448219162644818,0.0006590835834163258,2363.902299856303
1684747103234317541,69,1684747103234317541,camera_1,70,0,-0.9139380320138669,-0.09158536384425787,1.8976234089287882,0.974348961191831,-0.05533454015744727,0.2169001960611706,0.023162371178042675,0.0026291099056834355,0.003169673534495387,2367.1256332551134
1684747103244402170,70,1684747103244402170,camera_1,71,0,-0.9147228036903352,-0.09207495243555279,1.8992292363032908,0.9747179913394437,-0.055731896660382835,0.21525502365953456,0.022001541836192063,0.0002747496619122103,0.0003317435270831179,2367.1130306804553
1684747103254331111,71,1684747103254331111,camera_1,72,0,-0.9150286831360152,-0.09311887188700158,1.8997611034359396,0.9747256660145203,-0.05600131331072248,0.21515512435371031,0.021954529928099122,0.0009440995345357805,0.0011406538411207479,2365.2742624781076
1684747103264232158,72,1684747103264232158,camera_1,73,0,-0.9132270028363185,-0.09347522214012835,1.8959694706748058,0.9738655548750508,-0.05519436169216142,0.21899004350878623,0.024141754479004112,0.0007234968506963924,0.0008712339996559683,2364.444400846143
1684747103274375200,73,1684747103274375200,camera_1,74,0,-0.9150938778754953,-0.09415125041022351,1.89976235567879,0.9745615283195546,-0.05582037424245875,0.21584344149642165,0.02292426884039982,0.00011641185847111046,0.0001406406084163087,2362.4960077236174
1684747103284424543,74,1684747103284424543,camera_1,75,0,-0.9136816782835321,-0.09442982016014721,1.8967931956717379,0.9741024685478624,-0.05537264435364923,0.21802269740178776,0.022898786952446085,0.00083160751091782,0.0010024524602922455,2364.4637343263025
1684747103294434070,75,1684747103294434070,camera_1,76,0,-0.9138209438549143,-0.09502033017099662,1.8969524928065018,0.974095999779623,-0.055655066646053686,0.21785275131504914,0.024076451449983605,0.001535925388452597,0.0018509231332450554,2363.5014971219935
1684747103304311037,76,1684747103304311037,camera_1,77,0,-0.9137218594631203,-0.09510334911611018,1.8966669877021818,0.974242765527048,-0.05545433135742538,0.2173117133390101,0.02348340259788213,0.0015362680569523945,0.0018508114424369857,2365.595621407265
1684747103314336299,77,1684747103314336299,camera_1,78,0,-0.9131187390601194,-0.09500832409661576,1.8953917631739567,0.973933855266106,-0.055677084067619675,0.21854516810396885,0.024308792126201406,0.0009785986767383292,0.0011776284157346386,2365.520530673908
1684747103324218511,78,1684747103324218511,camera_1,79,0,-0.914577539308007,-0.09498995933247045,1.8984142845844898,0.9746011510758723,-0.05627401998938877,0.21534668126823375,0.024731313401765327,0.0019540983048500493,0.0023556629107468587,2365.447818382875
1684747103334636688,79,1684747103334636688,camera_1,80,0,-0.9139948938301963,-0.09423856396385322,1.8971769939159013,0.9745212524499207,-0.0560868655366362,0.2158809657113283,0.023622038041996803,0.0016464154614368454,0.0019833924349525315,2368.1648763997955
1684747103344443798,80,1684747103344443798,camera_1,81,0,-0.9151492102913913,-0.09387353119480836,1.8996235292683608,0.974947103524781,-0.05607310350771598,0.21423958364606024,0.020865118998366496,0.0011343871155986562,0.0013705843649392411,2367.320873106948
1684747103354176759,81,1684747103354176759,camera_1,82,0,-0.9149690346916376,-0.09335531076713521,1.899248259709989,0.974761005958522,-0.0558376828166429,0.21512857002864855,0.021043592797502175,0.0015250737487804145,0.0018423835806275313,2366.4684105025376
1684747103364226818,82,1684747103364226818,camera_1,83,0,-0.9146119327002121,-0.09277563805900958,1.8985835616729636,0.974814400483555,-0.05563120664624399,0.21496692710473844,0.020767130473806586,0.00073965587944258,0.0008929075501354576,2369.035999826622
1684747103374209642,83,1684747103374209642,camera_1,84,0,-0.9141566750624102,-0.0917486423305359,1.8977388709550125,0.9742812384083943,-0.05553974833774622,0.21715710468310134,0.023112696200095862,0.0013921302306698635,0.0016789635315807387,2365.8608991565416
1684747103384486675,84,1684747103384486675,camera_1,85,0,-0.9161873181549142,-0.09155732913848674,1.9020465060054172,-0.9750857994843994,0.05591733030596069,-0.21363076708667467,-0.02104355410292248,0.0027309120050631464,0.0033063391043940387,2364.486985038966
1684747103394472360,85,1684747103394472360,camera_1,86,0,-0.9145230586323144,-0.09110758284475876,1.8986359736465512,0.9745440805859436,-0.05537662144284317,0.21601682742453618,0.023108333170358472,9.666047117207198e-05,0.00011662259123863884,2366.8706869158195
1684747103404458284,86,1684747103404458284,camera_1,87,0,-0.9136599596151995,-0.0908831929195283,1.896884699861872,0.9741879241412253,-0.05587501826892752,0.21751529705389805,0.022868457280971425,3.015447873622179e-05,3.634225779479761e-05,2367.911688648396
1684747103414526462,87,1684747103414526462,camera_1,88,0,-0.9137315294940347,-0.09097542449432106,1.8970337029021014,0.9740740857132318,-0.055205500800152234,0.21794845201955737,0.025109768728814454,0.0002900437393691391,0.0003493491906175014,2365.588219642407
1684747103424604415,88,1684747103424604415,camera_1,89,0,-0.9161248298522319,-0.09143320319785084,1.9019824189537338,0.9750045467117227,-0.05594562703014039,0.21383544646337493,0.02259695872196001,0.0008709474350325763,0.001053845804698397,2363.701066782698
1684747103434353351,89,1684747103434353351,camera_1,90,0,-0.9140146158013654,-0.09159380741836966,1.8975436621429727,0.9742476631153506,-0.05513013021941317,0.21732002447477827,0.02396177411108034,0.004606425092788414,0.005552541653464839,2365.825085163815
1684747103444466352,90,1684747103444466352,camera_1,91,0,-0.9139417316798469,-0.09201555765396062,1.897339900301749,0.9742882807817561,-0.05571221483333357,0.21710983177458917,0.022843292155554088,0.00020254252012819052,0.000244193378945007,2366.917466015787
1684747103454449892,91,1684747103454449892,camera_1,92,0,-0.9155773906630362,-0.09318874558069427,1.900616373389032,0.9747403765936441,-0.056001822844496556,0.21493234721311405,0.023432460341074653,0.0011407251004129648,0.0013786332787042756,2362.849518255449
1684747103464428424,92,1684747103464428424,camera_1,93,0,-0.9127788646677685,-0.09342393164101788,1.894768008822189,0.9739900824365763,-0.055336800858677274,0.21843422954504405,0.023825304803542762,0.00013374783156905323,0.00016084929395467925,2368.6694530462846
1684747103474419593,93,1684747103474419593,camera_1,94,0,-0.9138209854395956,-0.0940309878979024,1.89683177395758,0.9741327264677327,-0.05564362486894671,0.21776086143803355,0.023439826401893918,0.0015238904306897894,0.0018365863786025506,2364.8295905308323
1684747103484622240,94,1684747103484622240,camera_1,95,0,-0.9124796554322242,-0.09431419191590903,1.893970444791006,0.973998012582608,-0.05570979298829662,0.21825942581083965,0.024230424987063084,0.0028986034740228206,0.0034826271633509646,2370.1145326136616
1684747103494521379,95,1684747103494521379,camera_1,96,0,-0.9141847763032279,-0.09505117486087704,1.8974060335145295,0.9744623181184097,-0.05590092631819435,0.21597368332308584,0.025566484230777016,0.001855426380643621,0.0022342415451760307,2365.9148805860896
1684747103504458904,96,1684747103504458904,camera_1,97,0,-0.9136094482729625,-0.09508719305447486,1.8962083442521713,0.9744473687198244,-0.056091568565672774,0.21609485444111626,0.024679453294708296,0.0008507683232892305,0.0010235941572288001,2368.909596266223
1684747103514634847,97,1684747103514634847,camera_1,98,0,-0.9142406649100775,-0.09511366932513739,1.8974706141981712,0.9746686740436409,-0.05572119029198328,0.21518225928420293,0.02475318322562844,0.002128219945007004,0.0025628689944443518,2367.866886803182
1684747103524635791,98,1684747103524635791,camera_1,99,0,-0.9145727690374549,-0.09499281908304816,1.8981793213640352,0.9747174018476435,-0.05628668851689716,0.21487880222368244,0.02418461465678421,0.0024967900390038267,0.003009352164320879,2367.1588758369903
1684747103534230709,99,1684747103534230709,camera_1,100,0,-0.9130160968638158,-0.09414074949641192,1.8949187961199778,0.9743474449232084,-0.055772077854128986,0.21669724089931056,0.024059045909479677,0.0008234274719143286,0.0009897862654551658,2371.5379586821655
1684747103544204235,100,1684747103544204235,camera_1,101,0,-0.9153843728453392,-0.0939101317439862,1.899915795138508,0.9748246871189904,-0.05627151166026406,0.214669292199548,0.021620391887669992,0.0010740360157797113,0.001298004010885246,2365.1360948601496
1684747103554376363,101,1684747103554376363,camera_1,102,0,-0.9145169327968182,-0.09329961738825629,1.8981444017278613,0.9745825320934297,-0.055966054277342844,0.2157955190282947,0.02211295715849963,0.0011660805466817692,0.001406934416066918,2367.118805089034
1684747103564457178,102,1684747103564457178,camera_1,103,0,-0.9139785356684602,-0.0926977631007512,1.8971057120587476,0.9744066292133136,-0.05556978309509858,0.21656883360141344,0.02327360016059492,0.0003115524450549856,0.00037541090456694187,2367.8933035344808
1684747103574386835,103,1684747103574386835,camera_1,104,0,-0.9144634628955471,-0.09177602689526376,1.8982630189452394,0.9745391888655621,-0.05535178823826698,0.2158493714140853,0.024871625685161224,0.002281264358316548,0.0027494436660676007,2366.8527016523294
1684747103584412097,104,1684747103584412097,camera_1,105,0,-0.9152043457862286,-0.09146261518735177,1.89983859481524,0.9746626226312816,-0.05654771030838945,0.21526659001378404,0.022258116008051314,0.0002621352468850091,0.00031673662294123904,2365.5506007850636
1684747103594303131,105,1684747103594303131,camera_1,106,0,-0.9154864751480017,-0.0912241165100264,1.9004995024065423,0.9748789156417009,-0.05587595119385118,0.21424065193619016,0.024288288811689825,0.0007494718011002988,0.0009050350074020759,2365.7632689991733
1684747103604411840,106,1684747103604411840,camera_1,107,0,-0.9140799844655901,-0.09092624148797612,1.89763682103104,0.9742687479021122,-0.0555656222541501,0.2170342352291986,0.02467811223000305,0.0004911121213808656,0.0005918202375795406,2366.3730443117665
1684747103614330291,107,1684747103614330291,camera_1,108,0,-0.9140878902940565,-0.09101535119754171,1.8976625897145352,0.974348578127426,-0.055294553519654815,0.21689910534026574,0.023283873275674282,0.0009780140535440296,0.0011791534835117942,2367.124694996979
1684747103624424695,108,1684747103624424695,camera_1,109,0,-0.9163586395016436,-0.09146711922510825,1.9023455336544186,0.9750281572661815,-0.05591906354387405,0.21363926875154296,0.02348220002037361,0.0011941287812078372,0.001444881785639952,2362.8042228298727
1684747103634349346,109,1684747103634349346,camera_1,110,0,-0.9140059271623983,-0.09159174562663694,1.8974605517385632,0.9744165716727804,-0.055368832457227894,0.21644176526721495,0.02448672068286525,0.0035994448990095407,0.0043360222098681655,2367.8373715374614
1684747103644326448,110,1684747103644326448,camera_1,111,0,-0.9149391174830784,-0.09210636869048272,1.899336231752121,0.9745181972752635,-0.055983058030700125,0.21591617480175843,0.02367247033747324,0.0010908537224167958,0.0013169284829558166,2364.365659823758
1684747103654331922,111,1684747103654331922,camera_1,112,0,-0.9160550737769959,-0.09323296135151149,1.9015063662562726,0.974810162825122,-0.056310714908653414,0.2146947341466569,0.021918507454469677,0.0005558158300118521,0.0006727284496729484,2361.6832562752534
1684747103664355993,112,1684747103664355993,camera_1,113,0,-0.9135675203163227,-0.09351012645167064,1.8962700784915463,0.9739744096152406,-0.05557631160760955,0.2183856041742191,0.02434852956954143,0.0013168504374334589,0.0015859460915085607,2364.691952787106
1684747103674333333,113,1684747103674333333,camera_1,114,0,-0.9146448886673043,-0.09411324021627204,1.8984687077595621,0.9742504600476825,-0.056492536390779544,0.2168830213602526,0.024624976642905687,0.001309201426920481,0.0015794251813223545,2362.2709155862676
1684747103684374570,114,1684747103684374570,camera_1,115,0,-0.9137133565189381,-0.09443828206776894,1.8965068821111029,0.9742220012801326,-0.056035435492306364,0.21716371484105282,0.02431960417759623,0.001953590617631562,0.002352442838403436,2366.3113646169654
1684747103694322586,115,1684747103694322586,camera_1,116,0,-0.9129440645583643,-0.094927660926372,1.8948011037509689,0.9739812469812229,-0.05544444887764755,0.21821663806165284,0.02584458339044309,0.002441360702505335,0.0029340065044960078,2366.990628628526
1684747103704235792,116,1684747103704235792,camera_1,117,0,-0.9138620901570197,-0.09512062208156721,1.8966734844946525,0.9745183745583303,-0.056139010256247825,0.2156285179235454,0.025820368582460163,0.0036510123900370672,0.004392219691736195,2368.303251218399
1684747103714352846,117,1684747103714352846,camera_1,118,0,-0.9137197134589414,-0.09506791794667907,1.8963724368974735,0.9742055261057566,-0.05610369378523212,0.21712294412525987,0.02517132461826637,0.002570685319369659,0.0030942265224676653,2365.841393585085
1684747103724510192,118,1684747103724510192,camera_1,119,0,-0.9147996006149285,-0.0950117539042339,1.8986265903686326,0.9747929739113701,-0.055899683212630495,0.21461399845146786,0.02438678122319641,0.0017837749473983422,0.0021505092563529607,2366.56951546669
1684747103734265089,119,1684747103734265089,camera_1,120,0,-0.9137449339504353,-0.0942228876247233,1.8964542796773958,0.974146370921373,-0.05623811155947831,0.21742416099637427,0.024553147333193064,0.001642831281060353,0.001978249885712803,2365.7800995312864
1684747103744318723,120,1684747103744318723,camera_1,121,0,-0.9152459010592654,-0.09389690219097466,1.8996071471084859,0.9748481745451665,-0.05653602006355043,0.21453709431311335,0.02117900339999103,0.0004908134724246338,0.0005930525553701667,2366.355774965139
1684747103754457950,121,1684747103754457950,camera_1,122,0,-0.9155020941351679,-0.09339900443451032,1.9001680690020466,0.9750194628891703,-0.05598646196396985,0.21372607787576997,0.02288507592103328,0.0013902609498472884,0.0016790616843672486,2366.5940579500752
1684747103764364957,122,1684747103764364957,camera_1,123,0,-0.9143126648194487,-0.09273435237090116,1.8977588760454243,0.9746227645369722,-0.05568805294459962,0.21560766427564004,0.022861380342234214,0.00014391218428499997,0.00017349113383532025,2368.6427262146026
1684747103774688005,123,1684747103774688005,camera_1,124,0,-0.9144103159137567,-0.09177631640592387,1.898102099169728,0.9745129611982212,-0.0554958321871552,0.21586715780395335,0.02541793162655938,0.0018130500975530595,0.0021843832388010625,2366.9374588304213
1684747103784730672,124,1684747103784730672,camera_1,125,0,-0.9156442712618619,-0.09151843791973252,1.9007254986286535,0.9749008695516479,-0.05640448697714317,0.2141023555925456,0.023388239053190842,0.0028110905113862827,0.003396653071556228,2365.6052566247536
1684747103794649600,125,1684747103794649600,camera_1,126,0,-0.9141117361363296,-0.09108229477140867,1.8975797782251793,0.9744130679487083,-0.05574576689106913,0.21621287485809845,0.025759954000513837,0.0005292101122904569,0.0006372453612880571,2367.7871872679093
1684747103804400205,126,1684747103804400205,camera_1,127,0,-0.9140242989845453,-0.09091625056185093,1.897458750190326,0.9744094051347962,-0.05600694772928362,0.21624298571475667,0.025069984444934735,0.0006367286259774119,0.0007668390245626897,2368.450606927858
1684747103814266920,127,1684747103814266920,camera_1,128,0,-0.9149383297066912,-0.09109306576781523,1.899362065256426,0.9744562956381074,-0.05562653469324452,0.21609552733346943,0.025364139956804952,0.00017505456344224513,0.0002112013550317465,2363.8942272651466
1684747103824272871,128,1684747103824272871,camera_1,129,0,-0.9154458668053571,-0.09137360749156362,1.9003853219644715,0.9745919472687932,-0.05606803782981911,0.2155110224758681,0.02412282413279838,0.0009070078667718917,0.0010958146900181963,2363.0208814862426
1684747103834371089,129,1684747103834371089,camera_1,130,0,-0.9150306079484547,-0.0916978239979625,1.8994950624524534,0.9744291828937609,-0.05557142253957131,0.21621070102103748,0.025544417901319318,0.0025848234799923375,0.0031190000673287335,2362.7956324635297
1684747103844383716,130,1684747103844383716,camera_1,131,0,-0.915047526630772,-0.09212502668194975,1.8994900637494772,0.9743895353383839,-0.05586120592742564,0.21656644332722494,0.023313831087535677,0.0006729193410137668,0.0008128532071374655,2362.5286520958175
1684747103854566097,131,1684747103854566097,camera_1,132,0,-0.9156857570628643,-0.0932067143965275,1.900699614804777,0.9749672603218512,-0.055756433127154864,0.21394462681822207,0.023616903290916143,0.0006150073022581637,0.0007429876944522666,2364.7417465629987
1684747103864294767,132,1684747103864294767,camera_1,133,0,-0.913476774247265,-0.09350866433859553,1.8960470065128543,0.9736846415259984,-0.05560330004867376,0.2196934999761199,0.024109291742560376,0.00291220992221497,0.0035088029516018734,2362.1904282550104
1684747103874259948,133,1684747103874259948,camera_1,134,0,-0.9139449442927436,-0.09403969920985211,1.8969442441244662,0.9742600687241654,-0.05616360599410666,0.2169476161166491,0.02442743770080136,0.000501731235999614,0.0006043688552904363,2365.9427057490693
1684747103884341478,134,1684747103884341478,camera_1,135,0,-0.9136202784161278,-0.09442864597483105,1.896225072021066,0.9741126673525036,-0.05557073274871278,0.21777922763337335,0.02426134737753114,0.0007070852152537555,0.0008514011778929162,2365.529923927271
1684747103894895315,135,1684747103894895315,camera_1,136,0,-0.9138732946107757,-0.09501249267065123,1.8966449076984526,0.9743310505929469,-0.05547674190216812,0.21668336045004388,0.025488355428330327,0.000885562360053882,0.0010658268141196727,2366.0983618327887
1684747103904505968,136,1684747103904505968,camera_1,137,0,-0.9136195919940934,-0.09509150355474597,1.8961123930659383,0.97417301278182,-0.05612906790606162,0.21721959672507413,0.025536556192736627,0.0009696598426671699,0.0011667100186480645,2366.040227442165
1684747103914326429,137,1684747103914326429,camera_1,138,0,-0.9125217177627942,-0.09493442252057632,1.8937616493424303,0.9739345532256999,-0.05529819517149233,0.21857390524485404,0.02488058660573836,0.001567516359500587,0.00188278640646067,2368.974898347748
1684747103924547433,138,1684747103924547433,camera_1,139,0,-0.9144360776312607,-0.09497619420898953,1.8977444493027424,0.9745047710391949,-0.05613320648780832,0.21577239935936207,0.02513535410427846,0.00155202230962459,0.0018698116211052658,2365.6424165806975
1684747103934592723,139,1684747103934592723,camera_1,140,0,-0.9138702423115217,-0.09423858801423834,1.896568993875748,0.9744662328770266,-0.05585524550154002,0.21629884343132133,0.0225956381342026,0.0008542163122911005,0.0010290400033638005,2368.8198086142074
1684747103944976568,140,1684747103944976568,camera_1,141,0,-0.9158573978444916,-0.09393678165212713,1.900747431525316,0.9751442896443047,-0.056170276157485044,0.2130350748041093,0.023549338710540334,0.0012335193750914186,0.001489968078272136,2366.0010701811407
1684747103954691171,141,1684747103954691171,camera_1,142,0,-0.9152913587210302,-0.09339324086329523,1.899626061300587,0.9747897356707387,-0.055793285961591214,0.2147855569743946,0.023221649118417433,0.000628940382739529,0.0007593916632117893,2365.258690241491
1684747103964610576,142,1684747103964610576,camera_1,143,0,-0.9159391995893068,-0.09290706554123074,1.9010253592284712,0.9749310337974408,-0.056020046929822404,0.21409658780607727,0.023105946646449944,1.7105165170505643e-05,2.067824676038707e-05,2363.8300218736995
1684747103974880695,143,1684747103974880695,camera_1,144,0,-0.9145924719777433,-0.09180441529036235,1.8983756749972536,0.9744261397806956,-0.05618156723306854,0.21609500697140682,0.025303706790826247,0.0034279609099030495,0.004132213449491202,2365.6567044644626
1684747103984424591,144,1684747103984424591,camera_1,145,0,-0.9153004653065911,-0.09150092492639986,1.899904149536799,0.9748753276625527,-0.05648717476100529,0.21399073437019117,0.025204368789096116,0.002704778700717725,0.0032630568323714334,2367.084306617967
1684747103994607448,145,1684747103994607448,camera_1,146,0,-0.9146674781168505,-0.09114844847249895,1.8986584954341201,0.9746891213835247,-0.05601886737510446,0.21489347365059216,0.025764280253976275,0.0020214930700603873,0.0024357604534668313,2368.1076158117503
1684747104004518032,146,1684747104004518032,camera_1,147,0,-0.9142151356538538,-0.09095807394438116,1.8977445401107014,0.9742885073203207,-0.05636179005953846,0.21641430018320096,0.027388022948751013,0.0017118616524385288,0.0020607298237176283,2366.253539292142
1684747104014452695,147,1684747104014452695,camera_1,148,0,-0.9142091428804312,-0.0910268423441304,1.897744414689759,0.9743041945712008,-0.056217872331844984,0.2165816877330366,0.025753830980136554,0.0002989488129969686,0.0003601151881871368,2366.5177173326956
1684747104024419546,148,1684747104024419546,camera_1,149,0,-0.9155252341429704,-0.09138157872127489,1.9004518792027059,0.9745054302607378,-0.05623067466003987,0.2158161597661122,0.02450842311164057,0.0007492328295484185,0.0009052707094504114,2361.902040155839
1684747104034420013,149,1684747104034420013,camera_1,150,0,-0.9143780887765922,-0.09163410553130688,1.898034012060056,0.9743886371622826,-0.05570010191244195,0.21635550374582407,0.02558473011122083,0.0033766980341169983,0.004068629698371803,2365.979694004869
1684747104044373035,150,1684747104044373035,camera_1,151,0,-0.9147624145884076,-0.09208834092902513,1.8987862672948657,0.9743455982856253,-0.05597058244573775,0.21659215500232332,0.02461274859826376,0.0009984953940147534,0.0012046748126666685,2363.623054278782
1684747104054379940,151,1684747104054379940,camera_1,152,0,-0.9149640372221518,-0.09312622225597207,1.899059832856489,0.9744827290675209,-0.056271703022505025,0.21592641885497235,0.02434518080710816,0.0003545913641573861,0.00042790595669028533,2363.7910605652714
1684747104064423084,152,1684747104064423084,camera_1,153,0,-0.9142379742260711,-0.09357835524962735,1.8974774194545627,0.9743227809635928,-0.05562922079516965,0.21692686579366305,0.0233075778671015,0.0002766168618109077,0.0003335131675398824,2365.3962393904803
1684747104074292659,153,1684747104074292659,camera_1,154,0,-0.9139657721055084,-0.09404360540816081,1.8968490728392122,0.9742769139003231,-0.056141280513397444,0.21694621587843002,0.023811574479823086,0.001804493964300491,0.0021740126837327964,2366.319109518313
1684747104084463596,154,1684747104084463596,camera_1,155,0,-0.9136818512615655,-0.09443952648463311,1.8961525708927207,0.9740411663801324,-0.05601570820080096,0.21797945725661713,0.024310550090540735,0.0023019128857413307,0.002771950906151987,2365.024205634369
1684747104094628095,155,1684747104094628095,camera_1,156,0,-0.9131407202438712,-0.0949486492086016,1.8949373972626433,0.9740711630988753,-0.055424901235830534,0.21787943532180473,0.025337742718211112,0.00125874177319929,0.0015131344880758046,2367.437203096691
1684747104104772806,156,1684747104104772806,camera_1,157,0,-0.9129906020486842,-0.0950312263040978,1.8945895046440386,0.9739034559988352,-0.0558853650991268,0.21848395869605697,0.02556646541393752,0.001649958852794953,0.0019831369370585344,2366.6565659551406
1684747104114669561,157,1684747104114669561,camera_1,158,0,-0.913335005170367,-0.09503568375372184,1.895282426375176,0.9741262049244154,-0.05604961647412466,0.21746318242804488,0.02542325040050097,0.001856006056186743,0.0022316583043748193,2367.4043686650703
1684747104124575853,158,1684747104124575853,camera_1,159,0,-0.9141924235798646,-0.09495515964447902,1.8970729744047607,0.9745837292881412,-0.05591338024923343,0.21558012569073007,0.02419623778798926,0.0019597567879827693,0.002360085261106016,2368.0137665919037
1684747104134395599,159,1684747104134395599,camera_1,160,0,-0.9140217572413984,-0.09425945527496249,1.8967268403260569,0.9744870099402431,-0.05586287393738123,0.2161653797016303,0.02295507333098902,0.000812190308352001,0.0009784180051167174,2368.459294812521
1684747104144729614,160,1684747104144729614,camera_1,161,0,-0.9156708760734783,-0.09394296991975093,1.9001915097763835,0.9749746455882332,-0.05678753040836683,0.2135973444703101,0.02399565138623486,0.0006644957029493526,0.0008023083022032961,2365.7341485563684
1684747104154557943,161,1684747104154557943,camera_1,162,0,-0.9155761333369449,-0.09342666101970903,1.9000190163937472,0.9748899877862967,-0.05656722612669918,0.21400710960944067,0.02430262699747297,0.002683263592189178,0.0032392094494032454,2365.4690474345107
1684747104164448022,162,1684747104164448022,camera_1,163,0,-0.9157288488679916,-0.0928864782987861,1.900365553688115,0.9749129291987456,-0.0566947800577602,0.21359289946905302,0.026618709430149497,0.00042409794696141034,0.0005116073905520736,2364.9989146236335
1684747104174366712,163,1684747104174366712,camera_1,164,0,-0.9155248219112411,-0.09190161788094596,1.900054348803902,0.9750592200730969,-0.05691985358282495,0.2126318312692938,0.028413939354134454,0.004737183189718053,0.005706603324633051,2367.9626087286733
1684747104184283733,164,1684747104184283733,camera_1,165,0,-0.9148234703451883,-0.0914449735347408,1.8986369912976016,0.9745165549889595,-0.05827432798725354,0.21470285269508174,0.02871013400662723,0.00519978349620942,0.0062597239683969495,2366.819773616502
1684747104194998502,165,1684747104194998502,camera_1,166,0,-0.9149645859100625,-0.091165155360453,1.8989610831213641,0.9745645277646569,-0.05751608931648578,0.2144347703503252,0.03055503162153456,0.0009530093084322289,0.0011466470242764996,2366.023622147624
1684747104204892396,166,1684747104204892396,camera_1,167,0,-0.9134764330092483,-0.09088317823793739,1.895905749412741,0.9741915127246962,-0.0573965066561381,0.21618078595727805,0.030371126777479125,0.0011572603398235515,0.001388955486416804,2369.768306954763
1684747104214587926,167,1684747104214587926,camera_1,168,0,-0.9143939316100884,-0.0910452521806317,1.8978597510782236,0.9743701501911762,-0.05775296643487634,0.21533406587139042,0.02997741415953717,0.0025497464230284095,0.0030660538801936766,2367.044190893881
1684747104224552392,168,1684747104224552392,camera_1,169,0,-0.9150843172361995,-0.09134940795073548,1.8992543346583288,0.9745809377386598,-0.05764153206587458,0.21473897860941676,0.02750673814391319,0.0005538474797504023,0.0006674347229592455,2365.871212269295
1684747104234245538,169,1684747104234245538,camera_1,170,0,-0.9139723188145817,-0.09159979329709758,1.8969584444068819,0.9742590080828519,-0.05586365127321818,0.21635155193855404,0.02984365275265473,0.00613218336366117,0.007368925528282713,2366.6167462795293
1684747104244254350,170,1684747104244254350,camera_1,171,0,-0.9146996652884554,-0.09207795427028084,1.898433728771063,0.9743378644196602,-0.05665354945687715,0.21635214756147583,0.02545288859069913,0.0014969976909924299,0.0018049086931779081,2364.5182230551736
1684747104254341840,171,1684747104254341840,camera_1,172,0,-0.9157981213988282,-0.09320780514467016,1.9005995594240273,0.9747203510315311,-0.05636425099806754,0.21485544870822698,0.0240924190313512,0.00023534831416327506,0.0002843866703312981,2362.40244495799
1684747104264439344,172,1684747104264439344,camera_1,173,0,-0.9149787197376816,-0.093646412412485,1.8988513822081095,0.9744178865240936,-0.05558852671485699,0.2162854115433737,0.02530452277961389,0.0012668501731241122,0.0015280998777290633,2362.540423470782
1684747104274310588,173,1684747104274310588,camera_1,174,0,-0.9139981022678708,-0.09406080615323889,1.8967412321473978,0.974058376848577,-0.05630093847427275,0.21782147760326823,0.02437799648783771,0.0016311673243762925,0.0019653685813738006,2364.1236588435704
1684747104284293651,174,1684747104284293651,camera_1,175,0,-0.9141459122452438,-0.0944798975581001,1.8970121732937204,0.9742425670808168,-0.0561474981889143,0.21705703166898174,0.024189335211140427,0.0013868241949239746,0.0016710128668672025,2365.0297781678382
1684747104294439792,175,1684747104294439792,camera_1,176,0,-0.9136927937716524,-0.09499424076856611,1.8959820691581675,0.9741168621618267,-0.05577471278953087,0.21759406507110612,0.02526545291645636,0.00040575403545517474,0.0004882772766104139,2365.4503744890676
1684747104304372310,176,1684747104304372310,camera_1,177,0,-0.9134183471071645,-0.09506614548724547,1.895374773224965,0.9739972834724439,-0.05605738154758082,0.21816869833106806,0.024275107226467682,0.0012400596897350624,0.001492313563630032,2365.901761284681
1684747104314304113,177,1684747104314304113,camera_1,178,0,-0.9137118815934034,-0.09506172651145837,1.89600989689524,0.9743256453896361,-0.056177788333300185,0.21661678904425985,0.02471354968843839,0.0007839335739845411,0.0009432640660138375,2367.8531607440664
1684747104324406385,178,1684747104324406385,camera_1,179,0,-0.9137957067078449,-0.09492184414505789,1.8962091073736322,0.974209488699764,-0.055877229558934066,0.21719204981016932,0.02492430226545174,0.001628155936487019,0.001959711424384702,2366.0454782805173
1684747104334495067,179,1684747104334495067,camera_1,180,0,-0.9137649000114345,-0.09422909661782192,1.8961893430841057,0.9741991505137304,-0.05632428634575113,0.21722335388349526,0.024033402455205022,0.0011558848345885053,0.0013917672710521273,2366.871189844096
1684747104344522714,180,1684747104344522714,camera_1,181,0,-0.9149315658692655,-0.09385375376510746,1.8986311613625235,0.9748222986111813,-0.056413108280876804,0.21442147464565078,0.023716630352720633,0.0015252101729856806,0.001839264611584844,2367.814972877385
1684747104354386091,181,1684747104354386091,camera_1,182,0,-0.9143275407904873,-0.09329617171786661,1.8974506121469241,0.9744590669153639,-0.0564163794094804,0.21589846266726342,0.02519072961778355,0.0019717207323992625,0.0023747616851230295,2367.1296275337218
1684747104364469766,182,1684747104364469766,camera_1,183,0,-0.9148992382197747,-0.09281854407787338,1.8986994622614435,0.9744727773380079,-0.056862131493522546,0.21571559321636685,0.02522473136574111,0.0026210515206912532,0.0031607887292115144,2364.82290477748
1684747104374458074,183,1684747104374458074,camera_1,184,0,-0.9150615923950791,-0.0918424202586545,1.899111210020913,0.9750551468543984,-0.05641333329518625,0.2128188138255335,0.028162899374295655,0.0028680077666649595,0.0034518626922785687,2370.030835160637
1684747104384472846,184,1684747104384472846,camera_1,185,0,-0.9144914530206972,-0.09141210356163372,1.897983758580862,0.9747758526566591,-0.057637401823702965,0.2138375713580682,0.02763078109969462,0.004077843812410719,0.004905627030243048,2370.9841167660206
1684747104394474744,185,1684747104394474744,camera_1,186,0,-0.9140642998020807,-0.09107398078480954,1.8971416984288119,0.9744480311302719,-0.057526378743543494,0.21520026667707864,0.02882005546672969,0.0034785474999807775,0.004181325024588172,2369.5980829059845
1684747104404396533,186,1684747104404396533,camera_1,187,0,-0.9136670183371601,-0.09090033578628132,1.8963836227186164,0.9743954035439442,-0.056392281519307697,0.21568995960004067,0.02917789343346084,0.0013804814225295559,0.001657914641609682,2370.3742365683424
1684747104414446592,187,1684747104414446592,camera_1,188,0,-0.9142875157180423,-0.09104379009555674,1.897712266298523,0.9745741052428851,-0.05684562903647242,0.21480722387499032,0.028839979552656422,0.0035771321854554117,0.004301284634340721,2369.2320485319938
1684747104424391746,188,1684747104424391746,camera_1,189,0,-0.9161296441785954,-0.09143243081712003,1.9015475148314513,0.97504672845852,-0.056949073474077544,0.2129489399766438,0.026333046075326914,0.0004276014806237072,0.000516344861415201,2364.947148389183
1684747104434360742,189,1684747104434360742,camera_1,190,0,-0.9145150638320886,-0.09164162897888617,1.898195280014509,0.9745154483043114,-0.05595078489116439,0.21562133110116893,0.02639303431721422,0.0031309844489442185,0.00377110266715083,2366.8574573672377
1684747104444439888,190,1684747104444439888,camera_1,191,0,-0.9151519617185597,-0.09212656314610601,1.8994965566324107,0.9747183299083821,-0.05614599745363037,0.21475754757945145,0.025514702981042466,0.0009158572356682271,0.0011046330647834957,2365.690472736257
1684747104454411745,191,1684747104454411745,camera_1,192,0,-0.9162699052672182,-0.09325528489220845,1.901714957493992,0.9748362849494125,-0.0563831034970004,0.21435507615624697,0.023813116388324534,0.0003156036837026477,0.000381759858484773,2361.0267594106263
1684747104464293003,192,1684747104464293003,camera_1,193,0,-0.9135343331970397,-0.09351417811417828,1.895988239437498,0.9738780507107813,-0.055917190327341756,0.21868008406771453,0.02477561304594369,0.0012678222556132823,0.0015265104307227038,2364.328345375951
1684747104474251985,193,1684747104474251985,camera_1,194,0,-0.9149826459309558,-0.0941499074886215,1.8989218131190866,0.9744197741466926,-0.05627255541533758,0.21628137405009923,0.023703807667494636,0.0014910899481037632,0.0017999813585285402,2362.716615726704
1684747104484260320,194,1684747104484260320,camera_1,195,0,-0.9130571783931185,-0.09436942854915568,1.8949009723173582,0.9739502633938903,-0.05574027381671326,0.21831196600853064,0.02556935289168849,0.0008080527913989499,0.0009713914383049921,2366.8949712906033
1684747104494279623,195,1684747104494279623,camera_1,196,0,-0.9136368325936521,-0.09499250034062004,1.8960293372905328,0.9742198634134145,-0.05608333326067098,0.2170689036876109,0.025127843380982746,0.001949118246557191,0.0023452864385771774,2366.748558618593
1684747104504653930,196,1684747104504653930,camera_1,197,0,-0.9129297388840054,-0.09500761338057917,1.8945742867315685,0.9740999311245625,-0.056308288074749635,0.21748161770929006,0.02569916021514784,0.000628825175226666,0.0007554465341026207,2369.118250377943
1684747104514335393,197,1684747104514335393,camera_1,198,0,-0.9137334769773203,-0.09505817089521579,1.8962185869274426,0.9743078590425771,-0.05619830426585129,0.21652587009231483,0.026124585858510577,0.0019405420316616073,0.002334056615374729,2367.0831785751516
1684747104524306058,198,1684747104524306058,camera_1,199,0,-0.914485138980938,-0.09498296161191748,1.897792817933984,0.9747890321642556,-0.05618233961727777,0.2144857173795025,0.02501528587890008,0.005239739737589844,0.006310069367602396,2368.533584782853
1684747104534542560,199,1684747104534542560,camera_1,200,0,-0.913116494909362,-0.09416398120095938,1.894973466488501,0.9740617551078451,-0.05605803140169882,0.21799275922841732,0.02324545709535118,0.0006572242855327204,0.0007907776646622047,2368.5197845497178
1684747104544384241,200,1684747104544384241,camera_1,201,0,-0.9153838464698001,-0.09389181842693754,1.8997349587709405,0.9746966876302946,-0.056697410208879806,0.21505256278672213,0.022453641954052236,0.0016700730921002105,0.0020177822886712424,2364.224344313726
1684747104554459571,201,1684747104554459571,camera_1,202,0,-0.9157077601305307,-0.09342115336910753,1.9004505230804163,0.9750233266982324,-0.05623060844130732,0.21365823494301872,0.022754993071113613,0.00016335758846253157,0.00019736407031212535,2365.9711664188644
1684747104564258575,202,1684747104564258575,camera_1,203,0,-0.9157629085810763,-0.09287604724004797,1.9006249694153863,0.9748832426876738,-0.056194624204862466,0.21426619703929628,0.02312626523150439,0.00022393670224118978,0.0002706242364162002,2364.40221901273
1684747104574324846,203,1684747104574324846,camera_1,204,0,-0.9151661348491791,-0.0918501603335014,1.899568725909229,0.9747598303794387,-0.05619667921125399,0.2146096779783127,0.02505778207104959,0.0023550113692181185,0.0028409045285121455,2366.2696785219014
1684747104584427356,204,1684747104584427356,camera_1,205,0,-0.9148605627425459,-0.09144252807276729,1.8989732006508881,0.9747253188626439,-0.05662473962360713,0.21455259502440238,0.025910916598432716,0.004293822174076922,0.005174910528697505,2367.799400977092
1684747104594318389,205,1684747104594318389,camera_1,206,0,-0.9143967424231848,-0.09111961133175223,1.8980574624560955,0.9744936081036679,-0.056968201416780904,0.21540359835055167,0.026797791141552698,0.0025082336069317535,0.003020108125918751,2367.91718402924
1684747104604427576,206,1684747104604427576,camera_1,207,0,-0.914328429512685,-0.09096254163640202,1.8979797354744035,0.9744465500164433,-0.055958196429538545,0.2160009429640761,0.025810735209106265,0.0006168399413581938,0.0007430197749998774,2367.3216221602634
1684747104614328861,207,1684747104614328861,camera_1,208,0,-0.9147346730158232,-0.09108606869468876,1.8988806178541986,0.9743965954609831,-0.055872503249632416,0.21623558391633896,0.02591737608294997,0.00040726756560616195,0.000491061672790008,2364.472628768067
1684747104624218940,208,1684747104624218940,camera_1,209,0,-0.9160033536658331,-0.09142466327393728,1.9014988816587708,0.974778057233228,-0.05624024379109071,0.2146227582352574,0.024121479275177632,0.00018995832942891866,0.00022969101393573,2362.28947640548
1684747104634205341,209,1684747104634205341,camera_1,210,0,-0.9147866196795315,-0.0916839358423302,1.8989514120761313,0.9743436854104427,-0.055383235536738844,0.21658136065465639,0.026069026434756844,0.004170901956968009,0.005029747436670852,2363.0210258646393
1684747104644223928,210,1684747104644223928,camera_1,211,0,-0.914524484151647,-0.09205933186506324,1.8984092711635596,0.974269890376111,-0.05603205578140843,0.2169779926370499,0.02406533071923892,0.0005365106189856306,0.0006472674866987283,2363.968516214867
1684747104654474258,211,1684747104654474258,camera_1,212,0,-0.9143544861029175,-0.09306387965004573,1.897911294146434,0.9741499839663348,-0.05619456663000175,0.21750757708643312,0.02375780565720739,0.0006355441437335685,0.0007666713320976453,2363.2694793879045
1684747104664511919,212,1684747104664511919,camera_1,213,0,-0.9135256302950235,-0.09350401092544092,1.8961490938684014,0.9738584585145803,-0.055521496223501096,0.21886653774978157,0.024789209146980722,0.0019349534122738987,0.0023301371948048232,2363.6443377074324
1684747104674384117,213,1684747104674384117,camera_1,214,0,-0.9141756929168244,-0.09406395946148675,1.8974428897253672,0.9741812746128535,-0.05573574043942751,0.21732203997578742,0.025209172380452758,0.0023139854456530884,0.002788286942443743,2363.5261660601254
1684747104684394121,214,1684747104684394121,camera_1,215,0,-0.9132396361414102,-0.09438410814370848,1.8954550044445038,0.9739196509040365,-0.05586104591678074,0.2184235688631344,0.025518653905220925,0.0029038503125775605,0.0034930429131390245,2365.4089185083285
1684747104694414615,215,1684747104694414615,camera_1,216,0,-0.9144026495891325,-0.09508378527002556,1.8977915443428095,0.9743957707319473,-0.05628587020051107,0.21625349405144548,0.024883912594428445,0.0033046323369489983,0.003982696139354874,2364.503844173624
1684747104704487323,216,1684747104704487323,camera_1,217,0,-0.9131986971055045,-0.09502775929258504,1.8952464806488332,0.9738797025178894,-0.055575958135846065,0.2186557364376699,0.025676970690681464,0.0007960467046359554,0.0009573950103064625,2364.781953062862
1684747104714310646,217,1684747104714310646,camera_1,218,0,-0.9134958582058382,-0.09504105246905023,1.8958639070150587,0.9741266216620443,-0.0554772361209303,0.2177041198880595,0.024586936072646837,0.003643507559900172,0.004385001576878208,2365.9624095638283
1684747104724346160,218,1684747104724346160,camera_1,219,0,-0.9144838570138929,-0.09497346897895101,1.8979283612635411,0.9743154113507053,-0.05601701516207672,0.21671665185716496,0.024606219227219478,0.0009413866355316713,0.0011350028310492077,2363.260671126306
1684747104734163999,219,1684747104734163999,camera_1,220,0,-0.9145288889417562,-0.09429175408399175,1.8980495619742674,0.9744565963344584,-0.05593484599279395,0.21619651223845202,0.023763479542229623,0.00338304195611272,0.004079716694480461,2364.9967325031757
1684747104744220256,220,1684747104744220256,camera_1,221,0,-0.9164593680290639,-0.09400156858971125,1.9021213604571259,0.9754026873458482,-0.056427175911769746,0.21201812145323673,0.021304635940569073,0.000699134441674687,0.0008460737586552822,2365.8803237725515
1684747104754553079,221,1684747104754553079,camera_1,222,0,-0.9142518431652751,-0.09328215097318965,1.8976119783425704,0.9745315741495042,-0.056314985015841625,0.21587588266355412,0.022681197776713128,0.0024157081788871437,0.0029125920908461846,2368.0472090177936
1684747104764446496,222,1684747104764446496,camera_1,223,0,-0.9142245646231902,-0.09272610709275954,1.897624351849786,0.9743790047371422,-0.05578375522726748,0.21669885936831748,0.022700927925321433,0.00018740312953013927,0.00022600550267313618,2366.514761927071
1684747104774525165,223,1684747104774525165,camera_1,224,0,-0.9139224363076616,-0.09172096604965742,1.8971592717015513,-0.9742701100423676,0.055472663213208324,-0.2170739101517825,-0.024483746557315625,0.0006988910754444078,0.0008418923485022482,2366.8951893500052
1684747104784520864,224,1684747104784520864,camera_1,225,0,-0.9157926149325871,-0.09154639216183232,1.9011359722010104,0.9748492212312831,-0.056209428932075485,0.21440078288653344,0.023276603307449264,0.0015972641558619216,0.001931039237068419,2364.0177501814915
1684747104794616937,225,1684747104794616937,camera_1,226,0,-0.9144897578420418,-0.0911198308258111,1.898474123907209,0.974424512116801,-0.0557317976141959,0.2164094024271849,0.02361794787303825,0.00029103763517923653,0.0003510920870469297,2366.0542604555367
1684747104804463148,226,1684747104804463148,camera_1,227,0,-0.9132240474477462,-0.09083444699041553,1.895915446791151,0.9740875709250166,-0.0558547798401124,0.21784976219135063,0.023981844207341826,0.0006197226757649332,0.0007459169260740764,2369.0632994991042
1684747104814439773,227,1684747104814439773,camera_1,228,0,-0.9135672546023234,-0.09095398735512525,1.8966866143280132,0.9741437979682975,-0.055048331630988136,0.21782560146518848,0.023781282784460015,0.00015898003766778857,0.00019150411258480728,2367.2809601991908
1684747104824366569,228,1684747104824366569,camera_1,229,0,-0.9160767777903717,-0.09142434237911119,1.9018917957238812,0.9748156238724595,-0.055683173079241734,0.2147020688788324,0.023171217255980175,0.00024882706929929554,0.0003010823919765381,2361.719972402673
1684747104834355115,229,1684747104834355115,camera_1,230,0,-0.9146265751984033,-0.09164275820978196,1.8988509783985141,0.9743760014188213,-0.055005697738915636,0.2167217350840002,0.024443212094667155,0.001705970469629392,0.0020582398780906535,2363.8262586554047
1684747104844288825,230,1684747104844288825,camera_1,231,0,-0.9141483422435788,-0.09201199803864923,1.8978333678729418,0.9741011886439139,-0.05604666713679167,0.21789078244647675,0.022566619379825625,0.0011090962507296354,0.001338477454367415,2364.013294414268
1684747104854303121,231,1684747104854303121,camera_1,232,0,-0.9151379820259838,-0.0931218588306447,1.8997979610748321,0.9743904228995656,-0.05580790488996918,0.21652850479513394,0.023752644580797157,0.0007166356954257935,0.0008657682579631966,2361.132594825117
1684747104864290237,232,1684747104864290237,camera_1,233,0,-0.9126661813271343,-0.09340213366765687,1.8945884639117356,0.9737484696495895,-0.055403535271293824,0.2195450771927947,0.023330778275379802,0.0012983554770471528,0.0015621818707861684,2366.707718718331
1684747104874475240,233,1684747104874475240,camera_1,234,0,-0.9146623811473583,-0.09410171197563716,1.898724105473199,0.9743648502611648,-0.05620895798154554,0.21644659537056649,0.024587862262851607,0.0012169319234089926,0.0014681452129202616,2362.8741159102656
1684747104884372949,234,1684747104884372949,camera_1,235,0,-0.9126988071323416,-0.09432361324058233,1.8946278362486877,0.9738077654823377,-0.05532443518780644,0.21922392427636742,0.02405231345039905,0.0018162885389756411,0.002184600686035391,2366.4463799572536
1684747104894400596,235,1684747104894400596,camera_1,236,0,-0.9142954259762792,-0.09506225838279748,1.8978479988269223,0.9743012919432715,-0.05573712188396503,0.21689742136349452,0.024204841822061673,0.0014556570822605863,0.001755123580850734,2363.398091695273
1684747104904278755,236,1684747104904278755,camera_1,237,0,-0.9137612617685146,-0.09510123026838363,1.8967270459187464,0.974293202229302,-0.05559498783736835,0.21704175210955193,0.02355485636447625,0.0012415523524396122,0.0014956620811129218,2366.040249442449
1684747104914440870,237,1684747104914440870,camera_1,238,0,-0.9148141996177059,-0.0951800236052965,1.8988823908581194,0.9748053364242683,-0.05536413120768112,0.2146424452508589,0.02485939965324777,0.002441440665279515,0.002943410673912622,2365.7542615709835
1684747104924394607,238,1684747104924394607,camera_1,239,0,-0.9143644715536338,-0.0949700302864579,1.897990936745848,0.9743012060507655,-0.05592369757049449,0.21690597503793463,0.023695947563049338,0.002036385762039572,0.0024562420286839224,2363.286136555136
1684747104934499979,239,1684747104934499979,camera_1,240,0,-0.9147607443842304,-0.09430321489593604,1.898792003121736,0.9744687020431357,-0.05603998099789255,0.2161483881049139,0.023455139900875683,0.000297756414511241,0.0003593670370871378,2363.6212188117197
1684747104944547653,240,1684747104944547653,camera_1,241,0,-0.9152405535894236,-0.09386073181232853,1.8998609070482277,0.9750760189455677,-0.056379114962586574,0.2133986742680191,0.022564540632376118,0.00260296423221007,0.0031426381563688438,2368.0780254992424
1684747104954310178,241,1684747104954310178,camera_1,242,0,-0.914888464782556,-0.0933361033924897,1.8991497421367116,0.9749811068145544,-0.056173908371473937,0.21383200331844818,0.02306962786347168,0.0010260056587867439,0.0012377313742847592,2369.01038502995
1684747104964331865,242,1684747104964331865,camera_1,243,0,-0.9137198556477903,-0.09265962006750439,1.89684355935385,0.9742714496971332,-0.05526962277917881,0.21729969038629457,0.022831024088166233,0.0013340038858586922,0.00160760026245968,2367.255927873076
1684747104974619626,243,1684747104974619626,camera_1,244,0,-0.9136831339887602,-0.09169207604547763,1.8969071607961285,0.9744092497340654,-0.055527110154628655,0.2166193530527596,0.022790567206091315,0.004402879741974175,0.005304662733112263,2369.471542441636
1684747104984338760,244,1684747104984338760,camera_1,245,0,-0.9158741842493734,-0.09150766737044838,1.9014936972476955,0.9748785444776299,-0.055779327254110486,0.2146152244021173,0.020995133319069402,8.451941539533436e-05,0.00010231013755840953,2363.6758314779718
1684747104994231700,245,1684747104994231700,camera_1,246,0,-0.9144185886079855,-0.09109730465623034,1.8985158335651464,-0.9744560558121846,0.05577948533399109,-0.21635028194671632,-0.022728832095206104,0.0007621100667165592,0.0009196612616238962,2366.595173831215
1684747105004166603,246,1684747105004166603,camera_1,247,0,-0.9137708614494989,-0.09087326921728585,1.897273580307986,0.9741964178439312,-0.0557810018697745,0.21750649805636993,0.022819785137278233,0.001124581671319902,0.0013558604057607193,2367.139131274074
1684747105014261484,247,1684747105014261484,camera_1,248,0,-0.9137691145270377,-0.09096324182491478,1.8972962455023477,0.9742930193441862,-0.055517275578522436,0.21710084410148453,0.023198449516092443,0.00014859992370475084,0.00017910267579919687,2367.852788269519
1684747105024244546,248,1684747105024244546,camera_1,249,0,-0.916811410281509,-0.09149114108047535,1.9035506150863266,0.9750454427347,-0.05561613020368274,0.2138760106189026,0.021219866757433047,0.0022983053495408967,0.002786866230283249,2360.3575632383577
