%time,field.header.seq,field.header.stamp,field.header.frame_id,field.image_seq,field.transforms0.fiducial_id,field.transforms0.transform.translation.x,field.transforms0.transform.translation.y,field.transforms0.transform.translation.z,field.transforms0.transform.rotation.x,field.transforms0.transform.rotation.y,field.transforms0.transform.rotation.z,field.transforms0.transform.rotation.w,field.transforms0.image_error,field.transforms0.object_error,field.transforms0.fiducial_area
1682302246326681137,2,1682302246326681137,camera_2,5,0,-1.2405637768652715,0.2924962115632818,1.742377357220864,0.9568240535612511,-0.002584365366536863,0.2818912549975247,-0.07084046822395304,0.3070515483850613,0.04256302632854255,13066.690200726036
1682302246346730709,3,1682302246346730709,camera_2,7,0,-1.2411633060334026,0.295955785702439,1.7432221143750506,0.9568526759652531,-0.0024049551787785114,0.28173199207476657,-0.07109330017875326,0.2980207399232313,0.041402290423612285,13048.677177384954
1682302246366454601,4,1682302246366454601,camera_2,9,0,-1.2408370578103216,0.3003484039203622,1.7428628426355492,0.9565654197362722,-0.0021146137298165106,0.282677994400507,-0.07121290371309157,0.276546340668574,0.03849277990471311,13025.770087627461
1682302246376477718,5,1682302246376477718,camera_2,10,0,-1.240860304366992,0.3028699826315196,1.742929191925507,0.9565950722464405,-0.002401093112674417,0.28255887267723906,-0.07127822933448509,0.29721880523720756,0.04141190862044423,13021.191517287398
1682302246386383533,6,1682302246386383533,camera_2,11,0,-1.2411723143146693,0.3054781328624122,1.743458873260372,0.956663604564789,-0.0024028079312485824,0.2824518592021227,-0.0707807985855972,0.35278135898988694,0.04920255692036861,13012.27608831762
1682302246406449317,7,1682302246406449317,camera_2,13,0,-1.242462579273015,0.3112721226394033,1.745348162357063,0.9569444498850905,-0.0026775428992730395,0.2815584933173986,-0.07053343490133152,0.33282176317879936,0.046572041139159366,12989.3806285339
1682302246426412582,8,1682302246426412582,camera_2,15,0,-1.24195008810336,0.3168580616199638,1.7446545141853729,0.9568486074174097,-0.002622233193263554,0.28194492779457925,-0.07029170696002048,0.2918656967813149,0.040899516235186596,12978.283837808063
1682302246436589717,9,1682302246436589717,camera_2,16,0,-1.241945972702916,0.31950084878174334,1.7447163380312756,0.956783669656277,-0.0027161682118290375,0.28217612949470533,-0.07024431544759058,0.3010465382831171,0.042237298942281454,12966.438242590983
1682302246446191072,10,1682302246446191072,camera_2,17,0,-1.2422182876037617,0.32209085221476935,1.7451499584078614,0.9568433925924968,-0.002628150757566257,0.2820475990392734,-0.06994974447314165,0.29381072393152863,0.04126600726843913,12957.141724791842
1682302246456494092,11,1682302246456494092,camera_2,18,0,-1.2422449024195266,0.32454812348395984,1.7452728810381806,0.9569282286860458,-0.0026842676004126243,0.28168830930596134,-0.07023429540890513,0.30075231642695144,0.04228397368618813,12954.581510894932
1682302246466172695,12,1682302246466172695,camera_2,19,0,-1.2418566109971156,0.32668684416021865,1.7447513536629784,0.9568341047459015,-0.002470183153555521,0.2819636679372473,-0.0704193450244391,0.2904117862926796,0.0408547737574434,12949.642974951774
1682302246476517200,13,1682302246476517200,camera_2,20,0,-1.2414527817558043,0.3285534012273227,1.7441762303945914,0.9566909518094838,-0.002339470126875805,0.2824748631147941,-0.0703199922757941,0.2835846944944933,0.03991129832203457,12942.721730432473
1682302246486812114,14,1682302246486812114,camera_2,21,0,-1.2416081742451501,0.33025715059818805,1.7443922321128595,0.9567669751298206,-0.002421883084421355,0.282139109819567,-0.07063011038842379,0.3043411592952907,0.0428727526028556,12939.37917316892
1682302246497169971,15,1682302246497169971,camera_2,22,0,-1.2418901921768213,0.3317113543926489,1.744801682209792,0.9568324034360323,-0.002375778149370586,0.28197493615734,-0.07040058800944225,0.3076594201847911,0.043369074526917545,12933.465958747314
1682302246507480382,16,1682302246507480382,camera_2,23,0,-1.241380765231715,0.33267478054668154,1.7441314192725463,0.956759982359205,-0.0024411790892455007,0.2822567709243632,-0.070253057357098,0.3188784849480726,0.044940196233463556,12935.636072613996
1682302246526720762,17,1682302246526720762,camera_2,25,0,-1.2416011645753071,0.33375150236335366,1.744502067621713,0.9568246445452315,-0.0025906722859209124,0.2821362810905659,-0.06984988833479543,0.31820382981095463,0.04486245883180019,12931.749950741418
1682302246536322593,18,1682302246536322593,camera_2,26,0,-1.2417163097450916,0.3337344597095237,1.7447097301923005,0.9568508342538061,-0.002663053285566007,0.28203639727488844,-0.06989177167016872,0.32875630498165265,0.04635767893570708,12931.038258072924
1682302246545541048,19,1682302246545541048,camera_2,27,0,-1.2429438924999385,0.3337016520658503,1.7464357628839489,0.9571051824921702,-0.0023707615343512766,0.2813075874251069,-0.0693548152145373,0.3177368784090504,0.04483474816558613,12923.302160072135
1682302246556485176,20,1682302246556485176,camera_2,28,0,-1.2417268206259782,0.3325962708755843,1.744646427300833,0.9568381714914351,-0.002442528497684078,0.28205755589337256,-0.06998773317462231,0.3153431505197659,0.044446836855542425,12933.928989607843
1682302246566596508,21,1682302246566596508,camera_2,29,0,-1.2416643582406086,0.331598594740835,1.7444984495303775,0.9568691173263457,-0.002290519914154314,0.2819173198644605,-0.07013466037603897,0.31345619179774076,0.04415629951490265,12940.675615510205
1682302246576581716,22,1682302246576581716,camera_2,30,0,-1.2415169857469697,0.3302697644339819,1.744273124129047,0.9567682887892206,-0.002358390135066957,0.2821591382167975,-0.07053439078968261,0.32526823121588677,0.04581108302048238,12941.280619034078
1682302246586489200,23,1682302246586489200,camera_2,31,0,-1.2417824597523357,0.3287829047694241,1.7446124171408073,0.9568251163733396,-0.002424144680446076,0.2819563155963488,-0.07057234794907746,0.2953866390744224,0.041588836475653417,12944.35376474913
1682302246596806764,24,1682302246596806764,camera_2,32,0,-1.2423119758362713,0.3270877379104111,1.7453490353969736,0.9568716106672961,-0.0023167928667464197,0.28189737932934583,-0.07017991662173853,0.2742983250063844,0.03860783434182891,12941.98251795466
1682302246606357097,25,1682302246606357097,camera_2,33,0,-1.2422516476048728,0.3249192235970242,1.7452625440343457,0.9569584794298011,-0.0025885389771466835,0.2815814358008331,-0.07025427478601051,0.30496951355598867,0.042879560264771646,12955.356742305681
1682302246616482973,26,1682302246616482973,camera_2,34,0,-1.24231303888733,0.3226189926896802,1.7453260566628717,0.9569036126879883,-0.0025678590482358034,0.2816930081434185,-0.07055445618596139,0.3278654211317189,0.04607766185856352,12957.326457270425
1682302246636418581,27,1682302246636418581,camera_2,36,0,-1.2419818795990927,0.3175703109053372,1.7447379200107003,0.9568309461516762,-0.002655325269850959,0.2820223221398375,-0.07022036420479,0.2953329075826332,0.041399833102156613,12974.329102660762
1682302246646550416,28,1682302246646550416,camera_2,37,0,-1.2420169820009122,0.31502554825464163,1.7447384908965007,0.9568419231224473,-0.0026760084067631216,0.28189070930554655,-0.07059745846388182,0.28503045841353014,0.03992715498733,12981.51152720209
1682302246656331539,29,1682302246656331539,camera_2,38,0,-1.2421778232252072,0.3123154879869584,1.7449286239991526,0.9569779237636459,-0.0028159698801144472,0.2814972230983161,-0.07031811381566526,0.3015651559107937,0.04218764071939751,12994.593277313985
1682302246666731834,30,1682302246666731834,camera_2,39,0,-1.2421400901411268,0.30950916023625596,1.7448462142598964,0.9569506022762492,-0.0025799934445370886,0.2815273555975882,-0.07057787533766889,0.3296848452882841,0.04607855620929758,13001.091746530732
1682302246676588773,31,1682302246676588773,camera_2,40,0,-1.2417425268433346,0.3067020171066265,1.7442616460857725,0.9568406527221923,-0.002521536591398479,0.281932154788153,-0.07045471771213097,0.328311204968486,0.045819625660677016,13009.12741478649
1682302246686419248,32,1682302246686419248,camera_2,41,0,-1.2412112027804316,0.3040193695761393,1.743484229023521,0.9566642093379268,-0.0024311149813406813,0.2824381012604541,-0.0708265431048023,0.30611554539063945,0.042673735604058474,13015.2709075557
1682302246696718931,33,1682302246696718931,camera_2,42,0,-1.2412089376508724,0.30158297387299576,1.7434407056141752,0.9567297917646049,-0.00229827796378231,0.28214559282507606,-0.07111039247426042,0.274118770728819,0.038177071635491874,13025.744599509984
1682302246706553459,34,1682302246706553459,camera_2,43,0,-1.240482672759557,0.29903342476598904,1.7423489560832761,0.9564900771797027,-0.0023703940331195376,0.28282197440400003,-0.07164387121811215,0.2834940729662776,0.039440876504754974,13031.436382039912
1682302246716585397,35,1682302246716585397,camera_2,44,0,-1.2408069740540222,0.29692377815669785,1.7427616441904314,0.9567044127508688,-0.0023593447024602096,0.28218310720213835,-0.0713007301879645,0.29729804990347475,0.04131646137417533,13043.829871685939
1682302246726394653,36,1682302246726394653,camera_2,45,0,-1.2411240493115452,0.2950430490557725,1.743173820750594,0.9568806093503983,-0.0023682764687170633,0.28168017255263583,-0.0709236991878984,0.3153524005319923,0.04378490209571279,13053.280444497475
1682302246736476421,37,1682302246736476421,camera_2,46,0,-1.2408957399939204,0.29335033273249655,1.7428296360962823,0.9568489670726424,-0.00251548778158302,0.2818030121421183,-0.07085752522398138,0.29211249185027555,0.040521876681376544,13059.67978515337
1682302246746425151,38,1682302246746425151,camera_2,47,0,-1.241085092387187,0.29200551887550785,1.743088882912333,0.9569188073613486,-0.002598074986366404,0.2815257379056124,-0.07101341437503116,0.3082749909372069,0.04275321754898498,13063.42950910679
1682302246756740093,39,1682302246756740093,camera_2,48,0,-1.240204826176149,0.29068897167132385,1.7418629287413174,0.9567443697522099,-0.0024773928068517444,0.28218606200010066,-0.07074673056193126,0.31154529826017097,0.04314001145869365,13072.638227412244
1682302246766485929,40,1682302246766485929,camera_2,49,0,-1.2398782629398437,0.28985271386309924,1.741406600656415,0.9566698606448145,-0.002558883718622181,0.2824976183131407,-0.07050762721400346,0.2943223952315748,0.0407247994271929,13076.122117230205
1682302246776568889,41,1682302246776568889,camera_2,50,0,-1.239483394831327,0.28934189974619695,1.7408403906356575,0.9566745621048266,-0.00259534643183333,0.282438536674892,-0.07067898838680933,0.29425793938571587,0.04068824526420033,13085.752295073122
1682302246796704530,42,1682302246796704530,camera_2,52,0,-1.2396680626985639,0.2895885419092233,1.7410833374242618,0.9566468370373149,-0.002719364468867612,0.28246762665993574,-0.07093288470441282,0.29288968985201785,0.04052448394003969,13079.853700952604
1682302246816941022,43,1682302246816941022,camera_2,54,0,-1.2401088642656177,0.29116175524112686,1.7417172588803203,0.9567379235727657,-0.0026926546603260105,0.2821766663532829,-0.07086341915474635,0.31048107624519616,0.04299938945067519,13073.34255176131
1682302246836504459,44,1682302246836504459,camera_2,56,0,-1.2407833222386047,0.2940515902693368,1.742701130439989,0.9568170165263944,-0.002533445132729351,0.28193356802157293,-0.07076893219424732,0.29872575803892687,0.04144435307150596,13058.198527976407
1682302246846723794,45,1682302246846723794,camera_2,57,0,-1.241079611103319,0.29591133911378825,1.7431271720594792,0.9567914978839143,-0.002405971708081069,0.28195785400212997,-0.07102119010344257,0.3142190631479025,0.04365199678249781,13046.363158237189
1682302246856472969,46,1682302246856472969,camera_2,58,0,-1.2406189003666863,0.29794056891337,1.7425319390631993,0.9566289230364058,-0.0022105995919438934,0.28250520302492654,-0.07104243185234901,0.27758956915931776,0.03858074243712797,13040.111770309737
1682302246866859674,47,1682302246866859674,camera_2,59,0,-1.2407420950181522,0.3003257155721734,1.7427118198853813,0.9565556771878926,-0.002254801863598691,0.28266524186955405,-0.0713898686579157,0.2807317931437865,0.03907582930641479,13027.333452368151
1682302246876510143,48,1682302246876510143,camera_2,60,0,-1.240894820479732,0.3028629394968643,1.742965977511681,0.9565904911281092,-0.0023511515925003653,0.2825786170323163,-0.07126310101009681,0.3011375942733139,0.04195987253134249,13020.151269903874
1682302246886668205,49,1682302246886668205,camera_2,61,0,-1.2415249884052082,0.30556624434383767,1.7439697658633433,0.9568015660698058,-0.002494973253798943,0.281950861502565,-0.07091015422907432,0.3316455634776503,0.04626879853885773,13013.925138098191
1682302246896653413,50,1682302246896653413,camera_2,62,0,-1.2421940071100586,0.30839465419570183,1.7449547219871828,0.9569838515721208,-0.0026362469269756083,0.2814463061344207,-0.07044810001425855,0.3202750630443916,0.04474175241223058,13004.825791891435
1682302246906332254,51,1682302246906332254,camera_2,63,0,-1.2428280085552952,0.3113881247558143,1.7458655199552533,0.9570237615842504,-0.002694185174380266,0.2813336079257541,-0.07035383558027201,0.32977067853789777,0.04615778280439857,12986.764185681937
1682302246916701555,52,1682302246916701555,camera_2,64,0,-1.2422462438068986,0.31413855632120463,1.745095360985476,0.9568728360511896,-0.0026580187324469636,0.28193509487147905,-0.06999937745138349,0.28261271986411884,0.03956948736150702,12981.200044828935
1682302246926428556,53,1682302246926428556,camera_2,65,0,-1.2417585082161986,0.31681170822755916,1.7444072663745662,0.9567701586307894,-0.0027684388219069893,0.2822162531347687,-0.07026511059320734,0.3037415163125843,0.04256094281174149,12977.073133922653
1682302246936411857,54,1682302246936411857,camera_2,66,0,-1.2417930384321842,0.3194646095410428,1.7444859732840081,0.9567607544491429,-0.002697274205451492,0.28225261426730824,-0.07024987684713548,0.3009285606676713,0.04221255804651567,12968.223915890558
1682302246946460962,55,1682302246946460962,camera_2,67,0,-1.2419237789880513,0.32200688873855765,1.7447174586520477,0.9567886256808146,-0.002714858235039485,0.28217174539996887,-0.07019445427180934,0.31417756399605423,0.04411954666187899,12959.977110241534
1682302246956645011,56,1682302246956645011,camera_2,68,0,-1.2420568569272874,0.3244757638511932,1.7449791076757768,0.9568433555239415,-0.0025570541080169105,0.28194676143257574,-0.07035821332051535,0.3226589069818147,0.04536240843692296,12953.162956178188
1682302246966645002,57,1682302246966645002,camera_2,69,0,-1.2418853022511023,0.32668591717510104,1.744761911450442,0.9568268368666814,-0.0025274976356223,0.28197802363152497,-0.07045857077930416,0.2911245806608349,0.04095870867530219,12948.751413171874
1682302246976405620,58,1682302246976405620,camera_2,70,0,-1.241756734960557,0.32863989510334635,1.7446093007303602,0.9567973319403884,-0.002316096292159961,0.28209880047807406,-0.07038300972927643,0.2910268812556751,0.04096864449743069,12943.286404099777
1682302246986228942,59,1682302246986228942,camera_2,71,0,-1.2419244206350144,0.33034890923699656,1.7448443290052689,0.9568733135717806,-0.0022291806675657005,0.2818156330145087,-0.0704871727078331,0.3027098109596409,0.04264633171290157,12939.664727484806
1682302246996937036,60,1682302246996937036,camera_2,72,0,-1.2416488926864895,0.3316516831246386,1.7444676784870783,0.9568238850144423,-0.0022600615752849966,0.28201981944587373,-0.07034036271773292,0.31422538368497044,0.04427566170975117,12937.898448868886
1682302247006501674,61,1682302247006501674,camera_2,73,0,-1.2417354563214116,0.3327691742866884,1.7446316029230593,0.9568257308066074,-0.0025449937605349104,0.28204972127732975,-0.07018545861174777,0.3226799129042775,0.04549285881234094,12932.55876253499
1682302247016596555,62,1682302247016596555,camera_2,74,0,-1.2424257593397734,0.33368631556868844,1.7456423076147443,0.9570137211381348,-0.0023520936594382787,0.28148719809046496,-0.0698867835855746,0.3138467622920871,0.044276557949938004,12927.960894058682
1682302247026540040,63,1682302247026540040,camera_2,75,0,-1.2413177487769196,0.33368769807893567,1.7441347554433786,0.9567808997160913,-0.0026618978782873416,0.28226446837157754,-0.06992849299865865,0.3116065683425404,0.04392142342830621,12934.598681006588
1682302247036546707,64,1682302247036546707,camera_2,76,0,-1.241706421765798,0.33373875117748825,1.7447014894600736,0.9568418904206242,-0.0025670555199333797,0.2820709233096947,-0.06987847440707504,0.31792892632074654,0.04483016890286037,12930.5438962013
1682302247046677827,65,1682302247046677827,camera_2,77,0,-1.2423483280586174,0.3335466979800241,1.745584179571452,0.9569643403361857,-0.0023712142785116794,0.28175122107060946,-0.06949732435853084,0.31922347826184705,0.04502274688479804,12926.576349257022
1682302247056723356,66,1682302247056723356,camera_2,78,0,-1.2415955699846637,0.33257510952283287,1.7444703932035632,0.9568356845156042,-0.002432921922186483,0.2820864218888626,-0.06990568156033232,0.30391300085466355,0.04282476191344195,12936.420659318097
1682302247066499471,67,1682302247066499471,camera_2,79,0,-1.2417386540049646,0.3316108500676623,1.7446246910545304,0.9568725172548781,-0.0023596784088458253,0.28190938923188974,-0.07011785723353797,0.3051540705491788,0.04299200663277026,12939.258047847545
1682302247076717615,68,1682302247076717615,camera_2,80,0,-1.241564441632407,0.3302696587378027,1.744309919517689,0.9567958942027366,-0.002329399780692016,0.28207947133297334,-0.07047951891122549,0.2986855520866811,0.04206424803307735,12942.242832015736
1682302247086717367,69,1682302247086717367,camera_2,81,0,-1.241755830397444,0.32877010327876927,1.744572493797426,0.956814954146818,-0.002415205413984466,0.2819438120637838,-0.07076013809181372,0.2962130117812194,0.041709518501166054,12944.281301494222
1682302247096635103,70,1682302247096635103,camera_2,82,0,-1.2418776804448544,0.3269660408526487,1.7447106967929498,0.9568102013544024,-0.0023471330192042328,0.2820747474055701,-0.07030338844481167,0.30299610004294664,0.04262791648939441,12947.22305500949
1682302247106525182,71,1682302247106525182,camera_2,83,0,-1.2423331604579935,0.3249251612768265,1.7453655088191509,0.9569450598321539,-0.002462162375233266,0.2816720045997251,-0.07007832791987792,0.3023796117049642,0.04251559143840445,12952.896078091584
1682302247116611957,72,1682302247116611957,camera_2,84,0,-1.2422889554059675,0.3226141364258757,1.7453403679465942,0.9569290332148407,-0.00254922758418857,0.2816454997381664,-0.07039985302877202,0.3206887753913179,0.04505989076799603,12959.314348542128
1682302247126498222,73,1682302247126498222,camera_2,85,0,-1.2417932056352963,0.32001385284487116,1.7445773923955947,0.9567566177905746,-0.0026809234579735796,0.2823534249241739,-0.06990086120314826,0.3026902005658485,0.04246105403620909,12965.897752571385
1682302247136605978,74,1682302247136605978,camera_2,86,0,-1.2421664260181193,0.3176129575443822,1.744992612050851,0.9568738968909206,-0.0026325558193973095,0.281882763149084,-0.0701963171261789,0.3052884496864863,0.04280230027939767,12973.29978233762
1682302247146450281,75,1682302247146450281,camera_2,87,0,-1.241762612769164,0.31493268286616916,1.7443848494720626,0.9567956215926842,-0.0026092549475712624,0.2821314676684682,-0.07026496453371053,0.2981769447796978,0.04174663313712787,12983.827942658445
1682302247156723260,76,1682302247156723260,camera_2,88,0,-1.242246914320718,0.31232450624825,1.7450264762917362,0.9569736437101862,-0.002945431513440271,0.2814225772633373,-0.07066896549200435,0.3054161589243449,0.04274232623852644,12993.08336781105
1682302247166587352,77,1682302247166587352,camera_2,89,0,-1.2423024500298123,0.30956250681208036,1.7450717537766052,0.9570129536906791,-0.0027328527123346527,0.28128377768412083,-0.07069776797074452,0.3255473310709931,0.0455099853115262,13001.782659732733
1682302247176682233,78,1682302247176682233,camera_2,90,0,-1.2414936958324305,0.3066556011567107,1.7439447335451275,0.9567936293274886,-0.0025164398847954002,0.2820351927772139,-0.0706807501640881,0.33903984195785597,0.047312069418849384,13011.134582698345
1682302247186520576,79,1682302247186520576,camera_2,91,0,-1.2410390427222016,0.3039810199436773,1.7432579197464424,0.9566837866718443,-0.002382877270151829,0.28233180965731963,-0.07098734725822402,0.29587847442599013,0.04123756987123053,13020.017652627543
1682302247196942567,80,1682302247196942567,camera_2,92,0,-1.241229622130934,0.30158544697656736,1.7434531101985524,0.9566437741529623,-0.002220361922923778,0.28239026475624657,-0.07129865172781426,0.2691594903008081,0.03749987909489115,13019.792945807796
1682302247206450223,81,1682302247206450223,camera_2,93,0,-1.2409021053378992,0.29911223160025363,1.7429549277782943,0.9566351822333934,-0.0021454629634253034,0.28238522913243874,-0.07143603761250232,0.2784103490994312,0.03873741548610263,13032.009409472354
1682302247216660499,82,1682302247216660499,camera_2,94,0,-1.2411741942722794,0.2970025322738834,1.7432832062459547,0.956796688957313,-0.002331911523855266,0.2818857078835358,-0.07123977737167449,0.2900927384616807,0.040327209495240726,13042.10677761026
1682302247236744642,83,1682302247236744642,camera_2,96,0,-1.2411106223814288,0.2934020709619336,1.7431130776305965,0.9568912697580966,-0.0024585577072922644,0.28168432554563205,-0.07076011656745586,0.2900331717100926,0.040239141291457815,13058.040785176214
1682302247246553897,84,1682302247246553897,camera_2,97,0,-1.2405998032726722,0.29186543723558084,1.7423989902675545,0.9568074890704389,-0.0026057861006216995,0.28194185613015693,-0.07086203849312867,0.3110326025635004,0.04310993343627736,13066.340055536011
1682302247266605854,85,1682302247266605854,camera_2,99,0,-1.2403277755523407,0.2899623600197563,1.7420415915762497,0.9568052939485934,-0.0026536309624050946,0.28196695367317415,-0.07079000459762216,0.2975624683313072,0.0411973639157251,13075.602343202565
1682302247286319017,86,1682302247286319017,camera_2,101,0,-1.2401237833093952,0.2893666696243049,1.7417314711269793,0.9567639465418133,-0.0025857788209744615,0.2822101722286629,-0.07038098490566828,0.3008238482289016,0.04161894602949438,13078.35633865371
1682302247296422004,87,1682302247296422004,camera_2,102,0,-1.2392156314919327,0.28945479047174044,1.7404441472225396,0.956582106439136,-0.0027066413411689426,0.2827558354319426,-0.0706575209181585,0.30311632878147066,0.041907819973652345,13085.106039420003
1682302247306202173,88,1682302247306202173,camera_2,103,0,-1.240796036341654,0.2903838016868751,1.7426507222016854,0.9569424559487257,-0.0025115981286627335,0.281463831180822,-0.07094321401427313,0.2943656189017929,0.04077704714698465,13074.392345367694
1682302247316598176,89,1682302247316598176,camera_2,104,0,-1.2402301718113007,0.29120239976054446,1.7418697408645707,0.9567124735290801,-0.002680353133588981,0.28225043497206376,-0.07091368456813923,0.2976768299122341,0.041237856546338096,13069.183289485049
1682302247336635351,90,1682302247336635351,camera_2,106,0,-1.240926916793811,0.2940942885674716,1.7428915210407854,0.9568004337214466,-0.002476206075185991,0.28196766376573074,-0.0708592620933964,0.2871529976837337,0.03985147919237004,13054.116182473255
1682302247346628427,91,1682302247346628427,camera_2,107,0,-1.241198323848541,0.29594664735906706,1.74328509371603,0.9568789126708952,-0.0024298720339634037,0.2816550523752157,-0.07104416710172869,0.30490256601478904,0.042356832889746225,13049.607798564488
1682302247356744289,92,1682302247356744289,camera_2,108,0,-1.2406517803807235,0.29795271236514626,1.7425637790752435,0.956582897330063,-0.00220272767583877,0.2826749514446665,-0.07098718442200515,0.28325310425134376,0.03937292153801703,13036.499335492032
1682302247366410493,93,1682302247366410493,camera_2,109,0,-1.2407800923275603,0.300340448939109,1.7427846240614833,0.9566004995324284,-0.0022184985630243266,0.2825950380066067,-0.07106762309574467,0.27803028223570436,0.038689036172491705,13029.330157934219
1682302247376291990,94,1682302247376291990,camera_2,110,0,-1.2410738950809048,0.30290385992225727,1.7432297455416679,0.9566986723609675,-0.002372000753992769,0.2822017044962272,-0.07130372987866468,0.2907212903373875,0.040509523114719,13023.515727458285
1682302247386341333,95,1682302247386341333,camera_2,111,0,-1.2411501713392932,0.3054556153996259,1.7434362623335742,0.956665861075778,-0.002569671413732174,0.2824553906666294,-0.07073032817913055,0.3314169368823059,0.04622074337882704,13012.895849458877
1682302247396335840,96,1682302247396335840,camera_2,112,0,-1.2419513858005984,0.308338434493416,1.744631448901401,0.9568935024213845,-0.0027036758002854217,0.2817272023734066,-0.07054997238664552,0.31558775954181334,0.044084536610293025,13003.902833805423
1682302247406511783,97,1682302247406511783,camera_2,113,0,-1.2421476293628626,0.3112208383219876,1.7449067779920124,0.9569328722916903,-0.0026013150920219394,0.2816850968485366,-0.07018701661132178,0.33540712750982493,0.04690012394461,12995.10766375484
1682302247416455745,98,1682302247416455745,camera_2,114,0,-1.2422200601542426,0.3141210287216794,1.7450356456697658,0.9568532436008995,-0.0026612524022771875,0.2818946097409097,-0.07042880763657326,0.2821425467845984,0.03951531576917448,12980.556716421384
1682302247426586866,99,1682302247426586866,camera_2,115,0,-1.2415967331870545,0.31675461628775015,1.7441852403345823,0.9567737980665806,-0.0025525250595615496,0.28220691982724955,-0.07026121512389938,0.29055212705861777,0.04069957046407982,12980.595087085614
1682302247436758041,100,1682302247436758041,camera_2,116,0,-1.242139927045883,0.31952020343439186,1.744991241191661,0.956826087603325,-0.002876876076975536,0.28212617424213254,-0.06985974143417638,0.31151095242239535,0.043703844893924815,12965.322690763509
1682302247446722030,101,1682302247446722030,camera_2,117,0,-1.2420965665311263,0.3220582303951184,1.744977362602616,0.9568585670607167,-0.0026987259319712076,0.28194119786875455,-0.07016808722765608,0.28529739315854385,0.04006727758301726,12960.66703925841
1682302247456434726,102,1682302247456434726,camera_2,118,0,-1.2422861407288495,0.32456110379978503,1.7453109930874227,0.9569610368163967,-0.0025493266848822284,0.28157059353122205,-0.07026432812755229,0.30346353218192235,0.04266350618705983,12955.900395832497
1682302247466251373,103,1682302247466251373,camera_2,119,0,-1.2419329511979464,0.3266949961704463,1.7448236930241436,0.9568821725733806,-0.002362876384161577,0.2818680366777756,-0.07015222395516961,0.28607227746397257,0.040234846789291456,12951.376992541365
1682302247478101968,104,1682302247478101968,camera_2,120,0,-1.241840936918342,0.32864326355939205,1.7447196805754308,0.9567987252302107,-0.0022539597184467325,0.28211532834814923,-0.07029979071410782,0.2852334280614741,0.04015481677924159,12941.7529357744
1682302247487745046,105,1682302247487745046,camera_2,121,0,-1.241764014110808,0.3302835224028219,1.7446265337619067,0.9568476488306346,-0.0023322563174234816,0.2818983587729618,-0.07050143848792731,0.2995391037547961,0.042193059842667927,12941.33521432406
1682302247498025417,106,1682302247498025417,camera_2,122,0,-1.2417336606223324,0.3316567959515673,1.7445893075830552,0.9568301776604479,-0.0023058880080132323,0.2820317097855789,-0.07020547467394066,0.3122184332460165,0.04399431650564251,12936.605651630784
1682302247507116079,107,1682302247507116079,camera_2,123,0,-1.241475804081188,0.332679144527459,1.7442645256496978,0.9567864784481892,-0.002570729708852799,0.2821309467852639,-0.0703928609556927,0.3274201558670029,0.04615327396962056,12935.453083229484
1682302247516753911,108,1682302247516753911,camera_2,124,0,-1.242160783366116,0.3336065491244904,1.7452933257810184,0.9570025081393814,-0.0024947410290504326,0.2814960947621625,-0.06999945939636154,0.30879393831128255,0.04355175237086954,12932.607076599958
1682302247526670217,109,1682302247526670217,camera_2,125,0,-1.2414088223628283,0.3336974351602531,1.744271082414819,0.9568235282221931,-0.0026618036519793684,0.28210907875871,-0.06997226824724466,0.3097142249462195,0.04365713321444056,12935.487122647233
1682302247536645889,110,1682302247536645889,camera_2,126,0,-1.2415933784274613,0.3337044319762075,1.7445257558930098,0.9567978181453057,-0.0027460642323053784,0.2822416299132351,-0.06978579130120163,0.3039439365384169,0.042853966077234525,12930.186782415956
1682302247547042369,111,1682302247547042369,camera_2,127,0,-1.242659936909983,0.33363101098202774,1.7460297819610497,0.9570307069880446,-0.002419581663331266,0.28152122832031246,-0.0695138080640151,0.32609239901648834,0.046007659342378944,12924.370111871505
1682302247556543827,112,1682302247556543827,camera_2,128,0,-1.2416932908891911,0.3325915942091417,1.7445995641731205,0.9568293763941779,-0.002420395415045249,0.2820417758202928,-0.07017209450557571,0.3098142643575557,0.043671839407885486,12933.923882648814
1682302247566807985,113,1682302247566807985,camera_2,129,0,-1.24169108242095,0.3315953056721238,1.744540199868904,0.9568066179879715,-0.0024643078278060466,0.2820482283656298,-0.07045438124885953,0.3346885710489005,0.04716971211361996,12936.076078472892
1682302247575801610,114,1682302247575801610,camera_2,130,0,-1.241744609237894,0.3303164467272658,1.7445698281896833,0.956825344202115,-0.0023843776148084216,0.28197331088546806,-0.07050267643275207,0.3118681796477176,0.04393157563451261,12940.393941101622
1682302247586728096,115,1682302247586728096,camera_2,131,0,-1.2415016048513485,0.3287102052728095,1.7441945697417078,0.9567045411921969,-0.0024752972507265767,0.28239403653263556,-0.07045496360479539,0.2811235632398166,0.03957228512003941,12942.521900397256
1682302247596708297,116,1682302247596708297,camera_2,132,0,-1.2422706908570764,0.32706639453705366,1.745267955303094,0.9569290143883105,-0.0022994542717448252,0.28171910923458693,-0.07011360370099232,0.2955816994071938,0.04159181688336318,12946.760649818698
1682302247606492042,117,1682302247606492042,camera_2,133,0,-1.242200440021267,0.3248888123413291,1.745199237328532,0.9569563737394727,-0.002674547006688942,0.28158418733808044,-0.07026870568653229,0.2908868848462589,0.040897232509304646,12956.31058734702
1682302247636666774,118,1682302247636666774,camera_2,135,0,-1.2417556259268019,0.317528611909548,1.7444040717130287,0.9568105209242126,-0.002669658873463324,0.2820636006991268,-0.07033224815744073,0.27248783042887226,0.03818871992422462,12977.624582420569
1682302247656764268,119,1682302247656764268,camera_2,137,0,-1.2418134749503196,0.3122089281772573,1.744421278507757,0.9568877434475608,-0.002732370553114057,0.28177740426847575,-0.07042638024714683,0.30887935461942106,0.04319809458653548,12996.368383737747
1682302247676470994,120,1682302247676470994,camera_2,139,0,-1.2414576606957706,0.3066478463896067,1.7438967551369378,0.9567397722013204,-0.002668299202859963,0.28229819834440695,-0.07035350509414187,0.34159093705238774,0.047663463335030784,13008.324587744653
1682302247696620225,121,1682302247696620225,camera_2,141,0,-1.2412282008849895,0.3015612616405592,1.7434643162957095,0.9566870041611432,-0.002149526038340073,0.2822180938561961,-0.07140240267079845,0.28178302600281313,0.03925624468036542,13022.64911657805
1682302247726636171,122,1682302247726636171,camera_2,143,0,-1.2412195712898535,0.2950544174825441,1.7432967097249648,0.9568784599387581,-0.0024099367833076363,0.28172356742619614,-0.07077878684032844,0.31458871404174715,0.04368157992338819,13051.18194590346
1682302247746536016,123,1682302247746536016,camera_2,145,0,-1.2411039260139587,0.2920261892893627,1.7431090218562935,0.9569511592211798,-0.0025836478910702047,0.2814594550998725,-0.070840516399149,0.3074129175511189,0.04262642876389745,13065.07656980492
1682302247756556034,124,1682302247756556034,camera_2,146,0,-1.239915064460671,0.2906086619117265,1.741447685376705,0.9566886605749184,-0.0025050334142824792,0.2824201140068808,-0.07056493987315844,0.30928305617999285,0.042807391844110455,13075.156430492645
1682302247776419401,125,1682302247776419401,camera_2,148,0,-1.2395504250140317,0.289361938507313,1.7409367454635685,0.9566912189595246,-0.0024917651294520432,0.28242001661157673,-0.0705311058285308,0.3038096128148027,0.042006636501723184,13085.38351010065
1682302247796626329,126,1682302247796626329,camera_2,150,0,-1.2398495891911305,0.28962358854441594,1.741329040093826,0.9567080332314537,-0.0027406092158958834,0.28229970567865903,-0.07077502656496823,0.2870076227118261,0.03971150071212962,13080.060135053476
1682302247806464195,127,1682302247806464195,camera_2,151,0,-1.2406562365703104,0.29035548872313505,1.7424751143217116,0.9568952484923724,-0.0026666743332146403,0.2816074729114414,-0.07100424959925629,0.30391007743310183,0.042098860466999934,13074.154253375484
1682302247816830873,128,1682302247816830873,camera_2,152,0,-1.2403998705517212,0.2912437774157635,1.7421245849724294,0.9567725645213245,-0.0027760786933012462,0.2820358777403686,-0.07095291983841433,0.31208365625934675,0.04324149071750012,13069.470361854648
1682302247826492071,129,1682302247826492071,camera_2,153,0,-1.240353413071272,0.2924403617629909,1.7420908920350742,0.9567779259404156,-0.0026060570432584586,0.2821073756330477,-0.07060196536413539,0.29862801160197705,0.04137991005880523,13067.981408220718
1682302247836698293,130,1682302247836698293,camera_2,154,0,-1.2409007818047124,0.29408716820143216,1.7428692268846584,0.9568521127661027,-0.002566386441969943,0.2818452522695082,-0.07064489881663995,0.30200108635472134,0.041899876735956486,13057.96951778489
1682302247846554994,131,1682302247846554994,camera_2,155,0,-1.2408090958027467,0.295871862789399,1.742745027336233,0.9567364853521528,-0.0023837520580206263,0.2821708964912651,-0.07091685621523076,0.30395585583755746,0.04221097799783641,13048.34946168866
1682302247856746912,132,1682302247856746912,camera_2,156,0,-1.2407559607952834,0.2979939297007477,1.742729654675675,0.9566590990566124,-0.0020359398070238324,0.2824393919472887,-0.07090284209916349,0.2866670851362869,0.03984285316246238,13039.159214180429
1682302247866682767,133,1682302247866682767,camera_2,157,0,-1.2409834995095652,0.3003954421127036,1.743061147844315,0.9566362332330766,-0.0021887853209332166,0.2823717023954639,-0.07147410839414109,0.290937778132502,0.040505960592620335,13027.421120966317
1682302247876488447,134,1682302247876488447,camera_2,158,0,-1.2407723825838213,0.3028288647900716,1.7428213475963823,0.9566183492069869,-0.002332865328242966,0.28255203638911947,-0.07099463664405463,0.304245283419732,0.042373798677929,13024.425541239558
1682302247886659860,135,1682302247886659860,camera_2,159,0,-1.2413480598841478,0.3054978299791051,1.7437193032274583,0.9567974417310601,-0.0025377410876795807,0.2819486949957901,-0.07097287339006056,0.3222381833475083,0.04494568821538233,13017.464157832084
1682302247906831026,136,1682302247906831026,camera_2,161,0,-1.2424071635868938,0.3113231969642394,1.7452745752386292,0.9569873736169388,-0.0026283828676568317,0.2814760885430104,-0.07028136253504481,0.3076191505533643,0.043029873827175893,12993.040829366775
1682302247916598796,137,1682302247916598796,camera_2,162,0,-1.24228484853341,0.31416794075984755,1.745142354397519,0.956888787118536,-0.0026334492329670367,0.2818002364502761,-0.07032453887884978,0.2769748571445234,0.038789644997106534,12981.33339956775
1682302247926784992,138,1682302247926784992,camera_2,163,0,-1.241619327753164,0.31676824948238264,1.7442278156690227,0.956769006977397,-0.0026143011772800538,0.2822492531087902,-0.07015405787529609,0.297838143655099,0.04172000742653985,12979.80418017902
1682302247936363458,139,1682302247936363458,camera_2,164,0,-1.2420481098124616,0.3195052651673325,1.744848347098688,0.9567728862115628,-0.0027813926822475494,0.28219125853360694,-0.0703278157798327,0.28629873326281086,0.04017824331340996,12963.68372643739
1682302247946511983,140,1682302247946511983,camera_2,165,0,-1.2419558790262042,0.32203072280572304,1.7448038130167993,0.9568371843311366,-0.002645472584136515,0.2819830808367987,-0.07029328757325763,0.27790350723080337,0.039025357054715416,12962.094080813233
1682302247956571102,141,1682302247956571102,camera_2,166,0,-1.241941388688052,0.3244704448414175,1.744854047260994,0.9568657083122786,-0.0025557025918106872,0.281884367366894,-0.07030425360153844,0.3135202305857092,0.04406607270389922,12956.7835847931
1682302247966593027,142,1682302247966593027,camera_2,167,0,-1.2419850576927294,0.32672737524376927,1.7449266583088452,0.9568143912182266,-0.002382968007493235,0.28210106698584114,-0.07013936289003203,0.27587171539198607,0.038811059005039825,12945.684038053496
1682302247976501464,143,1682302247976501464,camera_2,168,0,-1.2419635424988482,0.3286784111411168,1.7448945560910976,0.9567571255301055,-0.002285654548097017,0.2822286298279325,-0.07041007766012423,0.2915483822580427,0.04106025745667588,12936.447486516325
1682302247996552467,144,1682302247996552467,camera_2,170,0,-1.2418046049321119,0.3316793554560747,1.7446878667251742,0.9568084064929188,-0.00233503689683597,0.28207179991367487,-0.07034003526180435,0.3020055560627952,0.0425667557437214,12933.673882817384
1682302248016689300,145,1682302248016689300,camera_2,172,0,-1.2424172418088173,0.33368427448434895,1.7456515899389402,0.9570217490635977,-0.002404462613252293,0.2814664215509933,-0.06985874260300147,0.29771848337259144,0.04199983473106483,12928.513428843107
1682302248036677598,146,1682302248036677598,camera_2,174,0,-1.2414043802776475,0.33366026791941183,1.7442911168171427,0.9567899337457756,-0.0026761158698929794,0.28225194540050835,-0.0698548524029205,0.3199564691167325,0.04510142073504626,12933.380352010714
1682302248056745767,147,1682302248056745767,camera_2,176,0,-1.241723167385285,0.3326108724501206,1.7446440735821052,0.9568555805043633,-0.0024232041260495,0.2819971967583563,-0.06999362227982191,0.3100909016793594,0.043704578857366116,12935.035505586306
1682302248066383600,148,1682302248066383600,camera_2,177,0,-1.2416490907123978,0.3315775571545249,1.7444688493636822,0.9568518034158154,-0.002345396353410703,0.28188834522739037,-0.0704846525196151,0.30878608842613176,0.043510088021122925,12939.852412322536
1682302248086517333,149,1682302248086517333,camera_2,179,0,-1.241355938547218,0.3286567787771022,1.7439929925659412,0.9567318032380119,-0.002427719879522642,0.2822472606369515,-0.07067422947627611,0.2821055040694773,0.03970396340636232,12947.234245187605
1682302248096678495,150,1682302248096678495,camera_2,180,0,-1.2421586386251526,0.3270294876257019,1.745111724299861,0.9568866070381629,-0.0023016126551839255,0.2818832297274912,-0.07003262560104967,0.29341322026448324,0.041281768860334474,12946.322355399605
1682302248106495141,151,1682302248106495141,camera_2,181,0,-1.2418831980028913,0.3248145015485527,1.7447640550758832,0.9568505068239729,-0.0025212222817150697,0.28194222712758515,-0.07028037842278372,0.31239256547996774,0.043910382837000245,12955.950053535176
1682302248116782665,152,1682302248116782665,camera_2,182,0,-1.2422415250442258,0.32259023943812226,1.7452413306831513,0.9569207909897152,-0.0026322510127807742,0.28169542702093786,-0.070309013801326,0.3198749425355345,0.044940397370364475,12959.964636402445
1682302248126409053,153,1682302248126409053,camera_2,183,0,-1.2423121465940796,0.3201453267387018,1.7452844612330805,0.9568882933100343,-0.0028087951265193542,0.28180380928978493,-0.07031015478516164,0.307845349481795,0.04321822025658131,12963.709909627214
1682302248136601924,154,1682302248136601924,camera_2,184,0,-1.2416798436694962,0.3174937715045478,1.7443146259437763,0.9567893787236075,-0.002570350756805522,0.28215291494880246,-0.07026528762179718,0.30721430020639673,0.04305010259849032,12977.863466128241
1682302248146260738,155,1682302248146260738,camera_2,185,0,-1.2421665477871593,0.3150550887478245,1.74494670910007,0.9569014721033361,-0.002732056245078848,0.28177170602205315,-0.07026246679816911,0.27786203456344083,0.038917711708472004,12982.262989064213
1682302248156306743,156,1682302248156306743,camera_2,186,0,-1.2414781832949187,0.3121250511149673,1.74395369418587,0.9567377046273475,-0.0027426201060420322,0.2822600349574331,-0.07053166129602324,0.3103773930342868,0.043404535677473634,12993.654444364833
1682302248166228771,157,1682302248166228771,camera_2,187,0,-1.2422779592744002,0.309517535060466,1.745029245160838,0.9569840593191697,-0.0027328796635841114,0.28143623287058306,-0.07048183032075041,0.3385793222114444,0.04732608156407171,13000.522084586792
1682302248176367759,158,1682302248176367759,camera_2,188,0,-1.241502961189414,0.3066491559628962,1.743954952701005,0.9568047330867564,-0.00267340680098244,0.28203575550111193,-0.07052225363510603,0.318469371937681,0.04443718906302121,13011.70762896352
1682302248186153411,159,1682302248186153411,camera_2,189,0,-1.2414773998276816,0.30410123582324505,1.743860922120736,0.9566965267902846,-0.002489485403578228,0.28225474944018214,-0.07111831345224577,0.2900183834717609,0.04045233853403497,13011.768797086315
1682302248195987462,160,1682302248195987462,camera_2,190,0,-1.2409980957452458,0.3015256410428662,1.7431467246098986,0.9566474341007979,-0.0021629686389608442,0.28241996708803246,-0.07113347021635501,0.2817793137510307,0.03923885128062838,13024.715100459529
1682302248206574916,161,1682302248206574916,camera_2,191,0,-1.2406262857344623,0.2990338291425135,1.7425748450853173,0.9565300320161522,-0.0023146474767297386,0.28274145123334327,-0.07142976979313677,0.281966230366379,0.03922689478919462,13030.965787834491
1682302248216639518,162,1682302248216639518,camera_2,192,0,-1.240656837783879,0.296885693196553,1.7425466719628824,0.9566706732462982,-0.002495913066742978,0.2822563386623969,-0.07145874791329733,0.2849031628575176,0.039593211397714885,13044.809429703051
1682302248226816415,163,1682302248226816415,camera_2,193,0,-1.2415752430198401,0.295152930606843,1.7437993905586755,0.9569399090067534,-0.002507257704843509,0.2814808755735365,-0.07091009022207757,0.2961569798644632,0.04114395756070897,13047.679554084083
1682302248246780633,164,1682302248246780633,camera_2,195,0,-1.2405812219109984,0.2918757001311901,1.7423999739644116,0.9568050271798125,-0.0026779714950771532,0.28188723112564407,-0.0711094744772266,0.3208552725845948,0.04447935017774689,13066.512548263421
1682302248266536474,165,1682302248266536474,camera_2,197,0,-1.2401182359432794,0.28991658195833214,1.7417483495048587,0.9567115234020692,-0.002641346365682746,0.28232682291990846,-0.07062329176000784,0.29479761264519766,0.040806081272432945,13073.808385357264
1682302248286409616,166,1682302248286409616,camera_2,199,0,-1.2397635185848292,0.28927942836678056,1.741243731845913,0.956732480606952,-0.0025240407485312196,0.28230607763407134,-0.07042633243917866,0.3194350164849311,0.04417292985093142,13083.849126611374
1682302248306539058,167,1682302248306539058,camera_2,201,0,-1.2407386893917316,0.29037158110410766,1.7425742161191722,0.9568105038114095,-0.002634586302630945,0.28195167236063823,-0.07078116419083526,0.30383262201212347,0.0420959181177406,13066.9158258941
1682302248326619148,168,1682302248326619148,camera_2,203,0,-1.2406914209215283,0.2925156364881101,1.7425659452444842,0.9568308773517611,-0.0025919657309436852,0.281892194143492,-0.07074422054752329,0.3052696033846587,0.04232121370962407,13064.420693119988
1682302248346599578,169,1682302248346599578,camera_2,205,0,-1.241459908021488,0.29602041716383376,1.7436725842176637,0.9568623444516865,-0.002369721274370702,0.2816963572294377,-0.07110555896108986,0.2882163404719904,0.04005877208251703,13042.918512560194
1682302248366441488,170,1682302248366441488,camera_2,207,0,-1.241463942923877,0.30051440337976637,1.7437485606202607,0.9566494784438627,-0.0021585745653163436,0.2823118068867869,-0.07153432491642699,0.27967020543292165,0.038967194475624856,13018.213619387707
1682302248376653671,171,1682302248376653671,camera_2,208,0,-1.2411339711918596,0.302907226767877,1.7433379678351648,0.9566205815978549,-0.0024061358786909275,0.2825138853511432,-0.07111383801565066,0.30992456019157544,0.04319402429279648,13017.006420700112
1682302248386472463,172,1682302248386472463,camera_2,209,0,-1.2410422293653856,0.30542100465115213,1.7432733465876002,0.9566272928267185,-0.0024600906631816258,0.28259664416563307,-0.07069163514359643,0.32668389478931203,0.04555461764018817,13012.677638043648
1682302248396728038,173,1682302248396728038,camera_2,210,0,-1.2422874520536906,0.30841772657826483,1.7450833575713895,0.9570094930956199,-0.0028008766722346047,0.28132530187820276,-0.07057662316850853,0.3303269593161531,0.04615560502198756,13004.61194448545
1682302248406463861,174,1682302248406463861,camera_2,211,0,-1.2427114086552304,0.31138323337506546,1.745686813346552,0.9570265202316915,-0.002625210501106449,0.2813692654687092,-0.07017609488026183,0.3194531163899228,0.04469874187809432,12989.366444849416
1682302248416612625,175,1682302248416612625,camera_2,212,0,-1.2425023418848042,0.3142154983970815,1.7454388772343168,0.9569521442644199,-0.0027067908572992864,0.2815342533511285,-0.07052468405463728,0.2802577909315005,0.039262142571685504,12981.035619842587
1682302248426545858,176,1682302248426545858,camera_2,213,0,-1.2416351502329983,0.31672685415467833,1.744236447067329,0.9567772998680266,-0.002623576885657479,0.28220682170345934,-0.07021128887583143,0.3071478105848655,0.043025135283418246,12980.203906532839
1682302248436677694,177,1682302248436677694,camera_2,214,0,-1.242029574274463,0.3194902522678101,1.7448201485889,0.9567571372442457,-0.0027255788212797788,0.2822724986641453,-0.07021814616026746,0.2857387069379911,0.04009653186807263,12963.051645814441
1682302248446479320,178,1682302248446479320,camera_2,215,0,-1.2418311582027093,0.3219672991434276,1.7446354596902451,0.9568135645211028,-0.002783903852172577,0.2820898952326792,-0.07018079249609191,0.3067444402840919,0.04306776826367301,12963.247909318417
1682302248456687688,179,1682302248456687688,camera_2,216,0,-1.242118083120702,0.3245272162368752,1.745098669918904,0.9569286294890508,-0.00259844446428113,0.2816825104816912,-0.07025531609284116,0.30992406635778025,0.04356463973093739,12957.193428183906
1682302248477500200,180,1682302248477500200,camera_2,218,0,-1.2418695809959117,0.32865480932860464,1.7447699663122762,0.9567710066375168,-0.002359626954183759,0.2821496612200954,-0.07053539318565862,0.2872993352939375,0.04045866104940386,12939.212335665246
1682302248507045030,181,1682302248507045030,camera_2,220,0,-1.2414911772939219,0.3326799150400182,1.744280846421002,0.9567551048714105,-0.0025199282989045906,0.28229346621784346,-0.07016921115831405,0.30997602903516963,0.043691808141704966,12933.090161588741
1682302248526704788,182,1682302248526704788,camera_2,222,0,-1.2415208917544092,0.33372880960419526,1.7444011662780277,0.9568126574811655,-0.002672042178089294,0.28223747485610795,-0.06960177053262474,0.3051575915887952,0.04301252992836227,12932.641457749996
1682302248546558618,183,1682302248546558618,camera_2,224,0,-1.2424378702574752,0.3335631751860576,1.7457303497960357,0.9570177876406917,-0.002426324614151492,0.28157624485526134,-0.06946859305753145,0.31678925390588125,0.04467940448740213,12928.10575979809
1682302248566788911,184,1682302248566788911,camera_2,226,0,-1.2418046566425833,0.33163053350434346,1.7446890042828331,0.9568807684596575,-0.0023372055577436128,0.2818157322210437,-0.07038199695201255,0.3131050782976672,0.04412315131791364,12938.516603764847
1682302248586674690,185,1682302248586674690,camera_2,228,0,-1.2414788778473902,0.32870067522434954,1.7441781700347836,0.9568014863139193,-0.0024976791377888867,0.28198512526066905,-0.07077475904674267,0.29327408160315827,0.04128007011729155,12949.167549595237
1682302248606670856,186,1682302248606670856,camera_2,230,0,-1.241852496332494,0.324777287950886,1.7446889586576115,0.9568440268931195,-0.0027006331189142647,0.2819300903246141,-0.0704105031175835,0.30129528586985543,0.042353454279094205,12956.424943182385
1682302248636633634,187,1682302248636633634,camera_2,232,0,-1.2419502549437305,0.3175859521106321,1.7447162291129503,0.9568273911864386,-0.0027843429413780037,0.28204172970931,-0.07018585051361478,0.3179760103230364,0.04457361746780624,12974.6217699945
1682302248646563291,188,1682302248646563291,camera_2,233,0,-1.242126583611162,0.3150356711571643,1.7449089777404418,0.956840260599769,-0.0027796791907269457,0.28193792192497563,-0.0704272479910237,0.2708794310456142,0.03794801968735673,12979.114403930023
1682302248656819105,189,1682302248656819105,camera_2,234,0,-1.2416160718268854,0.31211724289249115,1.7441423200144122,0.9568663214991548,-0.0027621421242510704,0.2818718786059818,-0.07033816462416538,0.33075900870608166,0.04624290168848292,12999.278530654265
1682302248666596889,190,1682302248666596889,camera_2,235,0,-1.2419702846820133,0.30945918009498163,1.7446369008368081,0.9568851492797946,-0.0027231226167907002,0.28179161460267976,-0.07040512503088119,0.3407867602072656,0.04762231799820942,13000.245528313793
1682302248676579236,191,1682302248676579236,camera_2,236,0,-1.2413610460158324,0.3066161791323658,1.7437777842440803,0.9567882302366094,-0.002687339328550773,0.2820436506211967,-0.07071378813427212,0.3324011442018673,0.04637939291783646,13013.535968235923
1682302248686475515,192,1682302248686475515,camera_2,237,0,-1.2407571164010514,0.303930204818711,1.7428530950839713,0.9566008083643576,-0.002314454447747767,0.2826217346027688,-0.07095415327793772,0.30361548467772076,0.042304563162988466,13020.494126271922
1682302248696630954,193,1682302248696630954,camera_2,238,0,-1.241076339906574,0.3015375883057436,1.743253207341545,0.9567070465077024,-0.0022988512913771123,0.28213689239994455,-0.07145009721582624,0.2702706109848805,0.037643929643736945,13027.087102581278
1682302248706509113,194,1682302248706509113,camera_2,239,0,-1.2406546083094383,0.2990177681265923,1.7425908584209822,0.9565745818729876,-0.002118001728187366,0.2826130249827295,-0.07134747012550122,0.28940721304388717,0.040254483568532104,13033.397970510418
1682302248716656208,195,1682302248716656208,camera_2,240,0,-1.2405628097273138,0.29684845810809307,1.7424176588290148,0.956628301425876,-0.002359245600938104,0.28244243906056954,-0.07129512948830737,0.29348887712694705,0.04077878100954048,13044.006831993815
1682302248726635694,196,1682302248726635694,camera_2,241,0,-1.2411102723400018,0.2950488815716216,1.743146666957941,0.9569264489418511,-0.0024647653705886824,0.2814553402510442,-0.0711940144350343,0.30134868528693914,0.041843243553690034,13056.582992088275
1682302248736687183,197,1682302248736687183,camera_2,242,0,-1.240713621550957,0.2932984086236913,1.7425738939709425,0.9568392924136188,-0.002519519749322429,0.28181132914072504,-0.0709548820136872,0.31185299484059215,0.04325146804981799,13062.98976962082
1682302248756849288,198,1682302248756849288,camera_2,244,0,-1.2402212011466411,0.29068201363329815,1.7418831780905693,0.9568092309317984,-0.0025629447040465617,0.2819963289161017,-0.07062292401186888,0.29230349080171436,0.04046673637031777,13076.548425862102
1682302248766616344,199,1682302248766616344,camera_2,245,0,-1.2398614521214297,0.28984422407831867,1.7413993451213443,0.956698773919069,-0.0026833181775488793,0.2823799882481907,-0.07058185334956792,0.28715650737285614,0.03973266699480976,13078.29171636235
1682302248776867151,200,1682302248776867151,camera_2,246,0,-1.239832417600284,0.28939586760371744,1.741332144974314,0.9567324419436453,-0.0026108279745163062,0.28229559755321115,-0.07046569173656426,0.3011060869321227,0.041646268373127314,13082.165424131788
1682302248786689758,201,1682302248786689758,camera_2,247,0,-1.2399531183260537,0.28932000881858133,1.7414922367868682,0.9567627148720788,-0.0025688326229722446,0.28217813319200014,-0.07052665934129251,0.312561203551013,0.043234896747573325,13082.001483132131
1682302248806653261,202,1682302248806653261,camera_2,249,0,-1.2408271460953906,0.2903945675011415,1.7427246237390481,0.956913267698631,-0.002684012958307002,0.281545476928082,-0.07100660953817461,0.30767020891653374,0.042629952488276404,13071.692691718927
1682302248816560983,203,1682302248816560983,camera_2,250,0,-1.24046156433678,0.2912386695791645,1.7421931447299424,0.9567753318270771,-0.002700244435050914,0.2819983076238314,-0.07106776754952022,0.31355673173675314,0.04345139005313423,13068.543361719
1682302248826686143,204,1682302248826686143,camera_2,251,0,-1.240667850572589,0.29248795570574937,1.7425238825763625,0.956832745226393,-0.002636988166037096,0.2818950833580139,-0.07070577016421649,0.32235909468727186,0.044687788459155525,13065.080274961892
1682302248836458206,205,1682302248836458206,camera_2,252,0,-1.2409239578269293,0.294070057972174,1.7428952300822957,0.9568079639814728,-0.0025275503321815383,0.2819823427327383,-0.07069717064991718,0.3127553999074735,0.04339915582964196,13054.741977117956
1682302248846645355,206,1682302248846645355,camera_2,253,0,-1.2412045064095507,0.2959646071651477,1.7433158691465673,0.9568330917042129,-0.002519698167302686,0.2817380653843299,-0.07132845332963615,0.29617233510361984,0.041158576177476335,13046.441355600717
1682302248856668710,207,1682302248856668710,camera_2,254,0,-1.2409144976194502,0.29804930980192784,1.742955997837606,0.9566176030988943,-0.002248783033744584,0.2824590849982258,-0.07137625458202798,0.27148601436056197,0.03776087458744144,13033.145591938171
1682302248866602897,208,1682302248866602897,camera_2,255,0,-1.2407898672970723,0.30034789309409976,1.7428124956017679,0.9566033829117472,-0.0022361947549733173,0.2825630489492513,-0.0711553975698398,0.2698202904430218,0.03754983952734996,13029.15680856025
1682302248876701354,209,1682302248876701354,camera_2,256,0,-1.2408314522314623,0.30282733214188146,1.7429298476159623,0.9566294208236947,-0.002405963601538262,0.2825060043662918,-0.07102619270848565,0.2867406263248995,0.039940017418893345,13023.826218704691
1682302248886567354,210,1682302248886567354,camera_2,257,0,-1.241268894047804,0.30547781971408006,1.7436101510732673,0.9567644600555507,-0.002598046067912045,0.2820861366624316,-0.07086910211159429,0.3206089131999761,0.04471443544078412,13016.894048910592
1682302248896809816,211,1682302248896809816,camera_2,258,0,-1.2413919710797772,0.3081884224296309,1.7438379810148992,0.9567722254594976,-0.002851673452626567,0.282133289508775,-0.07056616397933038,0.3141136337653734,0.04385499246695488,13007.764557030749
1682302248906647920,212,1682302248906647920,camera_2,259,0,-1.2428068828343903,0.311424581573382,1.7458414918499603,0.9571076521568835,-0.002644436823688653,0.28106793945224784,-0.07027632993185777,0.30571655166568235,0.04277739791793405,12992.5551662033
1682302248916476726,213,1682302248916476726,camera_2,260,0,-1.2424402334086362,0.3142011564575513,1.7453500231232826,0.9569113109662606,-0.0026855543619501853,0.28173721164961457,-0.07026858696816031,0.275741592340637,0.03862318898203607,12979.577815993689
1682302248936393499,214,1682302248936393499,camera_2,262,0,-1.2419408395254292,0.319450019233516,1.7447016303607732,0.9567498195736718,-0.0026569257984158322,0.28240191209655274,-0.06979887918340197,0.2915383235667832,0.04089263702888415,12964.513600771315
1682302248956621646,215,1682302248956621646,camera_2,264,0,-1.2425115837450311,0.32463094822606603,1.7456546236264046,0.9569612078258862,-0.0025558877242268254,0.28156890647555805,-0.07026852112091787,0.3030949582462199,0.042627745257696865,12951.109584135706
1682302248976793289,216,1682302248976793289,camera_2,266,0,-1.2418837622700103,0.32864797444808524,1.7448035147163135,0.9568127439788867,-0.002243077053875593,0.28203757864877327,-0.07042120273654014,0.27902103756787255,0.03928516241661066,12941.580806215763
1682302248986461162,217,1682302248986461162,camera_2,267,0,-1.241805411760079,0.33027563620442824,1.7446803258249286,0.9568213091883336,-0.0023125517285054365,0.28199817209862105,-0.0704603812128692,0.3047760520130396,0.0429347644466011,12938.884632175086
1682302249006558179,218,1682302249006558179,camera_2,269,0,-1.2415665492400714,0.3327122559419555,1.7443896965607242,0.9567958451695897,-0.002493868385176403,0.2821128612910059,-0.07034077608961728,0.31310756114544347,0.04413867344163621,12934.129931355135
1682302249026462793,219,1682302249026462793,camera_2,271,0,-1.2413273564252147,0.3336767791654777,1.7441519118008104,0.956748472166037,-0.0026550280243738474,0.28234684674222493,-0.07003977419200096,0.30606242903741077,0.04314762640408256,12932.241958303843
1682302249036686897,220,1682302249036686897,camera_2,272,0,-1.2418019215080391,0.3337634693508445,1.7448452428636763,0.9568859821934298,-0.0026510064041394684,0.2819395926694796,-0.06980154247671462,0.30840195028577,0.04348690501482456,12931.396419578226
1682302249046596288,221,1682302249046596288,camera_2,273,0,-1.2425466670163077,0.3335871629448691,1.7458579573734156,0.9570439297721868,-0.0023819535797411106,0.28139188222288825,-0.069855933194066,0.3133047351730056,0.04420309645658487,12927.593587466978
1682302249056915760,222,1682302249056915760,camera_2,274,0,-1.2414087745629774,0.3325161788733095,1.7442051831712442,0.9567578064540495,-0.002404321035898901,0.28234677713767864,-0.0699215021975228,0.31861028354614973,0.044892012049107324,12935.28007948725
1682302249066491603,223,1682302249066491603,camera_2,275,0,-1.2415965177852404,0.3315671670790398,1.7444060403687975,0.9568241089482978,-0.0023099182950984142,0.2820269617597502,-0.07030705265711482,0.30562633281806484,0.04305885678210408,12939.157346728729
1682302249076826572,224,1682302249076826572,camera_2,276,0,-1.241921928240143,0.3303677241067076,1.7448306307948018,0.9568912810478637,-0.002362950400722992,0.2817402379844124,-0.07054027941870383,0.31862815149361273,0.04488976614692201,12940.945475242326
1682302249086518287,225,1682302249086518287,camera_2,277,0,-1.241633023450756,0.3287511884980032,1.7444013481769018,0.9568320166161601,-0.002446146581691626,0.2818819307819983,-0.07077489274994271,0.2930617795791477,0.04125701602998418,12947.819623474032
1682302249096642732,226,1682302249096642732,camera_2,278,0,-1.2421051691098484,0.327004050211932,1.7450382099876656,0.9568238942123558,-0.002354260975973463,0.28206256692180653,-0.07016552758328519,0.29627645324217156,0.04169230534222011,12943.37437276728
1682302249106646776,227,1682302249106646776,camera_2,279,0,-1.242046766440894,0.3248440561171349,1.7450066259168289,0.9568881658145908,-0.002553710038723824,0.28181872548266906,-0.0702618150658687,0.31965785985812545,0.04493855704691069,12955.02434988925
1682302249116581439,228,1682302249116581439,camera_2,280,0,-1.2424201678246611,0.3226274228228379,1.745480697164722,0.9569518299715902,-0.0026202335685119008,0.28155960262666346,-0.07043095667947864,0.33367194794118404,0.04689179563794533,12958.36155869998
1682302249126752138,229,1682302249126752138,camera_2,281,0,-1.2421394766013558,0.32009971884116173,1.7450456816111763,0.9569414850088713,-0.0027302464875109222,0.2816529007037664,-0.07019389965152247,0.314573026553262,0.044139893893725274,12970.769188864622
1682302249136439323,230,1682302249136439323,camera_2,282,0,-1.2415457299877612,0.3174882645545413,1.7441460570694884,0.9567252584571355,-0.002547245612002683,0.28240510419343234,-0.07012594737624779,0.2985899170162156,0.04183601045310895,12976.353827427374
1682302249146646499,231,1682302249146646499,camera_2,283,0,-1.2420762480813936,0.31503945433150093,1.7448432557156552,0.9568913102488651,-0.002693476232047382,0.2817104325322594,-0.07064699398053131,0.27828266919823363,0.038982150435295716,12983.408671402609
1682302249156790018,232,1682302249156790018,camera_2,284,0,-1.2419930500485892,0.31223465868130235,1.744677506571629,0.9569453130367378,-0.002425747772326238,0.2816431410874703,-0.070192055698265,0.30106722132768476,0.042100888732334446,12996.399149868172
1682302249166414499,233,1682302249166414499,camera_2,285,0,-1.242205598601148,0.309511530938584,1.7449452520681012,0.95695864795645,-0.00260215154924918,0.281534707662153,-0.07043850715527608,0.33330156363081187,0.04658375059054418,13000.248118188236
