%time,field.header.seq,field.header.stamp,field.header.frame_id,field.image_seq,field.transforms0.fiducial_id,field.transforms0.transform.translation.x,field.transforms0.transform.translation.y,field.transforms0.transform.translation.z,field.transforms0.transform.rotation.x,field.transforms0.transform.rotation.y,field.transforms0.transform.rotation.z,field.transforms0.transform.rotation.w,field.transforms0.image_error,field.transforms0.object_error,field.transforms0.fiducial_area
1684728703306526422,3,1684728703306526422,camera_1,7,0,-0.08917291435849309,-0.21723959781320182,1.5552633494972363,0.9969472450028718,-0.038562406308753905,0.04229263594998316,0.05310804501452456,0.0044009165139868855,0.0029350503970882852,4460.54615649511
1684728703326539278,4,1684728703326539278,camera_1,9,0,-0.08920249231236171,-0.21692544188057003,1.5557921306683447,0.9967748176950396,-0.03854386888267887,0.048771403222487214,0.05075118923025689,0.0016213357012020424,0.0010812402970284915,4458.131406907982
1684728703336473941,5,1684728703336473941,camera_1,10,0,-0.08922160272333066,-0.21665125670616775,1.5565670840863575,-0.9960201072691632,0.035652611565025624,0.0034406437818554902,0.08161494455358169,0.0024702829105081037,0.0016504822177633176,4454.264748363466
1684728703346489429,6,1684728703346489429,camera_1,11,0,-0.08911873157283216,-0.21567288660583195,1.5555287127430115,0.9965532106244872,-0.0385704086683658,0.04052327087156942,0.06125264473515533,0.0034399226715322584,0.002295334877395027,4453.674264936941
1684728703356570482,7,1684728703356570482,camera_1,12,0,-0.08910657350773485,-0.2151331635085784,1.5554294538352875,0.9967326624809157,-0.03773506296775568,0.04527406149006928,0.05522973766657097,0.00617347055231221,0.004114202301811598,4461.271757381621
1684728703366605997,8,1684728703366605997,camera_1,13,0,-0.08903800084733307,-0.21440436156238427,1.5548050321822888,0.9962266051277575,-0.038484818996571364,0.040109517753283974,0.06665355600433719,0.004044924993650056,0.002696619609045178,4453.624438582336
1684728703376501798,9,1684728703376501798,camera_1,14,0,-0.08907428721961992,-0.21395588054282144,1.5562793775992374,0.9965149378478205,-0.038252328252140956,0.04580278750903296,0.05828243891471299,0.00663421030913014,0.0044244496852559705,4455.658186934888
1684728703386815786,10,1684728703386815786,camera_1,15,0,-0.08911895021229,-0.21264992016870038,1.55800184037045,-0.9958978537525048,0.035359770975981225,0.002198632737868029,0.08326053988393788,0.0056610174651723355,0.003784497091537863,4452.062153217004
1684728703396693944,11,1684728703396693944,camera_1,16,0,-0.08916190879415495,-0.2120556800958117,1.559296401930173,0.997016195500999,-0.038279842407672945,0.04201109725097056,0.05223434963438333,0.0022310074709821492,0.0014919991085783305,4453.423830196377
1684728703406524181,12,1684728703406524181,camera_1,17,0,-0.08903948915714764,-0.21106809119831021,1.5580189726011264,0.9968962324560952,-0.037700285423021423,0.045612497266810596,0.05192388936656325,0.014502110905596055,0.0096757828530451,4461.43651269222
1684728703416736364,13,1684728703416736364,camera_1,18,0,-0.0890230700504524,-0.21022747067159223,1.5581304707293735,0.9967841992969491,-0.038428999210314854,0.044138736302413516,0.05473795766430826,0.008362285472685471,0.005580087253343606,4460.323718929196
1684728703426442146,14,1684728703426442146,camera_1,19,0,-0.08904217602322055,-0.20868736915038338,1.5597974692580225,0.9969914590396804,-0.03771887041109613,0.0442750303333424,0.05123513546211902,0.0028207540017319843,0.0018845570829266298,4459.083507253904
1684728703436185836,15,1684728703436185836,camera_1,20,0,-0.0888701098019009,-0.20752167665068438,1.5575350951841873,0.9966585189846188,-0.03829350151931714,0.042045439008150644,0.058630924735914386,0.0006785076402593404,0.0004521538450936507,4466.383166869695
1684728703446665525,16,1684728703446665525,camera_1,21,0,-0.0889503207098257,-0.2069037313299333,1.5591980530144862,0.9967790554117374,-0.03775660413742658,0.050017008756994275,0.05004250564766814,0.000612283154623583,0.0004083420382795681,4464.882986869024
1684728703456505060,17,1684728703456505060,camera_1,22,0,-0.08884143508265405,-0.20588967800206162,1.55790667930615,0.9963812444551674,-0.038126181358406966,0.044024485035241666,0.06190843811936866,0.00022772184456698596,0.00015174386798976375,4463.246388005617
1684728703466686248,18,1684728703466686248,camera_1,23,0,-0.08877821487946028,-0.20441112068511247,1.5583794492902483,0.9964476318747988,-0.03814767136967908,0.038695249773578994,0.06433933279990414,5.91031857766211e-05,3.9411259623844415e-05,4463.237401751974
1684728703476567745,19,1684728703476567745,camera_1,24,0,-0.08876881271630127,-0.20373902173484099,1.5585211449236902,0.9965232967502814,-0.038261379887670935,0.038643726645057275,0.06311931743946525,0.0005566111067309976,0.00037109349288359805,4465.676688280366
1684728703486557245,20,1684728703486557245,camera_1,25,0,-0.08870773714261153,-0.2030273742059861,1.5580647222894366,0.9962449866834939,-0.03806675461077621,0.04214953283977944,0.06534726913036555,0.0004099536017747596,0.00027303831303398526,4465.468003583606
1684728703496227979,21,1684728703496227979,camera_1,26,0,-0.08884389656662443,-0.20281947635303274,1.5608943609928247,0.9967101330333422,-0.03799742068911028,0.04526444638150041,0.05546383166901204,0.00036522303707897663,0.00024382952743140014,4461.528075634968
1684728703505336761,22,1684728703505336761,camera_1,27,0,-0.0887535057403028,-0.20183020936001325,1.5604073219980241,0.9968471248326246,-0.03802624157819529,0.04174681566182122,0.05574063191662409,0.004213782260194421,0.0028111106811759155,4467.660926379961
1684728703515551328,23,1684728703515551328,camera_1,28,0,-0.08871770040017325,-0.20147242746208072,1.5605647184825753,0.9969181451820417,-0.038640012256921596,0.03581122233491979,0.05812673751778503,0.005203623280976899,0.0034739478751332075,4466.97521217505
1684728703525816202,24,1684728703525816202,camera_1,29,0,-0.08870580244016252,-0.20118635182700503,1.5602999742203403,0.9968400362771898,-0.03801931324215855,0.03886009484620857,0.05791689670579304,0.0027927799965254962,0.0018631632342545666,4468.275946304902
1684728703535300254,25,1684728703535300254,camera_1,30,0,-0.08870844953096256,-0.20097356683716502,1.5602778475439785,0.9966787948157647,-0.03772003278999935,0.04384070245611327,0.05732863070988693,2.592278178781271e-06,1.7285533314441475e-06,4467.506539478434
1684728703545269727,26,1684728703545269727,camera_1,31,0,-0.08868384640024998,-0.2008641941498663,1.5603384982142472,0.9969332658777946,-0.03719711604670432,0.04601964071984819,0.05121162575097984,0.002646328881382942,0.0017638036652867519,4473.248880081869
1684728703555187225,27,1684728703555187225,camera_1,32,0,-0.0886358816181581,-0.20082473209932938,1.5596041514569683,0.9967649780258475,-0.03753354998544468,0.037828870229096714,0.06016467222392347,0.0026806247769854963,0.0017870636817764879,4470.518055075896
1684728703565416812,28,1684728703565416812,camera_1,33,0,-0.08864061030874351,-0.2009461842154136,1.5594320201582634,0.9966047068192967,-0.03800619442683273,0.03694156214874326,0.06300721003840715,0.00032430014107376337,0.00021625074445612757,4467.900886976973
1684728703575382471,29,1684728703575382471,camera_1,34,0,-0.08859287457052457,-0.2010341779433248,1.5587100816628772,-0.9959477785099816,0.03478198693346708,0.0023384750356025383,0.08290215558416268,0.0005775395693490282,0.0003848495424686871,4467.054207760958
1684728703585473775,30,1684728703585473775,camera_1,35,0,-0.08873241884514377,-0.20199702470885728,1.5602574971596386,0.9968178884421495,-0.03774286861919117,0.04121571484008458,0.056840460944206576,0.0019772971427300945,0.00131914325840286,4467.032693629502
1684728703595595598,31,1684728703595595598,camera_1,36,0,-0.08869835653749891,-0.20230881057741176,1.5591991967009644,0.9965930660511503,-0.03768221518343012,0.0360416643018765,0.06390078084020724,0.0024296020274050534,0.0016206947155861474,4465.202005446541
1684728703605732917,32,1684728703605732917,camera_1,37,0,-0.08880914677296581,-0.20302008021491805,1.5603962744476363,0.9970712081868677,-0.037262912230527453,0.042052549043729806,0.051885106685876155,0.0008642418106319383,0.0005766865698092333,4469.294049042977
1684728703615576744,33,1684728703615576744,camera_1,38,0,-0.08881268532960354,-0.20362296194733767,1.560869193981725,0.9963340575962936,-0.034302272034757775,-0.0026431950604038695,-0.07832504916584333,0.002620324565214105,0.0017514701941831088,4457.082081234549
1684728703625562191,34,1684728703625562191,camera_1,39,0,-0.08885477860456381,-0.20494679720507403,1.5601478998498104,0.9969578904808358,-0.03795425541338672,0.04083747703522655,0.05446778473019234,0.007280078571056947,0.0048609346840213395,4463.799756736089
1684728703635628223,35,1684728703635628223,camera_1,40,0,-0.08887561123573862,-0.20564622741467872,1.559701826553257,0.9968254543904996,-0.037754570120684054,0.044038276985162585,0.05453655722865593,0.0018072925304295495,0.0012062048093971348,4463.127643783579
1684728703645802259,36,1684728703645802259,camera_1,41,0,-0.08892957535634431,-0.20651938114281443,1.5603550533411377,0.9972048382884128,-0.03736372323971307,0.039510989923046066,0.05123811428172974,0.002477205081959255,0.0016552562906703393,4463.2236289713765
1684728703655689716,37,1684728703655689716,camera_1,42,0,-0.0889694219985852,-0.20734248520580942,1.560157314180535,0.9969041773858052,-0.038455412255974125,0.046741387514636315,0.050184510281169284,0.004020302920253016,0.0026853154553958545,4460.226268783036
1684728703665948867,38,1684728703665948867,camera_1,43,0,-0.08900316056224249,-0.20899479442839505,1.559791395303531,0.996843286508458,-0.03870747620147635,0.04398871619923978,0.0535741194633327,0.005021503064199351,0.003355654167354797,4455.799332170718
1684728703675861358,39,1684728703675861358,camera_1,44,0,-0.08894407255407633,-0.20956516712124873,1.5577429032951018,0.9964760454056337,-0.038531677409972674,0.040091253357114276,0.06279723061552078,0.00031720122206024826,0.00021173851167327525,4455.633466058644
1684728703686106204,40,1684728703686106204,camera_1,45,0,-0.08905686209372832,-0.21062219631434442,1.559091809641192,0.9970595032890854,-0.03857027218358265,0.03810124241780351,0.054156960132806756,0.005663396819727495,0.0037860828824236845,4457.334094151622
1684728703695999145,41,1684728703695999145,camera_1,46,0,-0.08906920869722283,-0.21136032788038056,1.5587033596003943,0.9960402964318765,-0.03524750023411939,-0.008359682392941437,-0.0811877904702084,0.005032100030803122,0.0033628061429116555,4450.467266894995
1684728703705491304,42,1684728703705491304,camera_1,47,0,-0.08908157515721579,-0.21280759896680662,1.5575751967382534,-0.9962565199487173,0.03533071533145372,0.0036458169719939116,0.07881240405193655,0.0023882621462689713,0.0015949924687071522,4459.075987993099
1684728703715424537,43,1684728703715424537,camera_1,48,0,-0.08919711440975335,-0.2137535348988579,1.5586370063766508,0.9972552899998918,-0.038247490873791666,0.04163319859735776,0.0478089194988131,2.2174994228407744e-05,1.4824828861824178e-05,4457.827340884193
1684728703725735664,44,1684728703725735664,camera_1,49,0,-0.08924033117923515,-0.21452243548359634,1.5591328509964293,0.9970208446423972,-0.03793220487715157,0.04496064636569898,0.04989111604381386,0.0017766015662346035,0.0011887160383953045,4449.401181285446
1684728703735702037,45,1684728703735702037,camera_1,50,0,-0.08914792526996965,-0.21489029204859206,1.5571606303769991,0.9963899006197031,-0.03536790523092559,-0.007779547578882215,-0.07678382552401661,0.0036131028464296833,0.0024124626964575767,4458.163869798298
1684728703745698213,46,1684728703745698213,camera_1,51,0,-0.08916933842546389,-0.2159433312750519,1.5566379357711178,0.996769957111255,-0.038096168844278924,0.04388047662126109,0.055433187634359546,0.0037729711475549266,0.002519228569800813,4453.07330057293
1684728703755625963,47,1684728703755625963,camera_1,52,0,-0.08914472529177354,-0.2162762649127821,1.5556718315688578,0.9966182008970992,-0.03906153367829064,0.047334308998897075,0.0546426703129157,0.00345847534481436,0.002306162559726716,4456.5954105380515
1684728703765764236,48,1684728703765764236,camera_1,53,0,-0.08918790053888956,-0.21673733133896675,1.5560549289422287,0.9969480995280479,-0.03739617537780329,0.04409506954116484,0.05245605548157544,0.00038394374132622033,0.0002562240901938978,4457.631028421978
1684728703775740861,49,1684728703775740861,camera_1,54,0,-0.08905560964955736,-0.21670607668392491,1.5536807539006343,0.9965905101378186,-0.03822243003425464,0.04002936498363261,0.06118864996489377,0.0004058153135702014,0.00027031794927331713,4461.098644647046
1684728703785930633,50,1684728703785930633,camera_1,55,0,-0.08914343417514842,-0.21722302702657179,1.5547091817275065,0.9967241637490262,-0.037895467100039854,0.041137739770816875,0.058417132235523285,0.007242104300530627,0.004829249912792952,4457.4114043373265
1684728703795802116,51,1684728703795802116,camera_1,56,0,-0.0892198818523647,-0.2174487210859296,1.5560492627133715,0.9970799546227794,-0.03805220570045341,0.04167229037546259,0.051449139406112496,0.005112368919071741,0.003412862884710161,4458.026907381251
1684728703805960893,52,1684728703805960893,camera_1,57,0,-0.08918024242681974,-0.2173403506759144,1.555458850112957,0.9969775900540113,-0.03827557734439022,0.039629358653428065,0.05477389014637912,0.006031658296706155,0.004025195601786335,4458.294804759263
1684728703815983295,53,1684728703815983295,camera_1,58,0,-0.08913981937533308,-0.2170911165763038,1.5546299397175771,0.9965038874448144,-0.03880223626491189,0.041073625825966804,0.061541417189752055,0.003642699579359032,0.0024293484818088567,4454.066530066424
1684728703825923442,54,1684728703825923442,camera_1,59,0,-0.08917393480624725,-0.2167286494415614,1.5553628917585556,0.9965050239885425,-0.03815213849369307,0.047376867338126225,0.057250187206490645,0.002734191730269231,0.0018232992649884591,4453.801262669933
1684728703835947751,55,1684728703835947751,camera_1,60,0,-0.08913642959911627,-0.21632171291045418,1.5551658588410537,0.9967205718446248,-0.03836065512503969,0.04657658471371925,0.05391830446618083,0.002300556530826725,0.0015331913713632973,4460.491878675616
1684728703846012592,56,1684728703846012592,camera_1,61,0,-0.08910504820228586,-0.2158366578909237,1.5549518447326534,0.9965158559584992,-0.03809843997328889,0.05062823589342186,0.05423503872240957,0.00367927536717616,0.002450108688189334,4460.330615004028
1684728703855814933,57,1684728703855814933,camera_1,62,0,-0.08920097794054524,-0.21560428916943086,1.557311077323968,0.9961854647971651,-0.03537722037744173,-0.003878352944216475,-0.07967390026641417,0.003149718468193896,0.0021051142436070837,4454.3180897265565
1684728703865687131,58,1684728703865687131,camera_1,63,0,-0.08908393459154504,-0.21421440011428416,1.5559467409776062,0.9964298038760337,-0.03848212970524029,0.0420953004829706,0.06224754869202743,0.004704585502622649,0.0031385253650513026,4453.312212883666
1684728703875779628,59,1684728703875779628,camera_1,64,0,-0.08903834309183054,-0.21346162673875257,1.5559302481086505,0.9958455497228981,-0.03592790800485985,-0.011669693886642277,-0.08285315182952015,0.008255787222879007,0.005501543643514826,4458.450470914132
1684728703886178493,60,1684728703886178493,camera_1,65,0,-0.08987617594760339,-0.2148188674426812,1.5711744489169042,0.998827719954311,-0.037358969871526815,0.012068945689850116,-0.02831666948895059,0.09597259822476191,0.06463115549107093,4461.107822353781
1684728703896095037,61,1684728703896095037,camera_1,66,0,-0.08905031188485238,-0.2121148592434201,1.5571921373585411,0.9967037163145188,-0.03886208130120393,0.04293752586996308,0.056813813407763626,0.0024868728505680338,0.0016592438053272638,4458.694885308303
1684728703906180143,62,1684728703906180143,camera_1,67,0,-0.08905049483352626,-0.21068071945080863,1.5585126600899526,0.9965801680086516,-0.03867673653316649,0.046470351791715304,0.056325706274720104,0.006599524014745839,0.004406512658791885,4454.0740693864645
1684728703915786266,63,1684728703915786266,camera_1,68,0,-0.08895865393881514,-0.20966813751887672,1.5578439316391695,0.9958259462622415,-0.03512084586096837,-0.0062230769348397405,-0.08401478590334248,0.005653268279274925,0.0037731874849372834,4455.402870593534
1684728703925944089,64,1684728703925944089,camera_1,69,0,-0.08915821055147649,-0.20935854260425066,1.5617202192151347,0.9972331894905082,-0.03863250058405359,0.04320625169941581,0.04654799127028084,0.009420600792509504,0.006308838880919066,4452.609887911181
1684728703935855865,65,1684728703935855865,camera_1,70,0,-0.08988327226283631,-0.21030270237532595,1.5753791331176006,0.9990397630975467,-0.03726828726881111,0.012894239420696016,-0.019088349949880356,0.12838650577759836,0.08664529154421702,4455.561970738663
1684728703945724487,66,1684728703945724487,camera_1,71,0,-0.08900762301770188,-0.20666015948334143,1.5606271245374268,0.9970111625010237,-0.03783110948011117,0.041808338827595375,0.05281677582301126,0.0011283888161415234,0.0007542315271602265,4458.76785540214
1684728703955856800,67,1684728703955856800,camera_1,72,0,-0.08882087261221466,-0.20555084364477216,1.558080888969188,0.9968326919083229,-0.03798982798821725,0.03757461875677777,0.05890250705628022,0.0006013232050463557,0.0004008430792116299,4469.573163183464
1684728703965710878,68,1684728703965710878,camera_1,73,0,-0.08889182936614451,-0.20507955362272046,1.5603259734595385,0.9968460875811929,-0.03854799673921428,0.03596021728422182,0.05931940992907704,0.004583858200930991,0.003063925721893312,4458.513070678193
1684728703976171255,69,1684728703976171255,camera_1,74,0,-0.08880528222480581,-0.20421084758486968,1.5593238600632648,0.9966768369951521,-0.03883811463831753,0.039102871244822576,0.05998207156385051,0.00480821612291038,0.0032080241007089922,4464.036512015446
1684728703986026287,70,1684728703986026287,camera_1,75,0,-0.08870735217450612,-0.2028552296557172,1.5585336209809206,0.9967038447252454,-0.0386311264428183,0.04066116642570413,0.058615284052662045,0.011329967062920332,0.0075458464664728,4472.534236541075
1684728703995595932,71,1684728703995595932,camera_1,76,0,-0.08875672549332692,-0.20246681812755463,1.5599882027288328,0.9969563770102773,-0.037519780564118456,0.04218874867863527,0.053762048788094506,0.004077955964021385,0.002719198637688971,4470.607265540108
1684728704005495071,72,1684728704005495071,camera_1,77,0,-0.08862366719087642,-0.20174899493978024,1.5583087348701006,0.9955008289564908,-0.034790154320208454,-0.0026312272104656786,-0.08809552402184004,0.006801582116167992,0.004533452768334428,4460.926439785747
1684728704015282392,73,1684728704015282392,camera_1,78,0,-0.08866674036719274,-0.20147348483701355,1.5592319305503601,0.9961129784451369,-0.035227013119867444,-8.754712362035934e-05,-0.0807340328195737,0.0043187939445488155,0.002880250815691267,4467.212863301624
1684728704025159358,74,1684728704025159358,camera_1,79,0,-0.08954312719708277,-0.20303463476987216,1.575705040915215,0.9990691118682482,-0.03768123536060952,0.02086872099533999,-0.0023517432910658805,0.12120216386392713,0.08165481306982743,4467.479010970799
1684728704035180330,75,1684728704035180330,camera_1,80,0,-0.08867583681214594,-0.20090143204276284,1.5600767291539395,0.9966200869359699,-0.03830121900307117,0.03786228791624314,0.062031170328843435,0.0011085705045843497,0.000739690465606007,4465.402094964984
1684728704045312881,76,1684728704045312881,camera_1,81,0,-0.0885624229805862,-0.2005737860703857,1.5581023268136918,0.9965956813775739,-0.03819125284730597,0.040269580487699456,0.06096586711322118,0.0009072863176697865,0.0006036491697894858,4477.337866782558
1684728704055086135,77,1684728704055086135,camera_1,82,0,-0.08868461589911486,-0.20092044512544224,1.560885477005242,0.9969081566786517,-0.03550793136014182,-0.009411211009044799,-0.0694603704671921,0.0031926429510349408,0.0021295938317309544,4468.564871922834
1684728704065174818,78,1684728704065174818,camera_1,83,0,-0.0894680693581891,-0.20294520741437724,1.5740746562542314,0.9992183677309009,-0.0363196306294669,0.015031070309418502,-0.004195824768337567,0.10008655511774123,0.06736116649276183,4472.298509657498
1684728704075103759,79,1684728704075103759,camera_1,84,0,-0.08868057824393623,-0.20142770295961776,1.560129019696371,0.9968110196636139,-0.03818858274057679,0.036686996431369474,0.05969495387633348,0.0015909656649455428,0.0010616498054358745,4467.261304240208
1684728704085244178,80,1684728704085244178,camera_1,85,0,-0.08879079641658193,-0.20198462707625794,1.5617519575332532,0.9969619455617684,-0.03537673213999133,-0.003390473790300066,-0.06930996041166176,0.0031491247500525787,0.0021044358337463515,4464.999325051553
1684728704095208644,81,1684728704095208644,camera_1,86,0,-0.08881813272577371,-0.2023965485200102,1.5614656429423237,0.9969122591824671,-0.03801575144644858,0.048801776435923934,0.048364622921819214,0.0013292539078975096,0.0008874348666334204,4465.263425228884
1684728704105300664,82,1684728704105300664,camera_1,87,0,-0.08879400444370755,-0.20329671517818795,1.5606098497386534,-0.9964707789337459,0.035692091921817604,0.0042906645017615,0.07585282792059626,0.0013644517166540027,0.0009112601113310495,4461.450062310731
1684728704115029811,83,1684728704115029811,camera_1,88,0,-0.08881433041891151,-0.20391708466904468,1.5601747008382598,0.9969319616849666,-0.037099254528176945,0.040977852416534136,0.055417729074247454,0.000424691999796778,0.0002834966684781265,4464.908851843327
1684728704125094652,84,1684728704125094652,camera_1,89,0,-0.08879699997248822,-0.20449630959159817,1.5594595483934284,0.996449099421834,-0.03762469066752888,0.03741694598653394,0.06537237234971366,0.00044814241118729115,0.00029931068545267347,4456.264270845684
1684728704135073900,85,1684728704135073900,camera_1,90,0,-0.08885681292813341,-0.20527323999473093,1.5600104353706545,0.9966909387945221,-0.03504008781198641,0.001822256744653591,-0.07332151220057605,0.003239949088310823,0.0021645496002988106,4466.736737980217
1684728704145077943,86,1684728704145077943,camera_1,91,0,-0.08900943646202655,-0.20702721279753666,1.5611371439237658,0.9972714046095944,-0.03833361794086968,0.047255030304089445,0.04180001668097353,0.0018630309350555763,0.0012451577173694971,4463.901446738193
1684728704155061006,87,1684728704155061006,camera_1,92,0,-0.08898269534279697,-0.20769282727950517,1.559999864882232,0.9970405718548047,-0.03790014821339635,0.044461238818338876,0.049968741064643954,0.0017001265805447476,0.0011356149755928544,4461.644087695928
1684728704165123224,88,1684728704165123224,camera_1,93,0,-0.08894526016520767,-0.2083912179904934,1.559090693741759,0.9968284512155501,-0.035735407919140275,-0.00875991813366046,-0.07056403689098216,0.004108418390387669,0.0027418489373071332,4465.605123488522
1684728704175015449,89,1684728704175015449,camera_1,94,0,-0.08896419101393824,-0.20920346760884373,1.5585554486733586,0.9966435129869656,-0.03824977511795103,0.040365625300466605,0.060077275392019576,0.0032076007046271116,0.0021421852911386167,4455.609447165043
1684728704185115337,90,1684728704185115337,camera_1,95,0,-0.08898595205617255,-0.2107664803841419,1.5574782637912228,0.9965731511797231,-0.038831362935543824,0.041118890114191224,0.06035989128603565,0.002277414212585427,0.0015199022792078574,4456.826135056239
1684728704195086479,91,1684728704195086479,camera_1,96,0,-0.08909441974083607,-0.21179057040103,1.5587009028767689,0.9967932288593597,-0.03863352632503767,0.046516365882700375,0.05241123208713511,0.005494452620041557,0.003670199257577431,4454.926418530231
1684728704205119371,92,1684728704205119371,camera_1,97,0,-0.08911460926379795,-0.21250406083518864,1.5583173781142725,-0.9968610978115796,0.03863402901020422,-0.04142256391014262,-0.05531306058645976,0.0015352026384789497,0.0010259543345750466,4454.174290487135
1684728704215117216,93,1684728704215117216,camera_1,98,0,-0.08904511010317906,-0.21307318050767024,1.5568663327679184,-0.9962792424893328,0.03439511517405696,0.008444950984991234,0.07857054053464259,0.0022443873167503625,0.001497107482074993,4460.654528825427
1684728704225131988,94,1684728704225131988,camera_1,99,0,-0.0891441066707993,-0.2145076067760133,1.5568614561260457,0.9965162738463571,-0.038546863690813546,0.046223361258602214,0.0577308940943332,0.0019667164015118033,0.0013127334738890475,4451.632121315575
1684728704235036134,95,1684728704235036134,camera_1,100,0,-0.08916542860830906,-0.21516819797444325,1.557024448331713,0.9966542051346632,-0.03872647205664742,0.043489890507042044,0.057352290042543885,0.0002676838339539245,0.0001788012982403983,4450.805784843978
1684728704245068550,96,1684728704245068550,camera_1,101,0,-0.0890894304363309,-0.21554168513819252,1.5553599031534513,0.9967245748242032,-0.03806601518293955,0.04519698993294685,0.055211706463438585,0.008588285534642637,0.0057240982657799306,4460.595948387925
1684728704255041837,97,1684728704255041837,camera_1,102,0,-0.08915067699481995,-0.2161106144157977,1.555879579646737,0.996813696952156,-0.0379856631771046,0.04260111108520796,0.05571972986184261,0.004671395901823416,0.003117120265760893,4456.898456139781
1684728704265105009,98,1684728704265105009,camera_1,103,0,-0.08919304917872611,-0.21685111269824228,1.5556730293482988,0.9966845085849915,-0.03860220806556805,0.04068497486986858,0.058945675829485615,0.0021821043046656996,0.0014568665053267598,4452.740660058394
1684728704275030851,99,1684728704275030851,camera_1,104,0,-0.08922975344991721,-0.21720602673455194,1.5563380354778358,0.9969748847620797,-0.038143858551731406,0.044663871038503014,0.050904457882188586,0.005047620987170376,0.003369636023713923,4456.406012104822
1684728704285074949,100,1684728704285074949,camera_1,105,0,-0.08921462561842695,-0.21731708450820192,1.556128188133949,-0.9959867959681964,0.03545739038133751,0.004604126174090085,0.08204802097872195,0.0005922487034695223,0.0003955425246552913,4454.407059741641
1684728704295108079,101,1684728704295108079,camera_1,106,0,-0.08929343818535652,-0.21765860666480763,1.5578792511710395,-0.9966808389614532,0.03529818580241001,0.0051806865467600525,0.07317447514712107,0.010345598639105447,0.006921675656471941,4454.095086453017
1684728704305198192,102,1684728704305198192,camera_1,107,0,-0.08924866400443729,-0.21740387274978118,1.5563387731943228,0.9969555934801188,-0.038556177910130926,0.04446030430448571,0.05114926309165309,0.0020577610412146896,0.0013738983429468616,4455.687326280866
1684728704315059900,103,1684728704315059900,camera_1,108,0,-0.08916479295736526,-0.217102404088456,1.5553547133708774,0.996826035068978,-0.03915620242654962,0.0431704415754754,0.05423062413775265,0.010709274749387987,0.00714275214531217,4458.624854322816
1684728704325059413,104,1684728704325059413,camera_1,109,0,-0.08933832928346214,-0.2172470008746125,1.5581005408971305,0.9972094865009771,-0.03845821488373788,0.043959203770500374,0.046495098067189225,0.0022699662804370746,0.0015183891237477156,4452.128985328192
1684728704335151195,105,1684728704335151195,camera_1,110,0,-0.08914592371473226,-0.21652123660967162,1.5552686057123597,0.9968153242883901,-0.038967587940538596,0.040764484023488035,0.05638256110027958,0.0077377283305395395,0.005160730718665338,4459.033479733453
1684728704345143079,106,1684728704345143079,camera_1,111,0,-0.08912567913707353,-0.21567539013640455,1.555509238873102,0.9966017932415959,-0.03887238591116892,0.04386799162574864,0.05787402380975336,0.0021225955861154944,0.0014155641575111628,4456.733639949117
1684728704355101346,107,1684728704355101346,camera_1,112,0,-0.08914266936684792,-0.215193807537705,1.5560180519072184,0.996512015629254,-0.03833024904442157,0.04773363772684784,0.056710621087023357,0.0011397833877708763,0.0007601226481199621,4454.850308133988
1684728704365097045,108,1684728704365097045,camera_1,113,0,-0.08917773358311198,-0.21477971349508942,1.5575252979300156,0.9969103181596791,-0.038285458174315855,0.04033630255440603,0.055470928741003754,0.006480951313278638,0.004331078624580278,4452.844070405231
1684728704375137567,109,1684728704375137567,camera_1,114,0,-0.08908289680970174,-0.21392728383309945,1.5563089922853748,0.9955702421807493,-0.0351974893110297,-0.005713372093196282,-0.08699647699584642,0.00714825457544066,0.004770930796677735,4452.77775839172
1684728704385138273,110,1684728704385138273,camera_1,115,0,-0.08915304186026099,-0.21273340495804763,1.5582605791806863,0.9968828915508884,-0.03865033183816243,0.04546564668872994,0.051609372725459735,0.0014546369493473321,0.0009715615444089525,4456.41898468521
1684728704395026206,111,1684728704395026206,camera_1,116,0,-0.08902203607383263,-0.21174951474744125,1.5570229094780803,0.9966562533031325,-0.03815993902734141,0.046108567938369496,0.05562492038524247,0.002621525287395343,0.0017479163187774506,4460.48620788826
1684728704405094146,112,1684728704405094146,camera_1,117,0,-0.08906308799678359,-0.21107202192153574,1.558147993363373,0.9971891629799666,-0.03833891353402009,0.03870899386069388,0.051434567545934534,0.004879194777458907,0.003257431083132954,4464.558603913929
1684728704415140151,113,1684728704415140151,camera_1,118,0,-0.08970300524162605,-0.21181579423269883,1.5701393960624117,0.9977833961161025,-0.03856644773134625,0.04672300070918395,0.027529706666290097,0.09321002833894454,0.06272660815640506,4455.276457481085
1684728704425129890,114,1684728704425129890,camera_1,119,0,-0.08907758286318437,-0.2087565223203916,1.5603776364270001,0.9970670969465165,-0.038424381666467215,0.04101465850460655,0.051947751327136756,0.007037405463051982,0.004706360290065731,4456.405070548003
1684728704435037374,115,1684728704435037374,camera_1,120,0,-0.08886203021867779,-0.20749357406573649,1.557479874757417,0.9968694804401055,-0.037830759319342336,0.0388800599858381,0.05751881041793098,0.000714324283762835,0.00047607562589305143,4469.406929211225
1684728704445037603,116,1684728704445037603,camera_1,121,0,-0.08891743766650795,-0.20686813125787168,1.5590296201951317,0.9967805107203185,-0.03758614531123024,0.04351428286219421,0.05587846021297666,0.00020333491556812078,0.00013567675279834026,4462.579080787313
1684728704455099821,117,1684728704455099821,camera_1,122,0,-0.0888627712670497,-0.20599343910179121,1.5589897866129225,-0.9962255765053945,0.03538367383743992,0.0004908559746607144,0.07926131088161825,0.002737245464231819,0.0018273645277558266,4463.4095212508655
1684728704465049743,118,1684728704465049743,camera_1,123,0,-0.0888964679891668,-0.20466597572839046,1.5603603718103294,0.9968834885512596,-0.03850166796821634,0.03598905946222613,0.05870025056641869,0.0016912150895223022,0.0011302969914071656,4460.060585349565
1684728704475015878,119,1684728704475015878,camera_1,124,0,-0.08876805587723022,-0.20384800296751646,1.5596887867680878,0.9964105011044342,-0.035309138092366354,-0.00043220867374265466,-0.0769362804640778,0.0076187236700206995,0.005086117050194597,4465.760067524855
1684728704485043525,120,1684728704485043525,camera_1,125,0,-0.08874922444257531,-0.20318511079628992,1.5591422045330863,0.9965824178154711,-0.03721931080564047,0.042414015887376214,0.06032626841209756,0.0007948111888254061,0.0005298942938504301,4465.653888557106
1684728704495095729,121,1684728704495095729,camera_1,126,0,-0.08871741857836807,-0.2025723399872464,1.5588506481214632,0.9966415768783062,-0.038024772552261075,0.041423386424569816,0.05952971499169943,5.158610292710364e-06,3.4371040750720403e-06,4470.057643356209
1684728704505072116,122,1684728704505072116,camera_1,127,0,-0.0886633795338718,-0.2016383600500208,1.5590377849824792,0.9964274640314091,-0.03789863642401347,0.03901064231606052,0.0646078328627687,0.005500646773725748,0.003666653929997633,4465.626238094004
1684728704515011072,123,1684728704515011072,camera_1,128,0,-0.08864036113628909,-0.20128913791320863,1.559107579350013,0.996737879190027,-0.03911804790773556,0.032477778652349826,0.0626783248776193,0.007281017969944514,0.004855470324183532,4470.599787007668
1684728704525048494,124,1684728704525048494,camera_1,129,0,-0.08875761706913204,-0.20126707814530267,1.561065180413319,0.9971509177040669,-0.03764073480370796,0.033741531476081554,0.05598867259564662,0.0006439829739974812,0.0004301862797229252,4467.908692577388
1684728704535185337,125,1684728704535185337,camera_1,130,0,-0.08869748824374422,-0.2009785054650704,1.5604620869501904,0.9969782195368364,-0.03741590266098571,0.04072976456234152,0.05454875136902051,0.0034657333308132365,0.002311471459223603,4471.054475497627
1684728704545104265,126,1684728704545104265,camera_1,131,0,-0.08873160900996709,-0.20093122624390758,1.5609826442265997,-0.9970794022570573,0.03792792800179865,-0.04186637477958011,-0.05139401263781217,0.00126047212688718,0.0008409991550577574,4471.356185450219
1684728704555069208,127,1684728704555069208,camera_1,132,0,-0.08874391683374933,-0.20102362897955156,1.5614062082368567,0.9970442200187343,-0.03525935518660346,-0.005555577942966371,-0.06803482014952524,0.003503857777104713,0.002339211203587601,4468.8790244835545
1684728704565108299,128,1684728704565108299,camera_1,133,0,-0.0886682547680514,-0.2010394908265894,1.5601735699583492,0.996735677330077,-0.03810557593512331,0.03646132607205243,0.061127132446016565,0.0030071612709434703,0.002006755778946398,4466.189316746661
1684728704575070381,129,1684728704575070381,camera_1,134,0,-0.08863685633106472,-0.2011634614025084,1.559357496029472,0.9965085462523137,-0.03777375174948951,0.034835495060417984,0.06580538890367764,0.002296054270118475,0.0015317599195324827,4464.790976176037
1684728704585115909,130,1684728704585115909,camera_1,135,0,-0.08875218644167879,-0.20205532721107095,1.5607370889927656,0.9967500550568993,-0.038428740756076996,0.03718201345117611,0.06024995853680878,0.007151587706175633,0.00477680637680952,4461.673436613462
1684728704595021724,131,1684728704595021724,camera_1,136,0,-0.08871866300972481,-0.2023930521234018,1.5599064510588625,0.996948493957324,-0.037619743717766906,0.03843757602440983,0.05657745158807589,0.0032126109581440687,0.002143089108908312,4469.436762481931
1684728704605038404,132,1684728704605038404,camera_1,137,0,-0.08881324436730456,-0.20302200481923716,1.560647699312998,0.99677114150462,-0.03847192692884383,0.03586153024391161,0.06067250572148564,0.0003573543071979657,0.00023881486725827535,4459.901902938145
1684728704615142822,133,1684728704615142822,camera_1,138,0,-0.08878381909584337,-0.2035672721011944,1.5600675384056784,0.9964970239941806,-0.0380159725977746,0.04332259531021095,0.06059389188503101,0.0016481326456414536,0.0011001276495696624,4458.969137370236
1684728704625067472,134,1684728704625067472,camera_1,139,0,-0.08874507529209792,-0.20472340509281256,1.5585130661369588,0.9966072108684835,-0.038247384752398264,0.0368964223179806,0.06284790230928464,0.0024567705404479057,0.0016386796701580203,4464.346841687451
1684728704635020732,135,1684728704635020732,camera_1,140,0,-0.0888520444450059,-0.20563870262983375,1.5596960003150657,0.9970309559725133,-0.037604926725424655,0.04152387862536575,0.052829062289782035,0.004807628531125374,0.003208515008809307,4466.245721321029
1684728704645107030,136,1684728704645107030,camera_1,141,0,-0.088794907455808,-0.20621355889931212,1.5579400453848478,0.9964769037960177,-0.03782859289404647,0.03829255211356359,0.06431530310422554,0.003125220915535465,0.0020844326363987885,4461.447428513375
1684728704655141830,137,1684728704655141830,camera_1,142,0,-0.08897341307202628,-0.2073210381254535,1.5601690001685062,0.9969514305584208,-0.03812180007784299,0.03805892571258196,0.05644547492888656,0.0008662091422593221,0.0005791602575028638,4456.87778366916
1684728704665116786,138,1684728704665116786,camera_1,143,0,-0.08885227603213208,-0.20859316704530953,1.5571301115584912,-0.9958367166943912,0.03526548920510531,0.0006383679971813906,0.08405457418106256,0.0018214872980024666,0.0012148501123972627,4463.216256834566
1684728704674979925,139,1684728704674979925,camera_1,144,0,-0.08901002162494354,-0.20969433695727702,1.5587439453562033,0.9967150653340163,-0.03844720555069836,0.04128815164328207,0.05810490044248737,0.0017181351577164605,0.0011478031649123758,4455.490007848974
1684728704685073614,140,1684728704685073614,camera_1,145,0,-0.08898813836020265,-0.2104636716056854,1.5579385458660548,0.9965101830159839,-0.038690617917748374,0.04498796300829365,0.05870753286382862,0.00077732143108733,0.0005187670228281674,4455.484264499189
1684728704695117473,141,1684728704695117473,camera_1,146,0,-0.089038760325958,-0.21131417143562659,1.5583843683222578,-0.9963564077364653,0.03575254330841047,0.007869376122562539,0.07703075573372321,0.0026284255436621606,0.001755331648806022,4457.574813453657
1684728704705027818,142,1684728704705027818,camera_1,147,0,-0.08895686456420192,-0.21253837438389425,1.5556105777872975,-0.9958034011878533,0.035514660354160815,0.00979448409120952,0.08377567167154851,0.002518162436899729,0.0016772360906502012,4461.392870334531
1684728704715147256,143,1684728704715147256,camera_1,148,0,-0.08916007641918647,-0.21371704887192594,1.5583794781255969,0.9970417046090526,-0.03870434273415513,0.045182273065635006,0.04866595652419115,0.007541986968135461,0.005038961598511299,4456.716544810597
1684728704725139141,144,1684728704725139141,camera_1,149,0,-0.08908629627397952,-0.21414422523246907,1.5565449268433356,0.9966089025054616,-0.03844440811355329,0.05137742049949767,0.05150809251443461,0.0024262522347271442,0.0016174228218165296,4458.930933027556
1684728704735142707,145,1684728704735142707,camera_1,150,0,-0.08916879258654556,-0.21490370318709262,1.5572520113451274,0.9967759460283809,-0.039135461849107774,0.04445106585220895,0.05413161543576882,0.0007186606526374817,0.00047998010502935405,4453.782912861845
1684728704745261907,146,1684728704745261907,camera_1,151,0,-0.08914706060378855,-0.21584239409648165,1.555883360320528,0.9967554706908874,-0.037901898494034865,0.04410736243958924,0.05564636840763395,0.00043017482676077634,0.00028696947645556737,4457.02573239591
1684728704755220413,147,1684728704755220413,camera_1,152,0,-0.08915399987097303,-0.2163211704133892,1.5560579603729408,0.9968850382223575,-0.03739240560434666,0.045386317802626044,0.05255578681599212,0.0019239066314185038,0.0012835848127106873,4457.952051830303
1684728704765230894,148,1684728704765230894,camera_1,153,0,-0.08914745246779957,-0.21667001180567427,1.5559374940844177,0.9960245022346174,-0.03555375914568925,-0.00656788874320632,-0.08141243146074142,0.010172708018217236,0.006790071250012524,4456.549790984836
1684728704775050401,149,1684728704775050401,camera_1,154,0,-0.08921435383180806,-0.21706498811850783,1.5563854906002372,0.9971492822147983,-0.03856003596328049,0.0398004424651912,0.05120895805030904,0.0069719217281090096,0.004656080724277486,4458.250749029187
1684728704785156011,150,1684728704785156011,camera_1,155,0,-0.08915729863636528,-0.2172032871335141,1.5547278185394398,0.9967298790396067,-0.03844606190014682,0.03617645264667936,0.061177715125390525,0.0014322089991765097,0.0009558114564727197,4455.553992626228
1684728704795057296,151,1684728704795057296,camera_1,156,0,-0.08917715630359085,-0.2173624028407197,1.5553152464256066,0.9969177934467433,-0.03817274500423083,0.038670771196451396,0.05658909880171426,0.0022035116562619805,0.0014707138297169688,4457.0998372552
1684728704805091857,152,1684728704805091857,camera_1,157,0,-0.08920202576070824,-0.21736563856794813,1.555756900290455,0.9969777968381024,-0.03834428471629125,0.0355939149584783,0.05742875289755206,0.0011073890200350434,0.0007397938541082799,4454.720474118687
1684728704814981698,153,1684728704814981698,camera_1,158,0,-0.08914844042204738,-0.2171236221548462,1.5548068081891084,0.9966179140980032,-0.03842414869279599,0.039703428798917584,0.060827262290754656,0.0035202104481868446,0.0023483978701828306,4454.55197156244
1684728704825016498,154,1684728704825016498,camera_1,159,0,-0.08923723774032355,-0.21687928064046455,1.5565194516518805,0.9969846462346125,-0.038152554926454564,0.050487229983153484,0.04491143878408549,0.0031448719382751733,0.0020984542924649035,4459.819000256916
1684728704835149288,155,1684728704835149288,camera_1,160,0,-0.0891591779183123,-0.2163360849173852,1.5553393095567725,0.9967881605510919,-0.03915377679947626,0.042372599784133304,0.055541943925661544,0.00016203444101847708,0.00010805916348357316,4459.5268498180385
1684728704845191478,156,1684728704845191478,camera_1,161,0,-0.08921689705796695,-0.2161257589928078,1.5570701015763242,0.9970331179596528,-0.037911185645607436,0.04222214933553981,0.052009554892200424,0.002829973032930866,0.0018905177730315092,4455.162978232253
1684728704855148315,157,1684728704855148315,camera_1,162,0,-0.08914572645085815,-0.21548023626962864,1.5561709701133313,0.9968836510951072,-0.03852352576932268,0.04366222749246544,0.053221556083839064,0.000874862918863073,0.0005836494373643602,4459.567646518
1684728704865262508,158,1684728704865262508,camera_1,163,0,-0.08904086897524754,-0.21408758497281383,1.5551433913042527,0.9964386730619624,-0.03896986245740482,0.040745263815244265,0.06269883669728399,0.0003971736878156662,0.00026474906374298197,4457.90865971643
1684728704875301361,159,1684728704875301361,camera_1,164,0,-0.08912317877637893,-0.2136833275542647,1.5572619029082082,0.9969090350294958,-0.039053579543421105,0.042806967715586536,0.05305428650356361,0.0009740012756083161,0.0006501927378098328,4458.9213630541635
1684728704885175228,160,1684728704885175228,camera_1,165,0,-0.08912504747550393,-0.2130080301038517,1.558133028915009,0.9964596581314885,-0.03569845469882178,-0.006941906123544358,-0.07579960414121724,0.004650063769076951,0.0031062978257131823,4457.818039902777
1684728704895187377,161,1684728704895187377,camera_1,166,0,-0.08908965985632238,-0.2122296824542137,1.5578505787149524,0.9967528214038766,-0.0387561408143938,0.04281124403632463,0.05611570151614366,0.010358308660215698,0.006916633848304161,4455.758653970116
1684728704905470371,162,1684728704905470371,camera_1,167,0,-0.08909816530008485,-0.21075411310428646,1.5593557319514477,0.9969921444800824,-0.038751716169890905,0.042743249292390685,0.051749231673748966,0.007157198982895352,0.004783382709701657,4456.548598054156
1684728704915290355,163,1684728704915290355,camera_1,168,0,-0.08905447870000643,-0.20991085555470101,1.5594212250529385,0.997123906152834,-0.039116596019762036,0.03641305690198534,0.053739156872750084,0.009138649213127792,0.0061100430690617024,4458.388564012683
1684728704925384044,164,1684728704925384044,camera_1,169,0,-0.08899974431039422,-0.20897411819963413,1.5590428770143023,0.9963880383541952,-0.03538189447514885,-0.007799556675201194,-0.0767995148662967,0.006153215610538609,0.004109024625730623,4458.299088212312
1684728704935480117,165,1684728704935480117,camera_1,170,0,-0.08902719790950449,-0.20821622675294368,1.5595376077595826,0.996895806464283,-0.03885567528693234,0.04286586620449543,0.053399485638550306,0.00099596957443282,0.0006652583269238315,4459.790458318252
1684728704945174932,166,1684728704945174932,camera_1,171,0,-0.0889288369128898,-0.20651961322572981,1.5594747213946942,0.9969891977630616,-0.03812751967482132,0.039435819226749526,0.054805546700385455,0.0007579849334433675,0.0005061114772815359,4463.96475357807
1684728704955098628,167,1684728704955098628,camera_1,172,0,-0.08900215622613009,-0.20598841803738066,1.5614204614692504,0.9972840145094675,-0.03801517216104019,0.036311433663423306,0.0515841145582022,0.004127825915929861,0.00276193974013697,4459.463215869415
1684728704965103864,168,1684728704965103864,camera_1,173,0,-0.08871349648691369,-0.20464840007514204,1.557198517814087,0.9962075069099348,-0.03829890087110773,0.03707938208065583,0.06876711999839982,0.002747737235040404,0.0018308017392495994,4463.5375480096545
1684728704975141286,169,1684728704975141286,camera_1,174,0,-0.08875628160065041,-0.2040993964502371,1.558760265943472,-0.9959763523389756,0.03532986675668319,-0.0018588507631543585,0.0823374202312879,0.00584482129488606,0.0039007143691525787,4464.396010413417
1684728704985255002,170,1684728704985255002,camera_1,175,0,-0.08879424026502528,-0.20307991435870257,1.5605993397854039,-0.9966753081199794,0.034798878398489545,0.006295275167045005,0.07340121086686939,0.006609390446101315,0.004412776241181235,4463.85329450632
1684728704995046854,171,1684728704995046854,camera_1,176,0,-0.08874313452987959,-0.20243412488424817,1.559606890521332,0.9968587581274175,-0.03766711334154276,0.042291196091003784,0.055364787097672966,0.0008219788433052599,0.0005479306580359899,4470.873064852785
1684728705005188941,172,1684728705005188941,camera_1,177,0,-0.08877951280034219,-0.20210864919168411,1.5608606475108548,0.9968293590866927,-0.03810856210445009,0.04598147474650293,0.052580132533891016,0.003432396159041673,0.00229027924641508,4466.17839833349
1684728705015192031,173,1684728705015192031,camera_1,178,0,-0.0886564657760962,-0.20141705761380033,1.55889514326576,0.996641136639584,-0.0353866035711386,-0.003188197197323954,-0.0737839307985714,0.004710269742645323,0.0031370932470851567,4476.694743480764
1684728705025163173,174,1684728705025163173,camera_1,179,0,-0.08866038868668198,-0.20096151246637622,1.5597981228856683,-0.996121580462082,0.035465592672277994,-0.002203290374747482,0.08049306917774154,0.002247272990643978,0.001499870120677986,4465.838359305753
1684728705035017251,175,1684728705035017251,camera_1,180,0,-0.08866848265294186,-0.20088419158999665,1.5599384939201424,0.9966695537313941,-0.03805737048084569,0.03653704714933551,0.06218103732292338,0.0002638396108523011,0.00017603490034900018,4466.470647705952
1684728705045115470,176,1684728705045115470,camera_1,181,0,-0.08857900234263444,-0.2005784507492509,1.5581998798712886,0.9961874940991657,-0.038536162708361625,0.036270842674566206,0.06935320277980135,0.00288513746636454,0.0019222025180854645,4467.097394689509
1684728705055160522,177,1684728705055160522,camera_1,182,0,-0.08869531948826494,-0.20087616986242685,1.5603744829523822,0.9970090525949449,-0.03847594601837933,0.0387397160774066,0.054697212177251486,0.0011017180513590574,0.0007348111681259226,4472.365038467864
1684728705065072059,178,1684728705065072059,camera_1,183,0,-0.08936354128293478,-0.20270519662246458,1.5722478355253786,0.9989671088536054,-0.03703008202959777,0.020661292922769206,0.016327872742944057,0.062345057798665955,0.0419082615067348,4469.223536699019
1684728705075010538,179,1684728705075010538,camera_1,184,0,-0.08872008093356187,-0.20149085460381994,1.5604989005346406,0.9969408086643876,-0.03803543107465948,0.03682612973745952,0.057499271048612424,0.004780703340657055,0.003190948200807079,4467.723542010412
1684728705085105657,180,1684728705085105657,camera_1,185,0,-0.08870002496938068,-0.20176177356635625,1.5598528906326035,0.9966499713013891,-0.03844298808677769,0.04286930369687833,0.05807920602457573,0.0053581324755214155,0.0035721770651084036,4467.555446394022
1684728705095150947,181,1684728705095150947,camera_1,186,0,-0.08876701321943833,-0.20230419633668525,1.560792632084825,0.9970145486203357,-0.03744649575335729,0.0409238398496982,0.05371209479380267,0.003077123314142227,0.002054084381779676,4467.162057847834
1684728705105097532,182,1684728705105097532,camera_1,187,0,-0.08888737129142754,-0.203538750181321,1.5619873639911765,0.9972556819472185,-0.037626136558913496,0.03779665867105928,0.05134969586026507,0.0031080920016393065,0.0020789654865799446,4461.716138259448
1684728705115111827,183,1684728705115111827,camera_1,188,0,-0.08874440391100616,-0.20377542662360498,1.5591567621137885,0.9966386707093273,-0.037987998901073156,0.0329284233226421,0.06468377635637845,0.0015283021639334038,0.0010204614828668956,4461.88585919724
1684728705125003337,184,1684728705125003337,camera_1,189,0,-0.08906703977953245,-0.2051550626186747,1.5647323172656558,0.9972242743796313,-0.035658458511408836,-0.02208390682671001,-0.061518468640541966,0.04527583533490542,0.0303078286114294,4468.186578309102
1684728705135195016,185,1684728705135195016,camera_1,190,0,-0.08881479337661308,-0.2051959998730764,1.5591667068781094,0.9967600301147088,-0.03714691115418888,0.04135210723955798,0.05813391939544488,0.012405488305375911,0.008275392694333077,4463.9897997085345
1684728705145186662,186,1684728705145186662,camera_1,191,0,-0.0889082273503729,-0.20677740308617393,1.5593811087310685,0.9966997030993693,-0.03777130960379236,0.03951518872708109,0.06001316415843288,0.006112406917964108,0.004082579115546372,4457.474139768923
1684728705155073642,187,1684728705155073642,camera_1,192,0,-0.08900013072070723,-0.20775301300182958,1.5606155456864117,0.9970992481246395,-0.038448209985041254,0.041051401826084216,0.05127969331361394,0.004071754068718292,0.002722571633893124,4458.228332825471
1684728705165117263,188,1684728705165117263,camera_1,193,0,-0.08907672585542639,-0.2087052656430634,1.5612198447480563,0.9974931061460754,-0.03815150987033373,0.03780987027342573,0.04606928690108751,0.007106710632797331,0.004756894442409742,4459.499772692099
1684728705175050020,189,1684728705175050020,camera_1,194,0,-0.08961640075276585,-0.21076077576243957,1.5703972184405863,0.9979628161635449,-0.036339044302498485,0.0196428058796998,-0.048619456920869344,0.07494845696783159,0.050406539031254034,4460.994845267038
1684728705185094118,190,1684728705185094118,camera_1,195,0,-0.0890045311607992,-0.2107914359605182,1.5580375984857693,-0.9957919542260019,0.035919738536316734,0.006867086524685922,0.08402975309320788,0.0010148462315555662,0.0006776843378009471,4452.181185117398
1684728705195025205,191,1684728705195025205,camera_1,196,0,-0.08901844436970939,-0.2115978646512536,1.5574483336630114,0.9966674536027528,-0.038854538739376894,0.040841098977818784,0.05896029496736645,0.003238652308937162,0.002161819154328645,4456.807270267924
1684728705205094099,192,1684728705205094099,camera_1,197,0,-0.08905607724495523,-0.21237107348098788,1.5572127287625466,0.9967182847387739,-0.038037200273721185,0.05064203585029133,0.05041047974053646,3.1385134207084775e-05,2.0924918478837625e-05,4461.5437502598525
1684728705215044021,193,1684728705215044021,camera_1,198,0,-0.0890353810475021,-0.21303832631913755,1.5567158476900618,0.9957671692878347,-0.035433175708366724,-0.007710864099060475,-0.084455770688323,0.0040348584443563595,0.0026922487439668143,4454.5708584264175
1684728705225056409,194,1684728705225056409,camera_1,199,0,-0.08909369137091666,-0.21444137538398098,1.5562806502754647,0.9965085332711542,-0.03903281461468798,0.039362796830537713,0.06243198480511691,0.0002853691839845851,0.00019053947389616432,4451.7674985212525
1684728705235054492,195,1684728705235054492,camera_1,200,0,-0.08911911129888195,-0.2151052568505071,1.5563480587659542,0.9968697434850543,-0.03924789656205798,0.043478441011041036,0.053103128973213024,0.0036518108972813934,0.002436400079390074,4459.772505034896
1684728705245165586,196,1684728705245165586,camera_1,201,0,-0.08914636815415942,-0.2156391492209737,1.5562098767053996,0.9967329561271357,-0.038598206552710713,0.044490923522634285,0.05526436777055038,0.000678555472404696,0.000452783889131366,4456.089006055146
1684728705255155563,197,1684728705255155563,camera_1,202,0,-0.08918679576907806,-0.21615516970080112,1.5562863284839594,0.9966327619541373,-0.03809049807005285,0.0492743862391178,0.05333185368240578,0.0004589015297824517,0.0003061667988173654,4454.198345349404
1684728705265078544,198,1684728705265078544,camera_1,203,0,-0.08922037379632669,-0.216927174039613,1.5561733610151671,0.9968806013032689,-0.03838713014417892,0.04703563839152719,0.050429591567138936,0.004042670043418184,0.002697816265485108,4457.368840573005
1684728705275055170,199,1684728705275055170,camera_1,204,0,-0.08924229825339058,-0.21725265207951616,1.5569486984417085,-0.99649093140652,0.03495964655067038,0.007831486459912558,0.07564598176669261,0.00484628435515333,0.0032378503999898507,4456.101939885411
1684728705285137414,200,1684728705285137414,camera_1,205,0,-0.0891216188769842,-0.21712168854901417,1.5544291434952007,0.9965563912824543,-0.038571940205461425,0.03676783887615858,0.06352708435978417,0.004407831540447659,0.0029408939869516246,4453.939447233393
1684728705295215129,201,1684728705295215129,camera_1,206,0,-0.08927496545534608,-0.21752772605613238,1.556658819387282,0.9970866916046386,-0.03754597063694426,0.049108879848139636,0.04468497995867193,0.0007226019661175087,0.00048238763653250864,4458.436803693825
1684728705305074214,202,1684728705305074214,camera_1,207,0,-0.0893371594657491,-0.21760419350837956,1.5577641754360445,0.9974226673766489,-0.038368647988354584,0.0408417905144861,0.04480867775740947,0.0010070749704027548,0.0006735230345365924,4456.163876653443
1684728705315021276,203,1684728705315021276,camera_1,208,0,-0.08924709433130235,-0.21729138166603956,1.556549221213436,0.9969690969750994,-0.03906491334466102,0.044704756546750886,0.050279587947047594,0.0043932934931945064,0.0029335914300061532,4455.724365128787
1684728705325085401,204,1684728705325085401,camera_1,209,0,-0.08917975224484181,-0.21689262534132647,1.5558635625488022,-0.9958859876963521,0.0348674571099922,0.00599682707682765,0.08342300647755974,0.0012536927388282493,0.0008368752409204815,4454.335873671516
1684728705335070610,205,1684728705335070610,camera_1,210,0,-0.08917924548114742,-0.21660328720660993,1.555884215793609,0.9968618022480387,-0.038201317190979495,0.045058791874524384,0.052696412197365206,0.006051355114323087,0.0040368894363489935,4458.1183790897485
1684728705345082283,206,1684728705345082283,camera_1,211,0,-0.0892361513334898,-0.2159666819878471,1.5576224930807798,0.9969939600317391,-0.03825738314758123,0.042707564841420784,0.052110269623616416,0.006804477918194607,0.00454814791590282,4452.266446907305
1684728705354965209,207,1684728705354965209,camera_1,212,0,-0.08909951085796743,-0.21512672815718095,1.5557908439844774,0.9961700253883068,-0.0355747949108435,-0.008129479077529459,-0.0794583290463618,0.004190476101939566,0.0027939550502502747,4461.93128981651
1684728705365111589,208,1684728705365111589,camera_1,213,0,-0.0890876548420531,-0.2145239390782173,1.5556953366155675,0.996504043084532,-0.03880199338555654,0.04500270532626317,0.058726943891248405,0.0008750734850764274,0.000583377775146491,4457.168209554569
1684728705375105619,209,1684728705375105619,camera_1,214,0,-0.08912491403448666,-0.21404027726096095,1.5569783308986744,0.9967085098093081,-0.039037823844507324,0.0441568170247162,0.055663006507369106,0.005900656702578999,0.003938277187224401,4455.767750636151
1684728705385181665,210,1684728705385181665,camera_1,215,0,-0.08908161395756614,-0.21258326977491415,1.5571508951845672,0.9968467859122568,-0.03819918113293648,0.04023638078214794,0.05673042956588768,0.001322579919360578,0.0008827762118775376,4458.999524090086
1684728705395012617,211,1684728705395012617,camera_1,216,0,-0.08899279386246274,-0.21168158983732618,1.556542133843984,0.996449755317695,-0.038549521422451834,0.04979784987307039,0.05587480356497999,0.0027366849972167984,0.0018231188525954735,4460.945349286749
1684728705404988527,212,1684728705404988527,camera_1,217,0,-0.0891349257433462,-0.21121214531384291,1.5592408244546971,0.997003987643717,-0.03893396264015686,0.04028136013594045,0.05333485915665735,0.0007193663041107357,0.00048097837766918717,4455.263979996787
1684728705415113449,213,1684728705415113449,camera_1,218,0,-0.08995924404688704,-0.21246614594697608,1.5750674400808224,0.9990201802204433,-0.03781152069697139,0.02212728867837171,0.00627307824272148,0.1501576350419782,0.10137604227181211,4455.130187968462
1684728705425094366,214,1684728705425094366,camera_1,219,0,-0.08903751147420347,-0.20865151766836876,1.5596165868172118,0.9969352415879041,-0.038906750234672764,0.03979373227896262,0.054980430496261064,0.0038728553627151996,0.002588297526969803,4457.746414181718
1684728705435079574,215,1684728705435079574,camera_1,220,0,-0.08899258264271953,-0.2077766826255535,1.5594928196617384,0.9970546884513067,-0.0380198551652295,0.03763619739183426,0.0549541217413721,0.006170487482449971,0.004122640189759246,4461.358982790554
1684728705445092439,216,1684728705445092439,camera_1,221,0,-0.08885641605357286,-0.20674254896625194,1.558025218234456,0.9965668381373102,-0.0381176618471639,0.0437478285392177,0.05905682414770174,0.0009853914089035243,0.0006567771088892667,4464.309517140733
1684728705455071687,217,1684728705455071687,camera_1,222,0,-0.08886359646401193,-0.2060048612638854,1.5588278039153678,0.99679293419621,-0.03819815927780696,0.040474337001950786,0.05750282609185624,0.002258829365018755,0.0015067812422438539,4465.055496501736
1684728705465041399,218,1684728705465041399,camera_1,223,0,-0.08879472724435115,-0.20443409783040115,1.5589587290048217,-0.9962688299380467,0.035045667536288065,0.0033877593927442427,0.07879557580923156,0.0013882707135053352,0.0009259784562123885,4465.563421080356
1684728705475053548,219,1684728705475053548,camera_1,224,0,-0.08861518577700424,-0.2033827432098614,1.5559188189457376,0.9962242430122169,-0.03837906823914485,0.037499242572392864,0.06825035943002304,0.0005275019793771207,0.0003507147568372605,4474.109789730981
1684728705485183954,220,1684728705485183954,camera_1,225,0,-0.08883384104135303,-0.20337514546437765,1.5605660590263781,0.9969493808031634,-0.0385808180900118,0.037661852506535407,0.056436136096215304,0.0032681405427865684,0.0021830153684057633,4464.062042934529
1684728705495098114,221,1684728705495098114,camera_1,226,0,-0.08875597016740219,-0.20263440217209108,1.5592863531173284,0.9964386845739267,-0.03825084402881101,0.04290972971949267,0.06168935006195182,0.0005544573796214536,0.0003696452512330141,4464.188634501481
1684728705505087137,222,1684728705505087137,camera_1,227,0,-0.0888219350296361,-0.20198381236963414,1.561547576374244,0.9970066512978589,-0.03840822987925737,0.0378536220540139,0.05540440815281423,0.00239340630650986,0.0015994896240859662,4463.037856204086
1684728705515053033,223,1684728705515053033,camera_1,228,0,-0.08871845700466982,-0.20144152915136526,1.5602273115772476,0.9971213111233855,-0.03818022754104219,0.04137004994482874,0.050792520079805475,0.001642157614696771,0.0010948146090636584,4475.175936011015
1684728705525040626,224,1684728705525040626,camera_1,229,0,-0.08873293127787413,-0.20123211379671355,1.5607773151499613,0.9968113017558934,-0.03844282404090193,0.042165311167589176,0.055780502916538,0.006495811510831118,0.00433417792807814,4466.745273232693
1684728705535254955,225,1684728705535254955,camera_1,230,0,-0.08875021201767451,-0.20113295248101767,1.5614101390056823,0.9969990154843225,-0.03837606880537318,0.039086499253172834,0.05470362001247153,0.006048268071026541,0.004039380020806321,4465.993988326518
1684728705545268774,226,1684728705545268774,camera_1,231,0,-0.08869706838562177,-0.20085695965544195,1.5603777679184616,0.9967147028401311,-0.03897406308703334,0.03982474671954404,0.05877765814934562,1.6612233594059944e-05,1.1082866944265549e-05,4467.165392099414
1684728705555121660,227,1684728705555121660,camera_1,232,0,-0.08861658307287906,-0.20073456704382567,1.55897382209326,0.9967447329795173,-0.03843491803143788,0.033756717776317224,0.0623151535220598,0.0011043605773011222,0.0007361059815143825,4472.748719037278
1684728705565212488,228,1684728705565212488,camera_1,233,0,-0.08865050825183479,-0.20093816776016893,1.5596931987891893,-0.9967060852506432,0.03528062822942646,0.0040615928961049135,0.0729092611347901,0.0013656234368681908,0.0009101063478337366,4473.656933457824
1684728705575023412,229,1684728705575023412,camera_1,234,0,-0.08863128479524134,-0.20116000108443532,1.5592821917890358,0.996291054198268,-0.03799091908614585,0.03709017211135812,0.06771369524877024,0.009010799753013998,0.006010248231753807,4461.8684302184265
1684728705585261821,230,1684728705585261821,camera_1,235,0,-0.0887664403895287,-0.20207631285578218,1.560899018683771,0.9968034730003148,-0.03763993439170606,0.04036047966124437,0.057767665999357905,0.004947027264279313,0.0033035084472388034,4462.61206379556
