%time,field.header.seq,field.header.stamp,field.header.frame_id,field.image_seq,field.transforms0.fiducial_id,field.transforms0.transform.translation.x,field.transforms0.transform.translation.y,field.transforms0.transform.translation.z,field.transforms0.transform.rotation.x,field.transforms0.transform.rotation.y,field.transforms0.transform.rotation.z,field.transforms0.transform.rotation.w,field.transforms0.image_error,field.transforms0.object_error,field.transforms0.fiducial_area
1683655913772526264,11,1683655913772526264,camera_2,12,0,-0.16423453264090648,0.8856378190226111,4.628498255590259,-0.7189070044768643,0.6850486125070375,-0.09123273015117404,0.0745500259251972,0.0057516301894793296,0.0017797671299473116,11611.766211556387
1683655913791586637,12,1683655913791586637,camera_2,13,0,-0.16413550231879168,0.8851642343039873,4.62594201927198,-0.7184247843956361,0.6851361205783103,-0.09197925448759722,0.07742184568255155,0.007491004042094573,0.00231612727870661,11613.800363902554
1683655913810822248,13,1683655913810822248,camera_2,14,0,-0.16410694152076882,0.8851956898452376,4.625984764399351,-0.7183326632296257,0.6854750620046788,-0.08994927953856288,0.07766113196193228,0.019054077289183624,0.005887286434582461,11620.807813000285
1683655913829935073,14,1683655913829935073,camera_2,15,0,-0.16428323218373905,0.8859268681604238,4.630019525161727,-0.7188220547190203,0.6853495322259734,-0.08820371842049364,0.07622976048738288,0.007451826109900139,0.002305135498453778,11611.142563708068
1683655913848291873,15,1683655913848291873,camera_2,16,0,-0.16439277752247594,0.8864462419222825,4.632625077602376,-0.7190634781919697,0.6855944636694781,-0.08675296380099654,0.07336122264500879,0.019162366064847447,0.005931289994612306,11611.138568089955
1683655913867184877,16,1683655913867184877,camera_2,17,0,-0.16428924847907567,0.8857739751254035,4.629289635271509,-0.7185912378020881,0.685173167516779,-0.09078022335380773,0.07696307242385514,0.014618356522987593,0.004524367752380256,11602.924088337226
1683655913886284112,17,1683655913886284112,camera_2,18,0,-0.16415768164696337,0.8853064416151349,4.626793173911351,-0.7186117333062622,0.6850279036962836,-0.09153420147614176,0.07717148354262775,0.007673943226109259,0.002373162928007316,11611.984549018613
1683655913905154705,18,1683655913905154705,camera_2,19,0,-0.1642600787827243,0.8857210882116358,4.62894366099602,-0.7187053526533145,0.6853986828411311,-0.0891730382891356,0.07575903160285259,0.010527802776778117,0.0032561206435761663,11614.150904909467
1683655913923904180,19,1683655913923904180,camera_2,20,0,-0.16437109180340992,0.8862298990271771,4.631501308706617,-0.718675115688118,0.6856051921265249,-0.08876145913249205,0.0746525417684623,0.01366746773419436,0.0042312692014366,11605.86156599291
1683655913942721128,20,1683655913942721128,camera_2,21,0,-0.16435860453693973,0.8864356181884687,4.632691555815756,-0.7189682822864502,0.6855537989393408,-0.08698950518033677,0.07438698686188143,0.010217528644716367,0.0031630102468226525,11607.277268094389
1683655913961972475,21,1683655913961972475,camera_2,22,0,-0.16420174605756632,0.8856853425782061,4.628803706980578,-0.7188541590159595,0.6854363911434859,-0.08636563330603478,0.07724395863301728,0.015446726014488377,0.004772942413414379,11621.267107423628
1683655913980718612,22,1683655913980718612,camera_2,23,0,-0.16423501121535666,0.8856246519251922,4.628469526191307,-0.7186640885208414,0.6852350716849285,-0.08928215704500886,0.07748239049519212,0.0087383257196052,0.0027022438758341465,11611.345183061374
1683655913999639987,23,1683655913999639987,camera_2,24,0,-0.16425341093033355,0.8858801166768313,4.629794341559104,-0.7188606965146841,0.6853534661084575,-0.08876115786415076,0.07517567661259815,0.007873663111240603,0.0024358495982379053,11613.09868163254
1683655914018525600,24,1683655914018525600,camera_2,25,0,-0.16432166831259548,0.8861647402877385,4.631326469386334,-0.7189621737053079,0.6853219152360301,-0.08756458325418046,0.07589274693724041,0.004841823523747735,0.001498316427847224,11607.922985216546
1683655914037173509,25,1683655914037173509,camera_2,26,0,-0.16422112246171736,0.8856211929547044,4.628375179095333,-0.7189093942174565,0.6851598589617528,-0.08730398735096478,0.07812339192600064,0.014429276547161862,0.004459154380192636,11617.450252161016
1683655914056710243,26,1683655914056710243,camera_2,27,0,-0.16419962542014355,0.8854403892212809,4.627488688196339,-0.7185473770637628,0.6853714443576543,-0.09012713729236078,0.07637243807404172,0.007692735438467935,0.0023785170228229815,11616.121772374081
1683655914074916839,27,1683655914074916839,camera_2,28,0,-0.16419071672843752,0.8854681800161356,4.627526539784278,-0.7186073641683942,0.6850761362306927,-0.08996129619976924,0.07862002872192184,0.00811337998311501,0.0025085520130739194,11610.261820785236
1683655914093714952,28,1683655914093714952,camera_2,29,0,-0.16431896104840765,0.8859713540455687,4.630287052591153,-0.7186170508320259,0.6855659563814341,-0.08862567711865027,0.0757254452581958,0.006690914538921788,0.0020702844719913704,11609.565525803831
1683655914112072467,29,1683655914112072467,camera_2,30,0,-0.16433177246276556,0.8859597571578437,4.630183227408368,-0.7186905507581257,0.6856170313337212,-0.08822615244999887,0.075028825260607,0.02470100480422843,0.007641043745612718,11613.42156176607
1683655914131447792,30,1683655914131447792,camera_2,31,0,-0.1643029571965415,0.8861040635226018,4.630946087331748,-0.7189137874560791,0.6854401199369851,-0.08730439761306431,0.07558273839804346,0.006979369660257362,0.0021592361622714356,11611.63972956623
1683655914149994850,31,1683655914149994850,camera_2,32,0,-0.16430455177491954,0.8859431669863201,4.630196253899319,-0.7189748893812671,0.6852952958916734,-0.08851073141115992,0.0749087197394292,0.010758194286609069,0.0033284879684818873,11612.699680425256
1683655914168893337,32,1683655914168893337,camera_2,33,0,-0.16431709645340808,0.8860655123235004,4.630734821896667,-0.7189360080217132,0.6852967467576512,-0.08834826612233702,0.07545839334600009,0.009292695031035691,0.0028756206083340556,11609.131568718038
1683655914187416791,33,1683655914187416791,camera_2,34,0,-0.16425743659123232,0.8857403708744086,4.629097036900915,-0.7187890939714943,0.6854056869368311,-0.08848464596249293,0.07570832273390578,0.006471101558418013,0.002001120284329824,11616.125377368184
1683655914206673383,34,1683655914206673383,camera_2,35,0,-0.1643401273279868,0.8861724732574856,4.631400926633138,-0.7191568477729372,0.685568193623779,-0.08732142642593224,0.07200450457896118,0.007729771648882888,0.0023917350826093164,11618.688528077619
1683655914225121021,35,1683655914225121021,camera_2,36,0,-0.16422607325827665,0.8857146126748932,4.628940370226345,-0.7187831645727658,0.6853301892139422,-0.09081440182330762,0.07366164877476984,0.013224464841187,0.004092270441838385,11613.558354432458
1683655914244358062,36,1683655914244358062,camera_2,37,0,-0.16429381370986657,0.8859011741592238,4.629880696833011,-0.7188100041536793,0.6854207092301096,-0.08902277304338813,0.0747367056187698,0.008836127555696294,0.002733941126151594,11612.815077506766
1683655914263029336,37,1683655914263029336,camera_2,38,0,-0.16428626660846368,0.886025472193956,4.630566429950742,-0.7186528230590579,0.6853682835112422,-0.09018074725910277,0.07533836134327446,0.004177123395493253,0.0012932877002073805,11603.371843286439
1683655914281515836,38,1683655914281515836,camera_2,39,0,-0.16424268145193446,0.8856331572274564,4.6285815731541105,-0.7184986163209445,0.6854109679247732,-0.09044737036090957,0.076097415121082,0.009889838489471003,0.0030596092841563708,11610.171135868994
1683655914300331115,39,1683655914300331115,camera_2,40,0,-0.1642330840190726,0.8856997252497153,4.628782482197038,-0.718758623554557,0.6851314694852504,-0.09041103672691769,0.07620206706450945,0.008569717305363156,0.002651451373926946,11609.057600953991
1683655914318787813,40,1683655914318787813,camera_2,41,0,-0.16441166711555882,0.8864776552194383,4.6329302797445155,-0.7189319493031865,0.6854078253908936,-0.0885648174790218,0.07422424313493664,0.005746555907535367,0.001780039965542409,11600.605954923662
1683655914338072538,41,1683655914338072538,camera_2,42,0,-0.16427486323407753,0.8857983023971987,4.629253028573472,-0.7187428407548058,0.685425027077961,-0.08950521646729717,0.07476681980685329,0.01395803046762012,0.004318112104560738,11614.035243334163
1683655914356547117,42,1683655914356547117,camera_2,43,0,-0.16415563849248335,0.8853565163139412,4.627178002338057,-0.718388808045054,0.6853064582342566,-0.08998166407428566,0.07858676038906315,0.005783112399512902,0.0017878424581269379,11612.065503154474
1683655914375395536,43,1683655914375395536,camera_2,44,0,-0.16424353447780274,0.8855475266018182,4.628201175610158,-0.7186544121368343,0.6853575384982524,-0.09054806160314238,0.07497952306991071,0.008578329725423828,0.0026535549635373734,11614.737652177686
1683655914393955230,44,1683655914393955230,camera_2,45,0,-0.16425441216102396,0.8855691942975661,4.628300478348933,-0.718680278859713,0.6852287473498677,-0.09059085759361234,0.07585194199168661,0.009650016872910783,0.0029852086210485212,11611.68621109112
1683655914412894964,45,1683655914412894964,camera_2,46,0,-0.16434548169215468,0.8861163619723678,4.630991900225898,-0.7188369077169949,0.6855463947130017,-0.08796159362074625,0.0745814913203856,0.009634711255785078,0.0029813430215765717,11611.607388602279
1683655914431793928,46,1683655914431793928,camera_2,47,0,-0.1642424380429232,0.8856240805874448,4.628621354475605,-0.7185837240283045,0.6853408390465132,-0.09014946460649935,0.07627869904368102,0.0028305761952651665,0.0008756290948940393,11610.616871884384
1683655914450657606,47,1683655914450657606,camera_2,48,0,-0.16424647335561723,0.8858478509574107,4.6295677336184395,-0.7187080582737757,0.685394914808459,-0.09105008018002698,0.07350116071365809,0.013578322454122826,0.004203379080857945,11609.95056173511
1683655914469610929,48,1683655914469610929,camera_2,49,0,-0.16423923255606807,0.8857623560825855,4.629197899803668,-0.7186874340604251,0.6852073209502069,-0.09063645218344125,0.07592320446004024,0.0022778722923249006,0.0007049518749846551,11606.877981862988
1683655914488401889,49,1683655914488401889,camera_2,50,0,-0.16432687260830753,0.88593751398348,4.6299487564396005,-0.7188195901494716,0.6854101161285737,-0.08986595633229601,0.07372570391961529,0.012969988834811375,0.0040139276422074535,11611.87107982565
1683655914507017374,50,1683655914507017374,camera_2,51,0,-0.16413100502187639,0.8855056419733054,4.627729963561506,-0.7184532085150294,0.6854176601230934,-0.08933968979998702,0.07775627429529702,0.009570871668984182,0.0029588908583172316,11614.170250263498
1683655914526282072,51,1683655914526282072,camera_2,52,0,-0.16427747484159122,0.8859302069736703,4.630002681506023,-0.7190839375143907,0.6854584740892317,-0.0872441224289748,0.07384737104095197,0.010772016685223207,0.0033310346683509953,11621.223847316869
1683655914544801235,52,1683655914544801235,camera_2,53,0,-0.1642209908082066,0.8855976949283603,4.628102440751534,-0.7187460032780082,0.6852526481002953,-0.09040409444838358,0.07523357462190756,0.01143985653470736,0.00353845383048109,11615.13537340227
1683655914563793659,53,1683655914563793659,camera_2,54,0,-0.16405285657551322,0.8847098587739662,4.623762148111845,-0.7184324951652361,0.6848797055744081,-0.09254728077927385,0.07892743251447824,0.010390579380327836,0.0032101854341455033,11618.202624055735
1683655914583008050,54,1683655914583008050,camera_2,55,0,-0.16420936260030716,0.8854057708316173,4.627363141229475,-0.7186458872011374,0.6850655785973359,-0.09202863644554876,0.07592082654950821,0.007257693883730099,0.0022454530316969117,11610.656975595048
1683655914602354764,55,1683655914602354764,camera_2,56,0,-0.16433943011684174,0.8861323559908214,4.631042636863333,-0.7189333397417852,0.6853224728997512,-0.08923904018566162,0.0741913394745947,0.010934027246548794,0.003384918348613547,11607.623473723126
1683655914621413230,56,1683655914621413230,camera_2,57,0,-0.16432330170375478,0.8860638640929969,4.6305752411900425,-0.7188343211715897,0.6852779223646119,-0.08858682565607294,0.07631357772769781,0.014587834288249724,0.0045141300378302406,11606.65661518506
1683655914640802383,57,1683655914640802383,camera_2,58,0,-0.16421178920977414,0.8856940617227302,4.628730237339607,-0.718777078822511,0.6852991388132641,-0.08885583884613604,0.07634946760866256,0.008013943413970992,0.002478211241123118,11614.870324084653
1683655914660449504,58,1683655914660449504,camera_2,59,0,-0.16423206760344078,0.8856651354816892,4.628486941944563,-0.7187608337077265,0.6849744061655192,-0.09014330731220885,0.07789166176674434,0.008407000073930249,0.0026006540835256903,11606.853647651937
1683655914679781913,59,1683655914679781913,camera_2,60,0,-0.16433330410030889,0.8859005640256614,4.629866141410311,-0.7185761070070475,0.6853857498742145,-0.08923078569059936,0.07702349766788753,0.015109698331798427,0.004675142849451262,11605.749715531476
1683655914699043273,60,1683655914699043273,camera_2,61,0,-0.16421159389575218,0.8855982976439524,4.628291364063124,-0.7188122322376252,0.6852132114664881,-0.08910817296932164,0.07649551050495605,0.010561993607552722,0.0032657830302437055,11615.692964944668
1683655914718254566,61,1683655914718254566,camera_2,62,0,-0.16430153147393758,0.885940024266257,4.630182991911523,-0.7190263307301665,0.6851113717680746,-0.08812363469103127,0.07653606339250861,0.0072237269778270274,0.0022346692915380154,11609.76709423403
1683655914737900972,62,1683655914737900972,camera_2,63,0,-0.16430049473511202,0.8860043511072881,4.630320818491779,-0.7188306247556538,0.6853991190362859,-0.0877389557382451,0.07623946605034546,0.0140908465400571,0.004358736226328381,11611.333885178345
1683655914758500814,63,1683655914758500814,camera_2,64,0,-0.16428946753487472,0.8858862260597955,4.629934772886396,-0.7188642980134972,0.6852531138279795,-0.08873475946585553,0.07608175532384237,0.008677428428200074,0.002684623581318285,11609.977697016144
1683655914776685237,64,1683655914776685237,camera_2,65,0,-0.16430432667464986,0.8858898167133912,4.629953262965482,-0.7186640335855365,0.6852825594692843,-0.0903725130853416,0.07578013853532777,0.014082409092225134,0.004359044799533942,11604.437749088564
1683655914795921325,65,1683655914795921325,camera_2,66,0,-0.16409786004269877,0.8849391697737881,4.624966601936901,-0.7184127986183925,0.6850387434913466,-0.09210299945222142,0.07824326289841381,0.007337654009461403,0.0022679222727003427,11615.90618263191
1683655914815270662,66,1683655914815270662,camera_2,67,0,-0.1643259214353322,0.8859568320789362,4.6304068498377715,-0.7189665469232479,0.6854377041944527,-0.08809401928594207,0.07417345778610625,0.007564493658719584,0.00234024576054201,11615.139391548582
1683655914834849357,67,1683655914834849357,camera_2,68,0,-0.16422110395992337,0.8856274192889381,4.628366644086825,-0.7187556884263265,0.6853588707382212,-0.08845448125829747,0.0764806080032895,0.00973174421233125,0.0030084635945464063,11617.789020592198
1683655914854269981,68,1683655914854269981,camera_2,69,0,-0.16429574591974538,0.8859933856276512,4.630341584526881,-0.7186251895326776,0.6855127624455525,-0.0892516858776747,0.07539380651873155,0.0032468271674588323,0.0010048580609684256,11607.863102197849
1683655914873260259,69,1683655914873260259,camera_2,70,0,-0.16434098934884678,0.8863048719336937,4.6318409680622645,-0.7193696579866103,0.6853209083127514,-0.08568687628511015,0.07416405483866786,0.02078090280701872,0.006428146742139626,11616.89748319902
1683655914892843008,70,1683655914892843008,camera_2,71,0,-0.16422807562963884,0.8856612863716492,4.628651648007245,-0.7187313840903247,0.6853853660331913,-0.08856493537439686,0.07634362955272524,0.011823747918242589,0.003655882826157165,11616.357726151677
1683655914912225723,71,1683655914912225723,camera_2,72,0,-0.1642355039094353,0.8856915176037194,4.6287578795339135,-0.7186751507566503,0.6854333907135677,-0.08855131844905162,0.0764575606512672,0.012937888008309528,0.004000438963810818,11615.535260019917
1683655914931631803,72,1683655914931631803,camera_2,73,0,-0.16418600121723392,0.8853668270624617,4.627225646489458,-0.7186841048009455,0.6851799242716485,-0.0914375427710307,0.07523831905058363,0.007096137051121332,0.0021947596023545405,11615.497854278306
1683655914950822353,73,1683655914950822353,camera_2,74,0,-0.1641378220826394,0.8851651048588688,4.6259886640610945,-0.7186239460193459,0.6851447424443826,-0.09111517219034994,0.07651360339918631,0.009031082066940144,0.0027914689450171106,11619.470467032312
1683655914970310211,74,1683655914970310211,camera_2,75,0,-0.16421280580491188,0.8856453143573184,4.6284472217781865,-0.7188119445167878,0.685080110475365,-0.09067655062968911,0.07584453715962447,0.009335373324574903,0.0028882885049274303,11610.739911272394
1683655914989688158,75,1683655914989688158,camera_2,76,0,-0.16427448093426497,0.8858595968859357,4.629503531247502,-0.7189804548434569,0.6850651708007692,-0.08964567173881403,0.07560734651676113,0.009727217111503705,0.0030097886508754644,11610.001727675612
1683655915009603977,76,1683655915009603977,camera_2,77,0,-0.16405310424012304,0.8848876293356874,4.624496994701742,-0.7184852281787552,0.684771682670035,-0.0928289152447375,0.07905385503981702,0.003990070283180103,0.001233278464861832,11613.072911874187
1683655915028298139,77,1683655915028298139,camera_2,78,0,-0.16425537884012031,0.8855518694602302,4.627995060574162,-0.7188266874036525,0.6850817481367775,-0.08959768261002067,0.07696393387205883,0.006589181910385378,0.002037441591421663,11613.9357790738
1683655915047951221,78,1683655915047951221,camera_2,79,0,-0.16430000326481797,0.8860264477305242,4.630562642924346,-0.7192152290821828,0.6854455415285428,-0.08537285342471423,0.0748688169602575,0.00844341455376707,0.002610070375138663,11622.519199038445
1683655915067184209,79,1683655915067184209,camera_2,80,0,-0.16424907881910839,0.885799567924157,4.629380004223802,-0.7189408209395687,0.6852174811206039,-0.08927992150859765,0.0750346264660038,0.009455093473661691,0.0029249415071381972,11613.555656716577
1683655915086456060,80,1683655915086456060,camera_2,81,0,-0.16425760992101113,0.8857433768361972,4.6290797815587235,-0.7188329356646631,0.6852119218408289,-0.08909480882257925,0.07632789668128094,0.008549601392587647,0.0026444443951837283,11612.23285056444
1683655915105663537,81,1683655915105663537,camera_2,82,0,-0.1642775085766907,0.8858631854667479,4.629694580228857,-0.7189782380896548,0.6851051691847632,-0.08867656829443103,0.07640462384787933,0.006268466211622582,0.0019390883642100962,11610.505313736943
1683655915125421524,82,1683655915125421524,camera_2,83,0,-0.16432252868004496,0.8860999111356735,4.630832870446698,-0.718948360723856,0.6852992227497482,-0.08908857945439577,0.07444094922735095,0.010126088469405659,0.00313434676474243,11608.584274771329
1683655915144762516,83,1683655915144762516,camera_2,84,0,-0.16430538746896717,0.8859557477988803,4.630228675446466,-0.7191642752451237,0.6851881961312077,-0.08827913356490953,0.07434161466262654,0.013052569764113287,0.004037939119366315,11614.903190339655
1683655915164191007,84,1683655915164191007,camera_2,85,0,-0.16428633142987648,0.8859147598040751,4.629838489307081,-0.7190509676784009,0.6852420784323904,-0.08917955092829133,0.07386479217219265,0.010299973102519289,0.0031868792534565527,11614.75592907597
1683655915183241844,85,1683655915183241844,camera_2,86,0,-0.16426497289575143,0.8857795477842899,4.629100183301169,-0.7187700906102983,0.6855831046305991,-0.08781846272552825,0.07505518698702636,0.015218682630802503,0.004705031061381458,11620.341109622965
1683655915203277349,86,1683655915203277349,camera_2,87,0,-0.16434715805584815,0.8863601321357817,4.6324503634430645,-0.7190971327547364,0.6855149038557264,-0.08557104302907868,0.07514137908307794,0.013915855175582692,0.004305552661937958,11611.648719741379
1683655915222121477,87,1683655915222121477,camera_2,88,0,-0.16433300588071012,0.886321750519037,4.631978372616407,-0.7188812429106125,0.6856287564102557,-0.08857782684249699,0.07264251899872211,0.010369156210799702,0.0032106855727412984,11609.546612336882
1683655915241510152,88,1683655915241510152,camera_2,89,0,-0.16428889491308468,0.8859802978051537,4.630223395624038,-0.7186439659862327,0.685516259375644,-0.08876118964275424,0.07576120046835497,0.005155407852726058,0.0015952062218457228,11609.312215702492
1683655915260782241,89,1683655915260782241,camera_2,90,0,-0.1641907466965952,0.8853731477038403,4.627150236145581,-0.7186344544110641,0.6852274741423291,-0.09075959047490638,0.07609550808466439,0.00904761700076051,0.0027977240812743507,11616.184489120318
1683655915280585050,90,1683655915280585050,camera_2,91,0,-0.16438726741528806,0.8864409935472901,4.632813027435153,-0.7189902701186588,0.6856133207137538,-0.08599267811832785,0.07478385684487696,0.020410756100318395,0.006316727369206127,11609.217638473723
1683655915299935817,91,1683655915299935817,camera_2,92,0,-0.16415772601161804,0.8854457331963705,4.627108451445747,-0.7186050104097288,0.685167317705536,-0.09068772817559849,0.07699559546223159,0.008605522554717027,0.002660952614808223,11614.212971237777
1683655915319092750,92,1683655915319092750,camera_2,93,0,-0.16435810173993956,0.886220652848507,4.631642381898571,-0.7190306182672038,0.6852762606651499,-0.08794251407589003,0.07521655922125296,0.005892546410905197,0.0018239345936237568,11606.75241432976
1683655915338385105,93,1683655915338385105,camera_2,94,0,-0.16416244254122944,0.8852866373429755,4.626705957783313,-0.7188798562387773,0.6850709515669579,-0.09012568902138646,0.07594013294482906,0.0051835476770065725,0.001602154007199329,11621.264418326751
1683655915358331203,94,1683655915358331203,camera_2,95,0,-0.16425733884710958,0.8857956784296994,4.629296989237463,-0.718562194798755,0.6854939787059705,-0.08926050216366838,0.07615077227017468,0.0073767931025940925,0.002281993713259794,11610.99095769462
1683655915377617835,95,1683655915377617835,camera_2,96,0,-0.16431384206070498,0.8861530624876613,4.631258131532944,-0.7187918140391044,0.6855810525390876,-0.08887244186013772,0.07361139550087938,0.007758336330880411,0.002401732370848503,11609.496832435689
1683655915397092580,96,1683655915397092580,camera_2,97,0,-0.16423637491077842,0.8856486414255935,4.628477875568334,-0.7186593383062961,0.6853680540106931,-0.09050675196030897,0.07488600574437988,0.013645691476995125,0.0042214918264849325,11613.783505612872
1683655915416065454,97,1683655915416065454,camera_2,98,0,-0.16422653347870492,0.885543071400569,4.628008709956526,-0.7188120407492694,0.6852636956643682,-0.08905182997559367,0.07610971722638867,0.014674635123810731,0.004536688452948906,11618.347273064599
1683655915435730695,98,1683655915435730695,camera_2,99,0,-0.16430993989583698,0.885804685568512,4.629589667096353,-0.7185585139532581,0.6852638312933399,-0.09054435264028413,0.0767389324359569,0.011803455447079614,0.003653270021585173,11602.924008512633
1683655915455175638,99,1683655915455175638,camera_2,100,0,-0.1643118231563121,0.8859344049618116,4.630098063006459,-0.7188297747881238,0.6851829073116128,-0.09030555582010234,0.07518673416290533,0.004378606143291108,0.001355428111356287,11605.587836904393
1683655915474179983,100,1683655915474179983,camera_2,101,0,-0.16428325918540806,0.8858886810487271,4.629525061590168,-0.7186369771981403,0.6854335078903253,-0.09048861571850332,0.074522558262797,0.009573055751388893,0.002962856940047357,11609.550098930486
1683655915493676900,101,1683655915493676900,camera_2,102,0,-0.16441119895132808,0.8864595560450229,4.632933394101754,-0.7190433898889809,0.6854685961069583,-0.08694823968218336,0.07449436773534189,0.008797343689366244,0.0027236184041233946,11605.878923483398
1683655915512716054,102,1683655915512716054,camera_2,103,0,-0.1643031905198935,0.8858459872282516,4.6295571150948245,-0.7188281807236494,0.6852688040624932,-0.08938691432874907,0.07551617259285426,0.00977300902013667,0.003023670757865643,11610.900530233394
1683655915532608985,103,1683655915532608985,camera_2,104,0,-0.16434068976276878,0.8860501999619844,4.630611360421312,-0.7188167272559053,0.685354435397277,-0.08950357595117825,0.07470555796151222,0.00790230576239992,0.002446100627286431,11607.36584567561
1683655915551855087,104,1683655915551855087,camera_2,105,0,-0.16402275347812884,0.8846828293292357,4.62331941868129,-0.7182410976003172,0.6849943283153358,-0.09257025541861055,0.07964448320785852,0.010595415646093898,0.0032730406214830326,11618.2894239577
1683655915570722103,105,1683655915570722103,camera_2,106,0,-0.1642246053504522,0.8857198332365819,4.628843676966774,-0.718875127370704,0.6852355059564047,-0.0898465334304373,0.07482281106024785,0.009554516451316886,0.0029556537443555164,11614.68811139403
1683655915590636968,106,1683655915590636968,camera_2,107,0,-0.16411405724005973,0.8851362266082821,4.625811014180957,-0.718602705249972,0.6850326818450294,-0.09000951496905077,0.07898521397492658,0.010465877843671478,0.0032336064054397885,11617.660657304858
1683655915610009431,107,1683655915610009431,camera_2,108,0,-0.16425470224776187,0.8858336069881034,4.6295153790866435,-0.7188625473767184,0.685549873532026,-0.08877802049725297,0.07332442946159122,0.013995625107781962,0.004328990799835629,11619.306235285443
1683655915629353761,108,1683655915629353761,camera_2,109,0,-0.1643019360227881,0.8858974833764507,4.629965845863242,-0.7187335961066068,0.6852920191860927,-0.0895295436890992,0.07603503846474217,0.013824868088704534,0.004278303973882355,11606.930355490906
1683655915648648500,109,1683655915648648500,camera_2,110,0,-0.1643238341331483,0.8862210277763509,4.631637589157738,-0.719120362114935,0.6854625716562741,-0.0875162114489008,0.07312920335736871,0.010070149117382243,0.003116558726914855,11613.951741850815
1683655915668047189,110,1683655915668047189,camera_2,111,0,-0.16422050174016428,0.8856496680341525,4.628484513628107,-0.7188538085853315,0.6852687502103914,-0.08845658888771091,0.07636343201953591,0.005342028045561165,0.0016515537016177156,11617.535987733574
1683655915687803030,111,1683655915687803030,camera_2,112,0,-0.1643420516677002,0.8859242362479972,4.630028276577725,-0.7190012395830762,0.6854367992854205,-0.08795946074696805,0.07400503312924678,0.016330382190062664,0.005051054279826912,11617.946175672056
1683655915706401586,112,1683655915706401586,camera_2,113,0,-0.16424847745956767,0.8857423951109278,4.628857598582032,-0.7187030180626822,0.6854593697388323,-0.0890404680668215,0.07538712961292658,0.011285700224107131,0.0034903118698980887,11616.120417903121
1683655915725503683,113,1683655915725503683,camera_2,114,0,-0.16427826647771535,0.8858666089082048,4.629434481636991,-0.718780354484639,0.6853746549128537,-0.09013451551295794,0.07410906505460631,0.01477318826073315,0.0045715608300223864,11612.47986903257
1683655915745466947,114,1683655915745466947,camera_2,115,0,-0.16437176018250044,0.8865919036838207,4.633430973343075,-0.7191271483385624,0.6855793878960484,-0.0857555003021427,0.0740475629744557,0.013709226463106461,0.004243659892842717,11609.010192633928
1683655915765308380,115,1683655915765308380,camera_2,116,0,-0.16419532039837872,0.8855415035019724,4.627905208875297,-0.718621819508388,0.685361521642078,-0.0906035443697647,0.0751881834236306,0.007624704696354456,0.0023583254687924377,11615.48792427755
1683655915783896684,116,1683655915783896684,camera_2,117,0,-0.16432069693288276,0.8859821883122527,4.630104767529363,-0.7188650982443728,0.6854226073584099,-0.0887918495159407,0.0744635971978658,0.010217783186817542,0.003161377430256364,11613.239587161192
1683655915803369045,117,1683655915803369045,camera_2,118,0,-0.16429935944206675,0.8858902673139402,4.629954871728501,-0.7189527448420084,0.6852967110201874,-0.08859673555220815,0.07500657970170337,0.003715633603860624,0.001149516914352817,11613.319610327013
1683655915823219537,118,1683655915823219537,camera_2,119,0,-0.16429076583289226,0.8857076543879422,4.628834984014952,-0.7187419604582699,0.6852341345274664,-0.09027912079397904,0.07559004897248806,0.007550068141426891,0.002335908012128049,11610.900508905996
1683655915842108011,119,1683655915842108011,camera_2,120,0,-0.1642979528242305,0.8858950195855474,4.629888170166449,-0.7188434419207272,0.6853598663343643,-0.08755046696842107,0.07668686562453599,0.011590366324526258,0.003584296441232667,11612.928513729887
1683655915861623287,120,1683655915861623287,camera_2,121,0,-0.16426201258094095,0.885710638546616,4.629049342387462,-0.7189090826989484,0.6850973604447662,-0.08967687765271054,0.07595653453805964,0.005925119083258323,0.0018329573128053967,11611.174424082476
1683655915880741119,121,1683655915880741119,camera_2,122,0,-0.16442083585930084,0.8865230504208763,4.6331309532108556,-0.7191300397363373,0.6853594340911313,-0.08722558689224827,0.07433793810969752,0.0063986769382609054,0.001981420879286105,11604.309599707365
1683655915900834321,122,1683655915900834321,camera_2,123,0,-0.16437903631104375,0.886350162879281,4.632220532092072,-0.7189719329239767,0.6858770176039942,-0.08585077254583173,0.07267545145023116,0.009021988575113937,0.0027913184191489856,11618.232638787478
1683655915919589996,123,1683655915919589996,camera_2,124,0,-0.16430161412630928,0.8860292586816483,4.630640030173753,-0.7188224547817681,0.685411252589897,-0.08822503102752398,0.07564414864914504,0.0064482479356229305,0.001995283427524644,11609.582999540144
1683655915938883304,124,1683655915938883304,camera_2,125,0,-0.16430140469029425,0.8859486461593093,4.6301559406212816,-0.7187249600598666,0.685518373502119,-0.08882396718455023,0.07489522168703673,0.007615023016114719,0.002356202974347538,11611.740632731207
1683655915958254337,125,1683655915958254337,camera_2,126,0,-0.1642738419314326,0.8858820778522684,4.629698253568852,-0.7189668238131081,0.6853112180942235,-0.08872280870013229,0.07458889881653076,0.013311118353158236,0.0041177169158626995,11615.270462807766
1683655915977800369,126,1683655915977800369,camera_2,127,0,-0.16397091836055253,0.8845468513919527,4.622921362989225,-0.7185567027267954,0.684816230511601,-0.09091895910815166,0.08022928560674025,0.007873203052440658,0.0024302554267961254,11625.075044681227
1683655915997676134,127,1683655915997676134,camera_2,128,0,-0.16435678881362298,0.8861491865049614,4.631294228032104,-0.7188219601918471,0.6853774277811867,-0.0891295215153506,0.07489125068016676,0.001989161333767697,0.0006158515613681858,11604.88604415932
1683655916016894102,128,1683655916016894102,camera_2,129,0,-0.1643084086176766,0.8861498243301424,4.631163023834786,-0.718637758730375,0.6855993985950863,-0.08787776887982261,0.07609687319294847,0.006754753747372888,0.002090372035057656,11607.026443598152
1683655916036202430,129,1683655916036202430,camera_2,130,0,-0.16429065288438835,0.8858739020801113,4.629781707602248,-0.7186076741930149,0.6854223117449568,-0.08895150225349566,0.07672610637815255,0.010075135243823752,0.0031170271814013033,11608.117112607899
1683655916055630445,130,1683655916055630445,camera_2,131,0,-0.16428286273651774,0.8858237359968186,4.6294784760793775,-0.7188190308253952,0.6852969015256247,-0.08918518344000072,0.07558677620716019,0.004704233069787733,0.0014553061109890367,11611.885553100463
1683655916074647188,131,1683655916074647188,camera_2,132,0,-0.1641720140100033,0.885440013665497,4.6272397898756665,-0.718715627718612,0.6853647032016197,-0.08791473536556538,0.07742137549798564,0.0071902891650097445,0.002221356486151578,11622.842918151464
1683655916093982219,132,1683655916093982219,camera_2,133,0,-0.1642878371787902,0.8858959541574616,4.629824420109035,-0.7189653458128891,0.6851481413650896,-0.08971221934316605,0.07491711156097476,0.00574290397344157,0.001777205523192188,11609.985957901663
1683655916113189220,133,1683655916113189220,camera_2,134,0,-0.16420336483500228,0.885675836357265,4.628705766767635,-0.7187882250387617,0.6851368239998442,-0.08978418981092204,0.07661474534989623,0.007853876770241186,0.0024293851702511284,11610.735302986373
1683655916132791280,134,1683655916132791280,camera_2,135,0,-0.16423678513735726,0.8855788801515372,4.628250420443071,-0.7186781917444663,0.685391821815364,-0.08973803505905018,0.07541082391315798,0.00786912371404469,0.0024335431566773163,11616.423428625882
1683655916152207851,135,1683655916152207851,camera_2,136,0,-0.1643045811493338,0.885933667776442,4.630022498910949,-0.7188530957554575,0.6850655539042281,-0.08844135853703856,0.07818912761254661,0.004907775582978502,0.0015183055714146616,11604.722838176709
1683655916171415567,136,1683655916171415567,camera_2,137,0,-0.16423311589149203,0.8856404152633358,4.628509855297357,-0.7187117757280435,0.6852022131507332,-0.09017110811539529,0.07629208205588257,0.007000396333751269,0.002165525395685706,11611.096681824072
1683655916190654993,137,1683655916190654993,camera_2,138,0,-0.16422046223623388,0.8854627399449839,4.627484595496086,-0.7189076481133546,0.6849891352169268,-0.08877296926010811,0.0779810108144016,0.0062076986650936306,0.0019185823416559623,11616.791248549445
1683655916210178852,138,1683655916210178852,camera_2,139,0,-0.16440113350681962,0.8864667347995833,4.632797856351962,-0.7189240058030512,0.6855184230493092,-0.08757638419602745,0.0744522831834779,0.011068235762650147,0.00342714797097451,11604.35089980607
1683655916230026483,139,1683655916230026483,camera_2,140,0,-0.16427421423354907,0.8858496351827031,4.629667789007905,-0.718548409711238,0.6854362403512257,-0.08911095185855228,0.0769713035714632,0.006849372453871183,0.002119075248416864,11607.419289108075
1683655916249485254,140,1683655916249485254,camera_2,141,0,-0.16428465094536682,0.8858267061964544,4.62948398914393,-0.7188400816060186,0.685238916765059,-0.08932950547260304,0.07574168917657802,0.008167973384843208,0.0025269973492648714,11610.900020990348
1683655916268425226,141,1683655916268425226,camera_2,142,0,-0.16422099530073636,0.8856602479500654,4.628425039243724,-0.7187313250928248,0.6853255517971306,-0.08990437750170023,0.07530852070186189,0.009375397028634325,0.0028997316320177025,11615.215957548384
1683655916288100957,142,1683655916288100957,camera_2,143,0,-0.1642582574365193,0.885845590419355,4.629606958863088,-0.7187334928202735,0.6854642750724174,-0.08808218566193271,0.0761736336722359,0.013227372037363239,0.004090678694950481,11613.803606243195
1683655916307193756,143,1683655916307193756,camera_2,144,0,-0.16419352571132706,0.885532396305022,4.628047143129086,-0.7186530406964902,0.6853636491187886,-0.08854863802190181,0.07728916009851113,0.006606947819818743,0.0020422915072590515,11616.814020427497
1683655916326600790,144,1683655916326600790,camera_2,145,0,-0.16419464242844375,0.8856745508272696,4.628653483452517,-0.718726909733485,0.6853220107113602,-0.08946414379301144,0.07590479454472221,0.006724364255205728,0.0020797388191163314,11614.181452889312
1683655916345752716,145,1683655916345752716,camera_2,146,0,-0.16440945199631118,0.8865694862238298,4.633463658650448,-0.719188163762003,0.6854622716590796,-0.08718462788859431,0.07286082552744107,0.004334399549406953,0.0013423661757594998,11606.706890593196
1683655916365399599,146,1683655916365399599,camera_2,147,0,-0.16418557503004969,0.8855808581897853,4.62813693193792,-0.7187484390598765,0.6853011652808337,-0.08927638063978575,0.07610993413203326,0.010705761204008013,0.0033101928760742253,11616.917520917397
1683655916384574174,147,1683655916384574174,camera_2,148,0,-0.1644143596645735,0.8864062934972718,4.632347275700951,-0.7189376919186024,0.6854923012713042,-0.08838158975010572,0.07360431121726867,0.0066361317585688084,0.0020548992541036273,11605.79234202576
1683655916404274225,148,1683655916404274225,camera_2,149,0,-0.1642837051391976,0.8858521648233696,4.6296922941152125,-0.7188861758749729,0.6853202001481146,-0.08916373598687248,0.07475772595303513,0.0027928649069508538,0.0008640984121829137,11613.169835112698
1683655916423397064,149,1683655916423397064,camera_2,150,0,-0.16420680993022818,0.8854241270720071,4.627267341639252,-0.7185299766992638,0.6850746697613356,-0.09093769399053946,0.07821576086464792,0.008525905694114044,0.0026366895463937035,11608.934677563928
1683655916443174362,150,1683655916443174362,camera_2,151,0,-0.16418101236474586,0.8855357335878548,4.628028770820697,-0.7187874424486628,0.6853631096719413,-0.08872053789492,0.07583328183952591,0.010760973338619806,0.003326415974123292,11620.305036932667
1683655916462047576,151,1683655916462047576,camera_2,152,0,-0.1642934812598556,0.8859112078207865,4.629932215187326,-0.718669198312841,0.6852199630904937,-0.09035215490824997,0.07631954980263159,0.008881538669811562,0.002749206471369634,11603.16316881802
1683655916481256723,152,1683655916481256723,camera_2,153,0,-0.16412812167332833,0.885146620341016,4.625816396159675,-0.7183766458165115,0.6853570961704867,-0.09126689037428608,0.07675285138406826,0.01315410147071816,0.004065777432556837,11619.076485643567
1683655916500860214,153,1683655916500860214,camera_2,154,0,-0.16421009826476193,0.8856922834626735,4.628709663494811,-0.7188215144028736,0.6850439825551862,-0.08853518869524134,0.07856139483987887,0.006252493723877706,0.0019333110812404205,11609.956013263669
1683655916520267486,154,1683655916520267486,camera_2,155,0,-0.1642740144414217,0.8860477476273133,4.630550219257158,-0.7188737473124959,0.6855259148376287,-0.08783886482407109,0.07455930081043435,0.005532431503525004,0.0017116010175588572,11614.42450677499
1683655916598298311,155,1683655916598298311,camera_2,157,0,-0.1643406461918062,0.8863176334457946,4.63201446206912,-0.7189038962407555,0.6854134653482622,-0.08744882042183684,0.07575139137981007,0.010228727158391848,0.003166181855642939,11605.315874613727
1683655916617094755,156,1683655916617094755,camera_2,158,0,-0.1641400451493458,0.8852951577713299,4.626607624609111,-0.7189072319358579,0.6851080639845312,-0.0898956176998546,0.07561818863244328,0.007923608922283165,0.002448836177788796,11623.571796909906
1683655916636303186,157,1683655916636303186,camera_2,159,0,-0.1643017198648206,0.8860431342075827,4.6304749552498095,-0.7189123338956522,0.6855460528763396,-0.08721841050838586,0.0747302778448457,0.012245737234479748,0.003787555544560807,11616.592819626185
1683655916655669689,158,1683655916655669689,camera_2,160,0,-0.16426519818146362,0.8857638787145562,4.629187169629809,-0.7188604197367995,0.6851683453382941,-0.08851843624996875,0.07712666157741328,0.016475141819682904,0.005095044459385907,11611.634072006247
1683655916675107002,159,1683655916675107002,camera_2,161,0,-0.16430318099705535,0.8858472558214672,4.629568307993892,-0.7188824562939428,0.6853634898265115,-0.08895249438161575,0.07464820553034963,0.01159428444225341,0.0035865339711892577,11614.809558595207
1683655916694544553,160,1683655916694544553,camera_2,162,0,-0.16427179410522036,0.8858295107217182,4.629526932150862,-0.7186154072111992,0.6855747509444649,-0.08872367056838999,0.075546460320714,0.005644462013151497,0.0017459536200708091,11613.507507179133
1683655916713907957,161,1683655916713907957,camera_2,163,0,-0.16451611574443775,0.8871433216449727,4.636372283083649,-0.7189403740020192,0.6859818379345739,-0.08674541889262785,0.0709146596613368,0.006561129979672842,0.002034160495436136,11598.681698759956
1683655916733075141,162,1683655916733075141,camera_2,164,0,-0.164278549714804,0.8858902053125521,4.629737087191217,-0.7188576703201001,0.6852959076189241,-0.08909253360672593,0.07533717062810424,0.014784963394049555,0.004574334172032289,11611.665428484503
1683655916753556966,163,1683655916753556966,camera_2,165,0,-0.16428236285643288,0.8859995426956431,4.630340925340852,-0.7189211108946235,0.6850368134297213,-0.09013217128329284,0.07584980063159509,0.0021082028979435563,0.0006526791167372905,11603.322875921993
1683655916772311925,164,1683655916772311925,camera_2,166,0,-0.1642404914622953,0.8857944087966348,4.629298652518157,-0.7188509442436464,0.6854317137117648,-0.08911185019888948,0.07413341994203511,0.008529578321031295,0.002638422393181172,11617.026913107777
1683655916791545391,165,1683655916791545391,camera_2,167,0,-0.1642113144556345,0.8856947642087842,4.628578606316974,-0.7186113247642245,0.6854583858031853,-0.09038825125914934,0.07466277042147948,0.008923042827518657,0.002760428131051653,11614.34362534518
1683655916810619592,166,1683655916810619592,camera_2,168,0,-0.1643758036020846,0.8863490152811127,4.632360262763845,-0.7191737842014055,0.6853309468665073,-0.08823550088460454,0.07297299341626222,0.01216516121348832,0.0037669001967328523,11608.021698229597
1683655916830178260,167,1683655916830178260,camera_2,169,0,-0.16424372894394174,0.8857153171922394,4.628896613801523,-0.7186874668035977,0.6853071636108609,-0.08925288117300631,0.07665728775127523,0.012377467486658134,0.003828280891348829,11611.638728919728
1683655916849540710,168,1683655916849540710,camera_2,170,0,-0.16418930635256143,0.8854879725449513,4.6274964755989,-0.7185516653912952,0.685260787497106,-0.0896857998570214,0.0778306789527663,0.015365826227935031,0.0047503014852530185,11613.703174961382
1683655916869253635,169,1683655916869253635,camera_2,171,0,-0.16428942663843993,0.8860090025645284,4.6302541180126084,-0.7189539365068198,0.6855788745935952,-0.08821997389441376,0.0728291157326252,0.00703968622838147,0.002177794255843503,11618.984062571399
1683655916888383150,170,1683655916888383150,camera_2,172,0,-0.16429837800021893,0.8859958023620805,4.630491326425865,-0.7189231340482758,0.685492349473316,-0.08693758205371269,0.07544284572053161,0.010212664419668727,0.003158446072363633,11615.619653899223
1683655916908284425,171,1683655916908284425,camera_2,173,0,-0.16426658359755053,0.8858833395675679,4.629692100193875,-0.7189372777706854,0.6853069936165375,-0.08767487355910435,0.0761356137319096,0.01337661244906485,0.004136691617568083,11615.045050620452
1683655916927475929,172,1683655916927475929,camera_2,174,0,-0.16424080224531712,0.8857490371296945,4.629040253589546,-0.7189217556665273,0.6847864817656426,-0.0897819737202006,0.07847407734594064,0.009543666761601344,0.002952552353125302,11603.807111607519
1683655916946845293,173,1683655916946845293,camera_2,175,0,-0.1642879054724023,0.8860092249161229,4.6305762767858445,-0.7188570956659702,0.6853450223856726,-0.0894443689884734,0.07447403009185126,0.007104477394022979,0.0021991638984774236,11608.493042788032
1683655916965839862,174,1683655916965839862,camera_2,176,0,-0.16423601313979708,0.8857687606977803,4.628993888806891,-0.7187800308182282,0.6853812689032898,-0.08892085863505653,0.0755040689835165,0.008574980092816986,0.0026520257006206025,11615.592601789394
1683655916985225439,175,1683655916985225439,camera_2,177,0,-0.16412192125425867,0.8851900525051415,4.626298272060883,-0.7186388365515562,0.6851597980955256,-0.08874406323079695,0.07898585262445831,0.011933638161281124,0.0036862885871893542,11620.03226344473
1683655917005160093,176,1683655917005160093,camera_2,178,0,-0.16408446947683936,0.8851523707776994,4.625908111727958,-0.718469317172246,0.6853258888978346,-0.08972869351445113,0.07796812072013214,0.008571278682211414,0.00264806428571487,11621.189992023807
1683655917023794174,177,1683655917023794174,camera_2,179,0,-0.16414414678552242,0.8854623069022041,4.62740467931463,-0.7185039040734013,0.6852529237646986,-0.0904066870250676,0.07750613681744357,0.006312435303698294,0.0019519484797311409,11612.398439316894
1683655917042842388,178,1683655917042842388,camera_2,180,0,-0.16432952576553111,0.8860928358555095,4.6307518289963205,-0.719058553681909,0.6853018019579409,-0.08815997398279128,0.07445841522241825,0.010332183010177687,0.0031970402434232477,11612.416794619356
1683655917062476873,179,1683655917062476873,camera_2,181,0,-0.16441941810542512,0.8867093930471501,4.634132384251792,-0.7189249098094515,0.6855478954798823,-0.08798045897303775,0.07369189845206942,0.006898890118463896,0.0021377313855897593,11598.247384119084
1683655917081399917,180,1683655917081399917,camera_2,182,0,-0.16428175663164762,0.8857951093791352,4.629409792534789,-0.7189356770633181,0.685144132121229,-0.08903769098951553,0.07603486074566126,0.0019433162815403193,0.0006011535102448714,11611.577505681487
1683655917100097417,181,1683655917100097417,camera_2,183,0,-0.16424673540526866,0.8858067306466992,4.629381052807887,-0.7188962344251247,0.6852966872152315,-0.08759939080880505,0.07670072588399451,0.012369876960292459,0.003824722873461603,11615.324573701015
1683655917118400573,182,1683655917118400573,camera_2,184,0,-0.16424447769259395,0.8857032661519346,4.628806241835531,-0.7187850266876504,0.6854300711318596,-0.08789862792619471,0.0762071794944539,0.014918718603439629,0.0046120169311500816,11618.419705176377
1683655917137101650,183,1683655917137101650,camera_2,185,0,-0.16417933996064726,0.8854771211606163,4.62771296490229,-0.7185747957021235,0.6852799400249394,-0.09084157172599171,0.07608860379464485,0.0054819230863358825,0.001695555287817045,11613.081244983621
1683655917156111478,184,1683655917156111478,camera_2,186,0,-0.16416142592171235,0.8854549354243118,4.627544890442112,-0.7185882708455057,0.6853100659383964,-0.08928729918225671,0.07751637718260046,0.006674021540675312,0.002063103462027066,11615.928385018487
1683655917174977064,185,1683655917174977064,camera_2,187,0,-0.16429827774044767,0.8860189431580088,4.63046471890991,-0.7188594833560167,0.6854017861352143,-0.08893345875819951,0.07454042302725711,0.005334012777893804,0.0016507016003388167,11610.751519630983
1683655917193728923,186,1683655917193728923,camera_2,188,0,-0.16420722334990812,0.8856245858491159,4.628506160552607,-0.7187642743570514,0.6852067086955721,-0.08892463370691056,0.07721459568407128,0.01290729790343903,0.003991044527391987,11613.313401434458
1683655917212821960,187,1683655917212821960,camera_2,189,0,-0.16427925511724545,0.8858562868563171,4.629565511173725,-0.7187560791160654,0.685129118273457,-0.0893311879451502,0.07750954062464832,0.008044009533477947,0.002488769608399486,11605.590467967268
1683655917231867313,188,1683655917231867313,camera_2,190,0,-0.1642506839052626,0.8857912812619333,4.629250457627643,-0.718820490089217,0.6851958581354681,-0.08912163875704011,0.07655764185995424,0.0099708932248177,0.0030843292693223893,11610.660054413664
1683655917250724792,189,1683655917250724792,camera_2,191,0,-0.16428083088236356,0.8858475968052788,4.629555269092273,-0.7187636107136393,0.685297437650779,-0.08933193397386889,0.07593483677243969,0.010993241769028828,0.0034011668691951644,11610.008861362501
1683655917269614219,190,1683655917269614219,camera_2,192,0,-0.1641558627303916,0.8853213492772852,4.6269017297465425,-0.7183051876470469,0.6853526926595059,-0.08985602112917712,0.0790900722628229,0.009967088597477414,0.0030807556284600194,11612.450652832973
1683655917288487195,191,1683655917288487195,camera_2,193,0,-0.16431388562274052,0.8859504619500916,4.6303727009045925,-0.7190098762968842,0.6854146144446208,-0.08807086793542106,0.07399409648325188,0.00993196477429592,0.0030725373113205503,11615.873542663307
1683655917307417869,192,1683655917307417869,camera_2,194,0,-0.16427919736283225,0.8858992139861372,4.629760954636295,-0.7188554436226658,0.6851498326119557,-0.0903530912977865,0.07518561656861766,0.002552684090915136,0.000790135752231968,11607.155136758054
1683655917326250314,193,1683655917326250314,camera_2,195,0,-0.16427012162476654,0.885862859813638,4.629736672495435,-0.7187673565671312,0.6851528516305448,-0.09057001301735827,0.07573724168509649,0.007722636903054081,0.0023904505477063505,11604.931242339573
1683655917345143079,194,1683655917345143079,camera_2,196,0,-0.16434519493476255,0.8861628175753123,4.631327065139863,-0.718662328738525,0.6855988037577491,-0.08764281536597371,0.07614114822347776,0.011869794412632473,0.003673022183617175,11606.869508875301
1683655917363985300,195,1683655917363985300,camera_2,197,0,-0.16434070426109504,0.8863350553572489,4.6319589728762,-0.7191663764386633,0.6857117574332924,-0.08687612882247445,0.07107493903373605,0.020154879370238632,0.0062370266795473885,11619.94033334736
1683655917382849454,196,1683655917382849454,camera_2,198,0,-0.1643122504399424,0.8861013544379598,4.6308765786068875,-0.7190400451557655,0.6852521611048998,-0.08804469195682396,0.07522646729501076,0.004974194816895761,0.0015392060787220569,11610.19401133456
1683655917401854753,197,1683655917401854753,camera_2,199,0,-0.16430547200466722,0.8860651509286055,4.6305277648535,-0.7187708890745406,0.6855010031108678,-0.08821764995077465,0.07532881248334534,0.022967291006352752,0.007106294234408727,11611.020099942827
1683655917420730590,198,1683655917420730590,camera_2,200,0,-0.1641728952922037,0.8852777816210535,4.6265854751852284,-0.7186895674642774,0.6850063358660421,-0.08927974497866478,0.07925119922079196,0.008605732713476755,0.002659145982781318,11615.751145526709
1683655917439463853,199,1683655917439463853,camera_2,201,0,-0.1642888817503344,0.8859309569639147,4.6300745769881395,-0.7189967482439977,0.6855533714525652,-0.08762309964166534,0.07336513690960773,0.010332164514693432,0.0031956120844027916,11620.742519803229
1683655917458649396,200,1683655917458649396,camera_2,202,0,-0.164136977446578,0.8852000702627273,4.6261029655283865,-0.7185644612836551,0.6852935915808234,-0.09075245635083144,0.07616954762027131,0.0037519838224397972,0.0011596529566748025,11621.257099352224
1683655917477836370,201,1683655917477836370,camera_2,203,0,-0.16423223719010732,0.8856921677878419,4.628689083029694,-0.7185058183356203,0.6852096860091512,-0.09067515795533429,0.07755701739285722,0.009525722693069838,0.0029473933153988155,11604.716798536047
1683655917496293783,202,1683655917496293783,camera_2,204,0,-0.1643363165672784,0.8859469534517098,4.630037851873706,-0.7187734207358812,0.6854844969290459,-0.08874658566576844,0.07483192932325852,0.017427995000616647,0.0053918506960082295,11612.721850024653
1683655917515087366,203,1683655917515087366,camera_2,205,0,-0.16420790596063228,0.8855199410113075,4.628102418850568,-0.7189290502157134,0.6849368750888984,-0.08984351144620067,0.07701065738197116,0.003368968245922588,0.0010418894546249243,11612.42873498029
1683655917534748554,204,1683655917534748554,camera_2,206,0,-0.16416903874675337,0.8853863156774898,4.62716949188546,-0.7186042657025968,0.6852396686220735,-0.0900333271490664,0.07712655744431834,0.005445989168947563,0.0016835978099854552,11616.021227810874
1683655917553521633,205,1683655917553521633,camera_2,207,0,-0.16424576752881404,0.8857709926486625,4.629191871660369,-0.7189236008148047,0.6852877573835342,-0.08871369837340709,0.0752291532096054,0.016383817783207633,0.005067081507220139,11616.127813153525
1683655917573302507,206,1683655917573302507,camera_2,208,0,-0.16422786533226394,0.8858307519523526,4.629420324213136,-0.7189024795042401,0.6854151875862714,-0.08761658381644338,0.0755551442925516,0.0066629146895138555,0.0020601569034499755,11618.220377886846
1683655917592123508,207,1683655917592123508,camera_2,209,0,-0.1642011897086969,0.8855627712093669,4.628011241230627,-0.718830630065507,0.6850161428551358,-0.08954670461260049,0.07756801531895806,0.008097515048575588,0.002503905457543906,11612.452964773805
1683655917611474514,208,1683655917611474514,camera_2,210,0,-0.16427323153094764,0.8859260234089331,4.630047877811963,-0.7188401371169253,0.6855237457243384,-0.08828228730456787,0.07437935913992934,0.007715219879173674,0.002386618756536342,11615.716674572961
1683655917631024360,209,1683655917631024360,camera_2,211,0,-0.16431645505900877,0.8860781433928738,4.630671457855893,-0.7188614881328836,0.6853356258841037,-0.0890053556795557,0.07504190451858153,0.006934560748049989,0.0021462842378637526,11608.091719394986
1683655917650218009,210,1683655917650218009,camera_2,212,0,-0.16432437163214617,0.8860100586913227,4.630469650519221,-0.7190822093731134,0.6851744879722,-0.08879440603918569,0.07464750934400739,0.0043039821030106395,0.00133191319919246,11610.956575675023
1683655917669611215,211,1683655917669611215,camera_2,213,0,-0.16421030533652048,0.8855379508332234,4.627934763654244,-0.7185919842643909,0.6853903904046136,-0.08837745971583619,0.07781386448540414,0.015402462187921628,0.004760572915374541,11616.51294369125
1683655917689081430,212,1683655917689081430,camera_2,214,0,-0.16433528497129923,0.8859317733784464,4.630005655873246,-0.7186685589242091,0.6854386660790998,-0.08961319004835422,0.07522508641977513,0.011920655728317797,0.00368900269437364,11608.531921470654
1683655917708367824,213,1683655917708367824,camera_2,215,0,-0.1643659946316097,0.8863063502576312,4.631904076994135,-0.7190146531536913,0.6855483089617491,-0.08780445766213789,0.07301932514493137,0.011111221407190897,0.003439431040772111,11611.777298060391
1683655917727718591,214,1683655917727718591,camera_2,216,0,-0.16420681779536692,0.8857889712324473,4.629241845064518,-0.7189002164393729,0.685174668552485,-0.08925447715227751,0.07584056095315189,0.0077424080518539995,0.00239505898944484,11612.227798314183
1683655917747171878,215,1683655917747171878,camera_2,217,0,-0.16425387601494812,0.8858253795994995,4.629513028015056,-0.7187572396162798,0.6853982616764693,-0.08896625724799334,0.07551329989706242,0.010157406548387371,0.0031422172322788026,11612.809632363002
1683655917767238616,216,1683655917767238616,camera_2,218,0,-0.16420882174325196,0.885670581191668,4.628521872158862,-0.7184902514297807,0.6853985850752112,-0.0904687835891748,0.0762622932592772,0.007908257975941524,0.0024466095159268813,11609.992259888768
1683655917786144495,217,1683655917786144495,camera_2,219,0,-0.16429195433460436,0.8861591367755619,4.631135860261345,-0.718687499221671,0.6856494657547983,-0.08765488621610223,0.07543016303245403,0.011153182975249365,0.003451249123229464,11609.839419636643
1683655917805221557,218,1683655917805221557,camera_2,220,0,-0.1641958589635933,0.8855786528228793,4.628138204059739,-0.7184450571555615,0.6856752305906467,-0.08950743878143436,0.07532991707146162,0.008279895686428063,0.0025602916615189986,11618.131251591254
1683655917825112342,219,1683655917825112342,camera_2,221,0,-0.16418442051158197,0.8853353961331183,4.626978107359074,-0.7186934584045318,0.6849523534028398,-0.09108414506632052,0.07761227307573416,0.007930514300824143,0.0024523491545007737,11611.550143690347
1683655917843755006,220,1683655917843755006,camera_2,222,0,-0.16434351514209247,0.8861592685728765,4.6312696054512035,-0.7191219374254683,0.6851725714622036,-0.0894463700580342,0.07349512441484692,0.00645475483906921,0.001998573387759291,11607.550590447034
1683655917863421916,221,1683655917863421916,camera_2,223,0,-0.16429901711553943,0.8859480088788673,4.630144321726899,-0.7188058651788108,0.6855501752135164,-0.08832295066758537,0.0744186927769465,0.0065006558870663875,0.0020110178428625774,11614.942996353264
1683655917882580757,222,1683655917882580757,camera_2,224,0,-0.16426158407480435,0.8859312587833836,4.62983442209708,-0.7188604368226195,0.6855162019787993,-0.08944097145172984,0.07285274065898725,0.01590524267521687,0.004921355188436457,11616.427279056314
1683655917902228832,223,1683655917902228832,camera_2,225,0,-0.16417617899467127,0.885505644212927,4.627877702100301,-0.718912348910376,0.6852054777492077,-0.08994675797076424,0.07461949193873225,0.004443049983819947,0.001373904261224641,11619.705022502167
1683655917921347618,224,1683655917921347618,camera_2,226,0,-0.16434727961677972,0.886240201234371,4.63160686291431,-0.7189997615297783,0.6853624249603752,-0.08823682613202914,0.07437709248620934,0.006205800003954209,0.0019210089433276728,11608.081548491495
1683655917941003561,225,1683655917941003561,camera_2,227,0,-0.1642411471576874,0.8857393291386484,4.629063889958443,-0.7186423303092917,0.6854351919272328,-0.08941102442850338,0.07574607228070773,0.013780482651782222,0.004262578818796721,11612.69212171412
1683655917960506439,226,1683655917960506439,camera_2,228,0,-0.16425056431253612,0.8857374811073113,4.628881829381195,-0.71868320584913,0.6853169376467977,-0.08975058658616206,0.0760261587367919,0.011165624237037264,0.0034539377592089754,11611.535240696283
1683655917979522466,227,1683655917979522466,camera_2,229,0,-0.16422382070460473,0.8856825674572189,4.628631395752132,-0.7184758338285542,0.6855217666447128,-0.09111973082492417,0.07449549191105116,0.015972576351487078,0.0049425299168536505,11611.686803660148
1683655917999274253,228,1683655917999274253,camera_2,230,0,-0.16427947091163136,0.8859244854033569,4.6300945949566295,-0.7189428602032502,0.6854808773008185,-0.08940816420258581,0.0724107090946747,0.005926466750679538,0.0018340369526806915,11616.421091558532
1683655918018821001,229,1683655918018821001,camera_2,231,0,-0.16423706022204027,0.88572440750245,4.628942560192335,-0.7188938941770158,0.6853036005554853,-0.0884837461263057,0.075638420476295,0.0143959751148941,0.004451513413259519,11617.129361496194
1683655918037646055,230,1683655918037646055,camera_2,232,0,-0.1643395002810726,0.8861801349621375,4.631240232455774,-0.7189739007161365,0.6853989638003791,-0.08905952454163044,0.07330205726177356,0.010712299452279694,0.00331638838513632,11609.674499321321
1683655918057284355,231,1683655918057284355,camera_2,233,0,-0.1644261680820321,0.8866391502609492,4.633791981791636,-0.7190947340791858,0.6855623355145696,-0.08744043416376239,0.0725342540917515,0.00512886411161162,0.001588720173230839,11604.933660273095
1683655918076439619,232,1683655918076439619,camera_2,234,0,-0.16424038567790983,0.8858769412239678,4.629666473358576,-0.7187626246447367,0.6853448263520339,-0.08792745788877891,0.0771460987706254,0.012339778870227747,0.0038163026500880677,11611.447383202001
1683655918096179246,233,1683655918096179246,camera_2,235,0,-0.1642826533934786,0.8859292623901343,4.630052086471108,-0.7186979048323185,0.6853823945430352,-0.08962178337069794,0.07544687392825968,0.003918257920304313,0.0012126652677188184,11607.78029781309
1683655918115236520,234,1683655918115236520,camera_2,236,0,-0.16420059518906388,0.8856194871438923,4.628142356331709,-0.7186322459147152,0.685252544258239,-0.09061817458007357,0.07605913590725234,0.007844180945539847,0.0024265140183501264,11611.87752531914
1683655918134370326,235,1683655918134370326,camera_2,237,0,-0.16436894226704865,0.8862988092871442,4.6318680048209515,-0.7189649208268172,0.6855335392662422,-0.08743203264077146,0.07408676555155634,0.012279776419745758,0.0038006041254552807,11610.518683918115
1683655918153895378,236,1683655918153895378,camera_2,238,0,-0.16429942595900718,0.8858891656424486,4.629883561914718,-0.7188703511789307,0.6852613843518991,-0.08759288655710808,0.07726408956684494,0.01770662606577389,0.005475966977022831,11611.212810720146
1683655918173634052,237,1683655918173634052,camera_2,239,0,-0.16434034434625516,0.8861719600985455,4.6312196693265,-0.7189253200612666,0.6853695313622545,-0.0892576651373706,0.07381096713438966,0.007870605069911107,0.002436766546419914,11607.679681616602
1683655918192786455,238,1683655918192786455,camera_2,240,0,-0.16417275026982003,0.885370625940068,4.627171567266251,-0.7187671386678719,0.685189761120267,-0.0901291751714505,0.07593104378359132,0.006157715499284677,0.0019036790497956766,11618.965321571357
1683655918212130308,239,1683655918212130308,camera_2,241,0,-0.16436639344909437,0.8863945193345296,4.63264810466702,-0.7189614800785549,0.6853901996887382,-0.08761104836274136,0.07522611606793726,0.007370762003120035,0.002282235915648182,11602.95979329414
1683655918231681108,240,1683655918231681108,camera_2,242,0,-0.16419934203626046,0.885683656311931,4.628758562548439,-0.7187810143917427,0.6852160416871744,-0.08972181149312464,0.0760448953377553,0.006267166492762044,0.0019386487941106688,11612.314354535658
1683655918250689983,241,1683655918250689983,camera_2,243,0,-0.16433400398592823,0.8861067088927747,4.630870341585874,-0.71905269139638,0.6854884865380428,-0.08716871340981912,0.0739619984984362,0.015612461327691562,0.004829537891892695,11616.8195846444
