%time,field.header.seq,field.header.stamp,field.header.frame_id,field.image_seq,field.transforms0.fiducial_id,field.transforms0.transform.translation.x,field.transforms0.transform.translation.y,field.transforms0.transform.translation.z,field.transforms0.transform.rotation.x,field.transforms0.transform.rotation.y,field.transforms0.transform.rotation.z,field.transforms0.transform.rotation.w,field.transforms0.image_error,field.transforms0.object_error,field.transforms0.fiducial_area
1684733614921091079,0,1684733614921091079,camera_1,1,0,-1.0696857368095105,-0.027292669844100795,1.3796799605657033,0.9527113710265281,-0.056908724043051945,0.29823568610995804,0.012566470270816492,0.016745648375945166,0.014713890567106085,2996.483406941872
1684733614941639661,1,1684733614941639661,camera_1,3,0,-1.069922044671989,-0.027586606079065604,1.3799689975806761,0.9527863679849014,-0.056628915234016156,0.2981077278692643,0.011094391654496789,0.006708969245664775,0.005901908424538002,2996.153505841735
1684733614951675415,2,1684733614951675415,camera_1,4,0,-1.0689298889876766,-0.027878484057374992,1.378657904966502,0.9523297978744014,-0.05690901833590931,0.29948345803005455,0.01178889642443147,0.011590232665184885,0.01018166164091757,2994.506147179288
1684733614961491823,3,1684733614961491823,camera_1,5,0,-1.070343821004224,-0.02868281953692901,1.3804402525814865,0.9529329499551186,-0.05698493360098225,0.29756407557780856,0.011275245356593511,0.010593479164526798,0.009321102869836064,2995.5430074941823
1684733614971690177,4,1684733614971690177,camera_1,6,0,-1.0710940699322744,-0.029092701749575928,1.3813871271399347,0.9525881564716264,-0.05720559984786839,0.2986114560320228,0.0115983543000313,0.013531064672861248,0.011928043665903823,2985.831096011913
1684733614981728315,5,1684733614981728315,camera_1,7,0,-1.0697812465972951,-0.029424409453672987,1.379668195331864,0.9524846419379464,-0.056309057167865134,0.2991028553660086,0.011822811218520947,0.011484914241009392,0.010098019498634312,2990.481856393976
1684733614991150856,6,1684733614991150856,camera_1,8,0,-1.0707312327143614,-0.029704953913212494,1.3808811835931925,0.9527073848620068,-0.0560063222870342,0.29841972854279014,0.012553736882881238,0.017914484211360104,0.01576290157915575,2987.987105345819
1684733615001320123,7,1684733615001320123,camera_1,9,0,-1.070014207536916,-0.029960488401096913,1.3799347804399875,0.9523408657964292,-0.05696299472956476,0.29946894422023723,0.010974698773261153,0.009170448363875039,0.008073537106503485,2987.297124728095
1684733615011178255,8,1684733615011178255,camera_1,10,0,-1.0705340385671833,-0.029938936746486514,1.380614017906113,0.9525614135507727,-0.05716571564527174,0.29871310783602667,0.011371612720285012,0.010280302336468594,0.00905329997055875,2987.9064347246895
1684733615021487474,9,1684733615021487474,camera_1,11,0,-1.0704389639090188,-0.029767783967134316,1.380485210703533,0.9525861299069983,-0.05628089543620589,0.2987975621246096,0.011495337580797446,0.018294764726306312,0.016104478660518277,2988.153998657712
1684733615031777381,10,1684733615031777381,camera_1,12,0,-1.0699936089398818,-0.029504912463331468,1.3799407995873505,0.9525639592793124,-0.056278479511123136,0.29884918195332855,0.011991775175633167,0.00916074265842326,0.00805533323533231,2990.404412918725
1684733615041736364,11,1684733615041736364,camera_1,13,0,-1.069180583931527,-0.028775356148793032,1.378922931084286,0.9525030707848465,-0.056380624564163255,0.2989982661540846,0.012615948479755867,0.020918085298035294,0.018363287616916895,2994.489678743063
1684733615051703453,12,1684733615051703453,camera_1,14,0,-1.069542462559117,-0.028353360938168603,1.379413271175581,0.9526277606723698,-0.0569921769253648,0.29852128479324674,0.011716820859057632,0.011531697877217084,0.01013533022544179,2995.4513901877217
1684733615061743021,13,1684733615061743021,camera_1,15,0,-1.0702556139214734,-0.027987001898727434,1.3803481961979676,0.952635521136564,-0.0563211188790834,0.29859232772258393,0.012494689363261157,0.009703681746032089,0.008535113745453888,2991.1459264699356
1684733615071605920,14,1684733615071605920,camera_1,16,0,-1.068958344031151,-0.027638086776272767,1.3787035836415507,0.952330812058182,-0.05702862463525754,0.29946308069536653,0.011645757908132322,0.010997346209478565,0.009662823174024967,2994.686024942668
1684733615081667184,15,1684733615081667184,camera_1,17,0,-1.0699612541053345,-0.027313926806066896,1.3800044882341445,0.9530194836225975,-0.05666256673960024,0.2973200380554192,0.012000514027414236,0.008121173843392171,0.007137204731367801,2999.647635904141
1684733615091615676,16,1684733615091615676,camera_1,18,0,-1.0694713838290244,-0.02728166034600414,1.379376869543125,0.952653702189169,-0.05628259538814177,0.2985406369720227,0.012517237633913157,0.008826153905829415,0.007752417298885706,2996.2888987744227
1684733615101544141,17,1684733615101544141,camera_1,19,0,-1.069950409156192,-0.02743312371652754,1.3799926438004018,0.9528490584682084,-0.056577282088190406,0.297872368741307,0.01223661996651569,0.0102567497669952,0.009015355766381905,2996.835344599094
1684733615111606597,18,1684733615111606597,camera_1,20,0,-1.0700076030847212,-0.027625900291957925,1.3800601915932063,0.9527164380826588,-0.05700528454562737,0.29821797344446405,0.012158390339204888,0.015971967455698177,0.014045451866329776,2994.6812323005865
1684733615121460437,19,1684733615121460437,camera_1,21,0,-1.0684958372012285,-0.02829758884997822,1.3780662759924722,0.9520478668798893,-0.05668179128161464,0.30038722320074,0.012631304141243948,0.02008261725131888,0.017625792361404775,2991.874014636852
1684733615131804227,20,1684733615131804227,camera_1,22,0,-1.0690954162837993,-0.028722231614629314,1.3788131649672588,0.9524231979704048,-0.05695775136213222,0.299183084114461,0.011633946336315001,0.009551374358125031,0.008391115534514436,2994.501853315627
1684733615141585826,21,1684733615141585826,camera_1,23,0,-1.0702240784791268,-0.02913357283229251,1.3802527889477654,0.952496244733576,-0.05698083988668636,0.29893570997517044,0.011896594297721115,0.011477047723019496,0.010100269886025802,2988.976912557845
1684733615151607275,22,1684733615151607275,camera_1,24,0,-1.0703822204159423,-0.02949607723206379,1.3804342922654065,0.952432830329175,-0.056457467994297794,0.2992625125519311,0.011234171083581481,0.012442835155525245,0.01095817525748164,2986.5348913136404
1684733615161580562,23,1684733615161580562,camera_1,25,0,-1.0698609232867162,-0.029910904054717528,1.3797255247209288,0.9525291768527331,-0.05627357801732498,0.29899297533430863,0.011164782224488525,0.015364570033852942,0.01351459170833845,2990.4615374898995
1684733615171564579,24,1684733615171564579,camera_1,26,0,-1.0701554577658934,-0.029970626717096962,1.380134970359559,0.9524511148525482,-0.056872305229509895,0.2991209678327971,0.011360515692094914,0.009081295927899191,0.007993261876491088,2988.0234080525115
1684733615180664062,25,1684733615180664062,camera_1,27,0,-1.070720862955421,-0.029917530154494668,1.3808473408601771,0.9529107556767412,-0.05627727326729903,0.29776048988111475,0.011517417025454139,0.011882886596140452,0.010458334827842456,2991.501980098895
1684733615190494775,26,1684733615190494775,camera_1,28,0,-1.0717489969572807,-0.029765981940450905,1.382157619577373,0.9529077867047856,-0.056592426095123924,0.2977052646671205,0.011645717476158338,0.013604557258076966,0.01199638999675257,2986.114915254526
1684733615200668811,27,1684733615200668811,camera_1,29,0,-1.0706319988681696,-0.029112264815547406,1.3807810660245297,0.9527262326361251,-0.05690717956281057,0.2982276073755497,0.01160141199325002,0.012751242917147465,0.011227060161199055,2990.267529485748
1684733615210191965,28,1684733615210191965,camera_1,30,0,-1.0691873423893132,-0.028706462646154448,1.3789471959193063,0.9522638581360616,-0.05632176804273965,0.29978873136326933,0.012170434666186253,0.01763230361393653,0.015491399580006985,2990.8303844060283
1684733615220221757,29,1684733615220221757,camera_1,31,0,-1.0692764050622754,-0.028293443710939645,1.3790572844203488,0.952286891096166,-0.05649216799442805,0.29967894873920353,0.012281680839930063,0.016497335804160688,0.01449603576715517,2991.1562198102465
1684733615230336189,30,1684733615230336189,camera_1,32,0,-1.0689502033372547,-0.02792213371785283,1.3786748966837117,0.9524643094225984,-0.05662919302445971,0.29910288428529225,0.011930565189901848,0.008871089623426087,0.007789912541161777,2996.198464072891
1684733615241245269,31,1684733615241245269,camera_1,33,0,-1.069376624118287,-0.027405640764245814,1.3792390831829442,0.9525953874324236,-0.056620071352113235,0.29867291922865735,0.012275287450180427,0.012198417272884399,0.0107158305528689,2996.168304276653
1684733615250891208,32,1684733615250891208,camera_1,34,0,-1.068431503264722,-0.02726825251012003,1.3780400747541952,0.9525279476027753,-0.0565526117240928,0.2989060614794949,0.012144033664515217,0.010635938844643533,0.00932904654439973,3000.4642958128816
1684733615260684967,33,1684733615260684967,camera_1,35,0,-1.069869725353619,-0.027310710631364643,1.3798824777237342,0.9528528405537201,-0.056839891336136386,0.29779694892359065,0.01255660039196492,0.008450745430309325,0.007425519384521675,2997.607127218391
1684733615270537376,34,1684733615270537376,camera_1,36,0,-1.0698015108208885,-0.027454507030568422,1.379800546530264,0.9525497315935297,-0.05704081837798717,0.29873116158876273,0.012451786044269027,0.015774943720316514,0.01386931762714871,2993.3564190233583
1684733615280352354,35,1684733615280352354,camera_1,37,0,-1.0690935581870291,-0.027978153097490535,1.3788638619436953,0.9521872447886669,-0.05650439674564614,0.299977233787596,0.012663460005856325,0.012643506532185711,0.0111061233867937,2990.7952342091603
1684733615290339469,36,1684733615290339469,camera_1,38,0,-1.0706912821250942,-0.02839816567566172,1.380884445006396,0.952708640187382,-0.05701818827024067,0.29826512957856516,0.01153627306242637,0.01900330880016554,0.016737377679096156,2990.316579789157
1684733615300437211,37,1684733615300437211,camera_1,39,0,-1.069417491278116,-0.028783072634100897,1.3792301457514031,0.9522817275667412,-0.05635038421036665,0.29971311359389274,0.012497803074998872,0.017103728314395994,0.015029346336504502,2989.7380214912127
1684733615310796260,38,1684733615310796260,camera_1,40,0,-1.0689981722648862,-0.029172592130657937,1.3786796638053735,0.9522157620948292,-0.056485419485388565,0.299948616874209,0.011196742337497173,0.013971048130770214,0.012278891029400569,2991.127582122689
1684733615321207761,39,1684733615321207761,camera_1,41,0,-1.070948214893507,-0.02981141573845011,1.3811377619908147,0.9526676384365044,-0.05686062903849397,0.2984424282885084,0.01110659886820667,0.013348170672543347,0.011763272825332485,2987.145532859024
1684733615331168174,40,1684733615331168174,camera_1,42,0,-1.0690951517843978,-0.029913381375783393,1.3787446396748615,0.9522385237855666,-0.05684012411324347,0.299808146291704,0.011228068694482615,0.010987251360347727,0.009656633169606969,2990.709615949774
1684733615341487884,41,1684733615341487884,camera_1,43,0,-1.0691964110853838,-0.029940490520617986,1.378869574036976,0.9524270823713413,-0.05652650196950968,0.2992778525917004,0.010962403422874299,0.008129059875500388,0.007144049098688441,2992.8271330118887
1684733615351429700,42,1684733615351429700,camera_1,44,0,-1.0703466818680025,-0.0298839825290827,1.380368171778287,0.9528242752030142,-0.056977671353617566,0.2979079484111163,0.011414894850567734,0.012964659996214323,0.011406512224689084,2992.8965299468264
1684733615361262321,43,1684733615361262321,camera_1,45,0,-1.0696600536036687,-0.029382106386745765,1.3795087178653187,0.9526185521512841,-0.0566559742877507,0.29862021757351703,0.011574123337959165,0.012824595323763788,0.01127280691957406,2993.6093231856353
1684733615371432304,44,1684733615371432304,camera_1,46,0,-1.069752769730949,-0.029014277097597053,1.3796708709153194,0.9523101901854444,-0.056693718774267564,0.2995856197501632,0.011814413206665821,0.024495026358636096,0.021547112109278465,2988.539399536443
1684733615381276845,45,1684733615381276845,camera_1,47,0,-1.069177092922173,-0.028617558497423437,1.3789439524019869,0.9521893986702367,-0.05707714640172487,0.29987633800531377,0.01231788631105102,0.015464607364265248,0.013589099277636948,2990.4494023653688
1684733615391354799,46,1684733615391354799,camera_1,48,0,-1.0700008593499548,-0.02823797884884482,1.3800027325494046,0.9526129186984882,-0.057202434387872106,0.2985278120753982,0.011732606118185596,0.014029450598172843,0.012342074375364994,2992.9319493640214
1684733615401090383,47,1684733615401090383,camera_1,49,0,-1.0693459018040108,-0.027558699276573003,1.3791949970249913,0.9525234513031092,-0.05655784065786879,0.2989154621847153,0.012240581874666586,0.015507189673371613,0.01362358175963266,2995.0457398040435
1684733615411034584,48,1684733615411034584,camera_1,50,0,-1.0698557666155093,-0.027391616268902557,1.3798541725468794,0.9527343633491749,-0.056558413061665445,0.29828675974609997,0.01110800458051851,0.015449357364559546,0.01359055912214671,2995.844172780051
1684733615420627355,49,1684733615420627355,camera_1,51,0,-1.0678257632363441,-0.027248188789810394,1.3772719304785204,0.9521589204467553,-0.05641238025183445,0.30013760845525833,0.011333558962208584,0.0076689550769515336,0.006727681373961305,2998.184285818016
1684733615430792093,50,1684733615430792093,camera_1,52,0,-1.0684333301364843,-0.027286675431875015,1.378052375217399,0.9521337031479427,-0.05728812526771356,0.3000252190328438,0.012014573541752673,0.010908100317465141,0.009577499602704114,2994.9774496550654
1684733615440723419,51,1684733615440723419,camera_1,53,0,-1.0701772198797035,-0.027708195979359817,1.3802647790218907,0.9529968960474899,-0.057085842597599135,0.2972909485519839,0.012498584233175156,0.009029236709466204,0.00793612391011672,2998.0557519544373
1684733615450638532,52,1684733615450638532,camera_1,54,0,-1.0695294058846072,-0.028044031856947604,1.3794295390466162,0.9525749633798354,-0.05653159687815687,0.29874067151552314,0.012614629553228542,0.016971887802355923,0.014909056491602573,2994.3377102367804
1684733615460747003,53,1684733615460747003,camera_1,55,0,-1.0705715832627263,-0.02846090547450746,1.3807699695872155,0.9527908302426334,-0.05637593247653954,0.2981028401721829,0.012086551378776051,0.015247782182996161,0.013418337486274155,2991.517287696363
1684733615470854997,54,1684733615470854997,camera_1,56,0,-1.0693924783383701,-0.028839263795637775,1.379192936088068,0.9522706784693857,-0.056384951682502904,0.2997865132651189,0.011372713641007962,0.018139192208764143,0.01595089883404633,2989.9024430890563
1684733615480793714,55,1684733615480793714,camera_1,57,0,-1.0698536306934026,-0.02956318145927208,1.3797464743667953,0.9523714980024701,-0.05649706603786197,0.2994187582841798,0.01204236310714827,0.016651114521664567,0.014643627736751501,2988.3299815324135
1684733615490747213,56,1684733615490747213,camera_1,58,0,-1.0716654967208636,-0.029862394972023684,1.3820607530588747,0.9530604920502126,-0.05631670284474326,0.2972857081170559,0.011195321480159594,0.014316775253973901,0.012621731369203908,2988.7068519822787
1684733615500568389,57,1684733615500568389,camera_1,59,0,-1.0699554959324402,-0.029946467393239844,1.379857266383539,0.9524361667163276,-0.05654944271833475,0.299202774183579,0.0120502605699702,0.011685976529406616,0.010276957521091994,2988.530446068732
1684733615510650634,58,1684733615510650634,camera_1,60,0,-1.0706099176614208,-0.029968908387519175,1.3806905775196063,0.9524334740310715,-0.0565844523493996,0.29923525240439747,0.0112668103693681,0.014664670034107985,0.012919191334768503,2985.023966651176
1684733615520567893,59,1684733615520567893,camera_1,61,0,-1.069795469153365,-0.029625166075261545,1.37967779011813,0.9524506781390256,-0.05703676559114709,0.2990735687890053,0.011811584788628458,0.012236196445883252,0.010760526661762094,2990.3362354508135
1684733615530730962,60,1684733615530730962,camera_1,62,0,-1.070424751332201,-0.02933289359410219,1.3804993559996364,0.9527989777502848,-0.056765409748603946,0.2979906099060895,0.012385179121931317,0.012995779063203372,0.011429467088595414,2992.113733693958
1684733615541392803,61,1684733615541392803,camera_1,63,0,-1.0705150877122065,-0.02897272099846813,1.3806474756687674,0.9526169421483888,-0.056614659524067655,0.2985973042895812,0.012465621918805504,0.02605561130621936,0.022927875758631738,2988.8887382009993
1684733615551137447,62,1684733615551137447,camera_1,64,0,-1.0696420638037556,-0.028528486959550577,1.3795192481571168,0.9524838199030383,-0.05678704548334466,0.29901420248061766,0.011845294553924765,0.01661815811530687,0.014610679222127243,2992.3323501045816
1684733615561004638,63,1684733615561004638,camera_1,65,0,-1.0699668519229772,-0.02779957137029166,1.3800130753778423,0.952717207861916,-0.05666664345400976,0.29831196146493777,0.011348436473478328,0.00710294752207119,0.006248578390063293,2994.6930978093283
1684733615570757627,64,1684733615570757627,camera_1,66,0,-1.0702908193368108,-0.027545932709766446,1.3804171209591993,0.9529763736252763,-0.05682321556302342,0.2974499943512004,0.011430413184441492,0.01509189217176754,0.013277670076743917,2997.1866735531953
1684733615580595731,65,1684733615580595731,camera_1,67,0,-1.0689852481910143,-0.02733823243916652,1.3787454199679927,0.9525055554718046,-0.056029713469301363,0.2991033755341486,0.01144590529295672,0.007955187422339804,0.0069878691188966285,2996.6687567611243
1684733615590535163,66,1684733615590535163,camera_1,68,0,-1.069465454852832,-0.027287377501561648,1.3793654700847395,0.9528330759974204,-0.056672998498180444,0.2979213467432297,0.011839412199085117,0.012666325448662974,0.011126919445118599,2999.5815988091053
1684733615600427865,67,1684733615600427865,camera_1,69,0,-1.0696306464288499,-0.027518451706643608,1.3795710221260735,0.9526660274128768,-0.05663507550188916,0.29844686400656273,0.012222021146749607,0.019827404204988852,0.01742392201496818,2995.7598476652065
1684733615610395908,68,1684733615610395908,camera_1,70,0,-1.0695003296838028,-0.027750796242726094,1.3793921370319797,0.9526023112815503,-0.05691490242070474,0.2985834422629444,0.012548244096329856,0.010606163210468367,0.009317300137153992,2995.5168300187215
1684733615620639324,69,1684733615620639324,camera_1,71,0,-1.0700433258697473,-0.028125852167633376,1.3800587828725601,0.9525686380609705,-0.056853414060580525,0.2986911182287423,0.012817760474738366,0.013275931472890079,0.0116722025354615,2991.584641694789
1684733615630637407,70,1684733615630637407,camera_1,72,0,-1.0692367890269447,-0.028483510478028683,1.3790298234240062,0.952452601688709,-0.05688691842869326,0.29902982686285473,0.013382178240764271,0.0166577080526622,0.014620761979899501,2993.8917425863915
1684733615640730619,71,1684733615640730619,camera_1,73,0,-1.0699029387411108,-0.029292512201805187,1.37981904631461,0.9524981910645473,-0.05661630469050346,0.29900288054866625,0.011792687800390523,0.014484828599961476,0.012739289173861914,2990.390239047701
1684733615650717735,72,1684733615650717735,camera_1,74,0,-1.0698082075136237,-0.02960402974569458,1.3797040263789124,0.9522118494350393,-0.05679143419296436,0.29988110605210394,0.011774932304477952,0.01328261339222081,0.01168674151986393,2986.371999039314
1684733615660524845,73,1684733615660524845,camera_1,75,0,-1.0707166816196767,-0.029852851088453765,1.3808440969824756,0.9528269538176827,-0.05630666688138874,0.29803564823367523,0.011185156465472846,0.008641394684673287,0.007608469217563924,2990.3852816023864
1684733615670709609,74,1684733615670709609,camera_1,76,0,-1.0701811161872623,-0.029955614686039266,1.380142371846979,0.9524635779283148,-0.056481379803667776,0.2991368908091183,0.01183668080672427,0.011695592751493677,0.010290517798629242,2987.6740619083857
1684733615680648565,75,1684733615680648565,camera_1,77,0,-1.0695128957180553,-0.029811657172603995,1.3792801284519642,0.9523123217986731,-0.05662309292791607,0.299593615580972,0.01177848041209027,0.017156924779555993,0.015082827629807052,2989.2763221249916
1684733615690699577,76,1684733615690699577,camera_1,78,0,-1.0700195312364609,-0.02958557716104426,1.3799431329313976,0.9524063091059066,-0.05621856461447482,0.2993750957439441,0.011672506854011196,0.021255852800095454,0.018701351415518135,2987.7622944274917
1684733615700741052,77,1684733615700741052,camera_1,79,0,-1.0696132234776454,-0.029257205697264997,1.3794617833051883,0.952453517021597,-0.057083383835105674,0.2990597951054401,0.01170573169933441,0.010156148127862252,0.00892949405606772,2991.7393005716162
1684733615710568904,78,1684733615710568904,camera_1,80,0,-1.069755527297439,-0.02888187249760774,1.379659217834639,0.9525015320675879,-0.05675873214574132,0.2989123318557381,0.013065052570536667,0.017228848315426152,0.015136922627962705,2991.4147128557083
1684733615720519781,79,1684733615720519781,camera_1,81,0,-1.0704207837389128,-0.02809804827310153,1.3805583533419465,0.9527336600349366,-0.056789519495442496,0.2981790235573424,0.012759052562805833,0.013817744824336842,0.012153574145729814,2992.0079712073793
1684733615730471134,80,1684733615730471134,camera_1,82,0,-1.069022176579704,-0.02773762025287412,1.3787823698237656,0.9525290689375676,-0.05761421160225951,0.2986821682395322,0.012567331702178402,0.016331680759321898,0.014337821730673592,2997.6635501044784
1684733615740379810,81,1684733615740379810,camera_1,83,0,-1.0693099958366594,-0.027470165248986964,1.3791535347792285,0.952690028436526,-0.05623850008721826,0.2984782375102118,0.011387825005200839,0.01131509241531603,0.009941973820282992,2997.78738911613
1684733615750341892,82,1684733615750341892,camera_1,84,0,-1.0689784993835707,-0.027320393490657686,1.3787316861794083,0.9524524736302048,-0.05689650907347699,0.2990709662498313,0.012394752008334228,0.013896905205911025,0.01220209629635216,2996.4590455004936
1684733615760329008,83,1684733615760329008,camera_1,85,0,-1.069368168911797,-0.027368586616128256,1.379239764565146,0.9525940509573246,-0.05625594801798587,0.29875065689892116,0.012160896174822348,0.011648105064523406,0.010232637006847126,2995.919158213772
1684733615770528316,84,1684733615770528316,camera_1,86,0,-1.0703426603259065,-0.02755059211540574,1.380484978389704,0.952903822499301,-0.056684475264543725,0.2976735731394363,0.012313374216876123,0.014119081053650007,0.01241721557775454,2995.474352281308
1684733615780561447,85,1684733615780561447,camera_1,87,0,-1.0700800947143851,-0.027839642603435515,1.3801654558566832,0.9525794831643852,-0.0571280573956561,0.2986246701304422,0.012329626999872629,0.011908137312275358,0.010474795816495741,2992.0920971464366
1684733615790721654,86,1684733615790721654,camera_1,88,0,-1.070320554399494,-0.028196160556683586,1.3804210103289996,0.9525439239622272,-0.056825701269821526,0.29877468136123037,0.012829745723553672,0.016490389592945576,0.014506392260602467,2989.5645756822782
1684733615800874471,87,1684733615800874471,camera_1,89,0,-1.0720912284413329,-0.02903408935137199,1.382664481631984,0.9531987065118142,-0.05670214686840188,0.2967584845520527,0.011467096018068624,0.016323620642651804,0.014398778479661136,2989.364104044625
1684733615810740709,88,1684733615810740709,camera_1,90,0,-1.070217167209113,-0.029355343024295218,1.3802200932604272,0.9524896051426832,-0.05673369157193005,0.2989782510619282,0.012523806438435162,0.014641337940702215,0.012878466453644917,2988.4147566048196
1684733615820528745,89,1684733615820528745,camera_1,91,0,-1.0705567409544432,-0.02965837726724508,1.3806325100255616,0.9526619857758216,-0.05655662973776562,0.2984812473243085,0.01205958067672925,0.020496592231211253,0.018037992107878823,2988.883460434618
1684733615830338001,90,1684733615830338001,camera_1,92,0,-1.0697950335154234,-0.029854606447278758,1.3796479544053757,0.9523330084879211,-0.05639314142889025,0.29958312952836263,0.011471837085608613,0.013249391329736682,0.011655272526874993,2987.8736525886347
1684733615840413331,91,1684733615840413331,camera_1,93,0,-1.070311079088409,-0.02994072545508628,1.3803252516304212,0.9525813236193792,-0.056627892742231394,0.2987375305014344,0.011746979400280922,0.005891234661248745,0.0051839476731391585,2988.9246349435994
1684733615850253343,92,1684733615850253343,camera_1,94,0,-1.070496092409898,-0.029808552481859932,1.3805612201621504,0.9524381362300745,-0.05679886592309459,0.2991631549629056,0.011700093891641483,0.01817406500049401,0.01600377139685758,2985.921765460401
1684733615860321521,93,1684733615860321521,camera_1,95,0,-1.0699753083941368,-0.02955958570073815,1.3799000287050098,0.952604004707835,-0.05634460657188036,0.29871364186742655,0.011876686707753147,0.015077653471962549,0.013257706161713312,2991.158853029133
1684733615870379924,94,1684733615870379924,camera_1,96,0,-1.0701520554347501,-0.029228641543371868,1.380154941863313,0.9525722336266986,-0.05671417798926541,0.2987266728099796,0.01232950486936599,0.0144912036776077,0.012744726138539272,2990.163952596719
1684733615880643129,95,1684733615880643129,camera_1,97,0,-1.0695656817869748,-0.02840907931280101,1.379426705477925,0.9523571537881841,-0.057166067140585176,0.29931819123857584,0.012510507176551508,0.01735540608933661,0.015254993348203258,2991.075211814256
1684733615890616893,96,1684733615890616893,camera_1,98,0,-1.0695074318291486,-0.028026745572936752,1.379370334626371,0.9523951514923347,-0.0566788367158472,0.29929015957677085,0.012505409347259832,0.011927971980185248,0.01048237082706805,2991.873464984587
1684733615900421380,97,1684733615900421380,camera_1,99,0,-1.0691295846891178,-0.027675324762025874,1.3789064669165005,0.9524098342906028,-0.0570413177941426,0.29920765276195666,0.011686579462552379,0.011234741323278286,0.0098725302405405,2994.954253298113
1684733615910333156,98,1684733615910333156,camera_1,100,0,-1.0690513675700437,-0.02745232504540048,1.3788308668434206,0.9525656810984646,-0.056292120154115104,0.2988426419226281,0.011953901901753721,0.016514132148586214,0.01450157769579591,2997.247260541655
1684733615920324802,99,1684733615920324802,camera_1,101,0,-1.0703386200895968,-0.027308948864843786,1.380481088037657,0.9528149151616387,-0.056622618720728955,0.2979764574657461,0.012151020158445876,0.01067109519499354,0.009387712532604344,2994.3192306597484
1684733615930373668,100,1684733615930373668,camera_1,102,0,-1.0697910764045235,-0.027402878384005055,1.3797957981050906,0.9528323699009515,-0.05652028380676273,0.2979550923022397,0.011776899358623921,0.012916350649902597,0.011353613382879974,2997.5298027375247
1684733615940397024,101,1684733615940397024,camera_1,103,0,-1.0698625703449645,-0.027583878501263953,1.3798645632200932,0.9527763830692604,-0.05640866733045106,0.2981648916333811,0.011529245973374036,0.010681981919333339,0.009392921139021917,2996.0753722758955
1684733615950319290,102,1684733615950319290,camera_1,104,0,-1.069680717207843,-0.027890220953113536,1.3796243959124925,0.9525510637206536,-0.05652693174847205,0.29884210566600217,0.012023846009701295,0.007237613157485612,0.006362641243141588,2993.3826248249966
1684733615960383892,103,1684733615960383892,camera_1,105,0,-1.0703326375246187,-0.028683926133470917,1.3804345392391104,0.9525846572441629,-0.0565694851711775,0.29872383688296106,0.012100967251040502,0.013060354351182468,0.011492654086367697,2989.6877657203
1684733615970330715,104,1684733615970330715,camera_1,106,0,-1.0701923159625224,-0.02905907787876391,1.380203386740497,0.952596853911489,-0.056664143699982794,0.29867951589495345,0.011787939660410567,0.011676412512315437,0.01027329592670839,2990.5290425799312
1684733615980503797,105,1684733615980503797,camera_1,107,0,-1.0701264779919304,-0.029420367283599754,1.3801142083993498,0.9524700094156454,-0.056068535912712714,0.2991733063672447,0.01235043325782784,0.0170256507844897,0.014974035196628538,2988.0057028671717
1684733615990362882,106,1684733615990362882,camera_1,108,0,-1.0707337479003074,-0.02972921387687461,1.380861488980425,0.9525756931149008,-0.05657017652104716,0.2987688650182852,0.011684575761656265,0.021232519968179986,0.01869974637328596,2986.6054128566757
1684733616000346183,107,1684733616000346183,camera_1,109,0,-1.0701609727279815,-0.029966896129735757,1.3801153506525812,0.9524615138897722,-0.05655263467784417,0.29915560245714806,0.011170926026902724,0.009129782079980941,0.008036332700216853,2987.9567170866067
1684733616010418176,108,1684733616010418176,camera_1,110,0,-1.0700385337883147,-0.02993068619910401,1.3799381399024067,0.9526927819716797,-0.05604929819575795,0.29849416000534623,0.01166943844096481,0.018378934168140404,0.016159717936120598,2991.702542907906
1684733616020292758,109,1684733616020292758,camera_1,111,0,-1.071397555940564,-0.029803127593774476,1.3817209997546398,0.9529161235581637,-0.057168438815502376,0.29759161143334073,0.011039197017361273,0.01735066677792929,0.015297064261596783,2988.759390142166
1684733616030287981,110,1684733616030287981,camera_1,112,0,-1.0702834417927138,-0.029524365163406667,1.380293094779622,0.9525507836480113,-0.056440446739045025,0.29887535100997853,0.011619169596779071,0.024259994461317547,0.021350549759108817,2988.7644128459506
1684733616040369749,111,1684733616040369749,camera_1,113,0,-1.0686195033270418,-0.028744697868087074,1.378196779851558,0.9522182835631774,-0.05622734370835135,0.2999538160826358,0.012105142913789361,0.013928519634646364,0.012225532519641808,2993.2247093410697
1684733616050305843,112,1684733616050305843,camera_1,114,0,-1.0704332500354987,-0.028388181095785725,1.3805525110900845,0.9528688778320427,-0.05699600872250008,0.29772312658357086,0.012381298240149123,0.021538192479056306,0.01894382541199501,2994.056636985972
1684733616060327053,113,1684733616060327053,camera_1,115,0,-1.0690783510267547,-0.027981708367310256,1.378843702673647,0.9523214908832175,-0.05665030011220701,0.2995182946621743,0.012779384250656592,0.015485268973861821,0.013597480855489405,2993.053525375667
1684733616070280790,114,1684733616070280790,camera_1,116,0,-1.0710389090130075,-0.027683559916343196,1.3813709107519445,0.9530599281197611,-0.05675896692826431,0.2971543535168197,0.012429129961226259,0.014832427623332478,0.013056167095992763,2993.9727998641315
1684733616080372810,115,1684733616080372810,camera_1,117,0,-1.0690536222201257,-0.027280153708236207,1.3788273298730311,0.9526556458974293,-0.0567282244755866,0.2984419994159621,0.012708338687727177,0.013592496936325915,0.011928725095954655,2999.0292687884057
1684733616090559005,116,1684733616090559005,camera_1,118,0,-1.0684923444467493,-0.027260298455143425,1.3781300633211873,0.952533653595192,-0.05653952619451709,0.29890102481213876,0.011878472652136556,0.007946045501739718,0.006971649620875148,3000.269113119226
1684733616100667476,117,1684733616100667476,camera_1,119,0,-1.0700900763679864,-0.027417428146900444,1.3801685413424412,0.9529511098229909,-0.056201777050336306,0.29758954210727817,0.012884369285875386,0.006649699542322197,0.005842272533687873,2997.2089598642197
1684733616110823154,118,1684733616110823154,camera_1,120,0,-1.0696219975379375,-0.027615629207362245,1.3795644444587556,0.9525216933458521,-0.05709979461504613,0.298817054494706,0.01226397584709024,0.01549664096091874,0.013622319377937151,2993.8893185311454
1684733616121074199,119,1684733616121074199,camera_1,121,0,-1.0705552746042466,-0.02834033045908408,1.3807243716311524,0.952863750454799,-0.056919988245386986,0.2977441558732669,0.012617672157550016,0.016614945488981903,0.014614808252554418,2993.211362517206
1684733616131052970,120,1684733616131052970,camera_1,122,0,-1.0689190310952852,-0.02872632355407212,1.3785941529128478,0.9520549348668848,-0.05598047911141293,0.3005294185978064,0.011817593296995443,0.01689019131299574,0.014840926891676333,2988.85967931454
1684733616141171216,121,1684733616141171216,camera_1,123,0,-1.0710414722503068,-0.029159045717645847,1.3813167392498011,0.9529249698818298,-0.056793920317512514,0.29760043712270623,0.011934496849723572,0.023044881716486998,0.020292810947848003,2990.8385902018053
1684733616150797367,122,1684733616150797367,camera_1,124,0,-1.0699784617785086,-0.02947938921979921,1.3799206742662113,0.9525111797027587,-0.05652357401572731,0.29896577866846696,0.01212440954869873,0.011326701918733306,0.009960257913984239,2989.8712476843502
1684733616160768508,123,1684733616160768508,camera_1,125,0,-1.0698800895508236,-0.029895215256149642,1.379754850019721,0.9527129171323214,-0.05685138933538411,0.2982938162649989,0.01126127159436362,0.010018879871495301,0.008809726768287902,2993.695387274958
1684733616170562267,124,1684733616170562267,camera_1,126,0,-1.0696102947004327,-0.02995012277483818,1.3794012230835786,0.9524054076755174,-0.05638340704255324,0.29935645137406725,0.011426541971697216,0.004879070242168382,0.004289905574705111,2989.9843146998314
1684733616180584192,125,1684733616180584192,camera_1,127,0,-1.069813104312448,-0.02988964515031686,1.3796877839914663,0.9525774224457662,-0.05654009280771678,0.29876852810466126,0.01169781031002671,0.009369974286528304,0.008237711091824081,2991.596158165833
1684733616190583705,126,1684733616190583705,camera_1,128,0,-1.070801741628913,-0.029731299729229513,1.3809407131170737,0.952711435753716,-0.056489183937007574,0.29836406492460293,0.011347997351583447,0.02197472310217563,0.01935452136419135,2988.3283463814287
1684733616200669288,127,1684733616200669288,camera_1,129,0,-1.07068339670892,-0.029103755681080017,1.3808235553001644,0.9529434921715005,-0.056793591481915526,0.2975496220906469,0.011722247578170733,0.016490909052663483,0.014513010146658794,2993.2461768167564
1684733616211136579,128,1684733616211136579,camera_1,130,0,-1.0696092417736884,-0.02870549815057801,1.3794781841768229,0.9525414398375819,-0.05667520806931748,0.2988522109544731,0.011835632220926717,0.02314628603926394,0.020345962451106637,2993.156070054508
1684733616220725297,129,1684733616220725297,camera_1,131,0,-1.0689374746710438,-0.02828257441875885,1.3786251772995874,0.9522838983415167,-0.05694427459577445,0.2995775839211072,0.012884011884387375,0.014844441669993103,0.013031079011556443,2993.277605961077
1684733616230106830,130,1684733616230106830,camera_1,132,0,-1.0698180572141207,-0.02791466874501678,1.379782761047793,0.9527181868486146,-0.0566644640101639,0.2982514735109968,0.012777069885072097,0.00462653671274893,0.0040647937429101515,2995.204523560125
1684733616240150213,131,1684733616240150213,camera_1,133,0,-1.069980133094264,-0.027428768806841107,1.380041095052891,0.9526628299230077,-0.056309828611886825,0.2985061526024379,0.01252248151432365,0.01782704827201087,0.01567283464247804,2993.4932959099533
1684733616250133514,132,1684733616250133514,camera_1,134,0,-1.0708992933806727,-0.02732527819296349,1.381200084849706,0.953076980371365,-0.056903258189411575,0.29708565357040057,0.012099716371801196,0.014095465550781228,0.012407499798928167,2995.481453392539
1684733616260283708,133,1684733616260283708,camera_1,135,0,-1.0689008187103122,-0.027290497018616994,1.3786389271485315,0.9523794238861193,-0.0562973227306253,0.29944131389090445,0.011787448705984844,0.013217815212556163,0.011609712129541297,2995.371841771993
1684733616270312786,134,1684733616270312786,camera_1,136,0,-1.0701459593477307,-0.027444404108331082,1.3802421357752053,0.9527945785243096,-0.056767533773034014,0.2980266798337354,0.01183369558889902,0.01336215746414382,0.011754051264960444,2995.12314505421
1684733616280271768,135,1684733616280271768,camera_1,137,0,-1.0695051694352955,-0.02798773298054105,1.37938810357956,0.9523636364897391,-0.05617342910683458,0.29949518718269286,0.012275284470152704,0.01217247685417533,0.010698963242947227,2991.0148144927807
1684733616290414571,136,1684733616290414571,camera_1,138,0,-1.0705979141805848,-0.028391840797968543,1.3807654813245989,0.9527617928548084,-0.05677083473889943,0.2980932963742264,0.01274460889504029,0.018431248958222568,0.016215142569535226,2991.213181808475
1684733616300460100,137,1684733616300460100,camera_1,139,0,-1.0695562939327279,-0.028777998194469877,1.3793938741838354,0.9522313443070692,-0.05640589907087377,0.29987282439256774,0.012252781724267426,0.01611116513959132,0.014164612284563442,2988.3021435758583
1684733616310351848,138,1684733616310351848,camera_1,140,0,-1.0702720879681789,-0.029176215917600716,1.3803189772517397,0.952583338088478,-0.05673131799177714,0.2986838721026587,0.012429243777923694,0.013192549449740909,0.011604336121016563,2989.69181397371
1684733616320463895,139,1684733616320463895,camera_1,141,0,-1.070918811527101,-0.029798422993766376,1.3810920599170666,0.9527872923865446,-0.05681281733062429,0.2980540669549214,0.011508797735032222,0.020024211873533204,0.017636449545887136,2989.0452089998885
1684733616330485820,140,1684733616330485820,camera_1,142,0,-1.070072035232491,-0.0299225344671756,1.37999186876956,0.9526554119002861,-0.056564526642996875,0.29852936892200516,0.011328565389281032,0.009603442947991425,0.008447616931711286,2991.46687490627
1684733616340596675,141,1684733616340596675,camera_1,143,0,-1.069403565159486,-0.02994621182528495,1.3791343063958466,0.9525292377731722,-0.05657769505384666,0.2989052730691658,0.011943757411346172,0.009903131478495197,0.00869899714093585,2993.1016718298206
1684733616350361824,142,1684733616350361824,camera_1,144,0,-1.071173390983704,-0.029900637897663663,1.3814208687840357,0.9528232480516808,-0.05690044210875319,0.29794749927024594,0.010839065397009764,0.017108025076595368,0.015080811110893913,2988.313186382059
1684733616360117673,143,1684733616360117673,camera_1,145,0,-1.0706626592178137,-0.02938799440797801,1.38079216242147,0.952732247074894,-0.056069436067271085,0.2983643261638479,0.011671015187829356,0.014287872036220506,0.012577682868836733,2989.2680792994797
1684733616370174646,144,1684733616370174646,camera_1,146,0,-1.070974459487498,-0.02905440396335204,1.3811993878616522,0.952802561383495,-0.05667700112034556,0.29803004392942545,0.011536441413213793,0.01891168046859093,0.016659280781167424,2989.4223695060928
1684733616380157709,145,1684733616380157709,camera_1,147,0,-1.0703305533733372,-0.028638622592302255,1.3804183563763806,0.9526012053390679,-0.05713516114556206,0.29857372589358344,0.011842599100239529,0.01336998179613147,0.011767705620623023,2990.533240178134
1684733616390106916,146,1684733616390106916,camera_1,148,0,-1.0697591428205964,-0.02821944297117692,1.379681408251875,0.9526490276140489,-0.056666576371379854,0.29849876124827296,0.0121333771720943,0.01770026244048495,0.015557710368772331,2994.3157598762773
1684733616400286674,147,1684733616400286674,camera_1,149,0,-1.0705062720623784,-0.027587954191455717,1.3806777633979799,0.9528615824536135,-0.05666732591337212,0.29781843543141784,0.012157235500136922,0.020043335287482478,0.017635878823641597,2993.9060837434363
1684733616410360813,148,1684733616410360813,camera_1,150,0,-1.0702156719178377,-0.027395595492334668,1.380325506823075,0.9526224474917747,-0.056641805289406995,0.2986144076578223,0.011472313084368349,0.016673838850692846,0.01467766829943119,2992.081513375277
1684733616420284748,149,1684733616420284748,camera_1,151,0,-1.0698641244942408,-0.02728344371841943,1.3798879047571013,0.952754890535405,-0.05661193139450179,0.29817097627638245,0.012135760834894486,0.008835353539325297,0.007766991193990657,2996.0334460770246
1684733616430413246,150,1684733616430413246,camera_1,152,0,-1.0693805535098897,-0.027323815470177794,1.3792663615476541,0.9525755379889455,-0.05692327286789222,0.29869658227624435,0.011829504113417136,0.012049470213241875,0.010589419024568742,2996.2538383470383
1684733616440481185,151,1684733616440481185,camera_1,153,0,-1.0707831269150714,-0.027720101514179262,1.381047653565576,0.9528392731712602,-0.05715872558232439,0.29779229483165875,0.012245355493566994,0.01298879602109082,0.011435103554441179,2992.3226468273197
1684733616450459957,152,1684733616450459957,camera_1,154,0,-1.0698790107058869,-0.028045271507775638,1.379866061750591,0.9527190328896488,-0.05706385140230874,0.29818553027498995,0.01247199934135712,0.010485587132279761,0.009215897554619247,2995.123413010965
1684733616460328817,153,1684733616460328817,camera_1,155,0,-1.0695583948267153,-0.0284076480232374,1.3794467973874893,0.9524310421673994,-0.05699149384164571,0.29912771082922013,0.012234874731267208,0.01102290177368559,0.009688979582414924,2992.140740964677
1684733616470440626,154,1684733616470440626,camera_1,156,0,-1.0700880182568568,-0.028858043572781957,1.3800912752251842,0.9525590701033818,-0.05638365622432431,0.298838650628926,0.012147516817870522,0.016334451982402243,0.014366498452108224,2990.3557823057063
1684733616480413913,155,1684733616480413913,camera_1,157,0,-1.0690562408579831,-0.029546140675175525,1.3786990729136157,0.9523147373709692,-0.05623780291216689,0.29964160190615197,0.01220085721535514,0.02738023731217254,0.024042473317641155,2991.6544028994413
1684733616490281581,156,1684733616490281581,camera_1,158,0,-1.0709205084979332,-0.029821815946537305,1.3810940355059385,0.9527259638650284,-0.05694270337109197,0.2982523653626971,0.010783916997112678,0.01294241908180993,0.011406264625312098,2988.3392156411433
1684733616500396251,157,1684733616500396251,camera_1,159,0,-1.070124792767919,-0.029948673906901056,1.3800879885319046,0.9524710524600758,-0.056442223252567966,0.29913294735327073,0.011517355063051177,0.016998525770759443,0.014957973094986254,2988.119793438409
1684733616510695695,158,1684733616510695695,camera_1,160,0,-1.0695766777475346,-0.029956869700850465,1.3793511640771075,0.9523349443892575,-0.056326921407422105,0.29962120925819885,0.010609551476220742,0.01668336363582057,0.014678100169985324,2989.16996526427
1684733616520609617,159,1684733616520609617,camera_1,161,0,-1.0686631703248994,-0.029601775692585847,1.378193308804561,0.9520852027505408,-0.05588309501174995,0.30047019615238635,0.0113361201262215,0.022300169279333204,0.01958665435572296,2990.123618499958
1684733616530620574,160,1684733616530620574,camera_1,162,0,-1.0700426057377141,-0.029313988561332584,1.3800032231441395,0.9525676469966691,-0.056780732250524185,0.29872817356252407,0.01234117742851643,0.015294103432097474,0.013447989168942014,2990.7047014338896
1684733616540466070,161,1684733616540466070,camera_1,163,0,-1.07116404780694,-0.028972217074729145,1.381458806575916,0.9528860452811408,-0.05663315988280408,0.29778086671897686,0.011288282697169855,0.014922297807061113,0.013149788339994738,2989.7157484372137
1684733616550299882,162,1684733616550299882,camera_1,164,0,-1.069701446408443,-0.02853648716280978,1.3796130263267465,0.9525180785292859,-0.056998300589284866,0.29886300811180383,0.011891433352395984,0.012246500671608374,0.010767633882064006,2992.6974585795556
1684733616560592412,163,1684733616560592412,camera_1,165,0,-1.0709127231962838,-0.027828005710771972,1.381202505552601,0.9532928846007007,-0.05689023626392055,0.29640976811317093,0.011722907259151129,0.006122749371570535,0.005388126935826935,2998.4458059303006
1684733616570447444,164,1684733616570447444,camera_1,166,0,-1.0696483924818128,-0.027511005032270035,1.379561699251528,0.9526232417253843,-0.05642101317684825,0.2986078461912962,0.012608837762195834,0.010509672545595095,0.009233803192314448,2994.7975380256544
1684733616580409049,165,1684733616580409049,camera_1,167,0,-1.06862650003914,-0.027333121906337365,1.3782707822062317,0.9525559871476487,-0.05652944202428563,0.2988236064609764,0.012081628832534531,0.009859213037998416,0.008650534716495439,2999.7776094756555
1684733616590584516,166,1684733616590584516,camera_1,168,0,-1.0684585728845186,-0.027241545370211288,1.3780738636856078,0.9524678122491674,-0.05704795499689888,0.29901699309049407,0.01180827265420591,0.007822044150088914,0.00686417270003863,2999.9036505880067
1684733616600264310,167,1684733616600264310,camera_1,169,0,-1.0696988886885292,-0.027513412470012908,1.3796742628188223,0.9527860088986172,-0.05682570949802452,0.29802389924928463,0.012305099078943572,0.016786034349934198,0.01474921573833762,2997.3661581943743
1684733616610355138,168,1684733616610355138,camera_1,170,0,-1.0699857382028053,-0.027766996529123067,1.3800356265753249,0.95260928670965,-0.057099351942513046,0.29856435580441604,0.0115989794969645,0.007485319743864238,0.006586033348529162,2993.239467328879
1684733616620547771,169,1684733616620547771,camera_1,171,0,-1.070649695137177,-0.028138750802982854,1.380849619822582,0.95280247070654,-0.05672017842650316,0.29801745185088263,0.011656395973260486,0.016391067940276116,0.01443159205095693,2991.917965588741
1684733616630577325,170,1684733616630577325,camera_1,172,0,-1.0699837960686287,-0.028503858378366147,1.3799842575514851,0.9523348044270512,-0.05755498777843497,0.2993167565803487,0.012462860383350607,0.014244212186895311,0.012531796819548987,2988.6755015035164
1684733616640780687,171,1684733616640780687,camera_1,173,0,-1.0703035334094813,-0.02928837975187753,1.3803150238991937,0.952595473861114,-0.056745271403561254,0.29866772191471125,0.01180801587619704,0.021484163953573443,0.018905566255321162,2989.781488821028
1684733616650887250,172,1684733616650887250,camera_1,174,0,-1.070743657792323,-0.029620537550506573,1.3808672947805225,0.9526028291630815,-0.05638215690842931,0.29871685867511083,0.011710704339204606,0.025921169522916898,0.022827510755589493,2986.889399289852
1684733616660804033,173,1684733616660804033,camera_1,175,0,-1.071199881912541,-0.029856921346030678,1.3814688344691974,0.9529020540224561,-0.05657909799339567,0.29776559083457943,0.010589335435800356,0.012910905410535634,0.01138124660268326,2989.1948042375725
1684733616670328378,174,1684733616670328378,camera_1,176,0,-1.0695076194663584,-0.029934532493793138,1.3792729454992148,0.9524857615650839,-0.0567887277597993,0.29902354676770754,0.011438220738659691,0.0073310761399625335,0.006443926332045492,2992.1402514936053
1684733616680436372,175,1684733616680436372,camera_1,177,0,-1.0709358509773925,-0.029843337690434013,1.3811328447340936,0.9527249873690367,-0.056275002862036974,0.2983504551008971,0.011628776231162114,0.015015781580586918,0.01322527001130561,2987.457931600511
1684733616690460681,176,1684733616690460681,camera_1,178,0,-1.0694059415573702,-0.029579700375271436,1.3791715892632792,0.9521854734709971,-0.056598696371773,0.29998760626433946,0.012118076069258183,0.01514630853489507,0.013313655553126826,2987.993236693089
1684733616700275421,177,1684733616700275421,camera_1,179,0,-1.0700290025190493,-0.029265596449252897,1.3799848044293759,0.9524860390636406,-0.05629262627175117,0.29912138082694795,0.011308631591223028,0.01613850618014112,0.014201456671373704,2989.330999961006
1684733616710226058,178,1684733616710226058,camera_1,180,0,-1.0696109214771028,-0.02888022092003074,1.3794573755356552,0.9524523853860257,-0.05618892717797231,0.2992110933116348,0.012246618893145595,0.023166232873336412,0.02035928065261125,2991.1393987946212
1684733616720203161,179,1684733616720203161,camera_1,181,0,-1.0695108797698794,-0.02807475982368415,1.37939052326445,0.9527067688566753,-0.05643614313846533,0.2983429610830311,0.01250007578124775,0.008863066206686199,0.007783746175579656,2996.4233908399474
1684733616730245351,180,1684733616730245351,camera_1,182,0,-1.0713907942016219,-0.027772716508061217,1.381830573154487,0.9530887003543416,-0.05685833154297285,0.29707214353884276,0.011713279825000856,0.009027523105032742,0.007955017512234853,2992.612642439548
1684733616740199089,181,1684733616740199089,camera_1,183,0,-1.068980809510705,-0.027468655407092566,1.37871901306869,0.9528188650635689,-0.05635375949239936,0.2980019852125389,0.012461178894109916,0.013239415842690505,0.01161425825002928,3001.5318805389115
1684733616750245332,182,1684733616750245332,camera_1,184,0,-1.0699475206157643,-0.027335009155147,1.379967308077558,0.9527086572068973,-0.056155779466000796,0.2983901151274687,0.012493282587544782,0.018894832144724205,0.01660883371782549,2994.3517016567057
1684733616760357379,183,1684733616760357379,camera_1,185,0,-1.0707861459532224,-0.02739226384722601,1.3810707433359226,0.9530269823397947,-0.05705038928106693,0.2972222784492554,0.011989212176649498,0.008813880165689625,0.007758273210679775,2995.4255862932187
1684733616770481109,184,1684733616770481109,camera_1,186,0,-1.069847627760037,-0.027546990355988288,1.379843418598074,0.9527875878046309,-0.055989410249172145,0.29817593101915013,0.012333394757559058,0.021510128572117537,0.018902225802710455,2995.8283204159243
1684733616780520677,185,1684733616780520677,camera_1,187,0,-1.070383854868268,-0.027846630827025053,1.3805376945673065,0.9529012466096616,-0.05680904222304132,0.29769526697461623,0.011378706093652026,0.0088303748780163,0.007771285345721131,2995.2811837745826
1684733616790455818,186,1684733616790455818,camera_1,188,0,-1.071041305410227,-0.028227938264294285,1.3813707498112657,0.952890639022908,-0.056770731040448726,0.2977106099376593,0.012037727783687675,0.01933785564324353,0.017031283607431977,2990.976834281115
1684733616800458908,187,1684733616800458908,camera_1,189,0,-1.0711641482072982,-0.029017211544483806,1.3814742665777249,0.95280224313895,-0.056563666545826424,0.29805054143576626,0.011589298776215437,0.02866476787312422,0.02525931036622548,2988.2380449792827
1684733616810442924,188,1684733616810442924,camera_1,190,0,-1.0700682480222494,-0.029338492708479345,1.3800232388094167,0.9524396687074839,-0.05693783354136873,0.2991411551463825,0.011459925029486768,0.013594708943855949,0.011964660897017615,2988.8911061796834
1684733616820316553,189,1684733616820316553,camera_1,191,0,-1.0704547218363576,-0.0296500394453136,1.3805111873391633,0.9526502784083521,-0.05611029267985584,0.2986267939908836,0.011450764804000266,0.013044276143773459,0.01148164341858565,2989.0274384261575
1684733616830349922,190,1684733616830349922,camera_1,192,0,-1.0709929038054664,-0.029892019260698986,1.3811886706641723,0.952754591026153,-0.057025564368831105,0.29813078761543915,0.011171739470742185,0.016063353530626046,0.014154234848786912,2988.3166642372967
1684733616840237617,191,1684733616840237617,camera_1,193,0,-1.0697762009180298,-0.029932638025379484,1.3796259261367636,0.9525585663021302,-0.05646306143986023,0.29885604110485225,0.01136517278372721,0.012132681920775212,0.010668369633999674,2991.4916381376083
1684733616850445747,192,1684733616850445747,camera_1,194,0,-1.0707666304592556,-0.029813174900281826,1.3808925639206038,0.9525290834388916,-0.05691276892484632,0.2988906236297677,0.01066194365867024,0.016497739634360187,0.014542484142877657,2986.151798808831
1684733616860355615,193,1684733616860355615,camera_1,195,0,-1.069276849205411,-0.0295485729890343,1.3790006694529382,0.9524316818068905,-0.05590423491153117,0.299362838703027,0.011423607710347049,0.026829960115719587,0.023574852225091546,2992.084745024098
1684733616870281457,194,1684733616870281457,camera_1,196,0,-1.0696315198841944,-0.029200479992031285,1.3794670780908722,0.9523821781941111,-0.05646728488300669,0.299387144368051,0.012123125971697893,0.013481850459356792,0.01185119102599741,2989.981443437863
1684733616880451440,195,1684733616880451440,camera_1,197,0,-1.0702855313325939,-0.028412919713600902,1.380358864646371,0.9526339526139176,-0.05672592712137621,0.29852031442282173,0.012503735294068256,0.015565051537123509,0.013691155383335719,2990.963973280043
1684733616890517950,196,1684733616890517950,camera_1,198,0,-1.0700499782492698,-0.028042482869208334,1.380106554314996,0.9526279273935865,-0.056231565612050706,0.2986347625789839,0.012462806987645764,0.010300745692802593,0.009057069428847191,2992.0537669784394
1684733616900343656,197,1684733616900343656,camera_1,199,0,-1.0695572642818232,-0.027681227564303964,1.3794752383532078,0.9526558998780679,-0.057466308769734485,0.298358829954886,0.01124136877082507,0.008614707738161087,0.007575221776946117,2996.823781818851
1684733616910326242,198,1684733616910326242,camera_1,200,0,-1.0701317654113494,-0.027467451978490143,1.3802223513451135,0.9529981960529142,-0.05629188860256523,0.29743007439750085,0.012689067788638065,0.013737462242715992,0.012070956981930078,2997.760775333735
1684733616920435667,199,1684733616920435667,camera_1,201,0,-1.0694001045929742,-0.027268473426237377,1.3792975583351268,0.9525901282297455,-0.05670556751368177,0.2986631811167941,0.01252319677180089,0.007158077278290875,0.006287680958961902,2996.0703772326237
1684733616930562496,200,1684733616930562496,camera_1,202,0,-1.07013695809587,-0.027403842165456292,1.3802454067647418,0.9528875329378595,-0.05648572964656719,0.2977816811806836,0.011865170504484065,0.006569626639247873,0.005777446756934492,2996.4231693032198
1684733616940371274,201,1684733616940371274,camera_1,203,0,-1.0692522216372198,-0.027563280419684255,1.3790826754877585,0.952359397667363,-0.056751841241106014,0.29941740857311056,0.011833073724311026,0.011260655242949724,0.009897491276780919,2993.2611194401975
1684733616950200319,202,1684733616950200319,camera_1,204,0,-1.06945856852787,-0.02787874974949314,1.3793427901548447,0.9524071291807169,-0.0565849544308497,0.29926598180623215,0.01259664047893796,0.008564267962356098,0.007525203405804317,2992.3339256606987
1684733616960348367,203,1684733616960348367,camera_1,205,0,-1.0702108961033798,-0.02866641747760197,1.380260320265465,0.9525809875310829,-0.05694590261829931,0.2986603387735343,0.012191325316473095,0.019339387785294093,0.01701414191580949,2990.6139847908635
1684733616970404863,204,1684733616970404863,camera_1,206,0,-1.0709787674991835,-0.02907801798162775,1.3812340111392398,0.9527182486757132,-0.05659527382714493,0.2983167165350275,0.011491312217172539,0.013901606347644702,0.012248530540227544,2987.9866705522873
1684733616980364561,205,1684733616980364561,camera_1,207,0,-1.0711495985578074,-0.02944788155835253,1.3814202265819409,0.9526435506568881,-0.05647530057160702,0.2985661695647731,0.01179187044547153,0.011477444277261384,0.01011434280895406,2985.492195463739
1684733616990326166,206,1684733616990326166,camera_1,208,0,-1.0714590713606558,-0.029731757692031402,1.3817916432615824,0.9527161601421772,-0.056926849800426366,0.2982846029302067,0.01084193850351674,0.01866431688540615,0.016465584154225235,2985.223096212373
1684733617000375747,207,1684733617000375747,camera_1,209,0,-1.0682195759315556,-0.02990930491128441,1.377631740146028,0.9519927217448971,-0.05639868548265328,0.3006688030619784,0.011283478446330953,0.014337796168547357,0.012585977285886913,2991.3647568391184
1684733617010597705,208,1684733617010597705,camera_1,210,0,-1.069156205683536,-0.02989691220698335,1.3788391591644658,0.95240480162395,-0.05674053832413936,0.2992854233237679,0.011568947240115727,0.00791455534636043,0.006952853807720054,2992.781231914182
1684733617020368337,209,1684733617020368337,camera_1,211,0,-1.0718072677346449,-0.02981374531415099,1.3822487965961332,0.9528982441143787,-0.05674273795807311,0.29771031041231083,0.011565860407295998,0.0319774047966348,0.028203756308758945,2985.70538608078
1684733617030371189,210,1684733617030371189,camera_1,212,0,-1.070805504561044,-0.0295320942988657,1.3809755221210476,0.9528832562268117,-0.056435664827558164,0.2977879549314985,0.012282085970044427,0.01801911075017415,0.015855704707898845,2990.8823830853216
1684733617040323019,211,1684733617040323019,camera_1,213,0,-1.0687119923306276,-0.028728069938708512,1.3783220635804123,0.9521079588635506,-0.05663979107597481,0.3002102913272255,0.01249598802720387,0.008293822611449286,0.0072812163831547354,2991.280383618433
1684733617050525903,212,1684733617050525903,camera_1,214,0,-1.0701730946620056,-0.02836813651410598,1.3802267538428765,0.9528627333781339,-0.056748651903143224,0.29781688940275275,0.011717603543207611,0.0158026471035555,0.013898319181818759,2995.3486898029223
1684733617060556173,213,1684733617060556173,camera_1,215,0,-1.0689354668500415,-0.02796238006533463,1.378654306768723,0.9523063443499598,-0.05623293711475452,0.2996303821837773,0.013119350847803963,0.011992581217782572,0.01052493645566681,2993.229300750071
1684733617070531606,214,1684733617070531606,camera_1,216,0,-1.0700619016839428,-0.027650822739621217,1.380138486762959,0.9530654984587703,-0.05680759745870072,0.2971232036590375,0.01252415130442665,0.0068429648817982525,0.006012170231649066,2999.5371122466163
1684733617080431461,215,1684733617080431461,camera_1,217,0,-1.068771584916213,-0.02728205005581518,1.3784838954681002,0.9525031224697845,-0.056561309824455286,0.298975978250576,0.012328193110247153,0.012370586875476874,0.010856721225582785,2998.1331541486998
1684733617090461254,216,1684733617090461254,camera_1,218,0,-1.0698436558660156,-0.027282580526609868,1.3798708195794904,0.9527412638100947,-0.056846394022638365,0.2981732701869135,0.012052911109275493,0.00807746234931983,0.007101350015257497,2996.1523696766226
1684733617100462913,217,1684733617100462913,camera_1,219,0,-1.0697314023504367,-0.027412692873836308,1.3797351250256058,0.9525635769401779,-0.05660769064405009,0.29877210061086884,0.01238681328874845,0.015018371981568635,0.013202074973916265,2993.597250431543
1684733617110309362,218,1684733617110309362,camera_1,220,0,-1.0697411299530082,-0.027607731588039114,1.379707345574846,0.9527059996235702,-0.05686871895066899,0.29831812833261717,0.011114017918289002,0.008534821099601686,0.007506824028960497,2996.1255532468194
1684733617120213985,219,1684733617120213985,camera_1,221,0,-1.0699162818766421,-0.028311388060050416,1.3798982511318485,0.9525522892366679,-0.057101523996136105,0.29870129289162445,0.012692117718259219,0.02545765569084324,0.022380235462836916,2992.0958199480087
1684733617130375146,220,1684733617130375146,camera_1,222,0,-1.0697814469668177,-0.02873386163612912,1.3796942193442714,0.9526327453866679,-0.05606626226696817,0.2986829852976359,0.011657656117928598,0.02231493199360557,0.019618218666578136,2993.1023113533156
1684733617140234470,221,1684733617140234470,camera_1,223,0,-1.0705633142326199,-0.02913256803188058,1.3806804731036644,0.952667435048683,-0.056466559426364346,0.2984893953425997,0.011847646699725857,0.016025737815652974,0.01410664951817023,2989.2987245651893
1684733617150342702,222,1684733617150342702,camera_1,224,0,-1.0695192539659366,-0.029463277929677897,1.379343426104845,0.9521776449080201,-0.05673103268651123,0.2999843212796509,0.012195468589830236,0.013895005191443488,0.012216552298358543,2987.419670375064
1684733617160393238,223,1684733617160393238,camera_1,225,0,-1.0697705391703507,-0.029914296554052942,1.3796257589354628,0.9524598203433986,-0.05635747260967555,0.29917870078366204,0.011671799769989584,0.017265521211811574,0.015181397607925615,2989.8585781757715
1684733617170381069,224,1684733617170381069,camera_1,226,0,-1.0689698904974971,-0.029925944350839742,1.378589641614439,0.9521826019469825,-0.056111800314949244,0.3001179050610406,0.01135788169783325,0.01057648349160445,0.00929268721362088,2989.8648599389726
1684733617180267333,225,1684733617180267333,camera_1,227,0,-1.0697563948097013,-0.02988437778181018,1.3796035179078996,0.9523925946828573,-0.056963587825522646,0.29929195361996924,0.011305828304061698,0.012822119300835766,0.011279429111648495,2989.513399895978
1684733617190261840,226,1684733617190261840,camera_1,228,0,-1.0706668736998817,-0.02972214503815454,1.3807719829515057,0.9528090470853899,-0.056703818777413414,0.29802172741941557,0.01107459770092082,0.01581200504733715,0.013923316599117526,2990.845406348584
1684733617200413227,227,1684733617200413227,camera_1,229,0,-1.071500780997658,-0.029115216608355247,1.3819009719863,0.9531004079345646,-0.057212986289944784,0.29698384371358505,0.011264242888807065,0.01005209589493461,0.008860485316081603,2991.5556085878047
1684733617210464715,228,1684733617210464715,camera_1,230,0,-1.068448949219873,-0.02867091759821944,1.3779963593818303,0.9522210585585235,-0.056059416433486324,0.2999769310716133,0.012092902533247272,0.01892916033102665,0.016609558426145685,2994.107063160628
1684733617220191955,229,1684733617220191955,camera_1,231,0,-1.0693190312641052,-0.02829452699706024,1.379117505211276,0.9523059573507408,-0.05661850682285235,0.2995726458482783,0.01280383297696837,0.03635845317330677,0.031939000625105685,2991.1836717387196
