%time,field.header.seq,field.header.stamp,field.header.frame_id,field.image_seq,field.transforms0.fiducial_id,field.transforms0.transform.translation.x,field.transforms0.transform.translation.y,field.transforms0.transform.translation.z,field.transforms0.transform.rotation.x,field.transforms0.transform.rotation.y,field.transforms0.transform.rotation.z,field.transforms0.transform.rotation.w,field.transforms0.image_error,field.transforms0.object_error,field.transforms0.fiducial_area
1681985327175693035,0,1681985327175693035,camera_1,1,0,0.6555513414840249,0.49203512450245496,1.8121502266076186,-0.9806243704306806,-0.04441011603093818,0.15299303461628178,0.11400314500245629,0.06612667297304142,0.006201768241566135,20580.294233835073
1681985327186072826,1,1681985327186072826,camera_1,2,0,0.655305694030017,0.49115485555907784,1.8115087458734547,-0.9805768256741993,-0.0446572560765045,0.1527939688597137,0.11458106959932421,0.06957062480796594,0.006518803594970968,20597.189521500848
1681985327206114530,2,1681985327206114530,camera_1,4,0,0.6558734451042072,0.48952195296201895,1.8128690705969797,-0.9807061160994099,-0.044584632573552434,0.1522552444689192,0.11421937189111928,0.0616101264313329,0.005779555930426712,20592.24291773315
1681985327215790510,3,1681985327215790510,camera_1,5,0,0.6557951716670742,0.48835732917967273,1.8126116192146373,-0.9807255995993149,-0.044368963368523286,0.15192153547236717,0.11457984307846322,0.06030563126842026,0.005654217365477931,20607.22608941683
1681985327225649118,4,1681985327225649118,camera_1,6,0,0.6554630920867168,0.4870505938742405,1.811559781925611,-0.9806307839429446,-0.04460089239507932,0.15262861105820305,0.1143614142420966,0.06697573844576253,0.006271759663140967,20629.104185041382
1681985327236101627,5,1681985327236101627,camera_1,7,0,0.6555152014141274,0.48618966809957426,1.8116562843899948,-0.980611569758936,-0.04449698807208765,0.15319653563614735,0.11380592592879599,0.0627533012884669,0.005876621875427079,20630.10570592445
1681985327245995998,6,1681985327245995998,camera_1,8,0,0.6553303387059569,0.485341229736964,1.8111008290095416,-0.9804886320402553,-0.044665002551386404,0.15312237442370222,0.11489394430413184,0.06313107431924436,0.0059070772541638976,20637.11453319714
1681985327256016969,7,1681985327256016969,camera_1,9,0,0.6555332814901288,0.48500998856412914,1.8115921673113808,-0.9805760154688539,-0.04447028812770739,0.15311062738118733,0.11423750322903597,0.08207198198942933,0.007683639848077478,20635.94867386664
1681985327265698671,8,1681985327265698671,camera_1,10,0,0.655623765854708,0.48494192173921685,1.811851070504722,-0.980637130859645,-0.044445335405526254,0.15257769542979047,0.11443546914041938,0.07658745617663953,0.007171583203413765,20637.33161751215
1681985327276116371,9,1681985327276116371,camera_1,11,0,0.6555547144632816,0.4850536772061774,1.8116748644454563,-0.9805958039852546,-0.044528000060932424,0.15290549008883061,0.11431989117288544,0.07468683861952741,0.006992637796008482,20636.39383212232
1681985327285723447,10,1681985327285723447,camera_1,12,0,0.6553208977012106,0.4853749738076157,1.8110938245118944,-0.9805149817578191,-0.044734455913992374,0.15322166337800924,0.11450904276177808,0.07086141910986044,0.006630690319728777,20639.570022672528
1681985327295752048,11,1681985327295752048,camera_1,13,0,0.6554736023903578,0.48618478404541576,1.8115034680828168,-0.9806226570852804,-0.04463515151153074,0.15259850432735084,0.1144578705795402,0.06209457226213999,0.00581340552523973,20635.561935386857
1681985327305655002,12,1681985327305655002,camera_1,14,0,0.6557007066293999,0.48732716014244365,1.8122670751581342,-0.9806676987430913,-0.04450596470447644,0.15214360811829009,0.11472753050772766,0.0698832764319377,0.006548792291387135,20616.31456548046
1681985327315688371,13,1681985327315688371,camera_1,15,0,0.6555742331411616,0.48824771158391395,1.8119387161082745,-0.9806138155489457,-0.04460606559699183,0.15257983223472013,0.11456979733647159,0.0595381781749893,0.005578472851165611,20611.517795412106
1681985327325644016,14,1681985327325644016,camera_1,16,0,0.6556404148689143,0.4893858946190831,1.8122080017890791,-0.9806643285724783,-0.04445849186247505,0.1521029681583778,0.11482858635468923,0.0747978515282739,0.007011368662943948,20602.653512920013
1681985327335790872,15,1681985327335790872,camera_1,17,0,0.6555535551527771,0.49030003232717323,1.8120923672927802,-0.9805957879564968,-0.044769560626808404,0.15244413599205497,0.11484063951796648,0.06375024741282687,0.005975940548571281,20593.516624798933
1681985327345975637,16,1681985327345975637,camera_1,18,0,0.6554814867305955,0.49114340580988564,1.8119293188623706,-0.9805934944473921,-0.044416741729015954,0.1532048968130978,0.1139816270024185,0.06912083839415573,0.006480175361649461,20588.218056456877
1681985327355618953,17,1681985327355618953,camera_1,19,0,0.6553418052649045,0.4917125030387594,1.8116173099613835,-0.9806063320625705,-0.04449975488645829,0.15358194575187586,0.11332951633579393,0.053890552328084596,0.0050514270178183265,20591.963348732635
1681985327365628480,18,1681985327365628480,camera_1,20,0,0.655694265980725,0.49236305605341546,1.812628793015832,-0.9806578080254721,-0.04452394747620446,0.1525053173708073,0.11432414370307697,0.0572642538609216,0.005373136864377324,20572.5709010146
1681985327375590085,19,1681985327375590085,camera_1,21,0,0.6554450228187766,0.4922599980605925,1.8119197178372672,-0.9805682616902397,-0.04460796340970561,0.15300730689136383,0.1143887136218952,0.06528882433485705,0.0061216690627809035,20579.313256041147
1681985327385622739,20,1681985327385622739,camera_1,22,0,0.6555912613949388,0.49214910931622907,1.8123112476066805,-0.9806363509602641,-0.04438207744144202,0.15286263803239986,0.11408589865138913,0.06290726404404268,0.005900794305950036,20577.558352618817
1681985327395756006,21,1681985327395756006,camera_1,23,0,0.6554610945337151,0.4915171743311616,1.811940749911068,-0.9806189220385004,-0.04461356353129866,0.15265286681223228,0.11442579229830724,0.06380882371740881,0.0059820455146026115,20589.42343780701
1681985327405667066,22,1681985327405667066,camera_1,24,0,0.6555515139563433,0.4907728070681384,1.8121060035607646,-0.9805837153255725,-0.044387603401604726,0.15294738438629799,0.11442209363557626,0.06799236402730457,0.006374780442216407,20586.52442268049
1681985327415626764,23,1681985327415626764,camera_1,25,0,0.6555553495735429,0.48982847614547553,1.8120083168002095,-0.9806460628675545,-0.044425805427724334,0.152773020129425,0.11410544033917347,0.06401948429993354,0.006000788383629163,20601.093284606402
1681985327425652503,24,1681985327425652503,camera_1,26,0,0.6555580163034623,0.4888316684941074,1.8119660096550168,-0.9805872780828145,-0.044483135654001554,0.15268608681490634,0.11470309323499264,0.06741648554452695,0.006317490192012843,20603.947140544075
1681985327435673713,25,1681985327435673713,camera_1,27,0,0.655653790833361,0.4878977686782366,1.812175536662789,-0.9807068875698015,-0.04449493302633124,0.15177923941665322,0.11487934579478239,0.06397044875484426,0.005994416502298094,20618.36055958527
1681985327445984601,26,1681985327445984601,camera_1,28,0,0.6555294408060899,0.48682944745345014,1.8117662753070203,-0.980654533134306,-0.044501471395767996,0.15258711732714708,0.11425181535774193,0.062214644291088916,0.0058269536686092385,20628.369834261255
1681985327455586194,27,1681985327455586194,camera_1,29,0,0.6554791096837265,0.4859963554418549,1.8115800160740394,-0.9805293181932776,-0.044744768428498824,0.1530701865095856,0.11458481515291154,0.05771099946286994,0.005403293453609241,20626.88573556272
1681985327465627193,28,1681985327465627193,camera_1,30,0,0.6553686751593646,0.4854505940526196,1.811224154468978,-0.9805473726838962,-0.044727516968439275,0.15314234970420296,0.11434036853019966,0.05524773676006589,0.005170386115199922,20639.45419186842
1681985327475628376,29,1681985327475628376,camera_1,31,0,0.6553304953786695,0.48522481098217013,1.811077064141598,-0.980496313567465,-0.0446635776086282,0.1534910945172474,0.11433559296958645,0.06433622929034756,0.006020059513885715,20638.450729577635
1681985327485835075,30,1681985327485835075,camera_1,32,0,0.6553919872728653,0.48543886122670077,1.811262383717663,-0.9805006472569722,-0.04454756536174215,0.15346318690208077,0.11438114099298463,0.07683730073040351,0.007191558673987911,20633.08404380642
1681985327495710611,31,1681985327495710611,camera_1,33,0,0.6556166342677477,0.4860120751841651,1.8119132972610739,-0.9805654659609718,-0.044421440531345203,0.15281647990932595,0.11473981895569266,0.06925582548137754,0.006486508770818128,20621.919590003563
1681985327505776405,32,1681985327505776405,camera_1,34,0,0.6556725465967116,0.48681452623194665,1.8121525948337767,-0.980603667334269,-0.04439869339079187,0.15271787489882666,0.11455328158616518,0.06765613640891388,0.006339128059958124,20615.19015358843
1681985327515960931,33,1681985327515960931,camera_1,35,0,0.6554899743549814,0.4875656701900295,1.8116714929057656,-0.9805781185539018,-0.04445521621751604,0.15286911527271305,0.11454833372896421,0.056242509512230754,0.005267703477289369,20617.598561548744
1681985327525968551,34,1681985327525968551,camera_1,36,0,0.6557528587067943,0.4887883380208795,1.81248022582807,-0.9806924257125389,-0.044425033479786616,0.15252083642543776,0.11404462725819728,0.07244183929287829,0.006792405819534545,20603.057954260847
1681985327535996913,35,1681985327535996913,camera_1,37,0,0.6555986929616648,0.48965563070684714,1.8121156629829143,-0.9805958331279303,-0.04455818309708111,0.15286189337222683,0.11436617474535637,0.06748122048156802,0.0063257048581012556,20595.863606231986
1681985327545964241,36,1681985327545964241,camera_1,38,0,0.6554716858084133,0.4905207365342629,1.8118835157675492,-0.9805755166756783,-0.04457684412568076,0.1531080389369662,0.11420371919030389,0.07319695499609224,0.006861047439918661,20592.76342730638
1681985327555989503,37,1681985327555989503,camera_1,39,0,0.6553418250547974,0.4911714398507884,1.811585826681221,-0.9805050563013238,-0.04463031358257466,0.1532902213825122,0.11454290770518864,0.060416860578698106,0.005661762806854752,20588.061544182823
1681985327565989494,38,1681985327565989494,camera_1,40,0,0.6553224953494212,0.4916403372318902,1.811586416333766,-0.9805470034120599,-0.04453530162569374,0.15315690900454604,0.11439904821680776,0.06789433603989892,0.006363105561384663,20588.369982395845
1681985327576057910,39,1681985327576057910,camera_1,41,0,0.6554373873066535,0.4918676239296893,1.8118157510988364,-0.9805793706272401,-0.04455352118720607,0.1529867508933593,0.11434218688305878,0.06305232230806723,0.0059109720547778745,20584.842159259835
1681985327585679531,40,1681985327585679531,camera_1,42,0,0.6553943363276318,0.4917535899717097,1.8117998752591316,-0.9806176056036509,-0.044470289419429286,0.1528096835697567,0.1142834438859184,0.07739784035948105,0.0072555379118360635,20589.79300938413
1681985327595711231,41,1681985327595711231,camera_1,43,0,0.6551530999096783,0.4910662809669027,1.8110394560054146,-0.9804690482005985,-0.0447070390073127,0.1534290171993907,0.11463534736302029,0.06313145732565317,0.00591267889243486,20596.838396936306
1681985327605732679,42,1681985327605732679,camera_1,44,0,0.6555018869864699,0.4906351423061991,1.811983077802194,-0.9806261578643478,-0.04437616876886731,0.1526670965802701,0.11443710840175376,0.08471877589181531,0.007941768440779904,20594.285508410787
1681985327615759849,43,1681985327615759849,camera_1,45,0,0.6553667499072314,0.48960349156250677,1.8114847330183603,-0.9805811465177732,-0.04467101156901947,0.15290660001433246,0.11438831885881982,0.08427506487350911,0.007894785737560752,20608.314668337865
1681985327626074790,44,1681985327626074790,camera_1,46,0,0.6556887652769354,0.4888424948403898,1.8123462076124286,-0.9806260884614835,-0.04446947780230692,0.15282998335681092,0.1141837832613627,0.05327681865310297,0.004994642891305464,20599.5031186568
1681985327635665893,45,1681985327635665893,camera_1,47,0,0.655726732861954,0.4879213541341269,1.8123513268652998,-0.980656247168437,-0.04464639272576417,0.15247761616153807,0.11432672948960375,0.057775771361775696,0.005415424687161147,20609.507069265528
1681985327645634412,46,1681985327645634412,camera_1,48,0,0.6554332258081861,0.486806754534538,1.811468778485399,-0.9805789086503868,-0.044642975585066705,0.15263742411779313,0.1147772860787907,0.05650992628943641,0.005290718605511473,20628.2158498207
1681985327655601739,47,1681985327655601739,camera_1,49,0,0.6553469886606519,0.4860610931686771,1.811176625241582,-0.9806132261183818,-0.04462329214018049,0.15311072647754467,0.11385766552055368,0.055132321431301534,0.005160090840871905,20641.756444318813
1681985327665711164,48,1681985327665711164,camera_1,50,0,0.6555999121677899,0.4858856444606196,1.8118390130737634,-0.9806683974944426,-0.04446553136034239,0.15220028860315504,0.11466203742146255,0.0833745490090223,0.0078079350026325775,20634.53544315586
1681985327675627231,49,1681985327675627231,camera_1,51,0,0.6556821648030842,0.4859028430447804,1.8120904513932248,-0.9806915805666916,-0.044596702433504866,0.15251315245786215,0.11399515895434573,0.07578580775589217,0.007099611117553482,20631.539927031437
1681985327685615301,50,1681985327685615301,camera_1,52,0,0.6554558343177559,0.4859634542753873,1.8114137416451075,-0.9805143939456462,-0.04437382174639156,0.1530703947272329,0.11485617731350281,0.07118701952276751,0.006663956176522308,20627.185157709057
1681985327695639610,51,1681985327695639610,camera_1,53,0,0.6556132268774906,0.48672874705562974,1.8119575075455343,-0.9806366484778029,-0.04462944572729757,0.1527056366571918,0.1141970436106735,0.0591672182927141,0.005542613840000314,20623.668665625042
1681985327705766677,52,1681985327705766677,camera_1,54,0,0.6556409298056006,0.4875714983693724,1.8121097175978567,-0.9806229050345627,-0.04438653828280308,0.1527996089255886,0.11428400086202571,0.06508850301906932,0.006099225088291516,20612.41354901303
1681985327715837955,53,1681985327715837955,camera_1,55,0,0.6558121408947776,0.4886526186787922,1.8126543343056372,-0.9806841937092752,-0.04450339169415765,0.1523997843790725,0.11424651442261827,0.06647481374966446,0.006233670555075125,20600.2381892724
1681985327725706338,54,1681985327725706338,camera_1,56,0,0.6557435419523003,0.4895545090754724,1.8125144795291543,-0.9806247429738886,-0.04452169438766802,0.15240174989642005,0.11474597520067978,0.07813317657564767,0.007326800850528201,20591.39909806127
1681985327735654115,55,1681985327735654115,camera_1,57,0,0.6556063320300628,0.49035238480716553,1.8122422577940966,-0.9805678015572242,-0.04458364782081271,0.15309768946476748,0.11428115495028765,0.06697563442867249,0.006279985705134583,20585.90232093877
1681985327745671749,56,1681985327745671749,camera_1,58,0,0.6555612157892333,0.49101521731556047,1.8121461885216228,-0.9806156039834736,-0.044536429109890946,0.1530003472152163,0.11401946087528343,0.06329561084567104,0.005935090834739568,20587.47110340767
1681985327755645513,57,1681985327755645513,camera_1,59,0,0.6554099088786657,0.4913970732465092,1.8117867307130109,-0.9806302376519107,-0.044704227417814366,0.15251893609801812,0.1144720192241846,0.06284262295230292,0.005890286598071166,20595.017055458982
1681985327765763998,58,1681985327765763998,camera_1,60,0,0.6552625426382577,0.491458984032564,1.8113967756193425,-0.9805334313985089,-0.044677210595764925,0.15328155848848116,0.1142930469914501,0.0603730578586692,0.005656921981903834,20592.757464539376
1681985327775635480,59,1681985327775635480,camera_1,61,0,0.6552952248685276,0.4913064436968704,1.8114534965344542,-0.9805028905008071,-0.044503044871283585,0.1534979961950626,0.11433252328557839,0.06332550325896591,0.005933902202821926,20588.79374244436
1681985327785644054,60,1681985327785644054,camera_1,62,0,0.6554658834115739,0.49094440803892164,1.8119215004032712,-0.9805593843493364,-0.04451931984814026,0.1534588576172304,0.1138933841077874,0.0690969817369478,0.006477761877976428,20586.95651735109
1681985327795793771,61,1681985327795793771,camera_1,63,0,0.655342267550009,0.49011535592793937,1.8115026336163578,-0.9805334689058555,-0.044585059143776175,0.15299433487526823,0.11471278199342039,0.06134762156580109,0.005747262744674438,20599.900207504
1681985327805766105,62,1681985327805766105,camera_1,64,0,0.6557064677652495,0.48951834469885674,1.8124777288588596,-0.9806665827397313,-0.044529212966599035,0.15198503879538522,0.1149380297052212,0.07762257901777048,0.007278183173461555,20597.1324481006
1681985327816115379,63,1681985327816115379,camera_1,65,0,0.655850943932241,0.4886204138770273,1.812719862927111,-0.9807306025279916,-0.0444501760905017,0.15197463900541783,0.11443503051853854,0.07641559375042561,0.007166137265011184,20603.46226657788
1681985327826006889,64,1681985327826006889,camera_1,66,0,0.65562356146761,0.4875766822826917,1.812046339619837,-0.9806157461183619,-0.044543337314178665,0.15281874272286386,0.1142588352743321,0.06590142834465951,0.006175006951959839,20613.548367082956
1681985327835575819,65,1681985327835575819,camera_1,67,0,0.6553840229490026,0.4866884754129834,1.8113203801273081,-0.9804891891560124,-0.04475099023106533,0.15331411528890018,0.11459965477568639,0.0699640369421104,0.0065497268401039635,20623.33517835423
1681985327845685482,66,1681985327845685482,camera_1,68,0,0.6551063467833522,0.48596908127984767,1.8105847069998775,-0.9804370633176948,-0.04441544793129271,0.15416927433731134,0.11402748663521613,0.050022523559164256,0.004679092227282119,20636.78767423686
1681985327855648994,67,1681985327855648994,camera_1,69,0,0.6556472087059826,0.48619087562379043,1.8120090523554437,-0.9807152808263753,-0.04444790516410325,0.15247533302087096,0.11389993195933487,0.06689208160969429,0.006266200855609235,20632.925635587424
1681985327865765094,68,1681985327865765094,camera_1,70,0,0.6553673271864978,0.48618921058086384,1.8112803421101753,-0.980583565954894,-0.044462639157709545,0.15316374913831876,0.11410438137166025,0.07145958379260264,0.006689140930391274,20635.40649128944
1681985327875604629,69,1681985327875604629,camera_1,71,0,0.6554506716120282,0.4867240992651517,1.8114995161000897,-0.9805834136249292,-0.04466263043993406,0.15244681750642325,0.11498428674401694,0.070920570884482,0.006639970004635662,20628.73869892517
1681985327885708093,70,1681985327885708093,camera_1,72,0,0.6555196154660947,0.4874790184875286,1.8117603944600982,-0.9806256781153956,-0.044622885392711906,0.15268667968292896,0.11431909450022858,0.05766010351362638,0.005400905715357655,20621.67648714291
1681985327895828723,71,1681985327895828723,camera_1,73,0,0.6555744935332617,0.4884358490354455,1.8119688927973756,-0.9806118369269378,-0.044556254419893616,0.1528652890235178,0.11422507991944253,0.07103679786087014,0.006656702940489172,20608.82757264451
1681985327905696153,72,1681985327905696153,camera_1,74,0,0.6557095516103757,0.48948513105116787,1.8123812148231184,-0.9806526136890525,-0.044512051818160266,0.15245776812627052,0.11443669623736884,0.07281447265995666,0.006827188626406753,20596.90791736287
1681985327915665626,73,1681985327915665626,camera_1,75,0,0.6555185555834675,0.49021626095527576,1.8120075524924788,-0.9806517955925524,-0.04456316493531574,0.15269470953494643,0.1141074310116955,0.06022799616039265,0.005645616671504561,20599.955600482695
1681985327925631999,74,1681985327925631999,camera_1,76,0,0.6556726987412698,0.4909818187115164,1.8124501270123818,-0.980615997185053,-0.044376172133943556,0.15296667395724206,0.11412369635602304,0.0792722484911792,0.007435635693156944,20580.761928999087
1681985327935647010,75,1681985327935647010,camera_1,77,0,0.6554408914638692,0.4911960908727441,1.8118661814880832,-0.9806036528450838,-0.044452403833108486,0.15281388819877348,0.11440443782436617,0.06542650560732,0.006133002627361456,20590.983354508524
1681985327945629835,76,1681985327945629835,camera_1,78,0,0.6553376254794239,0.4912005398499297,1.8115553197098542,-0.9804973100141658,-0.04463813418084552,0.153631012843535,0.11414891118406323,0.05458182917209343,0.005115081668725848,20587.316780805588
1681985327955667734,77,1681985327955667734,camera_1,79,0,0.6553639522846434,0.49094124213684626,1.8115625201817114,-0.9805693613578341,-0.04453070511359785,0.15303184757555868,0.11437656008110292,0.07798401184845716,0.007307787010681796,20595.505986893724
1681985327965650320,78,1681985327965650320,camera_1,80,0,0.6554132475835037,0.4905215573943376,1.8117387222308428,-0.9805478062468613,-0.04457545156436385,0.15308441509072787,0.1144735368486116,0.07144225209776778,0.0066953522710134755,20593.35002827074
1681985327975952148,79,1681985327975952148,camera_1,81,0,0.6555957049104226,0.4898439895929614,1.8121112276888862,-0.980722895317577,-0.04451463930268095,0.1521017126749635,0.11430712352694396,0.07038615146302618,0.006597901156873721,20607.01744809362
1681985327985613346,80,1681985327985613346,camera_1,82,0,0.6554555705674107,0.4889065186185227,1.8117469902679948,-0.9805918088086172,-0.04468890902939252,0.15263573327746663,0.11465137955583982,0.06836385747010354,0.0064047790716583435,20609.566812280747
1681985327995607614,81,1681985327995607614,camera_1,83,0,0.6557741299913948,0.4882212975589349,1.812512369170837,-0.9806821770986913,-0.044491343218592404,0.15234488478621702,0.11434169833901636,0.05370278989721555,0.00503470280933205,20606.083826443708
1681985328005633831,82,1681985328005633831,camera_1,84,0,0.6556805810564657,0.48731674988189794,1.8121626194280556,-0.9806731640659813,-0.044611637374203046,0.15270816921052482,0.11388661970564973,0.06079378347203601,0.005696962655280922,20618.484659569796
1681985328015674114,83,1681985328015674114,camera_1,85,0,0.6555057532393622,0.4866783272601558,1.8116851560713891,-0.9805774526966862,-0.04458234299149116,0.15243800739666757,0.11507792080673405,0.06888724101008847,0.006450713239883179,20624.563771620757
1681985328025629997,84,1681985328025629997,camera_1,86,0,0.6553092708632173,0.4862603230448376,1.8111413106141274,-0.9805272234717605,-0.04453427320418437,0.15346708177337187,0.11415304355513474,0.06986740522552282,0.006539287163524708,20632.65194760145
1681985328035787582,85,1681985328035787582,camera_1,87,0,0.6555499191476171,0.4865173161786335,1.8117995542274803,-0.9806072030578102,-0.04464143891427192,0.15284814314503167,0.1142545420537747,0.0656607643031748,0.006149731010918774,20625.665187648206
1681985328045717000,86,1681985328045717000,camera_1,88,0,0.6554641991966811,0.4868502133652723,1.811597233044982,-0.9806000155994873,-0.04457656148760506,0.15280990804206798,0.1143926202882066,0.05672284839965869,0.0053116281515568605,20626.861696585904
1681985328055735588,87,1681985328055735588,camera_1,89,0,0.6556297896408615,0.48764001479584035,1.8120698748912443,-0.9807184438344002,-0.04447431378570418,0.15241878556922744,0.11393806713265482,0.06114470324246213,0.005729457878380393,20622.313282508636
1681985328065653324,88,1681985328065653324,camera_1,90,0,0.6556419409326528,0.48850490328792917,1.81219712833869,-0.98068348614142,-0.04443750284031542,0.1522035168329057,0.11453950329263624,0.07199380514794029,0.006747572515416548,20610.733717358264
1681985328075773477,89,1681985328075773477,camera_1,91,0,0.6555066630788231,0.4892719781905237,1.811903315102089,-0.9805773555587003,-0.04457516323689628,0.15267359824185214,0.11476879797138233,0.05856695052352734,0.005488089780654279,20602.004347145325
1681985328085619926,90,1681985328085619926,camera_1,92,0,0.6556037784840789,0.4901268058892717,1.8122153969908836,-0.9805751770494141,-0.04450572990998376,0.15305062869584948,0.11431127335260963,0.0610442383622285,0.005723376026603828,20588.490699701244
1681985328095634460,91,1681985328095634460,camera_1,93,0,0.6555080951672505,0.49071052816447785,1.8119922699015212,-0.9806191094880258,-0.044579840905622704,0.1522146129266395,0.11501961355931468,0.06652783406025264,0.0062359704733177005,20594.37355907156
1681985328105645418,92,1681985328105645418,camera_1,94,0,0.6555230402583417,0.4910338813878885,1.8120181668459232,-0.98061485243024,-0.044498655208243434,0.15308367801203698,0.11392878654748953,0.06632422571419738,0.006218398215615711,20589.518039771763
1681985328115625381,93,1681985328115625381,camera_1,95,0,0.6554469232754092,0.49100508130636383,1.8117796326278668,-0.98053131635447,-0.04457948801723064,0.15358821272443438,0.1139371221701078,0.07104418090602849,0.006659519406565611,20586.51785937487
1681985328126074314,94,1681985328126074314,camera_1,96,0,0.6554874439350451,0.4907691127927486,1.8119226365325334,-0.9806022287874383,-0.044332865404828184,0.15289258571780523,0.11435787325160328,0.06731869927898515,0.006310424166695873,20591.880294447357
1681985328136015415,95,1681985328136015415,camera_1,97,0,0.6552554202042917,0.4900941467880395,1.8112942376465775,-0.9805519315435465,-0.04466950307999544,0.15261872408823637,0.11502204179410676,0.07941042757011019,0.007437522468095441,20606.961512730108
1681985328146032094,96,1681985328146032094,camera_1,98,0,0.6555818823493702,0.48952019410747455,1.812126652228852,-0.9806145206509852,-0.04454049777385731,0.15222330378336207,0.11506246882356513,0.05605999678664375,0.0052543359255795155,20599.455730124668
1681985328156006097,97,1681985328156006097,camera_1,99,0,0.6557572260388929,0.4887375236646846,1.8124769604971218,-0.9806684701614677,-0.04452846841043096,0.15246456081137383,0.11428527826794947,0.05592540142242797,0.005243444509367584,20601.82730161457
1681985328165795803,98,1681985328165795803,camera_1,100,0,0.6555437972556011,0.48778587854105104,1.8118176475614471,-0.9806222934655017,-0.044584656533953264,0.15267995295023856,0.114372015490337,0.056862276629544795,0.005326771638688842,20617.77349827841
1681985328176012516,99,1681985328176012516,camera_1,101,0,0.6558034709860564,0.48733860316084743,1.8125111519053902,-0.9807673742630904,-0.04435618727128658,0.1519951384835139,0.1141287172854204,0.07197356126562227,0.0067467792520380975,20619.63216207782
1681985328186011314,100,1681985328186011314,camera_1,102,0,0.6553590276937147,0.4866508638029879,1.8112798044302845,-0.9805535526773074,-0.04466288872031184,0.15272349933865775,0.1148716216165809,0.07437462186499032,0.006961855098275199,20630.87006717641
1681985328195996999,101,1681985328195996999,camera_1,103,0,0.6554515767134079,0.4866029739875808,1.8114860333050913,-0.9805930918181041,-0.04477322403992464,0.15267904893353026,0.11454979137665425,0.05573247908614576,0.005217949384135885,20630.9258449279
1681985328205993652,102,1681985328205993652,camera_1,104,0,0.6554039641466444,0.4868489569290176,1.8113974322648732,-0.980584116651558,-0.0445572291744765,0.15254431369724092,0.11488984227343371,0.07459454296622425,0.006983484024164843,20629.579634162947
1681985328216094732,103,1681985328216094732,camera_1,105,0,0.6555705364523549,0.4875162899070863,1.8118898817405067,-0.9805981016345131,-0.04468055441903106,0.1527812035285094,0.11440679602181594,0.06705778012110386,0.006282149316395537,20616.16563704406
1681985328226026296,104,1681985328226026296,camera_1,106,0,0.6556428436520007,0.4883147224414751,1.812164696290144,-0.9806533966085171,-0.04465425211008282,0.15259770330382924,0.11418780335510498,0.06559513372485526,0.006147735502291557,20610.246123505174
1681985328235691547,105,1681985328235691547,camera_1,107,0,0.6554548350714047,0.48900646789692487,1.8117114365989966,-0.9805979420572014,-0.04454939179940118,0.15285437476853583,0.11436156626071892,0.0682551670470275,0.006394793997708751,20609.10240866698
1681985328245780944,106,1681985328245780944,camera_1,108,0,0.6554787022951404,0.48983248158228404,1.8118533984920275,-0.9805441483246765,-0.04444194156766501,0.15333637275097736,0.11421927949126852,0.06171570962760597,0.00578402266275319,20594.553317267044
1681985328255759954,107,1681985328255759954,camera_1,109,0,0.6554330303683715,0.4904574357382877,1.8117448038210224,-0.9806024201029623,-0.044679333734197815,0.15275277927586467,0.11440821320508729,0.0867517080187099,0.008130106436536281,20599.21865493362
1681985328265681743,108,1681985328265681743,camera_1,110,0,0.6556023835974824,0.49091228421289396,1.8122758536959416,-0.9805881937058022,-0.04457051901630655,0.15276174900804845,0.11456051343901699,0.06363809005415533,0.005967511806473887,20583.538946321292
1681985328275779724,109,1681985328275779724,camera_1,111,0,0.6555960701356877,0.4909445080844593,1.812207942087986,-0.9806148205247298,-0.04438849879625881,0.15293012308854811,0.11417798559261783,0.0669537199428305,0.006278397974195567,20585.937124324726
1681985328285701990,110,1681985328285701990,camera_1,112,0,0.6553183425139464,0.49050278682405357,1.8114736859428742,-0.9805911671509812,-0.044418073712185806,0.1527810906337936,0.11456847724362951,0.07241150790650863,0.006784121143828834,20602.66192679839
1681985328295692682,111,1681985328295692682,camera_1,113,0,0.6555381823959281,0.49009724463769916,1.81203272778654,-0.980614711337592,-0.04470998873102877,0.15246276347896529,0.11467741960961335,0.05960597618832253,0.005586970883103815,20597.68967486464
1681985328305670976,112,1681985328305670976,camera_1,114,0,0.6558389424460551,0.48955675364753815,1.8128312601034804,-0.9806875741637159,-0.04450671923150916,0.15218381438881715,0.11450380108190246,0.06203288568940479,0.005818820530135426,20591.139581093736
1681985328315645694,113,1681985328315645694,camera_1,115,0,0.6556459607172009,0.4885520189136321,1.812178826280305,-0.9806180006197293,-0.044551394722757647,0.1526255460041112,0.1144943352125723,0.07265503917005844,0.006809721984745136,20604.54976712895
1681985328325672388,114,1681985328325672388,camera_1,116,0,0.6556252448148913,0.4878306956077699,1.8121008331825106,-0.980703255843718,-0.04449332141013907,0.15293942737822355,0.11336225068622507,0.055791056613088585,0.0052285288950999756,20618.53794331762
1681985328335695981,115,1681985328335695981,camera_1,117,0,0.6558881593767201,0.4874525952682353,1.812780690224582,-0.9807715407764686,-0.04449269280681355,0.1518999337189113,0.11416652410378902,0.06771519548783544,0.00634937019936461,20614.456868697773
1681985328345669746,116,1681985328345669746,camera_1,118,0,0.6554339373460002,0.4868283565755678,1.8114911934918974,-0.980626794247755,-0.044532463192264816,0.1529182098265603,0.11403495617064492,0.07327321347838732,0.0068611024643469715,20631.09795941785
1681985328355669021,117,1681985328355669021,camera_1,119,0,0.6555069872856492,0.48692037688933676,1.811708357291593,-0.9806807936124124,-0.044485691730111854,0.15210561902034586,0.11467381973868168,0.061813345877453685,0.005788694525319535,20631.9263823306
1681985328365731477,118,1681985328365731477,camera_1,120,0,0.6556872209435147,0.487386538505434,1.812197497911416,-0.9806763507285107,-0.04454321554002669,0.1520623856186676,0.11474679930667225,0.0662781548599014,0.006210512960630512,20618.243128252212
1681985328375739812,119,1681985328375739812,camera_1,121,0,0.6556068861193189,0.4879688484972728,1.8120524153795745,-0.9806590615126831,-0.044610194251854994,0.1522484330719298,0.11462177048457041,0.04911041563900653,0.004601530760454489,20615.994541871594
1681985328385696649,120,1681985328385696649,camera_1,122,0,0.6556402174570091,0.4887695558589336,1.8122091914631342,-0.9806368627136408,-0.04451433075946091,0.15240983288986096,0.11463446550959308,0.07871053386770654,0.007377617226792931,20604.413497734466
1681985328395630598,121,1681985328395630598,camera_1,123,0,0.6555303711150008,0.48945944820741333,1.811925399085749,-0.9805702401016108,-0.044578817889111604,0.15266757995887453,0.11483615829598008,0.06940517284965608,0.006504190791072304,20599.23576405865
1681985328405628204,122,1681985328405628204,camera_1,124,0,0.6555274260214469,0.49015570579022855,1.8120035716814802,-0.9806142560381845,-0.044602257970137504,0.15246890720247264,0.11471508957032156,0.06734819024859462,0.006312612807927721,20597.318290677613
1681985328415691614,123,1681985328415691614,camera_1,125,0,0.6554291926993151,0.4905396826833883,1.8118169174542074,-0.9805961452425812,-0.04458858084873084,0.15264878104115703,0.11463598056428638,0.06674181514244992,0.006255021587145854,20596.831039594952
1681985328425660848,124,1681985328425660848,camera_1,126,0,0.6555583450581037,0.4907745059058357,1.8121372521120234,-0.9806907596540659,-0.04442921538677717,0.1522940896409391,0.11435990997584772,0.08064218862273265,0.00756083501039943,20596.693857519138
1681985328435642719,125,1681985328435642719,camera_1,127,0,0.6554519025671137,0.49055144597602773,1.8118371509700708,-0.980652932073443,-0.0445294982973192,0.15251560212784543,0.11435008397342367,0.07685632049106061,0.007203381615456397,20601.175005919293
1681985328445619344,126,1681985328445619344,camera_1,128,0,0.6556665549122072,0.49020538444911077,1.812391929465681,-0.9806381361305556,-0.044530709260707596,0.15222242689806656,0.11486598560231448,0.06353991918149404,0.005957949025315298,20591.182393361065
1681985328455612659,127,1681985328455612659,camera_1,129,0,0.6556185396294391,0.48951365318096185,1.812232198931299,-0.9806621908617104,-0.04450340755026014,0.1520010348358469,0.1149643402954043,0.06295992138620932,0.005901710565517575,20601.812161458885
1681985328465628147,128,1681985328465628147,camera_1,130,0,0.6555666451661029,0.4886651968594196,1.8119601677809924,-0.9806321732697565,-0.04451617188115202,0.15226894363903393,0.11486087232967955,0.06442126429465134,0.006036326067172164,20609.97893495368
1681985328475616693,129,1681985328475616693,camera_1,131,0,0.6555447768534732,0.4879255292737228,1.8118563940247703,-0.980652421869859,-0.04449595758664058,0.1522507011310279,0.11471992522808998,0.06422347167972475,0.006016428871301953,20619.102600363534
1681985328485585212,130,1681985328485585212,camera_1,132,0,0.6558925584378954,0.4876100497382066,1.8127680526511152,-0.9807200608725833,-0.044486968288741525,0.15190971401619394,0.1145971668152013,0.058600746386218816,0.005494585688429961,20608.826050958945
1681985328495938539,131,1681985328495938539,camera_1,133,0,0.6554527504076746,0.4869915452586636,1.8115659863997282,-0.9806340239048719,-0.04448236402125802,0.15277389319240262,0.1141856734010702,0.06077154558442999,0.005690845138411008,20629.24649447861
1681985328505753755,132,1681985328505753755,camera_1,134,0,0.655697022630146,0.48722024418383,1.8122049066768904,-0.9806971524640454,-0.044416499572674066,0.15235596498801865,0.11422753454046561,0.07138657938048709,0.0066895710621264065,20620.12200312124
1681985328515662193,133,1681985328515662193,camera_1,135,0,0.6555971993065877,0.4874784909078348,1.8119713909044277,-0.9805654978564422,-0.04457988989868948,0.15308654293283383,0.1143173136626398,0.07452636648667976,0.006982675627733422,20610.937572168652
1681985328525720119,134,1681985328525720119,camera_1,136,0,0.6556071793104833,0.4880887588465537,1.8120627495537263,-0.980624089618341,-0.04454709400235697,0.15243431914727934,0.11469842903131047,0.05114185485581402,0.004792080624610081,20611.246708910912
1681985328535697698,135,1681985328535697698,camera_1,137,0,0.6556523375924868,0.4888459725659132,1.8122173668070884,-0.9806558978114381,-0.04452712535663908,0.152143348680251,0.11482049750578555,0.06954660786141176,0.006518541136942402,20605.74226004129
1681985328545634269,136,1681985328545634269,camera_1,138,0,0.6556069927798124,0.489572684532141,1.8121572033202482,-0.9806416190278616,-0.044586075243350634,0.1524863605493531,0.11446399770766887,0.0690021585469367,0.006468223670107223,20600.490766478106
1681985328555789470,137,1681985328555789470,camera_1,139,0,0.6555422605037264,0.49015878189906636,1.8120277774253741,-0.9806107666982903,-0.044456903699519386,0.1524196342091121,0.11486671866299447,0.07766397584055085,0.007279747618516368,20595.806387259683
1681985328565777063,138,1681985328565777063,camera_1,140,0,0.6553284706708319,0.49038209891791507,1.8114940688391,-0.9805734368286937,-0.044648209575158346,0.15271642031928892,0.11471690081482835,0.0669168095337227,0.0062691365060456965,20602.5048767557
1681985328575679063,139,1681985328575679063,camera_1,141,0,0.6552689910370513,0.490394660849509,1.8113465838985792,-0.980489683128426,-0.044532475653282624,0.15323704346192815,0.11478348488330435,0.07097194003290497,0.006648275441970545,20596.74257851066
1681985328585617065,140,1681985328585617065,camera_1,142,0,0.6553479754167143,0.4901953864855228,1.8115083500390574,-0.9805881779215772,-0.04456816172133377,0.15310892304479004,0.11409716019817084,0.08457531921158079,0.007924211750232679,20603.821635039465
1681985328595608949,141,1681985328595608949,camera_1,143,0,0.6555407051414914,0.48976354653664045,1.8119469816807021,-0.9806420121130852,-0.044568147079197915,0.15246176934935965,0.11450036345614412,0.07583128774422221,0.007107112493276776,20603.25589639718
1681985328605653524,142,1681985328605653524,camera_1,144,0,0.6553800838151551,0.4889458294745017,1.811429854237585,-0.980591925983118,-0.04442939586736956,0.15315038104765616,0.11406342211479412,0.05883269748301245,0.005510580009729075,20613.689693618093
1681985328615767240,143,1681985328615767240,camera_1,145,0,0.6557799267333366,0.48850627157404375,1.812551853786046,-0.9807491466286314,-0.044617548961031324,0.15192649208200248,0.11427478600101816,0.07050875936693045,0.006610845841678546,20610.337854329617
1681985328625647544,144,1681985328625647544,camera_1,146,0,0.6554920447195469,0.48766986738103946,1.811692914690469,-0.9806349208237558,-0.04453274215573912,0.15265065762220836,0.1143230670712783,0.057369514848687686,0.0053734762737778505,20622.286403976497
1681985328635622262,145,1681985328635622262,camera_1,147,0,0.6555936896912099,0.48730557943400565,1.8119656709506198,-0.9806977310201511,-0.044528204650661214,0.1518632421931038,0.11483359714436826,0.06786763190757483,0.00635766207096677,20625.919030404642
1681985328645648956,146,1681985328645648956,camera_1,148,0,0.655618580242443,0.48722870429778764,1.8120049282620052,-0.9807435533442583,-0.044524094839844534,0.15231154647719633,0.11384586229677118,0.07988374524575192,0.007484521412665708,20628.95307833911
1681985328655733346,147,1681985328655733346,camera_1,149,0,0.655778645418722,0.48755214015647197,1.812427380874986,-0.9806999325296822,-0.04449401769178412,0.15214809387236125,0.11445034843515009,0.07224105243221857,0.00677139626944576,20613.956975991612
1681985328665643453,148,1681985328665643453,camera_1,150,0,0.6556892524507071,0.4880358517977573,1.8122699716079096,-0.9806206019330501,-0.044515417084163726,0.15255732165834496,0.11457694495280325,0.07018440369574819,0.006578102852088263,20606.507603214708
1681985328675638198,149,1681985328675638198,camera_1,151,0,0.6556854319641768,0.4886703357050867,1.8123014755670308,-0.9806995057946021,-0.04458815319208268,0.15213825902880246,0.1144304420546725,0.07545584594481623,0.007073086067326933,20609.44523640519
1681985328685705661,150,1681985328685705661,camera_1,152,0,0.6556574995917027,0.48937683578154173,1.8122948140710087,-0.9806959455311789,-0.04470808217723525,0.15212200822814467,0.11443576547293685,0.05870754075294826,0.005503578390068707,20605.081725654087
1681985328695600271,151,1681985328695600271,camera_1,153,0,0.6553982001720488,0.4898075577178238,1.8116149890459514,-0.9805773623868302,-0.04462662620051168,0.15286965634306152,0.1144874175532027,0.06813552278617863,0.0063837299893921865,20603.949707989814
1681985328705619096,152,1681985328705619096,camera_1,154,0,0.6552389553034637,0.4901306455751079,1.8112496695767843,-0.9805394423150896,-0.044653823470572285,0.15337939054319638,0.11411923882706985,0.0647680459660478,0.006066561754479256,20605.489362125052
1681985328715626001,153,1681985328715626001,camera_1,155,0,0.6552864913147138,0.4902728362680641,1.8113899632292085,-0.9805451979931955,-0.04467858829391601,0.15314692934283328,0.11437200913426854,0.0669344904308673,0.0062703359482197485,20602.509230385058
1681985328725743770,154,1681985328725743770,camera_1,156,0,0.6554352864681745,0.49017446140040033,1.8117560754557696,-0.9805576748147009,-0.0445416696377795,0.1532813282484521,0.11413816381148106,0.066753644059645,0.006255947814547493,20595.852451998966
1681985328735664367,155,1681985328735664367,camera_1,157,0,0.655506766290168,0.4897382406706517,1.811913624194026,-0.9806421755255122,-0.04445377310805947,0.15299743783764175,0.11382692850184653,0.07106301958265249,0.006660518127444173,20603.30157097068
1681985328745635032,156,1681985328745635032,camera_1,158,0,0.6553384213401043,0.4889639028788243,1.811362973363769,-0.980498722437266,-0.04460541207816726,0.15324402828689102,0.11466856721278411,0.06360982611658983,0.005957330337048722,20607.204218184983
1681985328755697011,157,1681985328755697011,camera_1,159,0,0.6555653078016797,0.4883904818233933,1.8119362927477662,-0.9806433688760667,-0.04454756205374466,0.15240642208932748,0.11457041634032784,0.07952181698055938,0.007451125087107484,20613.213972930622
1681985328765696048,158,1681985328765696048,camera_1,160,0,0.6554471405951179,0.48771679502645626,1.8116023785528872,-0.9806420940480142,-0.04442045137798312,0.1525531859348936,0.11443527577463063,0.06053331992006861,0.005669227991386257,20624.341221060065
1681985328775746345,159,1681985328775746345,camera_1,161,0,0.6556680981255245,0.48749697840699346,1.8122165723213182,-0.980666950034624,-0.04454314968561811,0.15244379781336526,0.11432029318590319,0.06263399272575043,0.005869553166683434,20616.012713037082
1681985328785636186,160,1681985328785636186,camera_1,162,0,0.6558820609769652,0.48754480047266535,1.812721006830712,-0.9807731642004229,-0.044413295688197185,0.1520626186779502,0.11396674756790841,0.06657645177619997,0.0062425243661983695,20614.435066001897
1681985328795730590,161,1681985328795730590,camera_1,163,0,0.6556167957265092,0.4876062915082805,1.8120030099736892,-0.9806153294781464,-0.044527624681058524,0.1527636386954776,0.114342192235616,0.06332063823356293,0.005932881954769597,20614.109413609316
1681985328805835962,162,1681985328805835962,camera_1,164,0,0.6557549942126905,0.4882609593751314,1.812470079424707,-0.9806801006288192,-0.04451272342688755,0.1520661540493302,0.11472158679348868,0.06533596945519093,0.0061248768354652885,20606.908164914934
1681985328815782070,163,1681985328815782070,camera_1,165,0,0.6556336568891977,0.4888140092051202,1.812172691080944,-0.9806014521649324,-0.04456574510247312,0.1526192369668547,0.11463880182181875,0.060120146052213386,0.005634899688490791,20601.566646206895
1681985328825682401,164,1681985328825682401,camera_1,166,0,0.6556515501898048,0.48951761277589956,1.8122603645450925,-0.9806691679699617,-0.04449067987031149,0.1520017351254625,0.11490881130979104,0.06856868685281368,0.0064278015650714665,20601.447714448557
1681985328835652351,165,1681985328835652351,camera_1,167,0,0.6555395039474776,0.4899742957509686,1.8119942468597328,-0.9806422391200059,-0.04445493537777837,0.15235601329129117,0.11468305362276783,0.06613659352296963,0.006198806249557206,20600.770073023392
1681985328845637321,166,1681985328845637321,camera_1,168,0,0.6555206645480451,0.49030424685516466,1.812008196853067,-0.9805956462925011,-0.044636840483903664,0.1526719596085579,0.11459059164298613,0.07085033255862072,0.006641247645849199,20594.40101365914
1681985328855855941,167,1681985328855855941,camera_1,169,0,0.6552879601361759,0.49013381566035835,1.8113681621206064,-0.9805741176908457,-0.0445641349783068,0.1523575998882806,0.1152197871232958,0.07718322677828837,0.007229312732767187,20607.026816697027
1681985328865704298,168,1681985328865704298,camera_1,170,0,0.6556920340541195,0.49011379443890224,1.8124331675320664,-0.9806305767228051,-0.04459012065138814,0.15248552103340735,0.11455810321301403,0.06442591118684504,0.006041475227816636,20590.05643363141
1681985328875654458,169,1681985328875654458,camera_1,171,0,0.6557303095864561,0.4896416702526381,1.8125161361448563,-0.9806896956772637,-0.044387802607733756,0.15190885372634855,0.11489623114636718,0.07231345413310919,0.006780802628886866,20596.996558991723
1681985328885645866,170,1681985328885645866,camera_1,172,0,0.6557127304191587,0.4889533812332739,1.8123988973832195,-0.9806504658043922,-0.04465005747598176,0.1521291105440945,0.11483801639737215,0.0698139334708685,0.006544924036397074,20601.296065240924
1681985328895716190,171,1681985328895716190,camera_1,173,0,0.655618245917461,0.48820367647607305,1.8120671195850995,-0.9806317303370411,-0.04443089771781638,0.15285936759808003,0.1141109921159432,0.05990131336147897,0.005613573471697231,20609.75461758208
1681985328905653238,172,1681985328905653238,camera_1,174,0,0.6554732578469646,0.48760335993237724,1.811646882134355,-0.9805859599557362,-0.04462306477843802,0.15310075540061935,0.11410572257002115,0.0574123828264419,0.0053774272977236415,20619.018329990227
1681985328915705442,173,1681985328915705442,camera_1,175,0,0.6555948242860016,0.4874686607898742,1.8119880877959544,-0.9806803264155981,-0.04439372319972412,0.15272295764633875,0.11389026705393576,0.061004228322417475,0.005715777535290484,20621.06995236233
1681985328925808191,174,1681985328925808191,camera_1,176,0,0.6555954079910178,0.4875593986009943,1.8119631485439713,-0.980611805799925,-0.04449454326813339,0.1526609065670557,0.11452235393710428,0.055485579156083986,0.005198320449367554,20615.123762533764
1681985328935828685,175,1681985328935828685,camera_1,177,0,0.6556160027717233,0.4879988885443184,1.8121157650713788,-0.9806697949014269,-0.04457798683097639,0.15211091620693046,0.11472500001646889,0.04878681713307742,0.004571436398025572,20615.655690738116
1681985328945768117,176,1681985328945768117,camera_1,178,0,0.6557293128744388,0.4886854628337485,1.8124617480524425,-0.980731070965723,-0.04460059183639576,0.15185513978327486,0.11453108823228403,0.0600673305161763,0.005631242567386631,20609.58893700817
1681985328955790042,177,1681985328955790042,camera_1,179,0,0.6555168011940561,0.48921411272629745,1.8118874443549078,-0.9805578871648843,-0.04468559483669219,0.15233194855658141,0.11534472238374817,0.07067966792965308,0.006622605737907316,20601.59940699162
1681985328965711593,178,1681985328965711593,camera_1,180,0,0.6554084343042701,0.48962488229894047,1.8115498049775234,-0.9805679686631907,-0.04455780909669826,0.1523593434300047,0.11527224709280141,0.0947798659617547,0.008878688372936174,20605.55057130952
1681985328975687503,179,1681985328975687503,camera_1,181,0,0.6554689100941684,0.4900877681799765,1.8117956042327887,-0.9805838200389867,-0.04465610278627126,0.15267570465149763,0.11467926390964905,0.06348318998061586,0.005949071565288791,20599.089380808466
1681985328985615968,180,1681985328985615968,camera_1,182,0,0.6555347550504671,0.4902257216204156,1.8120238418134234,-0.9806236196479793,-0.044513644453071245,0.15278760328846053,0.11424447613503601,0.06075251803849824,0.005694903903632062,20596.50199144135
1681985328995645523,181,1681985328995645523,camera_1,183,0,0.6554922269231411,0.4899906236177891,1.8119500399008466,-0.9806051777911127,-0.044632985706122966,0.15240382540187994,0.11486712270746051,0.056964891380630434,0.005338699350024297,20599.305006177507
1681985329005671262,182,1681985329005671262,camera_1,184,0,0.6557055004738781,0.48966123598702427,1.812481206828096,-0.980631853603214,-0.04449158954973231,0.15243547802414756,0.1146520440184672,0.07467890714178793,0.007002741816120857,20592.154695560806
1681985329015632390,183,1681985329015632390,camera_1,185,0,0.6554927929214296,0.48886325473793546,1.8118194550309128,-0.9805707769942418,-0.04455757710882177,0.15261740048836908,0.11490649544422234,0.07362027397903148,0.006897665261617254,20605.74239075021
1681985329025642395,184,1681985329025642395,camera_1,186,0,0.6556007044207015,0.48830350262657535,1.8120411058623331,-0.9806904154297202,-0.04447755100707297,0.15237927364154305,0.11423052790375919,0.0551211190468166,0.0051652548661041756,20615.899635775306
1681985329035671472,185,1681985329035671472,camera_1,187,0,0.6553635727552949,0.4876552107901742,1.8113819327314589,-0.9805573000665734,-0.04458545809420609,0.15333797471623434,0.11404816404749983,0.0487184745434206,0.004561913952640836,20621.313685509267
1681985329045649051,186,1681985329045649051,camera_1,188,0,0.6555705358167628,0.487568496464848,1.8118938001917246,-0.9806291664245189,-0.04470213769683505,0.15225425810506227,0.11483378305953108,0.058558957622153684,0.0054855509544945716,20619.44070214958
1681985329055631637,187,1681985329055631637,camera_1,189,0,0.655640755393766,0.48775072609981807,1.8121329263275416,-0.9807198734679894,-0.04448327127072147,0.1526723852265053,0.11358217796483645,0.05855117739702109,0.0054871276539204305,20620.20383035316
1681985329065604448,188,1681985329065604448,camera_1,190,0,0.6553709020341207,0.4879265652602633,1.811404717120179,-0.9805216300009817,-0.04449933021593272,0.15306471564627155,0.11475336829338656,0.06758634846482892,0.006328818858846829,20615.526472880272
1681985329075644731,189,1681985329075644731,camera_1,191,0,0.655793483747086,0.48880374966203766,1.812654402528913,-0.9806545600386903,-0.04451343848654099,0.15247610183484736,0.11439504376797525,0.055382448830641806,0.0051934651444394235,20596.699315566402
1681985329085997581,190,1681985329085997581,camera_1,192,0,0.6555190920197954,0.48925238850710867,1.8119247020772193,-0.9805804487139037,-0.04466704563673741,0.15257610946826478,0.11483627237790775,0.06372564724006224,0.0059715668059041474,20602.39355978043
1681985329095989465,191,1681985329095989465,camera_1,193,0,0.6554535396114273,0.489706942542653,1.8117429498448199,-0.980591024277519,-0.044470180919160836,0.1524667072228691,0.11496760110569966,0.09488690110447351,0.008890912102381385,20602.907389376895
1681985329105653762,192,1681985329105653762,camera_1,194,0,0.6554919602008746,0.4900664347362966,1.8118733174151394,-0.9806358751403352,-0.04451464719692848,0.1525913091432621,0.11440113175413744,0.07031025073956698,0.0065895435812361345,20601.964331190866
1681985329116009473,193,1681985329116009473,camera_1,195,0,0.6557050505434513,0.4902487192968793,1.8124751362976907,-0.9806264845851076,-0.044404697016312986,0.152919361207886,0.11408588686123802,0.06738938190392219,0.006320312170394934,20586.518446214963
1681985329126038074,194,1681985329126038074,camera_1,196,0,0.6554923204052641,0.4898153984922516,1.811803014831497,-0.9806579167105991,-0.04427751092821672,0.15240028576154027,0.11455874178180435,0.08722759191005025,0.008174173944700873,20606.12175094604
1681985329136000394,195,1681985329136000394,camera_1,197,0,0.6554639999728692,0.4893348304813044,1.8118017006994738,-0.9806404702169174,-0.044482393054286896,0.1523254300469457,0.11472814930051044,0.06579729961231351,0.006164978117741348,20609.486728781125
1681985329145987033,196,1681985329145987033,camera_1,198,0,0.6557551098904641,0.48888086615114057,1.8125245090878812,-0.9806523778120501,-0.04443906169856613,0.15218773243640302,0.11482585851100542,0.06306493814918213,0.005912929499936945,20598.56273738318
1681985329155992507,197,1681985329155992507,camera_1,199,0,0.6554965417561873,0.48814626870149885,1.811775066906889,-0.9805768219037415,-0.044561048665734744,0.15271437009213173,0.11472458522187591,0.06658873446576763,0.006237894445680405,20612.121731674706
1681985329165646314,198,1681985329165646314,camera_1,200,0,0.6554369560354113,0.48767757931991285,1.8115280603682202,-0.9806014241918192,-0.044444511359507256,0.15289847624628589,0.11431355232234933,0.06716215454798657,0.006289853163038197,20621.77920739994
1681985329175674915,199,1681985329175674915,camera_1,201,0,0.6554787696423305,0.4875886891379724,1.811607658163181,-0.9805991776504958,-0.04464606960896823,0.15285262362646368,0.11431560134185201,0.06525538576534018,0.006111653548650191,20621.24437252676
1681985329185618638,200,1681985329185618638,camera_1,202,0,0.6553664274984051,0.4877374260743056,1.8113921985491461,-0.9805758188505207,-0.04465657090594073,0.15263993001892698,0.11479506053994981,0.059076270728837706,0.005531374101742856,20623.392526809588
1681985329195605516,201,1681985329195605516,camera_1,203,0,0.6556501759605448,0.4883996786493479,1.8122130648041568,-0.9807104510302367,-0.04452847732802991,0.15207443370919363,0.11444471398428575,0.06598936185764614,0.006184724019405537,20614.20298495842
1681985329205733776,202,1681985329205733776,camera_1,204,0,0.6553848508361826,0.4888033301323766,1.811517833976501,-0.9805503530142812,-0.044548154385588866,0.15293033255552305,0.11466813214168743,0.0634696539491415,0.005944851594585093,20610.183688502188
1681985329215695858,203,1681985329215695858,camera_1,205,0,0.65551636659104,0.48948872852391345,1.8119136755372294,-0.9805830957198748,-0.04438561156795889,0.15284910048588948,0.11455942717567899,0.08188718819292262,0.007674282344837858,20599.484264278784
1681985329225891351,204,1681985329225891351,camera_1,206,0,0.6554229155246615,0.48979404368614937,1.811688420300621,-0.9806052938341433,-0.044531014999190675,0.15284863578645272,0.1143133454405729,0.07369098224444315,0.0069048990267579794,20604.69345973904
1681985329235765933,205,1681985329235765933,camera_1,207,0,0.6555774216966304,0.4901176659652924,1.8121412436843718,-0.9805754957630163,-0.04461916135561968,0.15249054354589242,0.11501070245031314,0.07722349074902014,0.0072391623200093016,20591.176054562326
1681985329245637178,206,1681985329245637178,camera_1,208,0,0.6554712332383404,0.48987566344327954,1.8117941144385847,-0.9805908044464032,-0.04449188348919716,0.1531231195108752,0.11408530496956114,0.06212080203113146,0.005821670155448225,20600.02066272922
1681985329255711793,207,1681985329255711793,camera_1,209,0,0.655781220517192,0.48970897701262656,1.8126705502393017,-0.9807209226016241,-0.04438462106406321,0.1520819633900521,0.11440084700667946,0.0749832636793144,0.007032759380864265,20595.96526837943
1681985329266072273,208,1681985329266072273,camera_1,210,0,0.655553336493331,0.4889704218813447,1.811982532816797,-0.9806246870942474,-0.04441379950101571,0.15277343681209374,0.114293107752893,0.0610817067354219,0.00572427960270205,20605.797387116232
1681985329275676965,209,1681985329275676965,camera_1,211,0,0.6555512857549302,0.488386078179898,1.8119329100066666,-0.9806724088181312,-0.04446980182957934,0.15250403472483767,0.11422163849607335,0.06693118625844363,0.006271468311851965,20615.783726655012
1681985329285653829,210,1681985329285653829,camera_1,212,0,0.6555872220258336,0.4880024550743696,1.811982192247237,-0.9806348574758271,-0.044397171000488796,0.15242307703021396,0.11467943625236059,0.05778600620396901,0.005414211632141819,20613.777352666075
1681985329295623779,211,1681985329295623779,camera_1,213,0,0.6557246252778024,0.48789465645007646,1.812352726881337,-0.9807093832122988,-0.04447253057163772,0.1520354904842112,0.1145273300882035,0.06366572553815786,0.0059672778669846984,20614.380383451004
1681985329305649518,212,1681985329305649518,camera_1,214,0,0.6555546538062095,0.48785462439341365,1.8118761283972746,-0.9806773084548258,-0.04449498814077937,0.1524299428866529,0.11426865372324058,0.0728587618941674,0.006825880098831214,20621.084913279512
1681985329315617799,213,1681985329315617799,camera_1,215,0,0.6557637227351188,0.4884037105104827,1.8125239318130624,-0.9806810385714683,-0.044603049276748255,0.15225150641791738,0.11443228292347035,0.05781676633341704,0.005420545110985112,20605.117013805433
1681985329325789690,214,1681985329325789690,camera_1,216,0,0.6555945842616242,0.48881198663720726,1.8120877387325451,-0.9806329595737625,-0.04447946478568788,0.1527574494527617,0.11421793837514847,0.06717224438034464,0.006295653839764734,20605.732252876045
1681985329335629940,215,1681985329335629940,camera_1,217,0,0.6555791330062578,0.48938811657524334,1.8120809394996575,-0.9805773267886181,-0.044314772798999494,0.15306409671071053,0.11434898074751276,0.07767565024551004,0.007280967667006967,20595.627134159553
1681985329346026182,216,1681985329346026182,camera_1,218,0,0.6557805258324547,0.4899416116629867,1.8126192041073188,-0.9807227220408539,-0.04438939031085557,0.15223927943384877,0.11417410519934547,0.06788314635923598,0.006366918138232891,20595.08578430053
1681985329355633258,217,1681985329355633258,camera_1,219,0,0.6557140152202288,0.4901181182470523,1.8124691952602874,-0.9806674311339323,-0.04459309372255239,0.15237801665605052,0.11438437631684867,0.0739641461550491,0.006936340121904329,20592.608949011832
1681985329365637063,218,1681985329365637063,camera_1,220,0,0.6555540944801133,0.4898995639731371,1.8120343870968783,-0.98066304358216,-0.0444538555056024,0.1526182499787912,0.11415568078844218,0.08410711659234948,0.007884040188316463,20601.918255440192
1681985329375633001,219,1681985329375633001,camera_1,221,0,0.6556470090570339,0.48963414199647354,1.8123546778366835,-0.9806730911668745,-0.044510479902065435,0.15230457430399272,0.11446581186613998,0.06462200792157091,0.006058774612335554,20599.20744713437
1681985329385675430,220,1681985329385675430,camera_1,222,0,0.6555326133256745,0.48900089438442396,1.8118739558288395,-0.9805965690099457,-0.04468141354001728,0.15282914900700148,0.11435554793618147,0.07005962143011857,0.0065649988603207025,20605.945511614897
1681985329395802974,221,1681985329395802974,camera_1,223,0,0.655508506684158,0.4884003147306677,1.8117772694343597,-0.9806417495755628,-0.04454272205682479,0.1528434525508323,0.11400256099530932,0.07191075265291148,0.006737331735113216,20615.713693262252
1681985329406004190,222,1681985329406004190,camera_1,224,0,0.6555165279529639,0.4880027112462335,1.8118706534526883,-0.9806081256303425,-0.04453876671807972,0.15207071056338337,0.11531912762298702,0.062400368886301294,0.005845350898376752,20615.051850071002
1681985329415753841,223,1681985329415753841,camera_1,225,0,0.6554450080104767,0.48776319603445184,1.8116211057906901,-0.9805767277096531,-0.04442735524182872,0.15323512933083053,0.11408105153533908,0.055693143760436215,0.005216426557926975,20616.905934410635
1681985329425672292,224,1681985329425672292,camera_1,226,0,0.6554462029077187,0.48787382442783667,1.8116196210226683,-0.9806072792379389,-0.04438112432733481,0.15293830867426397,0.11423464207001466,0.05917631795455236,0.005542635547634953,20619.068329168716
1681985329435654878,225,1681985329435654878,camera_1,227,0,0.655520859121393,0.4882683417910032,1.8118333167183422,-0.9806333845846144,-0.04444728069157665,0.15271003475060035,0.11429019889613751,0.06354505440685898,0.0059534849698970604,20614.707480012436
1681985329445736408,226,1681985329445736408,camera_1,228,0,0.6554519765853085,0.4887694205903687,1.811642047558592,-0.9805146324448635,-0.04448160081675303,0.15329736369008615,0.11450921812658935,0.05904635178740136,0.005531486711398034,20603.5778600063
1681985329455682039,227,1681985329455682039,camera_1,229,0,0.6556967265974066,0.48953891160919105,1.8124212906964816,-0.9806635060961493,-0.044542968493170174,0.15190688738204378,0.1150621976798786,0.06886444971314631,0.006456478245486485,20597.95711348427
1681985329465634107,228,1681985329465634107,camera_1,230,0,0.6553347751733228,0.4896073762882635,1.8113828546168271,-0.9806013088015014,-0.04446569245252798,0.1526149653765769,0.1146845574373725,0.07237838832952548,0.006779239783367531,20611.803221009675
1681985329475650310,229,1681985329475650310,camera_1,231,0,0.6556849507527782,0.49002873971880895,1.8123909746908364,-0.9806788869987441,-0.04457425332456271,0.15256987281375994,0.1140372327139499,0.07393485495413188,0.006933206284179668,20595.605427471804
1681985329485645294,230,1681985329485645294,camera_1,232,0,0.6556901073452079,0.48987727123601427,1.8124385154305023,-0.980700999441093,-0.04449535231420108,0.15244228233552407,0.11404851543975889,0.060492245145724155,0.005672572876712649,20597.833974760888
1681985329495643615,231,1681985329495643615,camera_1,233,0,0.655508363848237,0.48936908997950157,1.8118753810229882,-0.9806141539489721,-0.04450324814986751,0.15236398049942046,0.11489368749163299,0.07525030821852852,0.0070513387903205875,20605.07718226028
1681985329505616426,232,1681985329505616426,camera_1,234,0,0.655717583009831,0.48896278392053494,1.8124196708673794,-0.9806373222407281,-0.04449576199701722,0.1526149406370802,0.11436454558638223,0.06162616127403453,0.005777848835586317,20598.445815672923
