%time,field.header.seq,field.header.stamp,field.header.frame_id,field.image_seq,field.transforms0.fiducial_id,field.transforms0.transform.translation.x,field.transforms0.transform.translation.y,field.transforms0.transform.translation.z,field.transforms0.transform.rotation.x,field.transforms0.transform.rotation.y,field.transforms0.transform.rotation.z,field.transforms0.transform.rotation.w,field.transforms0.image_error,field.transforms0.object_error,field.transforms0.fiducial_area
1684722115051498413,16,1684722115051498413,camera_2,18,0,2.2204326456319343,-0.5896684086266544,5.690149109595222,-0.9801153427706079,0.030024358993165606,0.19104047513919503,-0.04445210446417828,0.004387995577417314,0.002306003938606206,7068.457995840117
1684722115058230161,17,1684722115058230161,camera_2,19,0,2.221840310860445,-0.5900253069517816,5.693662806639441,-0.9801452758550663,0.030015445715901628,0.19119077611140023,-0.043132335519794444,0.004108447930775583,0.002160560826191961,7060.559019555804
1684722115065004110,18,1684722115065004110,camera_2,20,0,2.2218096409278623,-0.5900279727537528,5.693627496608566,-0.9801993820492828,0.030064497626792645,0.19050276433211752,-0.044877546662828456,0.00568101234966889,0.0029890125472297156,7062.292913283219
1684722115071527957,19,1684722115071527957,camera_2,21,0,2.221119755073699,-0.5898200646158711,5.691925426622967,-0.9800556142139212,0.029967572972507656,0.19163183493713706,-0.0432455484013916,0.004454421170521527,0.0023416853163189225,7062.269174790477
1684722115078009843,20,1684722115078009843,camera_2,22,0,2.2216251351421876,-0.5899610461132294,5.693213558700711,-0.9802010400479629,0.02981395670552019,0.1906672416123894,-0.04430634322956826,0.004042587359435856,0.002126195493132731,7063.157452917898
1684722115084504127,21,1684722115084504127,camera_2,23,0,2.221331470676164,-0.5899079352318037,5.692409906009706,-0.9801446680850554,0.030192618027015592,0.19087558697247853,-0.04439983940312219,0.0032254609395749867,0.0016962430146255888,7063.831037846163
1684722115091384649,22,1684722115091384649,camera_2,24,0,2.2215694079660895,-0.5899514879116776,5.693089222978608,-0.9801686045378196,0.030102245600679974,0.19079437973054592,-0.044281668344995646,0.006415487558115274,0.003374332867695116,7062.791428316619
1684722115097672224,23,1684722115097672224,camera_2,25,0,2.222641066970331,-0.5902430993125278,5.695831593219884,-0.9803450727902425,0.03004713551646418,0.18986564603841163,-0.044404328140014465,0.004034427518490702,0.0021231524124677454,7061.052929824221
1684722115105059623,24,1684722115105059623,camera_2,26,0,2.222210916679094,-0.5901557578351971,5.6947016551497605,-0.9803087084458468,0.029820744117989042,0.19001152253861295,-0.04473455787245028,0.002628726011607796,0.001383132055633231,7062.590754600475
1684722115111323356,25,1684722115111323356,camera_2,27,0,2.221477865623684,-0.589933591699947,5.6927811831835875,-0.9801658969078134,0.030053064459822237,0.19074921580962484,-0.044568649558729787,0.00303478428395465,0.0015961901344217003,7063.405944135503
1684722115118136644,26,1684722115118136644,camera_2,28,0,2.222802468599519,-0.5903040904470414,5.696189706885912,-0.9803418624104955,0.030123654597655175,0.18981949005741133,-0.04462016846165729,0.0031185108819045126,0.0016414906950097147,7060.120116707175
1684722115124527931,27,1684722115124527931,camera_2,29,0,2.221316635184608,-0.5898893058584038,5.692428974618533,-0.9801820630912766,0.0300394799189847,0.1906297494954238,-0.04473311354732258,0.0054268953390419475,0.0028540731149671443,7064.7566748026275
1684722115131458044,28,1684722115131458044,camera_2,30,0,2.2217975449373837,-0.5900309910921091,5.6936277469991765,-0.9802447888459116,0.030146797866726287,0.19039064510550782,-0.044302672324879895,0.002563595597166568,0.0013483578793670851,7063.680565412851
1684722115138018369,29,1684722115138018369,camera_2,31,0,2.220452931118744,-0.5896846325277177,5.690217375966682,-0.9799771036593701,0.02995045613550848,0.19190537295309665,-0.043819793614302355,0.002357411489356309,0.001239044372976385,7064.211006112401
1684722115144819259,30,1684722115144819259,camera_2,32,0,2.2220505985709127,-0.5900875914138145,5.694340213608304,-0.9802891836611672,0.03007479895717099,0.1901251658588509,-0.04450892238363693,0.006377217941917479,0.0033549336750411745,7063.163441534853
1684722115151519775,31,1684722115151519775,camera_2,33,0,2.221707583418593,-0.5899723049280928,5.693425751059139,-0.9801846390103877,0.029958355168023466,0.19069252871018516,-0.044462679831719844,0.004425462626386434,0.0023279705453990453,7062.286675858311
1684722115158103466,32,1684722115158103466,camera_2,34,0,2.2208848134120216,-0.5897785184375262,5.6912705983120535,-0.9799711194845803,0.030040597956524633,0.19185125694978863,-0.04412779914452298,0.0024979818845167756,0.0013135843385982306,7061.493067842912
1684722115164903163,33,1684722115164903163,camera_2,35,0,2.221475694693055,-0.5899733841131903,5.692818216972633,-0.9802217060286732,0.03014659849316951,0.19045507424594102,-0.04453598908188869,0.0035215243697166443,0.001851940356252395,7065.024462493603
1684722115171569824,34,1684722115171569824,camera_2,36,0,2.2210759659921564,-0.5898503530968592,5.6918244121412656,-0.9801979932127362,0.029812946514802947,0.19058642166588086,-0.04472022135930799,0.004269084078259767,0.0022445845863119903,7066.522093632258
1684722115178075075,35,1684722115178075075,camera_2,37,0,2.2203608682910265,-0.5896345836793767,5.689987062576856,-0.9801051852991779,0.0299787223088991,0.19122346349021635,-0.04391684152117776,0.00468428322346881,0.0024611516103455167,7068.529193824388
1684722115184825658,36,1684722115184825658,camera_2,38,0,2.2217578725064535,-0.5900069108545386,5.69354370729181,-0.9802793153109953,0.030074637151233517,0.1899744293711739,-0.04536183813211961,0.004790857492480427,0.002520507427828689,7064.846877803095
1684722115191330909,37,1684722115191330909,camera_2,39,0,2.2221957452456773,-0.5901217390969881,5.694634154161727,-0.9803697712453301,0.029954821542696623,0.18965950269865886,-0.04480059520611183,0.004684913670644164,0.0024646550024245697,7064.637870539447
1684722115198049068,38,1684722115198049068,camera_2,40,0,2.2221831427574092,-0.5901261885754081,5.694703337606752,-0.9803385183264779,0.030031400761800445,0.18985368698309793,-0.04461033504306122,0.0061275866464711734,0.0032237288325100144,7063.662447713779
1684722115205166339,39,1684722115205166339,camera_2,41,0,2.2209768352208927,-0.5897732729557351,5.691559632040195,-0.980141779901722,0.029807969097228378,0.1910763898941007,-0.04385646468219689,0.007049903157167137,0.003705711615991808,7065.541846496984
1684722115211519718,40,1684722115211519718,camera_2,42,0,2.221863528431919,-0.5900550726149624,5.693816723879081,-0.9803083148044699,0.030000335355922395,0.19019150512601501,-0.04384950605940325,0.001622827781829983,0.0008533234738174155,7064.92398653808
1684722115218659400,41,1684722115218659400,camera_2,43,0,2.220936222885516,-0.5898003791330491,5.691450528981044,-0.9801338407158691,0.029963373747608123,0.1908426062476078,-0.044932729249859346,0.004158614494372159,0.002186736079062888,7065.718584944261
1684722115224972963,42,1684722115224972963,camera_2,44,0,2.2199616365048573,-0.589531028128111,5.688986078169401,-0.9800304953743127,0.029926944818348494,0.19152718832885057,-0.04429381718777244,0.0040524453506805,0.0021291199838095044,7068.814684451554
1684722115231283426,43,1684722115231283426,camera_2,45,0,2.2215103126962106,-0.5899499237368074,5.692902668005942,-0.9801577471495,0.02994628083788182,0.19070605598096624,-0.04500234637194153,0.0047117232461459935,0.0024787602986511255,7062.795447729528
1684722115237876415,44,1684722115237876415,camera_2,46,0,2.221577142033677,-0.5899872780092484,5.693020003091338,-0.9801104195766359,0.03035520184732455,0.19083739467937397,-0.04520194630884696,0.005288322980049998,0.0027827481813882155,7061.482284535887
1684722115244760513,45,1684722115244760513,camera_2,47,0,2.221166706710797,-0.5898798029077363,5.692038829839009,-0.9801728036371881,0.030082557587998226,0.19065674913608235,-0.04479194958739665,0.0030617903685197234,0.0016100733873952169,7065.4939103731895
1684722115251407861,46,1684722115251407861,camera_2,48,0,2.221554069623142,-0.5899725158715253,5.693045569971111,-0.980136541580002,0.03014165858241702,0.1907558812403269,-0.04512243399596863,0.0034503969363868237,0.0018154542885837146,7062.006344834577
1684722115257843971,47,1684722115257843971,camera_2,49,0,2.221458900818101,-0.5899453986784808,5.692842071212314,-0.9802018652538528,0.029980923126040747,0.1905804065020304,-0.04454835865550089,0.0030841713887639344,0.001622034263153457,7064.269616644364
1684722115264377355,48,1684722115264377355,camera_2,50,0,2.222582869227141,-0.5902212719115983,5.695633241538686,-0.9802154876945472,0.030016439697693114,0.19043355081177982,-0.0448516862206185,0.005726574338041246,0.0030149526792625438,7057.755947533531
1684722115271071672,49,1684722115271071672,camera_2,51,0,2.221245080315694,-0.5898696349800304,5.6922141426809745,-0.9801795717517082,0.029937153203386822,0.1907558724371822,-0.04431671365799203,0.0027104851906187832,0.0014251532165744903,7065.114762136247
1684722115277700662,50,1684722115277700662,camera_2,52,0,2.2215031823781106,-0.5899211723168741,5.692920646920342,-0.9802205781208705,0.029881818930197944,0.1904460304915837,-0.0447772776730354,0.0038965349667705595,0.0020494139928273944,7064.523531988262
1684722115284551858,51,1684722115284551858,camera_2,53,0,2.2209871641418664,-0.5898123418703074,5.691552559169228,-0.9801171372077391,0.030040218147299395,0.19102194956649374,-0.044481427913060666,0.0022679013782180846,0.0011924244170024452,7065.033658202273
1684722115291030645,52,1684722115291030645,camera_2,54,0,2.2211477757634537,-0.5898808191043832,5.691962869888089,-0.9799935365087232,0.03002210667681761,0.19179163793937593,-0.04390112900988681,0.0011124323355033994,0.0005850378341299571,7060.409486046292
1684722115297648668,53,1684722115297648668,camera_2,55,0,2.221873121276355,-0.5900773016206491,5.693905978961698,-0.9801781042801827,0.03024181228553323,0.1906493903132871,-0.04459962614827505,0.005147823423612863,0.0027085969224469398,7061.174906057999
1684722115304731845,54,1684722115304731845,camera_2,56,0,2.2216263884378753,-0.5899821820659672,5.693196813272619,-0.9801596412844101,0.029987408726489275,0.19072481409067465,-0.04485396532263993,0.005352056177798659,0.0028157614991264723,7062.154098008989
1684722115311159372,55,1684722115311159372,camera_2,57,0,2.2211059117581966,-0.5898417748929321,5.691904620031451,-0.9801728976173946,0.029763946026530805,0.19080802918718434,-0.04435644587828225,0.006420730671379715,0.0033757538040484337,7065.550526812207
1684722115318073511,56,1684722115318073511,camera_2,58,0,2.2206014860682766,-0.5896979222861376,5.690545825090984,-0.9800211289299717,0.0300670861488402,0.19153866476226408,-0.04435647734470103,0.004719413002021611,0.0024810254424569313,7064.772671721873
1684722115324662208,57,1684722115324662208,camera_2,59,0,2.222035085613347,-0.590084898774024,5.694279195585268,-0.9801924309998229,0.03008347568145802,0.19055750023620333,-0.04478416913720467,0.003765647765249014,0.001981661630133682,7060.515781114813
1684722115331478834,58,1684722115331478834,camera_2,60,0,2.222824972879719,-0.5902679449205056,5.69635635766158,-0.9804368027756225,0.029899923217375075,0.18950979271984514,-0.04399669098911281,0.007794419187121093,0.004101096605530069,7062.300191261342
1684722115338220119,59,1684722115338220119,camera_2,61,0,2.221298761845026,-0.5898819655241606,5.692407283764433,-0.9801277924911747,0.02997825081421991,0.1910265100428011,-0.04426835580145451,0.003473841235972941,0.0018268511674410404,7063.188891182421
1684722115344750165,60,1684722115344750165,camera_2,62,0,2.2207387660039726,-0.5897497403661959,5.690908418589057,-0.9800736596386755,0.03009009006107985,0.19145261915580952,-0.04354426231951202,0.004468454048037528,0.0023483793272692476,7065.4022943808195
1684722115351274728,61,1684722115351274728,camera_2,63,0,2.221253258342397,-0.5899069641467498,5.692307668695236,-0.9801389405400779,0.030216353672142485,0.19085433555870868,-0.044601029205362366,0.0030026959720999002,0.001579168459109768,7063.975147064079
1684722115357925653,62,1684722115357925653,camera_2,64,0,2.219854279671209,-0.589558373396475,5.688666237995085,-0.9799222502755236,0.030102217304466054,0.19194028597318036,-0.04477908606528957,0.0011048557353205979,0.000580672197335405,7066.606481238265
1684722115364579439,63,1684722115364579439,camera_2,65,0,2.221733984342077,-0.5900197369509947,5.6934738729750896,-0.980277239064107,0.029992603010751774,0.19010383489432578,-0.04491670397482399,0.005474031495396048,0.0028794227544049113,7064.8783422568795
1684722115371250629,64,1684722115371250629,camera_2,66,0,2.2209855647304777,-0.5897990014859656,5.6915168751910326,-0.9800623604037076,0.03011115837279591,0.19141114047392987,-0.04396433968378255,0.004089469090104103,0.002150054063025978,7063.582300341226
1684722115377975463,65,1684722115377975463,camera_2,67,0,2.2220595901946125,-0.5900985662121975,5.69433891271184,-0.9802779371087796,0.030189584434046266,0.19012537240856156,-0.04467771005726582,0.0054579759016633025,0.0028715838658545808,7062.9379451868635
1684722115384495019,66,1684722115384495019,camera_2,68,0,2.2215002453223818,-0.5899481948025326,5.692950933081409,-0.980122370207102,0.029924774352546493,0.19121931856560806,-0.04358691898799932,0.0030861147679388523,0.001622874348449745,7061.638180053093
1684722115391812801,67,1684722115391812801,camera_2,69,0,2.220013756399266,-0.5895223462204887,5.689083467804396,-0.980006604670591,0.02992953303434155,0.19179437019132678,-0.04366002081170562,0.00469899142626673,0.0024684763117470135,7067.865926515078
1684722115398392677,68,1684722115398392677,camera_2,70,0,2.2200136504336174,-0.589514598502982,5.689028710306166,-0.9799054251640298,0.029991356113579434,0.1922575443778619,-0.043851031029671306,0.005199544655624778,0.0027322611912837403,7065.098594706043
1684722115405131578,69,1684722115405131578,camera_2,71,0,2.221827434517611,-0.5900504713509109,5.6937254223510925,-0.9803056331194686,0.030131819244078258,0.19013471682512986,-0.04406504965511551,0.0014427187852561474,0.0007586561930039018,7065.1882967203865
1684722115411369800,70,1684722115411369800,camera_2,72,0,2.220643173904529,-0.5897143867987189,5.6907017272689515,-0.9800158141519031,0.029932525040789713,0.19162535523943589,-0.044190170696943795,0.0035017368500120938,0.0018408885834428426,7064.1214724523015
1684722115418112039,71,1684722115418112039,camera_2,73,0,2.2219010340530883,-0.5900456323064637,5.69396701012432,-0.9802863618880869,0.030107703561595107,0.1900775268575083,-0.04475163311208981,0.007707678014412522,0.004054723189159657,7064.045714760199
1684722115424800157,72,1684722115424800157,camera_2,74,0,2.2211289280851045,-0.5898493871594108,5.691989187999789,-0.9801715519571824,0.03014411944831445,0.19077756225159165,-0.04426039468728346,0.005704191571567208,0.002999000566865992,7065.649218456587
1684722115432016849,73,1684722115432016849,camera_2,75,0,2.2214132061338643,-0.5899219468035319,5.69271869348704,-0.9801544627918123,0.030201170927555556,0.19063151803624395,-0.045218830978873484,0.004986294312402606,0.00262325812917736,7063.403290474322
1684722115438493490,74,1684722115438493490,camera_2,76,0,2.222043540059675,-0.5900904463921787,5.694288841328906,-0.9802772088777608,0.030155631441240963,0.19020723423563862,-0.044367101456325865,0.0030473102815449238,0.0016030527307145882,7063.001383262215
1684722115445021152,75,1684722115445021152,camera_2,77,0,2.220726895713931,-0.5896906459458507,5.690873833664772,-0.9801063886072455,0.029948574651369457,0.19114706432547635,-0.04424194488679946,0.0020996335661038756,0.0011036218203246417,7066.32732050959
1684722115451697587,76,1684722115451697587,camera_2,78,0,2.221400309275149,-0.5899033763508245,5.692596881477994,-0.9802707871839763,0.030071029454277153,0.19031384332727638,-0.04410848012874866,0.0037416546256281435,0.0019670028288590806,7066.917079183733
1684722115458168506,77,1684722115458168506,camera_2,79,0,2.220671259626558,-0.5897119753093368,5.690796501098872,-0.9800657979415401,0.02994874009147441,0.19132452968457714,-0.04437374238354369,0.004741170210763812,0.002492412023419028,7065.362182362702
1684722115465046644,78,1684722115465046644,camera_2,80,0,2.22062080550419,-0.5897098067685616,5.690633161795555,-0.9801597429144527,0.029881837965397284,0.1907826640969113,-0.04467582354885683,0.0030340366647578776,0.0015946790899415263,7068.422408911399
1684722115471676349,79,1684722115471676349,camera_2,81,0,2.222089217313439,-0.5900965779352305,5.694382735326512,-0.980225739339216,0.03014145352864898,0.1904602623730805,-0.04442838251439396,0.00358198385220021,0.0018846756800455502,7061.257058125222
1684722115478192329,80,1684722115478192329,camera_2,82,0,2.2216273618114935,-0.5899831614666516,5.69315360210483,-0.9801665981033597,0.030042994361752274,0.19081509780963193,-0.04427704710307013,0.0027352742035873234,0.0014386906476699366,7062.486745685804
1684722115484997272,81,1684722115484997272,camera_2,83,0,2.221350603590312,-0.5898835189558909,5.692477845201951,-0.9803167146157852,0.029770623887294928,0.19018928116236047,-0.043827917235695596,0.00464024773100391,0.0024387754431577356,7068.278636289524
1684722115491563796,82,1684722115491563796,camera_2,84,0,2.2212672167655847,-0.5899156447873966,5.692334705594689,-0.9801499394331332,0.030006906824186264,0.1906821734433703,-0.04523262653198741,0.004854783997870982,0.0025537740545287465,7064.047702377662
1684722115498436212,83,1684722115498436212,camera_2,85,0,2.220428187626383,-0.589662010514914,5.690124794834761,-0.9800626720625085,0.02994798374062628,0.19147465371565878,-0.043791940857144614,0.0043067558435723186,0.0022630466949144844,7066.9130296017975
1684722115504997491,84,1684722115504997491,camera_2,86,0,2.221521745422236,-0.5899077343019832,5.692879635967261,-0.9801839279346716,0.029873553113249046,0.19082793984238242,-0.04395151440463134,0.005391323589719832,0.0028350042282381666,7063.5197473028675
1684722115511331081,85,1684722115511331081,camera_2,87,0,2.22196753080263,-0.5900857745714669,5.6941029889994175,-0.9802355021285815,0.02999010105880692,0.1902615717622743,-0.04516069658186366,0.003977101994678378,0.0020928718169340847,7062.117941287811
1684722115518069267,86,1684722115518069267,camera_2,88,0,2.2212008359376094,-0.5898484395543941,5.69215633745226,-0.980177632409024,0.03007824995641754,0.1906105426416686,-0.044885730900235246,0.003886495076585561,0.002043883741672332,7065.352781869706
1684722115524786472,87,1684722115524786472,camera_2,89,0,2.2208656337512314,-0.589756853420924,5.691194193265763,-0.979969422394464,0.030052325073330974,0.19192823684228238,-0.04382169362496449,0.0028125745011493564,0.001478816683101133,7061.631048845129
1684722115531327962,88,1684722115531327962,camera_2,90,0,2.2217287027962196,-0.5900050304875762,5.693468438038504,-0.9802614202863307,0.02992069177627879,0.19018957840725706,-0.04494690609068083,0.006406280328519643,0.0033699750243847966,7064.374236862177
1684722115538199663,89,1684722115538199663,camera_2,91,0,2.221015480811545,-0.5898297344822021,5.691576842893983,-0.9801145621521962,0.029935152925957498,0.19112401227402037,-0.04416948730501942,0.0030861018458381295,0.0016224687661031607,7064.783651253676
1684722115545069456,90,1684722115545069456,camera_2,92,0,2.2211156995105075,-0.5898161795023922,5.691896518732266,-0.9801199212580795,0.02990133921537746,0.1910852346338298,-0.044241190887197385,0.0064657850307412446,0.003399742603664757,7064.147540565117
1684722115551572799,91,1684722115551572799,camera_2,93,0,2.221744080379771,-0.5900306807502473,5.693576311083444,-0.9802824716578834,0.030017453834609863,0.19004399216629925,-0.04503897497827773,0.004938628582749516,0.002597953807959871,7064.822272533313
1684722115558138132,92,1684722115558138132,camera_2,94,0,2.2211968644616285,-0.5898758489998905,5.692065779504715,-0.9799518148813056,0.029998107511613546,0.19199446476432644,-0.04396225149394812,0.0021764341508969665,0.001144801296311341,7058.922647105066
1684722115564836978,93,1684722115564836978,camera_2,95,0,2.2208422234025953,-0.5897563625911121,5.691208865372583,-0.9801187119398843,0.029965824991265447,0.19102640541089025,-0.04447777280495515,0.004968860244844109,0.002612241035544743,7065.88191633578
1684722115571801185,94,1684722115571801185,camera_2,96,0,2.220764558507624,-0.5897462188911018,5.691003665620841,-0.9800530999861552,0.029860541854804242,0.19131829825976948,-0.0447389986326333,0.005443835165351628,0.0028624961997412448,7064.395098404495
1684722115578273534,95,1684722115578273534,camera_2,97,0,2.2211773983262315,-0.589828817174776,5.6920109037919735,-0.9800504034598039,0.030039726169602037,0.19130921220179165,-0.04471696385781239,0.004417872987687588,0.0023238326798083538,7061.964319670105
1684722115584519624,96,1684722115584519624,camera_2,98,0,2.221598318153398,-0.589946782342327,5.693167783932423,-0.9802763348662489,0.029857896075773868,0.19006249438052658,-0.04520023863846965,0.006015522696543485,0.0031642478635412774,7065.50828144024
1684722115591369152,97,1684722115591369152,camera_2,99,0,2.2214013558911545,-0.5899297981848993,5.692639823652504,-0.9801484190277435,0.03009432819508414,0.1907210193975032,-0.04504332190102071,0.005651217477861792,0.002972860844167907,7063.308473162817
1684722115598098516,98,1684722115598098516,camera_2,100,0,2.221508093955225,-0.5899600224658196,5.692867609695895,-0.9800750294948909,0.03013231337843007,0.19110652880774778,-0.0449808281171705,0.0030660960474051535,0.001613321092799384,7060.636211999226
1684722115604719400,99,1684722115604719400,camera_2,101,0,2.2215183361934936,-0.5899448974052051,5.692949560857406,-0.9800697366723902,0.029805483013519665,0.1914386018866695,-0.04388856512714927,0.006508625170681626,0.003423524869061024,7060.003188094821
1684722115611241817,100,1684722115611241817,camera_2,102,0,2.2209653895529797,-0.5898032221980661,5.691513126623146,-0.9801243517446775,0.02986140749585988,0.19104042889282769,-0.04436334058529251,0.004960168153047562,0.0026078080846184573,7065.19298074721
1684722115618145465,101,1684722115618145465,camera_2,103,0,2.222584184136198,-0.5902318845199455,5.695725329427799,-0.9803693532115335,0.03001619388429826,0.18974662659714892,-0.044397940079488565,0.006164427439216524,0.003243773399559551,7062.0049318950605
1684722115624560117,102,1684722115624560117,camera_2,104,0,2.2198088098861173,-0.5895010116471334,5.688550016160409,-0.9800042962210672,0.03007619775940556,0.1915647370403263,-0.04460889193040421,0.0037387547781690955,0.001964366200723636,7069.2561981752515
1684722115631357192,103,1684722115631357192,camera_2,105,0,2.2207675389379222,-0.5897598547386954,5.691080811701924,-0.9800747406781452,0.03016817072543587,0.19100660793039123,-0.045385679312679734,0.0050735470140352845,0.0026683177468323025,7065.137793297416
1684722115638043165,104,1684722115638043165,camera_2,106,0,2.2212775324490375,-0.5898781704673266,5.692340447450418,-0.9802003534445911,0.029998549163098163,0.1906114463494217,-0.04443681667029517,0.004868014540988952,0.0025596723732397237,7065.473045776134
1684722115644421577,105,1684722115644421577,camera_2,107,0,2.221632943637924,-0.5899814985613605,5.693216847085245,-0.9801563619491728,0.03002196584907392,0.19086338394057245,-0.04430977733946371,0.0036669254768639803,0.0019288357554283569,7062.030656147286
1684722115651324272,106,1684722115651324272,camera_2,108,0,2.2198251812043246,-0.5895166061485959,5.688634732021779,-0.9799177344632904,0.030109254369705934,0.19191722670474745,-0.04497159747653017,0.003031685540918261,0.001593465516896523,7066.584263038356
1684722115658021926,107,1684722115658021926,camera_2,109,0,2.2207629371124322,-0.5897642429333794,5.69104101740016,-0.9800509860530623,0.03015553949882733,0.19125882341495917,-0.04484161727547919,0.005473041441291571,0.0028780045783472798,7064.516295667273
1684722115664515018,108,1684722115664515018,camera_2,110,0,2.220434349389564,-0.5896628158192412,5.690184729961646,-0.9800531074986963,0.03004124432751039,0.191393111183878,-0.044295678262775855,0.0038948087603785098,0.0020470447410095584,7066.5902324276985
1684722115672051429,109,1684722115672051429,camera_2,111,0,2.220870096785818,-0.5897980288774323,5.691259580682007,-0.9801444688130748,0.030042624792890014,0.19096879472986208,-0.04410419923445956,0.005747135321144015,0.0030208555224782176,7066.554426691728
1684722115678065061,110,1684722115678065061,camera_2,112,0,2.2209647741441354,-0.5898023687361846,5.6915145800386915,-0.980038860880478,0.030086041947906227,0.19147273386295263,-0.04423633609433531,0.0036916009266860783,0.0019411770465898128,7062.907569569306
1684722115685159444,111,1684722115685159444,camera_2,113,0,2.220136200706754,-0.5895704359219449,5.689379704407311,-0.979984346997404,0.029830359845154097,0.19160103994382646,-0.04505408709567705,0.008503561199177057,0.004470147156551826,7066.399843502091
1684722115691741943,112,1684722115691741943,camera_2,114,0,2.221445353088063,-0.5899369781273682,5.692784492744332,-0.980160004424043,0.030189926883622337,0.19080038289540888,-0.04438634845520859,0.002845407580025494,0.0014964997602093723,7063.3770690655765
1684722115698032140,113,1684722115698032140,camera_2,115,0,2.22064901426794,-0.5897064000164616,5.690691189619035,-0.9800211229604393,0.02988979825873955,0.19161093380960975,-0.04416388293640885,0.00384391873376444,0.0020207277339076737,7064.257844150999
1684722115704725742,114,1684722115704725742,camera_2,116,0,2.2211854302929597,-0.5898413326454902,5.692051507503,-0.98009959407388,0.029994272180150727,0.191189357308611,-0.04417871642000228,0.004418976430315524,0.002323699413696273,7063.246347083244
1684722115711885929,115,1684722115711885929,camera_2,117,0,2.220667579953882,-0.589742233713795,5.690747842213754,-0.9799747928622053,0.02988624152013181,0.19177817320728271,-0.04446740608305734,0.0030012152856215835,0.0015781104244942284,7062.773243768137
1684722115718519926,116,1684722115718519926,camera_2,118,0,2.220347490039313,-0.5896277409180063,5.689932475978584,-0.9799772242768527,0.029940129184700508,0.1919347401977292,-0.04369535522534112,0.0051198918372392654,0.002690625438703492,7064.909470105777
1684722115725160121,117,1684722115725160121,camera_2,119,0,2.221251627261213,-0.5898844821855866,5.692291109900344,-0.9801252396927568,0.029958874082573313,0.19090354733981466,-0.044864417905461904,0.004851826059166342,0.0025519971629891715,7063.394588083031
1684722115731815099,118,1684722115731815099,camera_2,120,0,2.2211474926796733,-0.5898378376249671,5.691988033774912,-0.9801719021087547,0.029920427953015815,0.1908201397579871,-0.04422086125751354,0.006668110610917211,0.003505752477030046,7065.443122744323
1684722115738480567,119,1684722115738480567,camera_2,121,0,2.22171000840935,-0.5899834601417976,5.693457432332286,-0.9803451272720035,0.029841602122190097,0.19000443742185977,-0.04394569349575541,0.004100854275748134,0.002155956066724656,7066.757067027965
1684722115745349884,120,1684722115745349884,camera_2,122,0,2.219916143316483,-0.5895091329311823,5.688861967406817,-0.9799471328160926,0.02990746974353435,0.19193508746248658,-0.04438560960296321,0.004641553445253521,0.0024391266373404857,7066.685999993002
1684722115751740694,121,1684722115751740694,camera_2,123,0,2.2212058210269188,-0.5898577312444968,5.692173497050565,-0.9802616131611077,0.02996234492900379,0.19030499691003971,-0.044423369978068596,0.003949681355152279,0.002076338071932232,7067.635389836971
1684722115758276462,122,1684722115758276462,camera_2,124,0,2.221056241519044,-0.5898096897238347,5.691789039352526,-0.9800712334582184,0.029988416094501272,0.19132725746250087,-0.044214848181433945,0.003159606014378369,0.0016614395527804764,7063.093206763498
1684722115764604330,123,1684722115764604330,camera_2,125,0,2.220091268042649,-0.5895637159764272,5.689300940055005,-0.9799904575408566,0.03007704735907192,0.19159698334837866,-0.04477354489901412,0.006523985241074115,0.0034289974383808785,7067.000246594189
1684722115771234512,124,1684722115771234512,camera_2,126,0,2.221451175560053,-0.5899489398176229,5.692770317811242,-0.9802191413089805,0.03003673562104126,0.19037455984223195,-0.04500840465505189,0.0026214197278022766,0.001378798431234848,7064.984558637019
1684722115777762889,125,1684722115777762889,camera_2,127,0,2.2206046261385888,-0.5897276254072007,5.690590019030832,-0.9800405185961881,0.029950065226804448,0.1914713491475148,-0.04429783243292393,0.0056185052380897105,0.0029535322471623206,7065.128409596859
1684722115784521102,126,1684722115784521102,camera_2,128,0,2.22143461219978,-0.5899266719859187,5.692653819256165,-0.9801312413012844,0.0299780706062978,0.19099278921061422,-0.044337563955151295,0.003406980657018721,0.0017918838083829931,7062.643657561158
1684722115791379928,127,1684722115791379928,camera_2,129,0,2.221602400489309,-0.5899641527381673,5.693188977688953,-0.980263393272577,0.029894721293195235,0.1904094983066444,-0.043979636232545555,0.00390087126288563,0.0020510701643456724,7065.101463203317
1684722115797927141,128,1684722115797927141,camera_2,130,0,2.2206461373054807,-0.5897324593657332,5.690730292204633,-0.9800630148996722,0.029891784958466627,0.1913522826934022,-0.044353939236400027,0.0056290223728865385,0.002959092724053173,7065.388726124544
1684722115804711580,129,1684722115804711580,camera_2,131,0,2.2211420922949947,-0.5898288254026007,5.6920264543177,-0.9801441547932449,0.030028452775148436,0.19088264346456238,-0.044492069771444646,0.0046295629581436515,0.002434409578712759,7064.66372997896
1684722115811197996,130,1684722115811197996,camera_2,132,0,2.2214616000440137,-0.5899186791621157,5.692821121624382,-0.9802131884921323,0.029822901591936877,0.1907215010793757,-0.04379507589621244,0.005421919573564082,0.0028506492814561824,7064.49122450012
1684722115817929744,131,1684722115817929744,camera_2,133,0,2.222044094999067,-0.590088085275543,5.69429898886181,-0.9802194416640081,0.029929436802404646,0.19027473128275976,-0.04549287451749604,0.0045255598379299045,0.002382039752585876,7061.117982049471
1684722115824769973,132,1684722115824769973,camera_2,134,0,2.2205691729638817,-0.5897034384901452,5.690521363959656,-0.9802138762417558,0.03007606381172993,0.19043882265682335,-0.044824569532654325,0.0030577608849853277,0.0016069478331815817,7070.450898679905
1684722115831327438,133,1684722115831327438,camera_2,135,0,2.2210298491549456,-0.5898019779914319,5.691728274693701,-0.9801065199431688,0.029820917514060845,0.1910653464385587,-0.04467612151724835,0.0067722732201218605,0.003561368149144961,7064.12550031417
1684722115838041305,134,1684722115838041305,camera_2,136,0,2.220923709848876,-0.589788263610953,5.691415236649942,-0.9800628780862669,0.02988786120643434,0.19137718163006717,-0.044252063241168885,0.00418216991238296,0.002198943695795067,7063.67528885789
1684722115844744920,135,1684722115844744920,camera_2,137,0,2.220871644199972,-0.5897703053951285,5.691258972190254,-0.9800385375075986,0.029995372913863956,0.19155478017714328,-0.04394893394625344,0.003122512018308044,0.0016416085538675902,7063.44485846255
1684722115851309537,136,1684722115851309537,camera_2,138,0,2.220991666580392,-0.5898083701198552,5.691640081202898,-0.9801070326099353,0.029869226540081735,0.19117532578256463,-0.04415912981903902,0.0030699873459525406,0.0016140516450799615,7064.396930526478
1684722115857912063,137,1684722115857912063,camera_2,139,0,2.2206778048610922,-0.5897190245722137,5.6908494466509305,-0.9801006654366236,0.029985842601250125,0.1912882489096339,-0.043730317667112606,0.005779556115157902,0.0030373650473981013,7066.2805178398285
1684722115864605903,138,1684722115864605903,camera_2,140,0,2.2210629819501673,-0.5898077088796023,5.691799818725056,-0.9801076698256173,0.030029786375133042,0.19124697726112064,-0.04372369114961902,0.0036203209892846644,0.0019031942223409993,7064.15206658561
1684722115871354103,139,1684722115871354103,camera_2,141,0,2.2213337259135466,-0.589918936545152,5.692508203601722,-0.9802432437689582,0.029972254807481818,0.1903189608158827,-0.044760922030592655,0.0028059285250492394,0.0014754868657521774,7066.283922778441
1684722115878047466,140,1684722115878047466,camera_2,142,0,2.2219023919625918,-0.5900575772275242,5.694014732199414,-0.9803099487652729,0.029969451192084252,0.190079599263565,-0.044316839811475314,0.004964071558788419,0.0026108707376955357,7064.493300985079
1684722115884653091,141,1684722115884653091,camera_2,143,0,2.220412587338727,-0.5896598386352931,5.690102422372052,-0.9800656030658809,0.029733464743565117,0.19124902067720428,-0.04484581197241233,0.0050887849647551775,0.0026749740123167484,7066.8803497371255
1684722115891568183,142,1684722115891568183,camera_2,144,0,2.220573471139393,-0.5896997928596431,5.690483287060177,-0.979998763880897,0.02991167826898857,0.19163091929567708,-0.04455676228071503,0.004475009453017264,0.002352796291138839,7064.1421291138995
1684722115898322105,143,1684722115898322105,camera_2,145,0,2.220188545173572,-0.589597396543604,5.689506487175799,-0.9799464573040381,0.03027085286260822,0.19200554750284154,-0.04384616302904643,0.002355416538193822,0.0012377883708430762,7065.357985403154
1684722115904778480,144,1684722115904778480,camera_2,146,0,2.2214110079446736,-0.5899200488604419,5.692741047196188,-0.9801387267571643,0.0300372848306677,0.19081508782918205,-0.04489365308802357,0.006970511574763805,0.0036669049834720377,7062.754003117327
1684722115911187648,145,1684722115911187648,camera_2,147,0,2.220946174624902,-0.5898125144601335,5.691510815971327,-0.9801137413706106,0.029929054833705313,0.19116980479022072,-0.043993310738498805,0.004298321029637009,0.002259584761191794,7064.956764687781
1684722115918229103,146,1684722115918229103,camera_2,148,0,2.221337245462023,-0.5898938182035044,5.692467631232498,-0.9801306185018412,0.03002782444123694,0.19093513684877073,-0.04456538960971412,0.004956251010298729,0.002606769450717861,7063.157450739294
1684722115925211429,147,1684722115925211429,camera_2,149,0,2.220129103696269,-0.5895656155402882,5.689317585130324,-0.9800483023908664,0.029781952488996056,0.1916717656432678,-0.04336236319570789,0.005362468655221164,0.002816651687499685,7068.33164349431
1684722115931668996,148,1684722115931668996,camera_2,150,0,2.221242883382221,-0.589886221301344,5.692252733573573,-0.9802327352070623,0.02991054658665021,0.19048756529167704,-0.04431288188120981,0.0033326373668387532,0.001752064527414999,7066.549075151326
1684722115938041687,149,1684722115938041687,camera_2,151,0,2.2211212170498933,-0.5898455532669841,5.691897860399363,-0.9800279960718192,0.030180764601085926,0.19155466014945752,-0.044057468590172226,0.001157419290393591,0.0006086640649098841,7061.716932578009
1684722115944832563,150,1684722115944832563,camera_2,152,0,2.2212600256690562,-0.5899021415566814,5.6923301517314675,-0.9801617872887475,0.02988606904013127,0.19066562622590857,-0.0451255204085106,0.004640567873138934,0.0024409173437379165,7064.297428764172
1684722115951332330,151,1684722115951332330,camera_2,153,0,2.2206816598274015,-0.5897278301680781,5.690812355066209,-0.9800924269999761,0.03002818823221001,0.19126594406314618,-0.04398273627710095,0.003425960021559149,0.0018006344660205984,7066.153479617086
1684722115958315610,152,1684722115958315610,camera_2,154,0,2.221548149448173,-0.5899790857323449,5.693060722039165,-0.9801758645347369,0.030174243240625787,0.19068079501265064,-0.04456034158060533,0.005039464507717639,0.0026507742185946544,7063.140208769588
1684722115964532852,153,1684722115964532852,camera_2,155,0,2.2217717109432913,-0.5900450164671804,5.693668031454569,-0.9802953425861913,0.02993689211373662,0.1899219825895009,-0.04532619908690458,0.005908670136705041,0.0031085742561708716,7064.904371126322
1684722115971660852,154,1684722115971660852,camera_2,156,0,2.220597515983562,-0.589696819752906,5.690616462191208,-0.9800943534277807,0.029912739740461144,0.19108190040725037,-0.04481064289823768,0.007397300621960312,0.0038888529786101985,7066.6120979462285
1684722115977854490,155,1684722115977854490,camera_2,157,0,2.2207470195339747,-0.589760451183786,5.690935116292518,-0.980083147888922,0.03003074942109375,0.19114423586973386,-0.044710830982265,0.0013077771291136742,0.0006875715610680475,7065.572210269748
1684722115984780550,156,1684722115984780550,camera_2,158,0,2.2208431107797972,-0.5897911085812944,5.6912432194605,-0.9800912605674879,0.030039829973812212,0.19108879283757677,-0.044763856248707136,0.003631831903476268,0.0019096739654743307,7065.080255975716
1684722115991292476,157,1684722115991292476,camera_2,159,0,2.221668671392472,-0.5900060128439192,5.69333733897424,-0.9802216278929896,0.030088343180965628,0.19048830456321786,-0.044434869641675784,0.002928229805547744,0.0015401478113995484,7063.695187136297
1684722115997717857,158,1684722115997717857,camera_2,160,0,2.2211737901239577,-0.5898795258722992,5.692064512676733,-0.9801433435783655,0.03011795901537596,0.19094808280873765,-0.04416745697273021,0.0038704777252860367,0.0020350375082519704,7064.606906408211
1684722116004531145,159,1684722116004531145,camera_2,161,0,2.221568954007529,-0.5899886580398417,5.6931385412348545,-0.9801083341719912,0.03002646803155669,0.1910374333065031,-0.04461797373052591,0.002611428324598819,0.0013739068971012987,7060.869939642493
1684722116011131286,160,1684722116011131286,camera_2,162,0,2.221640430803631,-0.5899985003852644,5.693308152979148,-0.980158730311755,0.03008791684756132,0.19075880577003126,-0.044661601791856416,0.004935515869874507,0.0025965297288322933,7061.959516682427
1684722116017865180,161,1684722116017865180,camera_2,163,0,2.2209815204482126,-0.5898100334156352,5.691590825642166,-0.9801125947148972,0.029942394666203374,0.191000963671078,-0.04473685907173558,0.00548012467334047,0.0028817307967184988,7064.746546877547
1684722116024780035,162,1684722116024780035,camera_2,164,0,2.2211563054806813,-0.5898922285576881,5.692059481598318,-0.9800923638417844,0.030189704353519274,0.19104112818813512,-0.04484225050858776,0.00295200856635347,0.0015526954587887977,7063.220446885564
1684722116031216382,163,1684722116031216382,camera_2,165,0,2.2208583407364193,-0.5897521744221869,5.691270364042131,-0.9800360020053475,0.029936607655567344,0.1914815712662132,-0.044362621212834845,0.004726288898382336,0.002485179237911222,7063.312501803736
1684722116038510560,164,1684722116038510560,camera_2,166,0,2.22219982256507,-0.590178608329907,5.694743782874598,-0.9803297156525427,0.030136166129679284,0.18984236653597672,-0.044780977743109525,0.0037172225420363247,0.0019558130969662153,7063.391223128883
1684722116045367240,165,1684722116045367240,camera_2,167,0,2.221330991384619,-0.5899291794686349,5.692565827184531,-0.9802269204961843,0.029824075063490118,0.19053208141981223,-0.04430840587302512,0.003802850202191621,0.0019995132301507314,7065.553712833904
1684722116051374435,166,1684722116051374435,camera_2,168,0,2.2216821242161955,-0.5900027704214448,5.693416571153513,-0.9802112839942196,0.030169856596817517,0.1904344360982053,-0.04483686018545016,0.004841735935769976,0.0025471089394315336,7063.290433678777
1684722116058046579,167,1684722116058046579,camera_2,169,0,2.2204997664505646,-0.5896801259123461,5.690330806551541,-0.9800277612705155,0.030059047774231948,0.19151617567121282,-0.04431247276197784,0.0073057691333815455,0.003840298347261862,7065.503082459093
1684722116064772129,168,1684722116064772129,camera_2,170,0,2.2199934586951833,-0.5895608675962444,5.689113125295302,-0.9799672569258996,0.02994446911463898,0.19173617408192925,-0.0447743639931889,0.0028817934216931462,0.001514636521017868,7066.697009711757
1684722116071424722,169,1684722116071424722,camera_2,171,0,2.221135235570878,-0.589850527598446,5.691909358344563,-0.9801962146669029,0.029972048019480547,0.19065464518726455,-0.04436060593264243,0.005951704690232873,0.003128983990618073,7066.371964619031
1684722116077928781,170,1684722116077928781,camera_2,172,0,2.221198583117137,-0.5898652751225776,5.692131273844172,-0.9801504468390402,0.02987464885915654,0.1909433629073099,-0.0441954644552962,0.0052585581433959305,0.0027649346457875182,7064.428615253419
1684722116084565877,171,1684722116084565877,camera_2,173,0,2.2202665396015377,-0.5896284104621607,5.689722100139262,-0.979932932379772,0.030070173287240126,0.19198957310482428,-0.044353540276781844,0.003958326124120504,0.002080769711886082,7064.267999435773
1684722116091416120,172,1684722116091416120,camera_2,174,0,2.220769861938676,-0.5897617617891485,5.691049169791423,-0.9801269346444191,0.030041695654721316,0.19103300970268267,-0.04421626070416392,0.00394047552254051,0.002071229798146068,7066.584824428894
1684722116098070383,173,1684722116098070383,camera_2,175,0,2.2216062617068806,-0.5900093632727985,5.693234706156336,-0.9800687057539226,0.030130617937798202,0.1912296567253937,-0.044594800741852535,0.00371589238056913,0.0019552331843184206,7059.575940555659
1684722116104712009,174,1684722116104712009,camera_2,176,0,2.220801562405187,-0.5897558520654268,5.691145448972373,-0.9800764027320337,0.030050987290981122,0.19119996519163018,-0.044606684268089974,0.007181648921687156,0.003776067701183644,7064.90098315594
1684722116111354112,175,1684722116111354112,camera_2,177,0,2.2224515335478037,-0.5902050740872588,5.695297099255994,-0.9803375344310449,0.02982181521967337,0.1899904898336441,-0.04418813975984816,0.003958366927690804,0.002082620480419459,7061.93959620246
1684722116117865562,176,1684722116117865562,camera_2,178,0,2.221696167267977,-0.5900198273105901,5.693411281290552,-0.9802037118378705,0.030002196681100872,0.19049014794791708,-0.044878224434021986,0.0050323024042882025,0.0026474535326062544,7062.92373676877
1684722116124650001,177,1684722116124650001,camera_2,179,0,2.2213925666946044,-0.5899545261762,5.692659395049899,-0.9800864040402416,0.03013170120936181,0.19094671269374958,-0.04541006616543047,0.003587949147913605,0.0018880086283632235,7061.514343640301
1684722116131454467,178,1684722116131454467,camera_2,180,0,2.2199516689415337,-0.5895227148204034,5.688966948159314,-0.9799946886949013,0.029950495356250276,0.1916864939760816,-0.04438091915290317,0.005396959430072457,0.0028358546234709013,7067.84625570336
1684722116138283252,179,1684722116138283252,camera_2,181,0,2.22222574429384,-0.5901229667976176,5.694720666764698,-0.980292924477939,0.03007386139742123,0.19002548299171504,-0.04485154281520294,0.0043510738760232925,0.0022895781684556587,7062.308866309231
1684722116145105838,180,1684722116145105838,camera_2,182,0,2.2207538722659663,-0.5897548459568822,5.691015563609337,-0.9800930595088126,0.029925931811228712,0.19121487975202014,-0.044259496939132933,0.003769282135181129,0.001981422357495396,7065.588280547876
1684722116151607036,181,1684722116151607036,camera_2,183,0,2.2201281628117715,-0.5895666648810667,5.68936691367934,-0.9800308729695782,0.029949523152569785,0.19156390785339944,-0.04411103373708637,0.0032279925071634352,0.0016960687080788245,7067.881729166957
1684722116158226490,182,1684722116158226490,camera_2,184,0,2.220260695552803,-0.5896389843301675,5.689762991061571,-0.9799671866374892,0.03021571663005844,0.1917099268838882,-0.04470601208462374,0.00443482311675325,0.0023313738950820947,7065.315236843653
1684722116165081024,183,1684722116165081024,camera_2,185,0,2.2209782798947297,-0.5898009723000425,5.691585287605273,-0.9801363149760043,0.030047772787129376,0.19087358615658795,-0.044690150184528314,0.004368581343442202,0.0022970312668140367,7065.5384818962775
1684722116171691179,184,1684722116171691179,camera_2,186,0,2.2208648276902907,-0.5898079152838215,5.691201632576816,-0.9799446630384363,0.03002822543256695,0.19204901054719217,-0.043862747379763256,0.002249398734420538,0.0011828013678679672,7060.874434519558
1684722116178216457,185,1684722116178216457,camera_2,187,0,2.2212411355644335,-0.589898427382419,5.692216181074406,-0.9800834784443414,0.030239528683002066,0.1910619656204616,-0.044914045450344685,0.0029850530554540455,0.0015702417478973322,7062.602243538013
1684722116184991598,186,1684722116184991598,camera_2,188,0,2.2211274411287265,-0.5898517520474253,5.691936819376734,-0.9801258052729981,0.030119708760362882,0.19081597706978698,-0.04511620415161856,0.004086275584995747,0.0021492498239735563,7064.419029961575
1684722116191783666,187,1684722116191783666,camera_2,189,0,2.220407110087899,-0.5896528935458153,5.690056672541857,-0.979937898998316,0.030170510810987167,0.19190214165150324,-0.044553590357421874,0.0039025760488584638,0.0020518295246833573,7063.666802993048
1684722116198200941,188,1684722116198200941,camera_2,190,0,2.222082896977314,-0.5900963466011774,5.69440470386799,-0.9802572015095949,0.03013672888019472,0.19026130668324837,-0.044589591163878964,0.00574134208727628,0.0030208078842871816,7062.127323408609
1684722116204614639,189,1684722116204614639,camera_2,191,0,2.2211584662773642,-0.5898472156460891,5.691982932503232,-0.9800620161805816,0.03016207886508038,0.1913673642617879,-0.04412737624294233,0.0019039163598790765,0.0010012066352292975,7062.47579430137
1684722116211406230,190,1684722116211406230,camera_2,192,0,2.2210132778120513,-0.5898324271133535,5.691649539415729,-0.980210270587003,0.02997867866368381,0.19048283682365338,-0.044781616060024156,0.004609831958077848,0.0024235730433960685,7067.451946852261
1684722116218405723,191,1684722116218405723,camera_2,193,0,2.219967397885641,-0.5895594639211914,5.688994197164493,-0.9799424415356419,0.030111351602585743,0.1919716058215644,-0.04419298971692844,0.005328620609361678,0.002800150488893645,7066.397661700847
1684722116224742889,192,1684722116224742889,camera_2,194,0,2.2202586318827087,-0.5896305495532793,5.6897386932424485,-0.9798897731717852,0.030274138706664358,0.1921406070831981,-0.04451399856918362,0.003883857512846589,0.0020419714986482157,7063.171961373882
1684722116231446743,193,1684722116231446743,camera_2,195,0,2.221111575438804,-0.5898130395938801,5.691911981334688,-0.9801310889450974,0.03009004846818325,0.1908228936329055,-0.04499178516179333,0.006268069846555591,0.003296599438271845,7064.617541886399
1684722116237992048,194,1684722116237992048,camera_2,196,0,2.2216865958854752,-0.5900021646812422,5.693362349859581,-0.9802199875076195,0.030147262606686816,0.19049050861179925,-0.044421670125108274,0.0034188420977443457,0.001798212034954104,7063.632007278271
1684722116244609832,195,1684722116244609832,camera_2,197,0,2.2211391749006313,-0.5898434733229396,5.691997569138901,-0.9802298906748468,0.029947280223537376,0.19039201611795975,-0.04475937927775255,0.005823125131428242,0.0030616532693815094,7067.143313506853
1684722116251143455,196,1684722116251143455,camera_2,198,0,2.222554761492537,-0.5902291246196998,5.695616512116044,-0.9801880333645309,0.03005208059751991,0.1906777754127259,-0.044387809862482704,0.0040940853068605065,0.002155221263903338,7057.049631789325
1684722116257902860,197,1684722116257902860,camera_2,199,0,2.220866156742914,-0.5898073539396617,5.691316096784922,-0.9801135551385083,0.03015610766542335,0.19100022205620726,-0.044575143058719326,0.005145161005202681,0.0027051555149115057,7065.64694511611
1684722116264580726,198,1684722116264580726,camera_2,200,0,2.2209631831886987,-0.5898031799138279,5.691490767813607,-0.9801680793350258,0.030117463752949207,0.19073535243469517,-0.044536501449812846,0.0029607436154037714,0.0015565117530504245,7066.7372695882805
1684722116271319389,199,1684722116271319389,camera_2,201,0,2.2202489766443567,-0.5895982837078724,5.689684042320748,-0.9799857620373146,0.02983912333860061,0.19173560157638952,-0.04444088219947279,0.0033799431403167546,0.0017765240836203568,7065.694998190273
1684722116277645111,200,1684722116277645111,camera_2,202,0,2.2203272664401394,-0.5896320938776085,5.68989592759176,-0.9800098132898956,0.03011228204199723,0.1916420505305505,-0.04412868448269395,0.004284355614800006,0.002251667083816225,7066.108831272926
1684722116284499645,201,1684722116284499645,camera_2,203,0,2.2207008746301486,-0.5897574508544822,5.690801251973486,-0.9800030757423095,0.030114688338080908,0.19146496040445218,-0.045036052438407304,0.004950479895342142,0.0026035043039745295,7063.657881258985
1684722116291142225,202,1684722116291142225,camera_2,204,0,2.221030195440254,-0.5898283405998779,5.691738197132604,-0.9801407064861697,0.02997306025582968,0.1908837151802149,-0.0446006550029402,0.00679882790427655,0.003574935457503854,7065.229114936663
1684722116298118114,203,1684722116298118114,camera_2,205,0,2.220356269708229,-0.5896527898280817,5.690001387224023,-0.9799546179083197,0.03019395653540529,0.1918357871707335,-0.04445562494760385,0.003829923691228032,0.002013425954230697,7064.334432418458
1684722116304734706,204,1684722116304734706,camera_2,206,0,2.219738455145306,-0.5894972102912963,5.688414833306217,-0.9800041968912595,0.02979214248507378,0.19158248487839644,-0.044725315085370275,0.004939904203638434,0.0025954551879182612,7069.34932597447
1684722116311475753,205,1684722116311475753,camera_2,207,0,2.2209251915736643,-0.5897784261425947,5.6913412592870545,-0.9800656163113034,0.030003940906219616,0.19122841897928633,-0.04475313429385443,0.003976232430431992,0.002090979847221497,7064.0196903017295
1684722116318182468,206,1684722116318182468,camera_2,208,0,2.220652016647163,-0.589731707230027,5.690747071900963,-0.9800667115972675,0.030171595312568723,0.1912361710342715,-0.044582984908637116,0.003933227446395904,0.002067783646432982,7065.714055394757
1684722116324958562,207,1684722116324958562,camera_2,209,0,2.220944261418768,-0.5897758133592209,5.691456686253827,-0.9801212985474381,0.030084860408978453,0.19111534892427537,-0.04395525808601862,0.004994407121557742,0.002625379649775124,7065.435195405036
1684722116331241369,208,1684722116331241369,camera_2,210,0,2.2214426057792083,-0.5899390446223917,5.6927889531952225,-0.9801981670421245,0.030127000728477408,0.19057232548761888,-0.04456574819978689,0.0071318671689368784,0.0037508457545043384,7064.418741272763
1684722116338317871,209,1684722116338317871,camera_2,211,0,2.2219470704978677,-0.5900673308467435,5.694035450776158,-0.9802269363345277,0.03005262387829346,0.19064097941886826,-0.043680774357494144,0.005182540335226804,0.002725748757207275,7062.071987339759
1684722116344878435,210,1684722116344878435,camera_2,212,0,2.221828662403741,-0.5900368062527563,5.693694594151532,-0.9802507380104011,0.030086600624125586,0.19044111849309217,-0.043993948220733,0.004350477654952556,0.002287964965192325,7063.620564540852
1684722116351506710,211,1684722116351506710,camera_2,213,0,2.220527646151138,-0.5897091088381365,5.690398037158075,-0.980013268954971,0.030036196155442032,0.19149862898551787,-0.04472241819681096,0.0055885082692839205,0.0029382217887514825,7064.896929302022
1684722116358519792,212,1684722116358519792,camera_2,214,0,2.2213489428797977,-0.5898792195232735,5.692501110370145,-0.9801180164536071,0.029932685593495486,0.19116431640786213,-0.043919383972483746,0.004617313446942717,0.002428032862994005,7062.621075259985
1684722116364747762,213,1684722116364747762,camera_2,215,0,2.220648525130248,-0.5897301211070846,5.6907145333989035,-0.9800879539136016,0.02993141543631073,0.19122307938426894,-0.04433336073688326,0.003084181866142899,0.0016211728148341103,7066.181676917475
1684722116371199369,214,1684722116371199369,camera_2,216,0,2.220756690526,-0.5897342167059415,5.690977269346413,-0.9800322447936005,0.0298738548499273,0.1915841377335862,-0.04404395679432425,0.005579374090302736,0.0029331470694146555,7063.859746876637
1684722116378449678,215,1684722116378449678,camera_2,217,0,2.2208218628853533,-0.5897826029803349,5.691081925188101,-0.9800694207252211,0.030008287599768167,0.19141423860552748,-0.0438636808045733,0.001399349421262741,0.0007355541191523258,7064.766514900375
1684722116385094881,216,1684722116385094881,camera_2,218,0,2.2212814551864577,-0.589867495917411,5.6923694970491345,-0.9801907401910395,0.02986134654392274,0.19088146205025042,-0.04357384848604522,0.002573321806266904,0.001352697149021763,7064.996572373666
1684722116391419172,217,1684722116391419172,camera_2,219,0,2.221441381393811,-0.5899333760595756,5.692713335331833,-0.9801165885280989,0.0303608434403889,0.1909332793483698,-0.04465618562872215,0.006706371495965868,0.003527814916525837,7062.433175135404
1684722116397816181,218,1684722116397816181,camera_2,220,0,2.220675594277025,-0.589735960308339,5.690792868388034,-0.9801425706402187,0.02991591850024882,0.1909612343766803,-0.044264952325794964,0.0027844529831781983,0.0014634216228375004,7067.561184079386
1684722116404723167,219,1684722116404723167,camera_2,221,0,2.2206504788236474,-0.5897319409883758,5.690734493676207,-0.9799354620139145,0.03012079778401903,0.1919008383857455,-0.044646344254351704,0.007596600858960301,0.003995160129207967,7061.890642589889
1684722116411339759,220,1684722116411339759,camera_2,222,0,2.2206517716378444,-0.5897184214101979,5.690685845682617,-0.9800383024981754,0.029933309071327,0.19152005002501032,-0.04414740176899552,0.00589832296827808,0.003100581829095328,7064.803986943795
1684722116417859315,221,1684722116417859315,camera_2,223,0,2.2206018581180182,-0.5897001160813811,5.6905440109043655,-0.9800935286311327,0.02988627716307473,0.1912360120868622,-0.04418453636534591,0.004865214577876031,0.002557049753834308,7066.7082888330315
1684722116424669981,222,1684722116424669981,camera_2,224,0,2.2203895199739754,-0.5896438016588047,5.690024012963935,-0.9799809435647209,0.02975259643954779,0.19170666161366665,-0.04472906379579227,0.0048583210445940495,0.0025541906432452956,7064.627595279364
1684722116431055784,223,1684722116431055784,camera_2,225,0,2.220890141046266,-0.589782176300469,5.691348650232924,-0.9801096378354149,0.030061112790989348,0.1911092821994753,-0.044256859096646575,0.0036148217623122036,0.001900364764351959,7065.35859240149
1684722116437958717,224,1684722116437958717,camera_2,226,0,2.221065988381988,-0.5898258175412799,5.691841276560617,-0.980170356679669,0.02991641072392825,0.19084558085551867,-0.04414798436811585,0.005219832819420844,0.00274410068755052,7065.780992736337
1684722116444485187,225,1684722116444485187,camera_2,227,0,2.220738659488733,-0.5897334218393756,5.690884478948588,-0.9801025462962153,0.02995340327589465,0.19124150489504393,-0.04391445298925864,0.003925258992239833,0.0020630166972979503,7066.17622856679
1684722116451309204,226,1684722116451309204,camera_2,228,0,2.2204079454472376,-0.589636851631367,5.690070058205878,-0.9799579831598979,0.02993987627134634,0.19195289226765025,-0.04404591014073399,0.0036898227990604937,0.0019395190940768173,7064.008654405596
1684722116458060264,227,1684722116458060264,camera_2,229,0,2.22150637419195,-0.5899557033732616,5.692904901278659,-0.9802652690418334,0.03009042974598411,0.1901728915140301,-0.0448200812274703,0.0028849763330072165,0.0015172145892419424,7066.030914134344
1684722116464517354,228,1684722116464517354,camera_2,230,0,2.2204150226281176,-0.589642835584842,5.690068142433003,-0.9800257636498052,0.029925928702870086,0.1915512765436107,-0.044295031644642886,0.0037743557477369905,0.0019837960185930727,7065.96751665324
1684722116471363544,229,1684722116471363544,camera_2,231,0,2.2206568209750257,-0.5897110619272625,5.690676495319934,-0.9799476953183414,0.029938386225111885,0.19187647747427844,-0.04460521115934933,0.005852052301634103,0.0030774690180658715,7062.205369393572
1684722116477732181,230,1684722116477732181,camera_2,232,0,2.220823635420481,-0.5897684707431635,5.691160657775276,-0.9801650561059934,0.030004047173017072,0.19067539232150577,-0.044934560251706196,0.004119491262827069,0.0021657730792491656,7067.381001158848
1684722116484840393,231,1684722116484840393,camera_2,233,0,2.221060733600325,-0.5898305407384278,5.691702337449005,-0.9800318509905184,0.03008220952850899,0.1913255165755026,-0.045024198172743404,0.0032177081448026,0.0016926181445747065,7062.22538808826
1684722116491258144,232,1684722116491258144,camera_2,234,0,2.2217338026879574,-0.5899753827243157,5.693447964755102,-0.9802150518403415,0.029866558618095205,0.19058379904711423,-0.04431993188981325,0.0059929502895101905,0.0031521751926079835,7063.016382703326
1684722116497963666,233,1684722116497963666,camera_2,235,0,2.221546475679933,-0.5899343465052771,5.693024580907508,-0.9801569714233755,0.029950449309334676,0.1906034294457246,-0.04544903343145842,0.0050158785306848586,0.0026393170844627376,7062.489401106723
1684722116504778861,234,1684722116504778861,camera_2,236,0,2.2213267886086148,-0.5898722598963285,5.692436753664602,-0.980078071299887,0.030121568318126894,0.19110891323008003,-0.044911563802297085,0.004120365018025041,0.0021676596506463395,7061.798937221987
1684722116511346101,235,1684722116511346101,camera_2,237,0,2.2215453804321936,-0.58993184775686,5.693011223004972,-0.9802457470655702,0.02982707983800834,0.19044190790940982,-0.04427753809803607,0.002036192046944052,0.0010707155400551652,7064.968334380537
1684722116517863512,236,1684722116517863512,camera_2,238,0,2.221669685765395,-0.5899607360354945,5.6933318047048225,-0.980257250436647,0.030102090707947744,0.19041797485091033,-0.04393838817109058,0.003696862724609673,0.0019438944804833107,7064.751109514386
1684722116524825572,237,1684722116524825572,camera_2,239,0,2.2220498106881656,-0.590095535015061,5.694272929346553,-0.9801943456563854,0.030050849234736728,0.1908030542107237,-0.04370567134115757,0.0047769054071977735,0.0025128440600792933,7060.530650938861
1684722116531376600,238,1684722116531376600,camera_2,240,0,2.2225176980956896,-0.5902245571735873,5.695461822233939,-0.9803819392475396,0.029987756991894723,0.18962246434828714,-0.044668877782088494,0.00380590494023636,0.0020026383163060982,7062.968881331619
1684722116537806749,239,1684722116537806749,camera_2,241,0,2.22168827954985,-0.5899395183699401,5.693335832862599,-0.9801931822616554,0.029673415412873445,0.19078605034861273,-0.04406242001843373,0.0053071025758981705,0.0027912087869425423,7062.49177939445
1684722116544649362,240,1684722116544649362,camera_2,242,0,2.220753874611557,-0.5897523812611412,5.690958064828974,-0.9799654284745,0.030022079588030316,0.1918502812858597,-0.04427079514235203,0.003324389923363924,0.0017480880416486362,7062.09876811714
1684722116551262617,241,1684722116551262617,camera_2,243,0,2.2214560123760356,-0.5899042636868953,5.6927452808242345,-0.9800398692141626,0.030140299034280237,0.19151856223284955,-0.043977919972109446,0.0018615915905684233,0.0009792118177643803,7059.923679835163
1684722116558096647,242,1684722116558096647,camera_2,244,0,2.2218823735921176,-0.5899960890202389,5.693838920519699,-0.9802571590823335,0.03001605950451518,0.1904423442882086,-0.043893641244100313,0.006341376341879368,0.003335022172191397,7063.401517011457
1684722116564608812,243,1684722116564608812,camera_2,245,0,2.2223830439927297,-0.5901388409975121,5.695099248453321,-0.9802902415124305,0.029884757299616514,0.19031105333814843,-0.04381377242338632,0.00269391160691157,0.0014172193886225065,7061.110594425585
1684722116571452617,244,1684722116571452617,camera_2,246,0,2.220895855109666,-0.5897520356801887,5.691307102193655,-0.9800970930809475,0.029920259957085638,0.19121536312519927,-0.044171835860365195,0.006530606478918344,0.0034332293221070484,7064.955351219511
1684722116578033685,245,1684722116578033685,camera_2,247,0,2.221480886946291,-0.5899615923509964,5.692893173432694,-0.9802709488424614,0.030102460794695585,0.19010751196717113,-0.04496490412817662,0.00324763054959476,0.0017079916251413238,7066.253441136794
1684722116584706306,246,1684722116584706306,camera_2,248,0,2.2210934377043023,-0.589819160064515,5.691840033501465,-0.9801786224149798,0.03003115528566469,0.1907263971952738,-0.044400892849037116,0.0035365031217224896,0.0018592868968174742,7066.106815358857
