%time,field.header.seq,field.header.stamp,field.header.frame_id,field.image_seq,field.transforms0.fiducial_id,field.transforms0.transform.translation.x,field.transforms0.transform.translation.y,field.transforms0.transform.translation.z,field.transforms0.transform.rotation.x,field.transforms0.transform.rotation.y,field.transforms0.transform.rotation.z,field.transforms0.transform.rotation.w,field.transforms0.image_error,field.transforms0.object_error,field.transforms0.fiducial_area
1684315551976564645,30,1684315551976564645,camera_1,35,0,0.8107292230709273,0.6988920307478494,6.694518646363462,0.99452633895968,-0.06367977362005345,-0.04691804506844738,-0.06827111097755567,0.04242932373017538,0.027323533247564355,5500.973294326862
1684315551983100652,31,1684315551983100652,camera_1,36,0,0.8110092656586172,0.6981485465479398,6.697668925030251,0.9947772408866619,-0.06336988647441393,-0.051090252843339484,-0.06158152780293629,0.03853483943385072,0.024845635411828368,5498.047760090558
1684315551989893436,32,1684315551989893436,camera_1,37,0,0.8100101285646468,0.6952314047640995,6.6906575503650405,0.9943730667791179,-0.06352037511943412,-0.05364158037419321,-0.0656501855590466,0.024043863697443157,0.015469911609655442,5500.715184951205
1684315551996385574,33,1684315551996385574,camera_1,38,0,0.8108209341638822,0.6948401923209216,6.697658400856231,0.9944892066408435,-0.0633467404136321,-0.0499544905219181,-0.06695488951920862,0.04198073269799352,0.027064627705565544,5492.476335735991
1684315552003222942,34,1684315552003222942,camera_1,39,0,0.8108174238209448,0.693690701910391,6.698381750332082,0.9947979067479111,-0.06306072560757721,-0.04966822485464323,-0.06271791654390972,0.04839519943925552,0.03121063855792437,5496.441604640624
1684315552009736776,35,1684315552009736776,camera_1,40,0,0.8103151136932327,0.6910277033476256,6.695632440242864,0.9945586631678126,-0.06272304369082368,-0.055820244818291155,-0.06166835149765863,0.04596841279999353,0.029630404229296543,5492.834329147997
1684315552016572237,36,1684315552016572237,camera_1,41,0,0.8105802955228959,0.6899593265380813,6.6991884735327405,0.9944800833312867,-0.06592464533785902,0.06507499991883986,0.04928031432567823,0.057559122462407686,0.03712503428312452,5491.006299607689
1684315552023250579,37,1684315552023250579,camera_1,42,0,0.8097857714310643,0.6881288897312432,6.69250873794739,0.9942756877813873,-0.06328324678819278,-0.04991784693155921,-0.07013769258046199,0.04850053555855993,0.031221421468135977,5495.487586582663
1684315552029833316,38,1684315552029833316,camera_1,43,0,0.8095742359417003,0.6854550546298679,6.6923448241325785,0.994478885731563,-0.06314855308072444,-0.05040536400018961,-0.06695748918476925,0.05378733613179065,0.03462856590494601,5498.47307222814
1684315552036540269,39,1684315552036540269,camera_1,44,0,0.8101417474764812,0.6848104498424799,6.69792345532073,0.994628567858434,-0.06256373938900264,-0.05019229287630736,-0.06542571550517823,0.04945303780550603,0.031894675898059,5491.156856564513
1684315552043199539,40,1684315552043199539,camera_1,45,0,0.809310449011193,0.6825942552106734,6.69254473216847,0.9942896696674248,-0.06583278720821945,0.06677705532005301,0.05094037498706718,0.03478759866266046,0.02239605493303808,5494.665565334201
1684315552049762487,41,1684315552049762487,camera_1,46,0,0.8091837152934102,0.6799597730566322,6.692628851474816,0.9940048299060789,-0.06298186348997749,-0.04451506828303984,-0.0774989786414855,0.05022660407121293,0.03233749446377627,5490.233208602644
1684315552056461572,42,1684315552056461572,camera_1,47,0,0.8092150736567609,0.6786414550744184,6.69404827842853,0.9944537554968221,-0.06350730810780769,-0.045695467663292876,-0.07028850709895516,0.04128509126894641,0.026593033365148393,5496.011367240047
1684315552063037872,43,1684315552063037872,camera_1,48,0,0.8094977806942768,0.6775639878370842,6.697846731280803,0.9948918113411066,-0.06587728888164626,0.05805958139817616,0.04979509558063502,0.04733791574835777,0.030529791722632302,5495.038417327216
1684315552069816589,44,1684315552069816589,camera_1,49,0,0.8093714905389091,0.6746403071616301,6.6972960878260634,0.9945999438698929,-0.06346223677742101,-0.04870114481925845,-0.0661187919619383,0.05985390898422338,0.03859958573380831,5490.775746998437
1684315552076464891,45,1684315552076464891,camera_1,50,0,0.80941078323379,0.6732647997456301,6.69843332678025,0.9945566331562525,-0.06301105099319539,-0.04648707655597759,-0.06874345504054187,0.06994707552075852,0.04512316728680061,5488.177290651365
1684315552082959413,46,1684315552082959413,camera_1,51,0,0.8093994391807622,0.6718365687765595,6.699320794916018,0.9944687015553947,-0.06273819871554635,-0.046898740841019325,-0.06997448217874198,0.06296089565148577,0.04063078271252238,5484.24157568661
1684315552089928865,47,1684315552089928865,camera_1,52,0,0.808580926054982,0.6683020437434196,6.69483587927729,0.9945180754287555,-0.06226579881155652,-0.05676428204062511,-0.061924019800522305,0.06176540239539463,0.03982778162482899,5486.462129054592
1684315552096338510,48,1684315552096338510,camera_1,53,0,0.808206147992919,0.666666250972153,6.692493656675748,0.9942771496702463,-0.06266690135095866,-0.05389053284748619,-0.06768766200788667,0.05932785618642811,0.03821845933149576,5487.528638848626
1684315552103036165,49,1684315552103036165,camera_1,54,0,0.8085497023866013,0.6655021656874267,6.697336475120775,0.9942703785910547,-0.06617943232449094,0.07168242910282575,0.04368439482844117,0.050355940009467304,0.03248578445503152,5482.207128399226
1684315552109907865,50,1684315552109907865,camera_1,55,0,0.8084279215020487,0.6626294030956225,6.697274848029615,0.9941965027268808,-0.06319644737442429,-0.04940740003441832,-0.07168285587732993,0.03692642536771018,0.023818853154050936,5479.757967828831
1684315552116582393,51,1684315552116582393,camera_1,56,0,0.8081094032129718,0.6607475732845328,6.695394543607866,0.9943500058927023,-0.06303419073879771,-0.05394830793059893,-0.06621432360534281,0.0527073089760961,0.03398998398927678,5482.717043284792
1684315552122985363,52,1684315552122985363,camera_1,57,0,0.8085983105569788,0.6598087733673101,6.700393899101919,0.9944835588536762,-0.06277930333583302,-0.04906665546128044,-0.06821783904696975,0.05950743571156636,0.03842677489385076,5478.518070556223
1684315552129737377,53,1684315552129737377,camera_1,58,0,0.8081152779069101,0.656487846076162,6.698472259387579,0.9944177093989731,-0.06326708075688615,-0.041961391974107684,-0.07327985609836021,0.04091243428410962,0.02640181524299021,5483.35049374687
1684315552136317729,54,1684315552136317729,camera_1,59,0,0.807673089391044,0.6547176598803288,6.695089856560593,0.994396400612277,-0.06318161915942827,-0.04714682458524326,-0.0704347810479259,0.04077736196995829,0.02629082116074359,5485.686316408626
1684315552142967700,55,1684315552142967700,camera_1,60,0,0.8079653089878298,0.6534052170637328,6.698324730439521,0.9944225231818364,-0.06299204370505321,-0.0463615194657345,-0.07075632361392763,0.054104699524032185,0.034917190743910385,5480.702916660985
1684315552149815797,56,1684315552149815797,camera_1,61,0,0.8072744329647985,0.6501359856249203,6.6941826427829945,0.9940245264252437,-0.06262448092713671,-0.04932107328242649,-0.07457108678265582,0.05799075952745625,0.03738186752518929,5477.6097598986225
1684315552156310558,57,1684315552156310558,camera_1,62,0,0.8075785247812998,0.6488729489884948,6.69740866047981,0.9943566672809191,-0.06239628260232419,-0.05160961833821621,-0.06854173506979805,0.07669680517938104,0.04950013519648748,5476.348554632279
1684315552162933588,58,1684315552162933588,camera_1,63,0,0.8073737795857577,0.6475256453412992,6.696834973116826,0.9942825675130402,-0.06258092374175765,-0.05080536839525413,-0.07003298126973942,0.05592784566397313,0.03608769956225196,5476.252906206062
1684315552169630289,59,1684315552169630289,camera_1,64,0,0.8069234161141405,0.6456033931746671,6.694039224380114,0.9944956662323912,-0.06262271032854275,-0.05244755842403862,-0.06562026829766152,0.07346787934147869,0.04737771400729457,5483.232676526472
1684315552176421403,60,1684315552176421403,camera_1,65,0,0.8067181645888615,0.6428660364019666,6.695221272504194,0.9943823596150816,-0.0652908005953583,0.07317882961876795,0.03982076266958126,0.061382074403809384,0.039600281176367574,5477.883794062422
1684315552183250188,61,1684315552183250188,camera_1,66,0,0.8067362892294131,0.6414359720063398,6.69584783978467,0.9943147384416068,-0.06575253620160176,0.06812052610320989,0.04872780340091444,0.073437454750092,0.047375563119504326,5471.07359999398
1684315552189854860,62,1684315552189854860,camera_1,67,0,0.8064926824009171,0.638700647590041,6.695772078571589,0.9945921673815863,-0.0659906014508071,0.060784693542960004,0.05231521895441009,0.06613835475945962,0.0426700441568917,5473.311237911958
1684315552196609735,63,1684315552196609735,camera_1,68,0,0.8067967120191892,0.6378167220805473,6.698039213297385,0.9943545070313207,-0.06309602277733066,-0.045915762334721825,-0.07190096679046525,0.06814397633206681,0.043992054851600175,5475.484561589141
1684315552203346014,64,1684315552203346014,camera_1,69,0,0.8067803955946897,0.6365836852631057,6.699125740949913,0.9945439724684468,-0.06260652559451425,-0.04614016995292892,-0.06952549529762263,0.06395349767262815,0.04130193296681357,5475.950190613453
1684315552209835052,65,1684315552209835052,camera_1,70,0,0.8058308694209566,0.634525207000321,6.693122204963932,0.9944504659031218,-0.0656862566007338,0.06842942517659366,0.04550824462498344,0.07179606735371635,0.0462889888368419,5476.328625346301
1684315552216423749,66,1684315552216423749,camera_1,71,0,0.8063002964969608,0.6324986076348385,6.697693649050145,0.9946791969069363,-0.06558391096935004,0.0607641654309856,0.05118361126388284,0.047679534709459404,0.03078339850661998,5468.679312530731
1684315552223083257,67,1684315552223083257,camera_1,72,0,0.8056208721003675,0.6308085059943787,6.69284960469919,0.9943772807425073,-0.06623037054504972,0.07256572203104927,0.03951680081578733,0.07135426143213408,0.046014157815731635,5477.197494589664
1684315552229656219,68,1684315552229656219,camera_1,73,0,0.8060759441366196,0.6301902927174252,6.696922403103598,0.9945445244152104,-0.06565754696713738,0.06711888271210188,0.045445913627744444,0.05146958242767141,0.03322272895674088,5469.521547313373
1684315552236502408,69,1684315552236502408,camera_1,74,0,0.8060738272550957,0.6281138698285584,6.698433560248931,0.9945863677033077,-0.06605051595122904,0.06717509378915681,0.04384966699685736,0.04878858633310301,0.031508932905003936,5468.01664130483
1684315552249758243,70,1684315552249758243,camera_1,76,0,0.8055542943645384,0.625703316578851,6.69549677162209,0.9945768449296886,-0.06588744690068699,0.06528195324049306,0.04705327248684806,0.0724050560129399,0.046720938383000066,5469.698341111303
1684315552256412267,71,1684315552256412267,camera_1,77,0,0.8056015708408644,0.6237542653237996,6.697583509452574,0.994435296577426,-0.0656563331156787,0.07089542236820362,0.04197053645122933,0.08620103638168075,0.05567182331971146,5464.972598395223
1684315552262933015,72,1684315552262933015,camera_1,78,0,0.8062064944024853,0.6234675291512471,6.7017197572358285,0.9943155034573572,-0.06299782652683117,-0.04718127972658897,-0.0717069053899201,0.06500838029751321,0.04202854084200483,5463.616489444481
1684315552269661664,73,1684315552269661664,camera_1,79,0,0.8053928666818663,0.6219017693485956,6.6966289060712,0.994445898641753,-0.06549931564152778,0.06987948699491159,0.04363543998192158,0.05776894063819782,0.03729695925119,5464.829313788272
1684315552276417255,74,1684315552276417255,camera_1,80,0,0.8057810371149434,0.6206744719084838,6.700845005861482,0.9946684558182377,-0.06572741075454086,0.06848652897952814,0.04030094073346802,0.058626296031434315,0.037900949675922065,5463.253823217035
1684315552283243179,75,1684315552283243179,camera_1,81,0,0.8054642507174882,0.6196421796487107,6.698634643993084,0.9944525432626607,-0.06578355986324498,0.06896026726400638,0.04451004368703482,0.06973305475912639,0.04504888300321856,5460.350338230319
1684315552289621591,76,1684315552289621591,camera_1,82,0,0.8153810861896474,0.626623496702156,6.780517817577938,0.9974528912528897,-0.06359318281778142,-0.015830277935563984,-0.02816095046048638,0.2910835345828673,0.19022429124175097,5462.592340877396
1684315552296149492,77,1684315552296149492,camera_1,83,0,0.8051094157758902,0.6175002442336002,6.69664130612455,0.9945177485892083,-0.06638556593697147,0.06388719572724028,0.049455339432561626,0.052682890880532796,0.034014038634851154,5461.839615035804
1684315552302856206,78,1684315552302856206,camera_1,84,0,0.8052759688442853,0.6171650625186544,6.698724259682004,0.994575508066037,-0.06569596835246476,0.06737160149773022,0.04432455086120232,0.06630266618230962,0.042835077146802576,5461.245318978034
1684315552309642076,79,1684315552309642076,camera_1,85,0,0.8051068444273973,0.6164613815217552,6.697743763368844,0.9945693478763423,-0.06545528341253508,0.06983483220696893,0.04087192616988683,0.06112214870881871,0.03948123811357526,5463.956212072402
1684315552316566228,80,1684315552316566228,camera_1,86,0,0.8051779152592234,0.6155838768076797,6.698515198894318,0.9947726128749426,-0.06606685519961197,0.06040599969188282,0.0491297722284296,0.06191496654719231,0.039999158740898585,5462.1665708757955
1684315552323009490,81,1684315552323009490,camera_1,87,0,0.8055544176368215,0.6155199973217735,6.702167547983803,0.9947257192851122,-0.06542722862191755,0.06700026413717386,0.04184478167132055,0.0875190237275092,0.056604599515764784,5458.417853158114
1684315552329791307,82,1684315552329791307,camera_1,88,0,0.8041855776113185,0.6140635038224854,6.690370480874835,0.9943912023341253,-0.06601471865088888,0.06935239379134715,0.04492704216111371,0.07040972769755172,0.04537563175221767,5470.380882821363
1684315552336504936,83,1684315552336504936,camera_1,89,0,0.804420187399755,0.6137330612094298,6.693408067035692,0.99430822113765,-0.06548346314581652,0.07235598932669797,0.042751470630458886,0.05905322006219649,0.03809715563878091,5464.098863324267
1684315552343103885,84,1684315552343103885,camera_1,90,0,0.8042152401162896,0.6132912541857972,6.691144911498948,0.9944413092147132,-0.06562236680012294,0.06847079000373699,0.04573771331343022,0.06302748979214812,0.04062975790785415,5468.699252497025
1684315552349924802,85,1684315552349924802,camera_1,91,0,0.8047271118811238,0.6135511135816982,6.695766873850622,0.9944173635120224,-0.06599422329154199,0.0689797730259554,0.04495175804384467,0.0774425900017377,0.04999391646230682,5461.481204466691
1684315552356510400,86,1684315552356510400,camera_1,92,0,0.8050397909147826,0.6136573228295411,6.698542358208115,0.9947184209521867,-0.06637684718452577,0.06076712418265194,0.04936328387375345,0.04709595120220911,0.030428001240779507,5460.395120745816
1684315552363109827,87,1684315552363109827,camera_1,93,0,0.8050397909147826,0.6136573228295411,6.698542358208115,0.9947184209521867,-0.06637684718452577,0.06076712418265194,0.04936328387375345,0.04709595120220911,0.030428001240779507,5460.395120745816
1684315552369737386,88,1684315552369737386,camera_1,94,0,0.8047251861953778,0.6135048882400119,6.695730677254544,0.9946692242050055,-0.06626168697204893,0.06202778028984676,0.048939531376437605,0.04817837124937796,0.031100168557221024,5464.255990263219
1684315552376549720,89,1684315552376549720,camera_1,95,0,0.8044964717444315,0.6134640589395315,6.694100624772101,0.9946004408752572,-0.06546619587082304,0.06627584572373801,0.04573458737706439,0.06999173966323724,0.04515832678706525,5466.5871214245
1684315552383067369,90,1684315552383067369,camera_1,96,0,0.804820503739746,0.6138714249099037,6.696503494278976,0.9945526719818262,-0.06613975433701848,0.06771333453775506,0.04365111540186564,0.0635341765191697,0.04102273613915395,5463.790099933048
1684315552389803886,91,1684315552389803886,camera_1,97,0,0.8047609780547809,0.6140565862457856,6.696517630596422,0.9948599674969558,-0.065384908793011,0.06393213885420457,0.043487244056300924,0.07196163526168677,0.0464642774381764,5468.696068794935
1684315552396263837,92,1684315552396263837,camera_1,98,0,0.8048562689576797,0.6146849247669828,6.69631327214322,0.9946292081846054,-0.06603252412920235,0.06607162691000334,0.044575599835072685,0.07029460209741956,0.045381770555263275,5465.307098791269
1684315552402899265,93,1684315552402899265,camera_1,99,0,0.8038706961379685,0.61431324353554,6.687642147257429,0.9942366541233769,-0.06634057690842778,0.0653127000585655,0.05316629255523959,0.0509293707946199,0.03279423140295972,5468.063822101221
1684315552409696102,94,1684315552409696102,camera_1,100,0,0.8052446209985679,0.6158224009083098,6.699172297315207,0.9948286496140466,-0.06608410243000379,0.06198315494901932,0.04590139230654249,0.0608603763685096,0.03932224752027455,5464.590675318905
1684315552416551828,95,1684315552416551828,camera_1,101,0,0.8048461356691289,0.6164242542600883,6.695478155145382,0.9945870284787015,-0.06595759737580727,0.06425566676733618,0.04813987347929825,0.05090752184696612,0.03285654516454258,5464.766136395745
1684315552423020362,96,1684315552423020362,camera_1,102,0,0.8052319303802489,0.6171784082090559,6.698817230473536,0.994629668219961,-0.06538019350427975,0.06720365350508518,0.04382832816297625,0.07448882672179025,0.0481280126137533,5461.976125781657
1684315552429826498,97,1684315552429826498,camera_1,103,0,0.8055342794874634,0.6180385026341122,6.700738754609563,0.994682260416627,-0.0654462429627785,0.06359054213802064,0.047751785779373015,0.05259937224400346,0.03400184608261881,5458.106742210686
1684315552436466693,98,1684315552436466693,camera_1,104,0,0.8050055645989475,0.6188570991602648,6.695276484159581,0.99440423725359,-0.06596564218970097,0.07058775106685965,0.0427330829911611,0.059290509387210484,0.038265329202787225,5465.86854604946
1684315552442840337,99,1684315552442840337,camera_1,105,0,0.805737218770926,0.6201862572779506,6.7009025976847525,0.9948337398277208,-0.06599882608281077,0.06401237673840683,0.043039524630066134,0.05582233757377253,0.03608475409908238,5464.853796390382
1684315552449637651,100,1684315552449637651,camera_1,106,0,0.8059382906842627,0.6210859610351817,6.702746917731888,0.9946332266858894,-0.06535030744808258,0.06774805128466815,0.042945118884310116,0.05455822324802284,0.03528876402048392,5457.841241600312
1684315552456427335,101,1684315552456427335,camera_1,107,0,0.8054949592352976,0.6222512666077401,6.697319828438046,0.9945208925316141,-0.06563161777200108,0.06887732020920385,0.043319739467712656,0.07124506026229938,0.04600705054141444,5465.5391408121195
1684315552463145732,102,1684315552463145732,camera_1,108,0,0.8055252962680101,0.6230699973819274,6.697108996971249,0.9945112514603797,-0.06609009164463595,0.06802825882685644,0.044177217047925606,0.0829466769391729,0.053555520233891304,5466.231696053728
1684315552469630956,103,1684315552469630956,camera_1,109,0,0.8054673127451486,0.6240280727690672,6.696388976907847,0.9946484334553168,-0.06601045093558046,0.06835831878801392,0.04054940745117663,0.06476514774840324,0.041809613125027976,5472.226860269409
1684315552476483345,104,1684315552476483345,camera_1,110,0,0.8057929823144937,0.6262009284834198,6.697849399626412,0.9944870525551216,-0.0654518650190819,0.06673259826284715,0.04752174233800892,0.072133399786253,0.046580500614366804,5463.589288025773
1684315552483298301,105,1684315552483298301,camera_1,111,0,0.8071209744038507,0.6282916498796106,6.7070547769340685,0.9944803868813642,-0.06246740622678515,-0.04572148627484713,-0.07082463526491974,0.05115922593176947,0.03307936449411774,5466.897560219599
1684315552489813327,106,1684315552489813327,camera_1,112,0,0.8060965980950643,0.6284043706493659,6.698547772030089,0.9944546277257439,-0.0656465930349524,0.06994444111097875,0.043107927060206705,0.06905482667934848,0.0446022063734611,5465.424053331748
1684315552496252775,107,1684315552496252775,camera_1,113,0,0.8059718371747568,0.630471642596979,6.696731946859255,0.9948001632211145,-0.06590774652639922,0.06712257055703395,0.039030305211104434,0.056257355889101746,0.036317267719643574,5478.218690562613
1684315552503482103,108,1684315552503482103,camera_1,114,0,0.8055684817800968,0.6312880135264345,6.692641864871769,0.9945642707013858,-0.0656785798858331,0.06670574719423515,0.04559143427947675,0.04536435691261431,0.02924404758039377,5477.597560851949
1684315552509870052,109,1684315552509870052,camera_1,115,0,0.8058660751964599,0.6327972419057536,6.69436902257049,0.9945524974285068,-0.06616528397129157,0.06639560823425902,0.04559723964146373,0.04338412166180206,0.027981744906495905,5475.78605326489
1684315552516561269,110,1684315552516561269,camera_1,116,0,0.806186399743169,0.6354233365090494,6.695870794010192,0.9944656103347242,-0.06600341091919755,0.06870195373760946,0.04429154728897461,0.047037587290105876,0.030351562139315027,5473.432104746287
1684315552523249387,111,1684315552523249387,camera_1,117,0,0.8067429117116078,0.6370912596552669,6.699507879100473,0.9946674228768588,-0.0655429574869947,0.06473560496554816,0.046369602555021976,0.04529510316206142,0.02925487453028588,5470.2680860367545
1684315552529895305,112,1684315552529895305,camera_1,118,0,0.8064993912539378,0.6381854881119216,6.697175343466252,0.994425141238677,-0.06536375815424487,0.06840274834971843,0.04655407190134791,0.05143014414352365,0.03319528874403856,5469.97071862442
1684315552536645412,113,1684315552536645412,camera_1,119,0,0.8066419939901455,0.6407994297073121,6.695970667368913,0.9945506383903183,-0.06564449749408975,0.06744743455947393,0.044840508443866826,0.06554688324831659,0.042288462830255426,5476.759943947136
1684315552542992115,114,1684315552542992115,camera_1,120,0,0.8070017796103772,0.6425218476013791,6.697966136759603,0.9947189221178373,-0.06555931988609821,0.06262117882520069,0.04811267524615991,0.053533244299615035,0.03455578114030698,5475.566182026698
1684315552549550533,115,1684315552549550533,camera_1,121,0,0.8070758411451401,0.6439014561838456,6.696916331353109,0.9943371797663277,-0.0629169487261735,-0.04723578643457487,-0.07144096148037973,0.05275749453358003,0.03404233301922334,5478.090393869355
1684315552556888580,116,1684315552556888580,camera_1,122,0,0.8073906761955165,0.647011988139639,6.69742228194184,0.9943195973013327,-0.06263929618269215,-0.047903437438578916,-0.07148508710088415,0.07495231388020329,0.04836946566475926,5477.197285965755
1684315552563040733,117,1684315552563040733,camera_1,123,0,0.8069399508983806,0.6478574977844496,6.693922016096843,0.9941302339599108,-0.06513211416766347,0.07576753074310376,0.04149899897535291,0.0677611266146414,0.043696446927832304,5476.741165804474
1684315552569557189,118,1684315552569557189,camera_1,124,0,0.8077983926360528,0.6501428051266895,6.698921208843733,0.9943434717594529,-0.06314560930586759,-0.046803006916594475,-0.07143648044461731,0.06174976598776993,0.039863979609575516,5477.128318945004
1684315552576189041,119,1684315552576189041,camera_1,125,0,0.8075424089956926,0.65268313174292,6.695534959105778,0.9941890457784641,-0.06295068242966101,-0.04814234541067001,-0.07285373987728394,0.06677819631659075,0.04306175616956147,5479.961556585622
1684315552582693338,120,1684315552582693338,camera_1,126,0,0.8076254374277786,0.6543156078699166,6.695249341157538,0.9943675222874221,-0.06324665372761565,-0.05221893175064741,-0.06712879098459615,0.06058455022866838,0.039071882780030626,5482.4786226297765
1684315552589314222,121,1684315552589314222,camera_1,127,0,0.808086015465993,0.6561077163639243,6.698858580967281,0.9944080515603735,-0.06329010954385483,-0.049423816879122284,-0.06858772011757928,0.059452547880937345,0.03837711111061394,5479.136929505328
1684315552595949411,122,1684315552595949411,camera_1,128,0,0.8078625317790792,0.6589589759985364,6.694910753432854,0.9942610803895505,-0.06279225580466925,-0.05109690979448184,-0.06993670311802948,0.0492306673550047,0.03174131807540416,5482.561072383252
1684315552602690219,123,1684315552602690219,camera_1,129,0,0.8082730564840099,0.6607296943231303,6.697519722527705,0.9943941110826531,-0.06285670396959976,-0.0505193392668276,-0.06838993325235618,0.05116042082954664,0.03300913236840968,5481.433554355054
1684315552609817266,124,1684315552609817266,camera_1,130,0,0.8087636074068714,0.6627111007302131,6.70081814820365,0.9944735692276588,-0.06262212773609745,-0.048943101879098776,-0.06859564128905551,0.039648453472182155,0.025603211719886963,5478.411111690628
1684315552616716861,125,1684315552616716861,camera_1,131,0,0.8088629852038526,0.6656729259868475,6.699433053563485,0.9945680031927024,-0.06294456043949233,-0.04940401322411562,-0.06657111095446293,0.05188756465213373,0.03349274630049323,5483.334919187939
1684315552623416662,126,1684315552623416662,camera_1,132,0,0.8087880802012661,0.6670632500102798,6.698798969092496,0.9943008967381938,-0.06618899178365252,0.0695618693183613,0.04632375685566255,0.054297670038067736,0.03503887811252143,5479.87393493118
1684315552629813671,127,1684315552629813671,camera_1,133,0,0.8091979362474852,0.6688814463554119,6.70007739723391,0.9944333750414868,-0.06314077160944757,-0.04802831075336824,-0.06934541751506959,0.06621537102910224,0.04274263680549001,5481.574792170255
1684315552636795043,128,1684315552636795043,camera_1,134,0,0.8093846599600018,0.6719192150289242,6.699945269101112,0.994637764565911,-0.06304193591926852,-0.045834313597799915,-0.06797534341139311,0.061641752094146796,0.03978612585458468,5487.141592297704
1684315552643362045,129,1684315552643362045,camera_1,135,0,0.808959514768155,0.67311025131424,6.695787181242839,0.9945147310521907,-0.06257370526903527,-0.04577758019771338,-0.07020964520872214,0.05778191472927574,0.03724429750283411,5491.675141425279
1684315552649924755,130,1684315552649924755,camera_1,136,0,0.8084566198627838,0.6739654269613947,6.6913331764811845,0.9945101840760934,-0.0657635233689993,0.06615111176605802,0.047420282318271036,0.06543860767851584,0.042123640919586675,5498.460177152243
1684315552656603574,131,1684315552656603574,camera_1,137,0,0.8094886275791163,0.6778058566304291,6.698508686521068,0.9945004263363315,-0.06636015956229248,0.06501358626351576,0.048357676131911324,0.06137667581788264,0.039591507540457344,5488.204997247838
1684315552663228988,132,1684315552663228988,camera_1,138,0,0.808881680900092,0.6785269839399759,6.69243844683829,0.9943249902448587,-0.06627519894489368,0.06561105396803799,0.0511918096630679,0.05003252378082834,0.032213371441539775,5494.124729908537
1684315552669716596,133,1684315552669716596,camera_1,139,0,0.8104551706490668,0.6813902926146076,6.703702569738388,0.9945786564142303,-0.06357658611197635,-0.04170087007234867,-0.0709390677893376,0.04829738389526028,0.031169395586463124,5489.521827543271
1684315552676455497,134,1684315552676455497,camera_1,140,0,0.8125852405200078,0.685869374065939,6.720670330230437,0.9948881056565494,-0.06545105818949223,0.06878452694911222,0.03438757126325295,0.07546513297711499,0.04883889515040322,5490.837991745328
1684315552683278560,135,1684315552683278560,camera_1,141,0,0.80993333763058,0.6850128301230187,6.696495869232623,0.99447334284255,-0.06311825458042335,-0.043389674804312744,-0.07180663224703682,0.05872892611660063,0.03785220507445721,5494.3353969811005
1684315552689612150,136,1684315552689612150,camera_1,142,0,0.8103877271782506,0.6865550733796902,6.699499103115886,0.9945413478326668,-0.06326886278379922,-0.04467619937130933,-0.06991849299693442,0.06365190807264298,0.041062230954650634,5490.605114428848
1684315552696379661,137,1684315552696379661,camera_1,143,0,0.8100702259595836,0.688886739747678,6.695380180773706,0.9945783880437516,-0.06326459873972252,-0.04844677908991836,-0.06681564321629599,0.05360705930797849,0.03454067381253367,5497.110939871171
1684315552702981948,138,1684315552702981948,camera_1,144,0,0.8111957802159617,0.6911020705941975,6.703770638972148,0.9945912115144172,-0.06370090889950428,-0.044142341391176745,-0.06915178869823778,0.06726977837388404,0.043447374215846934,5486.230740086177
1684315552709985733,139,1684315552709985733,camera_1,145,0,0.8101282826295941,0.6913924231546622,6.694111626792354,0.9944597188385498,-0.06318552960273557,-0.04978702761820117,-0.06766615355788116,0.05160140278167091,0.03323441015305101,5496.9424314384805
1684315552716440916,140,1684315552716440916,camera_1,146,0,0.8107152877047596,0.6942587707067165,6.698028963127434,0.9945016309736644,-0.06386903231302885,-0.04784264610900368,-0.06781101618031908,0.04366017068969086,0.028148621494371744,5493.5581578032015
1684315552723094940,141,1684315552723094940,camera_1,147,0,0.8104205786660401,0.6950253101613503,6.694954703324518,0.9945684821980372,-0.06373792300252216,-0.049877687047016596,-0.06544637289000206,0.028176334162708372,0.01815015118914523,5499.067132499651
1684315552729675769,142,1684315552729675769,camera_1,148,0,0.8106827282224517,0.6963312521786194,6.69651614216085,0.994486911534914,-0.06349405976530222,-0.0477419125606452,-0.06844703752040861,0.030832515039946884,0.019867768024635052,5495.869628917777
1684315552736582756,143,1684315552736582756,camera_1,149,0,0.8111933353001268,0.6988809619186995,6.6994710103275805,0.9945047477561401,-0.06366216889827815,-0.04923737865679344,-0.06695607130552816,0.034300547646125785,0.022122771080869706,5491.413064301949
1684315552742996454,144,1684315552742996454,camera_1,150,0,0.811254527986351,0.6999664102647477,6.699235598421698,0.9947765082097261,-0.06367680792647533,-0.04617936633862756,-0.0650571208317917,0.04249056523258332,0.027402519891541494,5498.35125920555
1684315552749963283,145,1684315552749963283,camera_1,151,0,0.8101728935547796,0.6999335372386973,6.68959481604253,0.9943830824963665,-0.06335893352016315,-0.05324977188357539,-0.06597266541954534,0.03325413005950395,0.021385980986850545,5503.7027341065705
1684315552756331205,146,1684315552756331205,camera_1,152,0,0.8114753210962703,0.7029256330305862,6.699449673098568,0.9947458218688402,-0.0634492639170312,-0.049882173653679994,-0.0629818190786577,0.03888017022109125,0.02507630333160516,5496.237015999039
1684315552763016223,147,1684315552763016223,camera_1,153,0,0.8113022538627519,0.7035706416315006,6.698040389367394,0.9946483666307102,-0.06340105809419595,-0.049718503689996627,-0.06467613920314329,0.04541869988315739,0.02927658652485042,5496.977396016648
1684315552769862174,148,1684315552769862174,camera_1,154,0,0.8117769974563294,0.704847633987973,6.7004872711154935,0.9945851412138295,-0.06412369053795244,-0.04793504578155685,-0.06626296533041547,0.0437932616478065,0.028249945174097364,5493.542180381365
1684315552776351928,149,1684315552776351928,camera_1,155,0,0.8117300360334542,0.7061771121219156,6.699359666184734,0.9947930466150567,-0.06365919358178371,-0.04459004978566568,-0.0659244183816761,0.041614806061261334,0.02683124079897619,5500.383176609175
1684315552782973289,150,1684315552782973289,camera_1,156,0,0.8115488450363675,0.7067350369341447,6.697341689610569,0.9946761803008579,-0.06352850485480543,-0.04637973794579546,-0.06657586139951688,0.03426052107533906,0.022077042555707083,5500.775247872632
1684315552789627790,151,1684315552789627790,camera_1,157,0,0.81164790104885,0.7074134946102713,6.697912913577287,0.9948369642163637,-0.06369891507059679,-0.045772033222710784,-0.06439552641494312,0.04223033880407456,0.02721756984474985,5503.419901638701
1684315552796566724,152,1684315552796566724,camera_1,158,0,0.8117733038824451,0.7086807898901393,6.698199971716432,0.9948461498014506,-0.06372436036849115,-0.04764353119420613,-0.06285251034130077,0.04673788994841743,0.03012648237912565,5502.618030923301
1684315552803095340,153,1684315552803095340,camera_1,159,0,0.8118556593781208,0.7093236494737936,6.698487041981032,0.9948501514958185,-0.06357932709070459,-0.045245226068861416,-0.06468164154857264,0.04411103705933783,0.028434563560167055,5503.141311289685
1684315552809859037,154,1684315552809859037,camera_1,160,0,0.8119301869297842,0.7098097261730058,6.698573310713997,0.9947620687778076,-0.06358416440908296,-0.04896806123235503,-0.06330568328704327,0.04411204061761964,0.02843739932123292,5499.909354212924
1684315552816677570,155,1684315552816677570,camera_1,161,0,0.8115015764656726,0.7102567447612216,6.695146788009265,0.9947099421433739,-0.06339653037672748,-0.05079271476981404,-0.06287377087173054,0.05222738898009993,0.033633864865744205,5503.775616513332
1684315552823030471,156,1684315552823030471,camera_1,162,0,0.8121602391525645,0.7111011984122101,6.700016898206338,0.9949959502998083,-0.06356639795948046,-0.0459592544698598,-0.06188795412689802,0.052259449803386815,0.03370272607283965,5503.345900799903
1684315552829585313,157,1684315552829585313,camera_1,163,0,0.8119864800911983,0.7112013239661175,6.698360284848103,0.9948396405842181,-0.06378021897568195,-0.046298598279111355,-0.06389532836653462,0.05735912616364658,0.03697093812057739,5503.324012976606
1684315552836500883,158,1684315552836500883,camera_1,164,0,0.812487645237026,0.712221411563576,6.702487164355029,0.9948646229810159,-0.06367639693949918,-0.04355920455921736,-0.06551560204877215,0.04491947319183964,0.028986065391866617,5498.13638695376
1684315552843181133,159,1684315552843181133,camera_1,165,0,0.8122038478441838,0.7121102977929001,6.6995568630718525,0.9947662245390336,-0.06400182190169806,-0.04487530964852849,-0.06580373768692005,0.04252574454585556,0.027417675696069906,5500.978872055188
1684315552849887847,160,1684315552849887847,camera_1,166,0,0.8125299805883015,0.7125039843269467,6.702005868196614,0.9949117913230591,-0.06409975420582263,-0.04345531301619492,-0.06444675917188895,0.037093785431352444,0.023934181001811716,5500.384217469897
1684315552856272220,161,1684315552856272220,camera_1,167,0,0.8127190256649037,0.7127348091303692,6.703669319084226,0.9949319697823559,-0.06375498090214249,-0.04344628051245957,-0.06448332051625054,0.054806989821372554,0.03538024949948388,5497.622091895262
1684315552863021850,162,1684315552863021850,camera_1,168,0,0.8119422669922619,0.7119653228362519,6.6971118073019165,0.9947625847470997,-0.06337236550085971,-0.04498850769293677,-0.06638808216583181,0.043095975372125395,0.02776603765321901,5504.101675926476
1684315552869593143,163,1684315552869593143,camera_1,169,0,0.8124512676183295,0.7124462867493329,6.701870851923103,0.9948191733469138,-0.06392202890188435,-0.042270466227396365,-0.066798160508717,0.04726953731733374,0.03049555901305934,5499.141199308214
1684315552876273632,164,1684315552876273632,camera_1,170,0,0.8119264828513653,0.7116332171665658,6.697368337896584,0.9947434479991301,-0.06359771765738051,-0.04551406530508365,-0.06610047527044374,0.050109291696571745,0.03228691117206489,5503.332352596918
1684315552882871150,165,1684315552882871150,camera_1,171,0,0.8120179489241997,0.7114166997356631,6.698235409998783,0.9947160601879826,-0.06404967734179144,-0.04859541424230183,-0.06384421783630398,0.049288716589217074,0.03177025543039101,5500.630973889494
1684315552889595985,166,1684315552889595985,camera_1,172,0,0.8119332330835252,0.7111345714512964,6.6975584367217635,0.9947476849776842,-0.06365305558539518,-0.05020746163042409,-0.06248633884946542,0.06344070308841765,0.04088775431796361,5501.108734312351
1684315552896332979,167,1684315552896332979,camera_1,173,0,0.8123023575961821,0.7109058494657964,6.701535176045687,0.9949882854622468,-0.06371919777458461,-0.045683945860697524,-0.06205765640481844,0.05053412071720231,0.03260242224840154,5500.9653353263275
1684315552903012275,168,1684315552903012275,camera_1,174,0,0.8115618843570762,0.7098271015433061,6.695214796393598,0.9946717047087237,-0.06348980884085656,-0.05134836299169736,-0.0629332157391157,0.06529247011349071,0.04205240369994016,5502.663319649002
1684315552909786462,169,1684315552909786462,camera_1,175,0,0.8119210279445073,0.7097371531235311,6.698607921975192,0.9948570483864164,-0.06330353453743721,-0.05043635926074553,-0.060895726085301166,0.0409350548288785,0.026392094327854845,5500.646409854117
1684315552916483402,170,1684315552916483402,camera_1,176,0,0.8116047331307789,0.7084530109006159,6.696502488173647,0.9948542676349124,-0.06361261465206997,-0.0493538889879184,-0.061502967956820996,0.05565657504484989,0.03586089768529636,5504.651109046594
1684315552922984600,171,1684315552922984600,camera_1,177,0,0.8122503591746095,0.7085304713776535,6.702026465764287,0.9952000912239535,-0.06375098779676838,-0.04817272472590517,-0.05649759796002971,0.057438002273556776,0.03707560607630709,5502.4771995129995
1684315552929768800,172,1684315552929768800,camera_1,178,0,0.8123361344778623,0.7080471452356549,6.703261140912912,0.9948491238273737,-0.06372488266261665,-0.046618321159167864,-0.06356958613868548,0.03320933035865892,0.021437882492910218,5494.561548158641
1684315552936382532,173,1684315552936382532,camera_1,179,0,0.8115864294576034,0.7061345418214332,6.697937880546564,0.9947891689642997,-0.06403590674806481,-0.04367740009381707,-0.06622836763287852,0.029947296425234526,0.01930068182551032,5503.485080226436
1684315552943053007,174,1684315552943053007,camera_1,180,0,0.8116879059280887,0.7055226278344923,6.699368129638402,0.9948603202783305,-0.06328232976688945,-0.047321163493257774,-0.06331664363038089,0.03654577420093119,0.023566438971251737,5499.9035874141855
1684315552949797153,175,1684315552949797153,camera_1,181,0,0.8114431909428633,0.7045997448826348,6.697521568063394,0.9945578334630207,-0.06398604458030006,-0.046128985305357355,-0.0680633433722466,0.02709579463407863,0.01746185425786593,5498.485962360166
1684315552956418752,176,1684315552956418752,camera_1,182,0,0.8114775669484908,0.7030377033710984,6.699010357096586,0.9946975258343891,-0.06353902041181002,-0.04951238559548514,-0.06393863195828256,0.04464084186474793,0.02878717100761477,5496.332660418355
1684315552963125228,177,1684315552963125228,camera_1,183,0,0.8112260947065413,0.7020423954157967,6.697427763627848,0.9946921108921207,-0.0635129075537075,-0.04854047544426002,-0.06478840441542047,0.04262979167106096,0.027476439429933563,5499.039753115563
1684315552969719409,178,1684315552969719409,camera_1,184,0,0.8110822542841866,0.6991190173671509,6.698118952178263,0.9947839759011506,-0.06391888420526384,-0.049950771778269835,-0.06183961457680964,0.03967742380336858,0.025585310528945915,5498.824230797821
1684315552976170539,179,1684315552976170539,camera_1,185,0,0.8110822542841866,0.6991190173671509,6.698118952178263,0.9947839759011506,-0.06391888420526384,-0.049950771778269835,-0.06183961457680964,0.03967742380336858,0.025585310528945915,5498.824230797821
1684315552982783079,180,1684315552982783079,camera_1,186,0,0.8101388432134098,0.6972499873283075,6.690667900088807,0.9941512693593956,-0.06371436505795681,-0.05402871321980148,-0.06844436765853394,0.04123231925768778,0.02652482981393025,5497.097734471321
1684315552989439725,181,1684315552989439725,camera_1,187,0,0.8106015827373731,0.6967278871454567,6.694815925935057,0.9945687814852586,-0.06349642843233846,-0.050324823376530416,-0.06533417653407662,0.038950180634856224,0.02509054652911096,5499.130867528729
1684315552996305465,182,1684315552996305465,camera_1,188,0,0.810850408897678,0.6946888702227731,6.697803858140688,0.994518780449884,-0.0635660705054188,-0.04725760036034997,-0.06825297957713768,0.04356317326892167,0.02808321125678744,5494.147078987557
1684315553003015756,183,1684315553003015756,camera_1,189,0,0.8110158007096482,0.6937797565910705,6.700240738331754,0.994650125331023,-0.06324421521465287,-0.051817928925200915,-0.06313635769321696,0.03960775055747945,0.025559872733433357,5489.955345880178
1684315553009710550,184,1684315553009710550,camera_1,190,0,0.8110721774962656,0.6926617239284121,6.701562581157461,0.9946835846252694,-0.06345447656322796,-0.04951635382788084,-0.06423571113254123,0.05268557363888249,0.034010098404200814,5489.378531885799
1684315553016475200,185,1684315553016475200,camera_1,191,0,0.8108700616796012,0.690128365014598,6.701236719856652,0.9947037066913558,-0.06333882297149314,-0.04468935700366701,-0.06749511663566483,0.050333953884546645,0.03248484308606505,5491.617040630314
1684315553022956609,186,1684315553022956609,camera_1,192,0,0.809863776238846,0.6880023872381023,6.693030269309283,0.9943470720239527,-0.06306573723545267,-0.04775130857847418,-0.07082672993569968,0.053333581396145746,0.03433771682792338,5496.544432114166
1684315553029824495,187,1684315553029824495,camera_1,193,0,0.8092949067642493,0.6863877658658459,6.689742194583545,0.9945012941307562,-0.06298306176925159,-0.05222850693307424,-0.06536430957306527,0.04018037029891275,0.025850326388045113,5502.475079199357
1684315553036364078,188,1684315553036364078,camera_1,194,0,0.8100264060488683,0.6844595452336886,6.697031482518213,0.9944662025799261,-0.06290389782286646,-0.04656707686452689,-0.07008265774958114,0.05167359998449683,0.03331010222801216,5491.579132671934
1684315553043022394,189,1684315553043022394,camera_1,195,0,0.8098897683636843,0.6829875785149888,6.6966479502155,0.9944233521786647,-0.06325947712176633,-0.04802833179181026,-0.06938093788155347,0.050370593438856304,0.03247018530177902,5490.857743411559
1684315553049839973,190,1684315553049839973,camera_1,196,0,0.8097461201206368,0.6817145607014495,6.697233155450682,0.9944593599381992,-0.06290405633584346,-0.04925509510430065,-0.06831981216360575,0.044857598913949914,0.02892202611591586,5489.354213195797
1684315553056435823,191,1684315553056435823,camera_1,197,0,0.8100088333662274,0.6791539572837997,6.700655697039957,0.9948280441602926,-0.06392215495942476,-0.045529317233520335,-0.06448412153235748,0.05330022989073768,0.03440505768854798,5492.43965176784
1684315553062980651,192,1684315553062980651,camera_1,198,0,0.8093897595966149,0.6773374089517816,6.6966771446424,0.9946043575523623,-0.06355511590167846,-0.04372492045729595,-0.06936173665343041,0.05888245075766463,0.03795830530414488,5494.93474575074
1684315553069652557,193,1684315553069652557,camera_1,199,0,0.8094369095362924,0.6759133530411131,6.697565531716852,0.9945094287664059,-0.06366520163179011,-0.04722779048881945,-0.06831745019718619,0.06494047668820713,0.041880453825869655,5489.954059762183
1684315553076436519,194,1684315553076436519,camera_1,200,0,0.8094488780864723,0.6731922286583761,6.699242495010658,0.9945878250384488,-0.06326431304772018,-0.044846003114404474,-0.06914854289535634,0.07314168856828475,0.0471939135338218,5488.408964631439
1684315553083000421,195,1684315553083000421,camera_1,201,0,0.8092808876871371,0.6715675046005173,6.69879499081708,0.9944620846781576,-0.06314444957288276,-0.04882103019436068,-0.06836993225440681,0.07833736781321932,0.050546054309225534,5484.5662191758165
1684315553089787244,196,1684315553089787244,camera_1,202,0,0.8085997378630236,0.6697083823178777,6.694216720129517,0.9943190641300296,-0.06283726804980443,-0.05053218620611556,-0.06948074991571065,0.06008740817196667,0.03871941432940734,5488.0157053984
1684315553096397638,197,1684315553096397638,camera_1,203,0,0.8085472094867645,0.6668117946063477,6.6965487612383665,0.9944173852367613,-0.06545290327409076,0.06831820261664526,0.04671835381417294,0.03525650000665337,0.02273610399403815,5484.6335577315185
1684315553103064537,198,1684315553103064537,camera_1,204,0,0.8084914845413219,0.6652646612362215,6.696029250974107,0.9943606802738789,-0.06299450875218282,-0.04893314290555592,-0.06988617114797695,0.04697127261897549,0.030286471059522677,5485.451430267537
1684315553109655618,199,1684315553109655618,camera_1,205,0,0.8084101656675879,0.6636474247362569,6.697251640246246,0.9944591873274807,-0.06626830118898122,0.06787613176976104,0.04530196169557378,0.051828324329108,0.03343223809482506,5484.3759937787545
1684315553122960329,200,1684315553122960329,camera_1,207,0,0.8081225960265209,0.6592921582448875,6.697092072460755,0.9942930348115542,-0.06345905992209755,-0.046652117894776954,-0.0719575467547711,0.055621782230446115,0.03587858755390802,5482.405269696143
1684315553129658937,201,1684315553129658937,camera_1,208,0,0.807730149024062,0.6574968353000984,6.695092477058941,0.9946075040478859,-0.0625516611511803,-0.054088065872416775,-0.06259140283652284,0.06403098272858188,0.041296597877158316,5486.189846622873
1684315553136583089,202,1684315553136583089,camera_1,209,0,0.8074973312151199,0.6545268429391351,6.6954615709779945,0.9946296038046661,-0.06596880231136412,0.06788131309936166,0.04185923660177537,0.02783256582915783,0.017948174653485423,5487.545997731333
1684315553143172502,203,1684315553143172502,camera_1,210,0,0.8079262201867574,0.6532363672244987,6.6995455777320725,0.994812158174087,-0.06569241425449579,0.061772226910546416,0.04709000574371679,0.055692144964268664,0.03595759012224952,5480.49674590511
1684315553149585962,204,1684315553149585962,camera_1,211,0,0.8077566785837158,0.6517346040342595,6.697478015942005,0.9941466017916856,-0.06264573929744384,-0.0450091492977916,-0.075645369808136,0.05451960383288679,0.03517720020296573,5476.714968182205
1684315553156609773,205,1684315553156609773,camera_1,212,0,0.8072532098910585,0.6484614998139904,6.695550313832185,0.9943097023506292,-0.06240419076035855,-0.05057040132623517,-0.0699754763946009,0.060764530979213305,0.03919251306153757,5479.073038534785
1684315553163067817,206,1684315553163067817,camera_1,213,0,0.8073592962045665,0.6473329550749866,6.697230072745294,0.9945489427204716,-0.0632852663807007,-0.04978562183294977,-0.06624777318085885,0.06712896256431122,0.043324993520911036,5481.456119961019
1684315553169423341,207,1684315553169423341,camera_1,214,0,0.8069935155276577,0.6455431701458372,6.6950835031940095,0.9945992495045851,-0.06240699899399258,-0.05224373450065471,-0.06440723225620859,0.06357950893652742,0.04101538361770779,5483.139315885202
1684315553176018476,208,1684315553176018476,camera_1,215,0,0.8070511884670495,0.6430501758087199,6.697653495950177,0.9945310244128177,-0.06251085980571952,-0.049274275317169394,-0.06762011297468407,0.07187422142305877,0.04639386957755208,5478.553357402794
1684315553182805538,209,1684315553182805538,camera_1,216,0,0.8067516523475763,0.6413928291367936,6.696341424120059,0.9945644736061908,-0.06594839079170568,0.06687643969426235,0.04494284599627454,0.0623144448545645,0.04020586753491177,5476.989481054973
1684315553189921617,210,1684315553189921617,camera_1,217,0,0.8067413319007288,0.6401738453460397,6.695840305479278,0.9941386002575306,-0.06301504607053765,-0.045301980517333494,-0.07526804107941758,0.07023717502670479,0.04530952832715416,5476.239115510631
1684315553196611881,211,1684315553196611881,camera_1,218,0,0.8070697406582367,0.6378769422191477,6.702247072978306,0.994612054954879,-0.06602342692075999,0.06295763476727259,0.04923518518887113,0.043479208849021234,0.028105736612396695,5464.11272020379
1684315553203037500,212,1684315553203037500,camera_1,219,0,0.8058815200637609,0.6357244472386714,6.692172009133392,0.9943379545261246,-0.062231838526804896,-0.04948905743703927,-0.07049867840158333,0.06008571939673857,0.03872541255310855,5481.729701155332
1684315553209770202,213,1684315553209770202,camera_1,220,0,0.8067071798533627,0.635084557036623,6.7008564807135,0.9948076795589769,-0.06593172867414687,0.06161878330003672,0.04705117840336973,0.04717319444898749,0.03048357202431088,5469.645456153931
1684315553216600418,214,1684315553216600418,camera_1,221,0,0.8059318134609792,0.6320861335327365,6.69541475649646,0.9946555474507524,-0.06642623681048941,0.06567179741974731,0.043989908073336845,0.06074057223304408,0.03918826857866264,5476.709977946155
1684315553223004817,215,1684315553223004817,camera_1,222,0,0.8059103422654308,0.6309225283465484,6.695840834244823,0.9944932770483041,-0.06653613706680692,0.06796268516561003,0.044012927589885495,0.07712718687616871,0.0497693098662763,5472.547274480399
1684315553229799747,216,1684315553229799747,camera_1,223,0,0.8064041359772139,0.6303344017231565,6.700695861193424,0.9947308858179743,-0.06568918464722204,0.0646346202752769,0.044919502246153355,0.049063613201724365,0.0317063914386452,5466.999912265512
1684315553236509799,217,1684315553236509799,camera_1,224,0,0.8066063853901229,0.6284080185471584,6.703353026595213,0.995004513415473,-0.06611525067485237,0.05957130316688639,0.045233303549909065,0.06048935428043478,0.03912164676812177,5466.8649126072105
1684315553243205547,218,1684315553243205547,camera_1,225,0,0.8054125129524836,0.626368048724758,6.694697177898457,0.9946694974324385,-0.06559507809042951,0.06248476833151102,0.049249673444281175,0.05423105171212228,0.034986142195502494,5471.555968300847
1684315553249682188,219,1684315553249682188,camera_1,226,0,0.8061443526294853,0.6260294348772404,6.701488314281429,0.9948127186957056,-0.06599117563252459,0.06450875032800674,0.04279533375281761,0.05549665875878418,0.035876079490076956,5466.509988602369
1684315553256470680,220,1684315553256470680,camera_1,227,0,0.8051094755950944,0.6232926256533162,6.693996846456443,0.9946486657034646,-0.06603691574019094,0.06508942653709815,0.045568894291086695,0.057901532723917626,0.03734831814092492,5473.324793590582
1684315553263000726,221,1684315553263000726,camera_1,228,0,0.8056630305147877,0.6228873203446756,6.698951287914586,0.9945088545191374,-0.06573922377870735,0.06908296472469985,0.04310495012005362,0.08363212866970571,0.05403140625059671,5463.153183737363
1684315553269792795,222,1684315553269792795,camera_1,229,0,0.8053458581982486,0.6217601333451699,6.696836420408751,0.9945028868308015,-0.0658476500170006,0.0713995235067741,0.0391178107189874,0.06751258799704374,0.04359449399822234,5468.213242466095
1684315553276491880,223,1684315553276491880,camera_1,230,0,0.8057050619026582,0.6205716248417104,6.701150349113091,0.9946122219958974,-0.06579052419410888,0.06832399258496559,0.04183260474674912,0.0674916132884391,0.04363484040585294,5460.970284610521
1684315553282906293,224,1684315553282906293,camera_1,231,0,0.8047476895968555,0.6190171548917276,6.69340017786207,0.9942385307554632,-0.06596156094352473,0.07222386151459649,0.04384666768446697,0.05941262337000808,0.0383252956655441,5465.417546819312
1684315553289671182,225,1684315553289671182,camera_1,232,0,0.8052204793977501,0.6188397946305593,6.697719174827637,0.9946527375836443,-0.0658580929943765,0.06711311033753227,0.042713857532752246,0.060268582517892355,0.03892324775641011,5466.248697689501
1684315553296305418,226,1684315553296305418,camera_1,233,0,0.8056337568249176,0.6178907048961473,6.702689794884371,0.9947919070916899,-0.06586821800940093,0.06515066924099397,0.04249505546055346,0.05275118519057287,0.034121883063453415,5460.12141314859
1684315553303168773,227,1684315553303168773,camera_1,234,0,0.8047237172187149,0.6166230389945516,6.694549506091919,0.9944069759783413,-0.06615869698596853,0.0688178173096891,0.045187398237335454,0.06300919094428535,0.040656611481871864,5464.971508623479
1684315553309653759,228,1684315553309653759,camera_1,235,0,0.8050820323779255,0.6163953190575491,6.698303453434095,0.99449146046442,-0.06583940853887,0.0664420672711408,0.04730072983933852,0.0493575268665154,0.03188354386879356,5458.609630960622
1684315553316437482,229,1684315553316437482,camera_1,236,0,0.8045626188578148,0.6150904778888645,6.694538083898818,0.9945501685031268,-0.06582138831930161,0.06235971407435015,0.05146623388870659,0.06227025367115857,0.04018241183886978,5462.968499816314
1684315553323126792,230,1684315553323126792,camera_1,237,0,0.8044173084569027,0.614594127469575,6.69305247699866,0.9946199804268796,-0.06626688828498044,0.06117218850182624,0.05096819995405615,0.05848439688998042,0.037722220202636464,5467.27688412572
1684315553329737901,231,1684315553329737901,camera_1,238,0,0.804812408188173,0.6146174260311383,6.696947923535717,0.994691235812987,-0.06543686824424633,0.06839097125233355,0.04037371325974716,0.06530013441079063,0.04216918530880603,5466.910849549573
1684315553336177825,232,1684315553336177825,camera_1,239,0,0.8044628430348398,0.6137566502924078,6.694378790859587,0.9946207183854907,-0.06563584758349325,0.06525425246247146,0.046512843450933955,0.07060438845655881,0.04555733333860175,5466.4253652219495
1684315553342986822,233,1684315553342986822,camera_1,240,0,0.8044666806987572,0.6136264467209438,6.694954939379688,0.9945107887197794,-0.0651853043064365,0.06940493052125503,0.04338343971816541,0.05702873487462056,0.03680653304689405,5464.553796622669
1684315553349564790,234,1684315553349564790,camera_1,241,0,0.8049020715140917,0.6137833703350575,6.698081145627669,0.9948122533322488,-0.06598720903649759,0.06412508857348427,0.043384811616858684,0.04880279707504087,0.03152463840977925,5465.853281058429
1684315553356369733,235,1684315553356369733,camera_1,242,0,0.8047805499847013,0.61349140009896,6.697533541116853,0.9948462575628455,-0.06580162269581502,0.06507582912618717,0.041427125501746966,0.07666446423172601,0.049516410024233494,5468.081958526048
1684315553362947702,236,1684315553362947702,camera_1,243,0,0.8048583683354155,0.6135489123286855,6.6976189106911095,0.9947409956581577,-0.06634788075437914,0.061949056081311245,0.04744074964684204,0.0586149552182178,0.03785778533679968,5463.384840381129
1684315553369731426,237,1684315553369731426,camera_1,244,0,0.8043652459069817,0.6131737349070221,6.69343967231922,0.9947776586815997,-0.06620110080210763,0.06240996200791652,0.04625819584370282,0.08128497911093291,0.05243348705539837,5471.36531797296
1684315553376455068,238,1684315553376455068,camera_1,245,0,0.803972913161307,0.6131466320465617,6.689196171608433,0.9938035673042427,-0.0626621916790989,-0.04667847112014061,-0.07905086768163751,0.05416216032244847,0.03488964902771347,5472.44044975721
1684315553382951974,239,1684315553382951974,camera_1,246,0,0.8042625199014981,0.6135479505886704,6.692894809323856,0.9945187781268329,-0.06603928286885731,0.065969126419791,0.04710931362998349,0.044144898834929336,0.028471104800733577,5467.110393742797
1684315553389736413,240,1684315553389736413,camera_1,247,0,0.804452139951712,0.6138899329712358,6.694024436251167,0.9946211612302297,-0.06616651728397682,0.06600498699124299,0.044655115225743884,0.05425083624140825,0.035000946935394794,5468.7423874336255
1684315553396432399,241,1684315553396432399,camera_1,248,0,0.8049015950062813,0.6147952160712278,6.697523231493721,0.9947614934415766,-0.06596818067813273,0.06384465046952925,0.04496255008698995,0.07771925792985711,0.05019344565508359,5465.479747456555
1684315553403194904,242,1684315553403194904,camera_1,249,0,0.8053357463314468,0.6155150072653586,6.70112016505337,0.9947550713287291,-0.06617192758937775,0.06476371245748709,0.04346591323790777,0.07744445964635815,0.050071579460308595,5460.734673849654
1684315553409745693,243,1684315553409745693,camera_1,250,0,0.8047302754567797,0.6154805333573943,6.695437717040756,0.9945846989089729,-0.0660924941831388,0.06613733813905914,0.045375229064759354,0.06569055881845998,0.042396867488682405,5466.020448266326
1684315553416590929,244,1684315553416590929,camera_1,251,0,0.8047537109068829,0.6163549014626086,6.695085326400796,0.9944822157430595,-0.06601409945473678,0.06990038315800566,0.041966625767615964,0.06409902455925476,0.04136764676501654,5466.880528381736
1684315553422959089,245,1684315553422959089,camera_1,252,0,0.805427548808542,0.6174232399758365,6.700613900038146,0.9947688541439197,-0.06646982267655539,0.06241221283977154,0.04605871456069587,0.052373927745065885,0.03385498915974089,5461.721307373024
1684315553429718017,246,1684315553429718017,camera_1,253,0,0.804922684031452,0.6176444082912403,6.696204422573574,0.9943968913153483,-0.06562923028873632,0.0679098660393455,0.047496071085908725,0.055511611812107724,0.035836884790832274,5460.646130041803
1684315553436488389,247,1684315553436488389,camera_1,254,0,0.8050351351721196,0.6189157337603253,6.695598675580842,0.9944726211752203,-0.06602599498558474,0.0673721111179532,0.04610609897356968,0.05540968521745526,0.03576067036245694,5464.92204981792
1684315553443111658,248,1684315553443111658,camera_1,255,0,0.8055898487856706,0.6201141629352015,6.700337464310706,0.994553936207282,-0.06602938945661223,0.06802405030322542,0.0433049221559528,0.0606173556043359,0.03917955399519715,5460.555017038947
1684315553449845790,249,1684315553449845790,camera_1,256,0,0.8052493022226512,0.6205788232240262,6.6970754872194265,0.9945354509460272,-0.06587575129302141,0.06678900938382602,0.045813212381249295,0.049067753527197056,0.031681288690431485,5464.4191463321895
1684315553456283092,250,1684315553456283092,camera_1,257,0,0.8047334115504258,0.62183983980558,6.691810496749188,0.9943014223372015,-0.06605772669319412,0.07288852163771802,0.04108919195863457,0.057150105698383406,0.036849260377379046,5472.185398173866
1684315553462890863,251,1684315553462890863,camera_1,258,0,0.8056703136138524,0.6233970784719769,6.699427016423709,0.9945763259683259,-0.06572982854285296,0.06869751925092894,0.042168380474495816,0.06950509445232456,0.044911284729986276,5464.3454968515725
1684315553469804525,252,1684315553469804525,camera_1,259,0,0.8058117633945987,0.624402790989678,6.699807699916733,0.994801330727141,-0.06666855094095277,0.06461570744116361,0.0418381052489363,0.06641747899266193,0.042915597913372315,5469.6267936519
1684315553476445913,253,1684315553476445913,camera_1,260,0,0.8055670103609844,0.626052406237156,6.696351666774086,0.9946363551723283,-0.06600142506470252,0.06351303200554921,0.04804609895086574,0.055331439471046906,0.03571358102152023,5469.148207397957
1684315553483117580,254,1684315553483117580,camera_1,261,0,0.8062262936946709,0.62765037878573,6.701253189360358,0.9946137852020565,-0.06580961273730368,0.06522010648981637,0.0464634358055928,0.06712399798925617,0.043388913975916814,5461.919663268984
1684315553489794969,255,1684315553489794969,camera_1,262,0,0.8059467118919771,0.6284036028151386,6.698486168012406,0.9946159944950727,-0.06577786361516766,0.06839801758752355,0.04164141379563226,0.05570190908110817,0.03597675413255783,5469.451843951598
1684315553496424913,256,1684315553496424913,camera_1,263,0,0.8063491801898087,0.6309549789718232,6.700174692161867,0.9950051832852436,-0.06569421737692485,0.057943163674926884,0.047870082745623634,0.05550433848839021,0.035863235038077076,5471.573211348848
1684315553503099441,257,1684315553503099441,camera_1,264,0,0.8062346721197602,0.631972198706028,6.698671921276935,0.9948386811628345,-0.066155896439274,0.06062515675244454,0.047370731440942074,0.06267990330889008,0.0404801469560388,5472.416561434336
1684315553509839296,258,1684315553509839296,camera_1,265,0,0.8056894004812505,0.6327744784737057,6.693373183260624,0.9946364429074556,-0.06622056095232434,0.06526424105054505,0.04531845747220583,0.06262362115739961,0.04037869127333963,5479.21066988667
1684315553516558408,259,1684315553516558408,camera_1,266,0,0.8063646120062073,0.635722025600709,6.697513549344761,0.9946834242604178,-0.06558437608544106,0.06630294269119745,0.04367487728135119,0.07932587568939199,0.05120673219403242,5474.668488584955
1684315553523020267,260,1684315553523020267,camera_1,267,0,0.8059510173327756,0.6366447053627453,6.6925411951987686,0.993940641411153,-0.06237504932471925,-0.0455226203953903,-0.0782243287300177,0.06065798442068626,0.039092640682321,5476.455756369627
1684315553529599428,261,1684315553529599428,camera_1,268,0,0.8067547574017556,0.6384819076829991,6.699272553262764,0.9945843711654627,-0.0654853166586122,0.06801080598175226,0.04345264324796616,0.05796118629950797,0.037435069818707305,5471.228992814487
1684315553542964458,262,1684315553542964458,camera_1,270,0,0.806428411524039,0.642209715093486,6.693816120356487,0.9945788044142716,-0.06579526844603553,0.06397723849199764,0.04889680372918399,0.0404097082100634,0.026052573334400773,5479.737740593409
1684315553550025224,263,1684315553550025224,camera_1,271,0,0.8064628683967465,0.6435986197031783,6.69361047581224,0.9944912396897659,-0.06549914484100232,0.06832075600717055,0.04504786902860944,0.04630137273488799,0.02984904231834982,5480.769683911145
