%time,field.header.seq,field.header.stamp,field.header.frame_id,field.image_seq,field.transforms0.fiducial_id,field.transforms0.transform.translation.x,field.transforms0.transform.translation.y,field.transforms0.transform.translation.z,field.transforms0.transform.rotation.x,field.transforms0.transform.rotation.y,field.transforms0.transform.rotation.z,field.transforms0.transform.rotation.w,field.transforms0.image_error,field.transforms0.object_error,field.transforms0.fiducial_area
1685421846933619976,19,1685421846933619976,camera_2,21,0,0.1660578878501443,0.002264523677863007,0.40580256924924607,-0.9763950807644404,-0.03797545409916393,0.21234452287287636,-0.010968808087245156,1.0121614095405675,0.058509778871449716,45795.62562796801
1685421846943565845,20,1685421846943565845,camera_2,22,0,0.16604635830769837,0.001775914386546572,0.40582224470355494,-0.9763452305545768,-0.0379869689067923,0.21259040755804973,-0.010597149659562632,1.006355921854265,0.058179174103862134,45782.3857191184
1685421846953586578,21,1685421846953586578,camera_2,23,0,0.16620951703104794,0.0011640328829698524,0.406314454929144,-0.9768528236607379,-0.038331463454626076,0.21020603149839187,-0.010133318171608634,1.1301752403378487,0.06543090851449311,45763.120890266015
1685421846963851451,22,1685421846963851451,camera_2,24,0,0.16618955229890825,0.0004546760644759608,0.4063692683301187,-0.9767550056494594,-0.038171301831787546,0.21065197696693147,-0.010879120144311723,0.9897543253027834,0.05734639763532146,45731.472590056495
1685421846973504304,23,1685421846973504304,camera_2,25,0,0.16592259690886782,-0.0010157313627416308,0.405899640146621,-0.9763424986973478,-0.03832207025728748,0.21248643151322036,-0.011673071206519023,0.8718512689811178,0.05046391297127267,45756.059481055
1685421846983477354,24,1685421846983477354,camera_2,26,0,0.16601516905865316,-0.0016889391541159793,0.40624372788927954,-0.9768090568892399,-0.03840045615061455,0.2103624632790927,-0.010821524371868747,0.9470670652226545,0.05485404980413111,45755.01168099232
1685421846993509054,25,1685421846993509054,camera_2,27,0,0.1657604725332332,-0.0022572431411917097,0.405716630287774,-0.9763676121395538,-0.03862733677223744,0.21237739485685622,-0.010490804192476767,1.1403395541128702,0.06592702477818255,45791.49130475895
1685421847003606796,26,1685421847003606796,camera_2,28,0,0.16562129866637665,-0.0026925904916462904,0.40539701360475994,-0.9761740082933291,-0.03867873551097354,0.21325855887700837,-0.010442605877323364,0.9229709279024974,0.05329851363186916,45822.584983493914
1685421847013515949,27,1685421847013515949,camera_2,29,0,0.1656155280256316,-0.0029516414154439024,0.4054439113276412,-0.9763342053365084,-0.038909428017364564,0.2125004942701913,-0.010055637036742709,1.1923277129535563,0.06884540720881638,45838.897837735014
1685421847023563861,28,1685421847023563861,camera_2,30,0,0.1656014656081916,-0.00297371880912588,0.40539709005643787,-0.9761400113795098,-0.03887118246101253,0.21333877143119373,-0.011237346765233906,1.1615181599045172,0.06710684541617666,45814.18423646968
1685421847033643484,29,1685421847033643484,camera_2,31,0,0.1656671836273693,-0.002715840610506757,0.4055049885325403,-0.9761711597533134,-0.03901392286005515,0.21320723009553003,-0.010509886960983957,1.0723475571721792,0.06195966680391234,45799.731860921725
1685421847043821334,30,1685421847043821334,camera_2,32,0,0.16585335504544338,-0.0022959196215172626,0.4059408546133557,-0.9765701820754071,-0.0386366169091575,0.211424832343493,-0.010836585419173976,1.18516919168178,0.06858167444050692,45775.99899023956
1685421847053694009,31,1685421847053694009,camera_2,33,0,0.1661240037487061,-0.001090687828615693,0.40641125307999687,-0.9768434929521297,-0.03856744149923192,0.21011480633933868,-0.011879010491966921,0.9822199207847007,0.05694976077915053,45730.4461321221
1685421847064129590,32,1685421847064129590,camera_2,34,0,0.16621152562943672,-0.00040083974009450093,0.40652726368725095,-0.9768092488359158,-0.038556774213749215,0.2102810309231307,-0.011787899929577385,1.1816554507240653,0.06854376085662882,45703.97069338057
1685421847074709653,33,1685421847074709653,camera_2,35,0,0.1660604976911455,0.00032167119226791203,0.4060484446864145,-0.9764673504423866,-0.03792258791919858,0.21193457219793424,-0.012535068919414109,0.9455472191912122,0.054764295596156184,45751.028467107586
1685421847084262847,34,1685421847084262847,camera_2,36,0,0.1662238985501762,0.0010063926001324165,0.40635368379362746,-0.9767426003992538,-0.03803427673800283,0.21071289645388033,-0.011285460838491834,1.1002066124347039,0.06375138557843026,45733.09810707812
1685421847094487667,35,1685421847094487667,camera_2,37,0,0.16601076899642558,0.002158496146055364,0.40565793305770553,-0.9761306100807108,-0.03813360624486224,0.21352315948459924,-0.011077928594095614,1.0441952879191376,0.06034969208672032,45781.84980422816
1685421847104634284,36,1685421847104634284,camera_2,38,0,0.1659938956376646,0.002534282392373983,0.405558413912204,-0.9761749685164516,-0.037757903340333375,0.21338067852769058,-0.011200786057651572,0.8629656753619201,0.049850140187772396,45808.2123737028
1685421847114568710,37,1685421847114568710,camera_2,39,0,0.16602488959323272,0.0027350053388472922,0.40562000119207714,-0.9763073858017179,-0.037885934673883646,0.21277271221042232,-0.010785050835420158,0.8802996091544628,0.050844926285648254,45817.80319789609
1685421847124459743,38,1685421847124459743,camera_2,40,0,0.16603404362891427,0.0027670634042506596,0.4056386209081742,-0.9763293553657383,-0.03788481925590667,0.21267446684575406,-0.01073785234316199,0.9755490104435012,0.056350126812690596,45817.33937822795
1685421847134470939,39,1685421847134470939,camera_2,41,0,0.16604430446193455,0.0022630801482608877,0.4057565103317327,-0.9764001483248261,-0.038025316014316655,0.21232897945362966,-0.010640966941456343,0.9693187822704203,0.056012488201148965,45806.493422032094
1685421847144256353,40,1685421847144256353,camera_2,42,0,0.16607564225555693,0.0017850943513845444,0.4059085112815414,-0.9764044069743988,-0.03828561224220776,0.21228094155105837,-0.010268777454411269,1.0721855501760729,0.061994219973406595,45775.69591097231
1685421847154425621,41,1685421847154425621,camera_2,43,0,0.16615439055356765,0.0011582395836074312,0.4061764224422924,-0.9766479548030711,-0.03783517734038593,0.21117474220799395,-0.011510863911418725,0.9122108305455185,0.052826209182156005,45755.512710539624
1685421847164313554,42,1685421847164313554,camera_2,44,0,0.16612987298271412,0.0004606797577330671,0.40623286161225775,-0.9766692689719209,-0.03799297147420132,0.21109044346001343,-0.010700366548357406,1.0494963063974865,0.06077380570012771,45746.029994039105
1685421847174731492,43,1685421847174731492,camera_2,45,0,0.1660431175236983,-0.0010226660861677194,0.4062126445611436,-0.9766682538227258,-0.03801019342479829,0.21101384080978616,-0.012145211294145544,0.9562396836117841,0.055413994552622366,45741.38110087441
1685421847184691190,44,1685421847184691190,camera_2,46,0,0.16577552639139323,-0.0016965299532932434,0.4056592534864463,-0.9762391701780346,-0.03852674585531869,0.2129278303859329,-0.011597909770365582,0.9982399605796672,0.05772257413269494,45787.38075482428
1685421847194233179,45,1685421847194233179,camera_2,47,0,0.16584607944194887,-0.0022642269583699826,0.40592400284750396,-0.9764748661260672,-0.03877359586908628,0.21180375438911836,-0.011515802800235127,1.1382418203284033,0.065886184723369,45764.59744788194
1685421847204451322,46,1685421847204451322,camera_2,48,0,0.16561415723507533,-0.0026789246455585164,0.40539138283670945,-0.9761389838561592,-0.038891020352975786,0.21339239834247314,-0.01019102849651649,1.0547670039813966,0.06090502298499517,45819.8783427945
1685421847214286327,47,1685421847214286327,camera_2,49,0,0.1655201406551947,-0.003059170297176874,0.4052156055784848,-0.976072310280233,-0.03895446983936281,0.21367285636895839,-0.010454895258837851,1.0765632878174074,0.06213018328603766,45842.57507617888
1685421847224720478,48,1685421847224720478,camera_2,50,0,0.16548839431815554,-0.0029599593181586074,0.40513430593691974,-0.9758544794688371,-0.03881346852767016,0.21472703241891936,-0.009687678257506998,1.189389658291475,0.06861884746075067,45823.60890456615
1685421847234572887,49,1685421847234572887,camera_2,51,0,0.1655715065422924,-0.0027159682267371525,0.40528379572008566,-0.9758924980121912,-0.03871330992194345,0.21454227578472518,-0.010330724056119305,1.0168396438239142,0.05871393370309794,45798.77777952654
1685421847244474172,50,1685421847244474172,camera_2,52,0,0.16584306959531703,-0.0023052910924321835,0.4059218832288253,-0.9765346747369017,-0.038711365279919974,0.21155826985315512,-0.01116054171614719,1.185701927402988,0.0686154585788269,45774.58694020776
1685421847254534721,51,1685421847254534721,camera_2,53,0,0.16621845927535456,-0.0010968544784351652,0.40665730380005266,-0.9769346165552939,-0.03853237771972815,0.20969872116264332,-0.011851463452977478,1.1736003948026337,0.06811760764597033,45691.52518115472
1685421847264412164,52,1685421847264412164,camera_2,54,0,0.16642640513998094,-0.0003850758715589005,0.40709568923269096,-0.9773629111402253,-0.03854655480050294,0.20773989167582024,-0.010956297140657207,1.4203852617647499,0.08251727325896842,45674.471982425785
1685421847274088382,53,1685421847274088382,camera_2,55,0,0.16641052848126658,0.0003264100586535244,0.4069378391467908,-0.9771253651226713,-0.038490936398815484,0.208856837421966,-0.011103608022758784,1.1649062221986242,0.06764646266941447,45671.19823459769
1685421847284224748,54,1685421847284224748,camera_2,56,0,0.16616728162167027,0.0010215374246666568,0.4062229715261447,-0.97651008909755,-0.03835935257456528,0.21174202596307137,-0.01104175718847081,1.1199363899067976,0.0648668903226713,45724.126614448156
1685421847293939828,55,1685421847293939828,camera_2,57,0,0.16608607121714297,0.0021579275360773856,0.40584627551359387,-0.9764265738543825,-0.037650325986444584,0.21222766168286764,-0.011533362073952228,0.861768139351625,0.04983925805980478,45788.59103795675
1685421847303768873,56,1685421847303768873,camera_2,58,0,0.1659158524559331,0.0025352292009686713,0.40538445374934456,-0.9760292387025759,-0.03777748235733643,0.21404934603680573,-0.011075400021091466,0.9063381173764355,0.0523208055367019,45822.17857291014
1685421847313668489,57,1685421847313668489,camera_2,59,0,0.16595636368273795,0.002739663516443559,0.40546443198562043,-0.9761671006849554,-0.03782743986116223,0.21342300856780982,-0.010839545550571194,0.9142629157286137,0.05278160136618876,45828.05291576171
1685421847343849420,58,1685421847343849420,camera_2,61,0,0.16622669021861497,0.0017798984007897033,0.40629318575495826,-0.976738816266683,-0.03780004253623355,0.21078575678765551,-0.01103658994768131,1.0311490361345932,0.05972354643121771,45745.69265778735
1685421847354151010,59,1685421847354151010,camera_2,62,0,0.1662792261928524,0.001162721360835175,0.4065147003708001,-0.9770292128331239,-0.0382180932462109,0.20936968746056686,-0.010845671577860969,1.0649915882386267,0.061715959680732804,45749.62865803438
1685421847363853931,60,1685421847363853931,camera_2,63,0,0.1662616216641516,0.0004687497011222029,0.40657832092993695,-0.9769269546684806,-0.03833897278424905,0.20984009680563379,-0.010534808048545535,1.0980281103984453,0.06365761527357897,45716.74146409053
1685421847373790979,61,1685421847373790979,camera_2,64,0,0.16599612144323456,-0.0010154640751974843,0.4061060130525202,-0.976507465448954,-0.03852392405886149,0.21174267572686797,-0.010682531235329541,0.9355345567455515,0.0541645539025593,45740.60235151484
1685421847384173631,62,1685421847384173631,camera_2,65,0,0.16601538955417353,-0.0016872952030395794,0.4062538316523143,-0.9767162938373434,-0.038648419541583635,0.21072888316476895,-0.011176708804980768,0.9873067201697268,0.05720337763871682,45738.631623591304
1685421847394137859,63,1685421847394137859,camera_2,66,0,0.16574675329047886,-0.002253082410398178,0.40567362612003766,-0.9763007133038003,-0.03874135400721105,0.21266055116995636,-0.010560050580804484,1.1171361553133465,0.06458135817710585,45790.00386517751
1685421847404070377,64,1685421847404070377,camera_2,67,0,0.16563565061225888,-0.0026845597051302255,0.40546851754793256,-0.9761876380644265,-0.038887462938647546,0.2131569541032123,-0.010467732984383998,1.0536654908792116,0.06086391375865424,45811.62883395399
1685421847413631439,65,1685421847413631439,camera_2,68,0,0.16551993402726736,-0.0030535192433575865,0.4052156613706148,-0.9760421266185698,-0.03874871383267765,0.21386827822513788,-0.010033135662788755,1.0519549722084776,0.06070472651697481,45835.98894049972
1685421847423451423,66,1685421847423451423,camera_2,69,0,0.1655726844178156,-0.0029728530421472598,0.4053494368957299,-0.9761661474557893,-0.03891727334333274,0.21326265119858911,-0.010204900812420247,1.0731672098627314,0.06195677468764089,45830.50610459758
1685421847433674573,67,1685421847433674573,camera_2,70,0,0.16550040135330019,-0.002714713402601498,0.4051254124523889,-0.9758582349334003,-0.03876684848145833,0.21462978257997062,-0.01148447652959444,1.050842899887357,0.06066174708702064,45829.149994549574
1685421847444332361,68,1685421847444332361,camera_2,71,0,0.16571305073719467,-0.0022983059747716922,0.40558176922822053,-0.9762274850889578,-0.038702026221145575,0.21295192997864057,-0.011555346885257368,1.1105304137454368,0.0642037080051126,45796.53464213366
1685421847454303264,69,1685421847454303264,camera_2,72,0,0.16614219088394214,-0.001084824893926713,0.4064495381441578,-0.9767822530356819,-0.038305786570669784,0.21047987725674172,-0.011283534008753069,1.125599820225034,0.06527166643750933,45709.22145434143
1685421847464211940,70,1685421847464211940,camera_2,73,0,0.16622337498320128,-0.000404431871072395,0.40657938505609714,-0.9768867929299274,-0.0384290255415843,0.20996427245298377,-0.011419636084153984,1.2668364747660235,0.07348347150248458,45705.46223306331
1685421847474445819,71,1685421847474445819,camera_2,74,0,0.16631582256347852,0.0003284608688197007,0.4066999653504727,-0.9769714047397683,-0.037964268736490975,0.2096173866143548,-0.012088831584381045,1.1036029839888215,0.0640571571167064,45694.22504779976
1685421847484321832,72,1685421847484321832,camera_2,75,0,0.16618047083571208,0.0010190771156158573,0.40626647196530336,-0.9766218466114565,-0.03799760161070242,0.21124837619365092,-0.011835309400632632,1.061679833335802,0.06151744159979444,45732.22752033197
1685421847494045019,73,1685421847494045019,camera_2,76,0,0.16601507960746015,0.002162508974786106,0.40569464821512596,-0.976247538617249,-0.0381311185668633,0.21300616463159205,-0.010730096436753985,0.9856616852339357,0.05695618305011446,45794.51987438136
1685421847504356861,74,1685421847504356861,camera_2,77,0,0.1659983368635576,0.0025384653000356345,0.4056042769221974,-0.9762434249042974,-0.037799633813516885,0.2130859966146288,-0.0106921027605309,0.9002252194331959,0.05199602603292288,45810.736677096225
1685421847513789653,75,1685421847513789653,camera_2,78,0,0.16598597852547878,0.0027469889269647334,0.40554324917115986,-0.976397167842163,-0.03787665905821778,0.21237891466386474,-0.010446335940860665,0.9838814496179111,0.05679255235829205,45850.923541530516
1685421847523940801,76,1685421847523940801,camera_2,79,0,0.16601533742046784,0.002766597718474028,0.40560649412103195,-0.9762796661409738,-0.03789637505351656,0.21290047665576242,-0.010736166784328285,0.901805478730239,0.05208563865379073,45816.23899324982
1685421847533840179,77,1685421847533840179,camera_2,80,0,0.16607665197991678,0.00226320082533563,0.405828931820535,-0.9763508548195239,-0.03770636073154927,0.21260058674559482,-0.0108733237326951,0.9483488074620254,0.054833102167233194,45779.351740870145
1685421847544041872,78,1685421847544041872,camera_2,81,0,0.16607423365745566,0.0017685269053279245,0.40588631751213583,-0.9764662705849103,-0.037782698754956164,0.21199305339664942,-0.012043064242714216,0.9188420664286241,0.05315817845352218,45788.87995768014
1685421847554116249,79,1685421847554116249,camera_2,82,0,0.16609820643314466,0.001161205663764466,0.4060729582952021,-0.9765163473438889,-0.038211824042452706,0.2117442161196504,-0.010957500325026624,1.1917528299381956,0.06897327930455,45759.0629655081
1685421847563947677,80,1685421847563947677,camera_2,83,0,0.16609737393869659,0.00047368214396557775,0.4061503553506805,-0.9766569068810562,-0.03838500117659951,0.2111223916271416,-0.009757749732206233,1.0928344746353105,0.06323390722169579,45764.5229087551
1685421847573385477,81,1685421847573385477,camera_2,84,0,0.16593860159735896,-0.0009998178518243256,0.4059854582829034,-0.9765157584977399,-0.03850217881182261,0.21169054567720288,-0.011030344655281297,1.1305407749023288,0.06542708510597063,45769.91133603362
1685421847583566188,82,1685421847583566188,camera_2,85,0,0.1658038196738838,-0.00168285119611478,0.4057311820365217,-0.9764430896069656,-0.03845333809389771,0.21201077232841492,-0.011474579075015394,1.0299077295931056,0.059556055625242334,45806.70959090094
1685421847593456268,83,1685421847593456268,camera_2,86,0,0.16573612374375324,-0.0022500557044575365,0.4056545443229522,-0.9762859368763659,-0.03878737627554505,0.21271074590664885,-0.010744648664941663,1.0844689650111832,0.06269045518984939,45792.254889288466
1685421847603562831,84,1685421847603562831,camera_2,87,0,0.16560908338231886,-0.0026875159815775594,0.4053816122265833,-0.9760030755449015,-0.038940492743135366,0.2139932008684749,-0.010418470803325811,0.9947624749620445,0.057454162374590556,45798.446714782156
1685421847613704681,85,1685421847613704681,camera_2,88,0,0.1655809078064619,-0.0030599381258743885,0.4053812473369894,-0.9762004950602843,-0.038966346870174785,0.2130875808991051,-0.010387498361800142,1.075221545950626,0.06208688275964357,45828.36089932546
1685421847623912811,86,1685421847623912811,camera_2,89,0,0.1655605046819615,-0.002964286340205653,0.4053037950198021,-0.9761375967303739,-0.039077005523246416,0.21334967266229962,-0.010502240888295334,1.172772808233276,0.06770567952077915,45836.62343788844
1685421847634131431,87,1685421847634131431,camera_2,90,0,0.16561945416560503,-0.0027100303924526862,0.40542879396004794,-0.9761052838927957,-0.038416010244319704,0.21362324278219327,-0.010382439823725338,1.0962365379673429,0.0633229068467632,45802.42824588227
1685421847643990039,88,1685421847643990039,camera_2,91,0,0.16571669027094085,-0.0022940110826845,0.4056108376062185,-0.976194705521705,-0.038678206941894534,0.21314145934855294,-0.010890891879033466,1.060031100641936,0.0612803308275139,45784.67652330315
1685421847653934001,89,1685421847653934001,camera_2,92,0,0.16617602866918801,-0.0010909680960011908,0.40655721254145344,-0.9770203190652785,-0.03837465419551932,0.20935379859373518,-0.011387232470163993,1.0927627637283877,0.0633773334598389,45727.74131881494
1685421847663992881,90,1685421847663992881,camera_2,93,0,0.1663693597564641,-0.0003944342210236299,0.40694999275318783,-0.9771805512105628,-0.038162315921297894,0.2086157535980813,-0.01188592991936885,1.1673561107018031,0.06781839282846018,45672.58219820727
1685421847674118995,91,1685421847674118995,camera_2,94,0,0.16635117503856434,0.00034346078177982346,0.4067929309830758,-0.9771536198183888,-0.038076340884527694,0.2087628354059542,-0.011792967986533991,1.086673949204851,0.06307649409507224,45706.100770749144
1685421847684166431,92,1685421847684166431,camera_2,95,0,0.16625771456041713,0.0010198128921168142,0.406455280364677,-0.9767851795929567,-0.03801149925698011,0.21046796693491746,-0.012209575998967765,1.016325848235283,0.058936114973526674,45718.85090733551
1685421847694442272,93,1685421847694442272,camera_2,96,0,0.16610705476307097,0.002155645403666647,0.4059161011929135,-0.9765263758092079,-0.038017318962420985,0.2117361274205251,-0.010896474328992328,0.9481787083204836,0.05482931856452182,45792.967865288025
1685421847704766988,94,1685421847704766988,camera_2,97,0,0.16600904749338358,0.0025419763171161095,0.405619729523872,-0.9762291741262117,-0.03778177047860798,0.21314577452104574,-0.010863526507544215,0.9413984915008768,0.054385506654413315,45804.49537857342
1685421847714714765,95,1685421847714714765,camera_2,98,0,0.1660296166973468,0.0027385698371325336,0.40564825647452163,-0.9763659392230812,-0.03774021293689729,0.21254492958405644,-0.01048245966444737,0.8889815216534771,0.0513441640448256,45820.82772569361
1685421847724614381,96,1685421847724614381,camera_2,99,0,0.16596943217771284,0.0027651363207381687,0.405483695609312,-0.9762274779982051,-0.03767307099005871,0.21316932129140898,-0.010931211442574034,0.92789075744804,0.05357138094023304,45833.01246893569
1685421847734568119,97,1685421847734568119,camera_2,100,0,0.16605845104051828,0.002267563096010776,0.40580246186848157,-0.976439286956822,-0.03800790851717305,0.212140970595107,-0.010859390975982961,0.9994846354820766,0.05777194782299742,45803.43299912243
1685421847744538545,98,1685421847744538545,camera_2,101,0,0.16612465455806236,0.0017765417896689552,0.40604332867125503,-0.9765221894248814,-0.0379266696848287,0.21173586800483446,-0.011571667455173865,1.0168794634519145,0.05885558619297169,45765.11870361588
1685421847754817247,99,1685421847754817247,camera_2,102,0,0.16608010897941433,0.001169990013122805,0.4060167949406849,-0.9764620944714234,-0.03817712740016304,0.21199544424932884,-0.011055162661976595,1.1499380365130492,0.06654614615045905,45761.63646182233
1685421847764514446,100,1685421847764514446,camera_2,103,0,0.16618593704492268,0.00046862879914383445,0.4064010319706866,-0.9767780475314661,-0.03814230086858288,0.21055941246549986,-0.010702549567784443,1.1042647837894037,0.06398396582194585,45729.381500126095
1685421847774247646,101,1685421847774247646,camera_2,104,0,0.1659830364630693,-0.0009966748885789794,0.40607040439619796,-0.9765409405955554,-0.03847280739254569,0.21157354826076277,-0.011147560649525923,1.0598169088480063,0.061361570479886725,45754.41550473172
1685421847784592151,102,1685421847784592151,camera_2,105,0,0.16590525613783064,-0.0016792882991416218,0.4059923212954786,-0.9765316570153152,-0.03859370960487661,0.21164593192632486,-0.01012165623278149,0.9797522106673568,0.056685718635619095,45764.7651877401
1685421847794804334,103,1685421847794804334,camera_2,106,0,0.16572360453584628,-0.002248356464979567,0.40561784043485843,-0.9762391959247844,-0.03862991570445524,0.212968072288166,-0.010457635423926664,1.0202132060658187,0.058963246358973605,45791.01633692813
1685421847804668188,104,1685421847804668188,camera_2,107,0,0.16561043309057144,-0.0026856216032942297,0.40541039508544696,-0.9761052884978292,-0.038787380390370364,0.21356103054298078,-0.010280618777219181,1.0011169906938449,0.057815168422372,45809.607527805485
1685421847813958883,105,1685421847813958883,camera_2,108,0,0.16550633034847329,-0.003049130676166493,0.40520917107669013,-0.9759686927492677,-0.03873334929888428,0.21420425144757674,-0.010068618930102165,1.1352874200238148,0.06552052206818001,45825.353460373706
1685421847823863983,106,1685421847823863983,camera_2,109,0,0.1655495171647708,-0.0029665250934583854,0.4052943788447601,-0.9761152796359478,-0.03902295934109785,0.21348986013368848,-0.009912069692895598,1.1206120628048666,0.06467608841298789,45834.93488731891
1685421847834009647,107,1685421847834009647,camera_2,110,0,0.16574634070558733,-0.0027128703847264027,0.40572728177628054,-0.9762684873224572,-0.03903979540285564,0.21278681249424358,-0.009874586804724417,1.125533038051799,0.06507560182443224,45767.99161341391
1685421847844023704,108,1685421847844023704,camera_2,111,0,0.16572875574550222,-0.00228965023287278,0.4056327528146021,-0.9762638383005579,-0.038572391410092256,0.21283805369680361,-0.011002342756225308,1.209206662955694,0.06990939527021667,45791.114555462256
1685421847854235172,109,1685421847854235172,camera_2,112,0,0.16609284966235102,-0.0010969841235733161,0.4063320169020639,-0.9767640016746421,-0.038261196630355127,0.21054561753286277,-0.01177747012981808,1.0500574060715735,0.06086815177111818,45732.050360077774
1685421847864627122,110,1685421847864627122,camera_2,113,0,0.16621103371142992,-0.0003971502110652887,0.40655194306071146,-0.9768790335003515,-0.038350215503040935,0.2100260311818195,-0.011210758417822682,1.2033798590418883,0.0697888299205083,45709.72494856175
1685421847874716758,111,1685421847874716758,camera_2,114,0,0.16612394649903303,0.0003398545483675095,0.40622745933115734,-0.976620135799162,-0.03834786455190807,0.21120574533578132,-0.01160537690435659,1.0438908260548487,0.060472316076412055,45740.9573146694
1685421847884512186,112,1685421847884512186,camera_2,115,0,0.1661056455063269,0.0010271171217657864,0.4060547651856061,-0.9764195736900747,-0.038287458041917695,0.21216147657712967,-0.01124253210772721,0.9777741936268285,0.056601544552488996,45745.020879184376
1685421847894406080,113,1685421847894406080,camera_2,116,0,0.16611769923472292,0.002171931455588115,0.40593970187354234,-0.9765045145265796,-0.037911360596631055,0.21185701291915018,-0.010875105695872987,0.9636203841073439,0.05573332663911508,45782.98518407626
1685421847904581069,114,1685421847904581069,camera_2,117,0,0.16600687660437546,0.0025412580931303023,0.4055982217493903,-0.976020646469575,-0.038046578153141476,0.2140509126460863,-0.010879446278527553,0.9540927007328719,0.05513073030962034,45774.09718207385
1685421847913896799,115,1685421847913896799,camera_2,118,0,0.1659868270690621,0.0027416038369639157,0.405533600981963,-0.9762222953018102,-0.03787799482986746,0.21316524967418304,-0.010764013873890041,0.9035558514879085,0.052173789775437386,45822.35503458789
1685421847923966169,116,1685421847923966169,camera_2,119,0,0.16593388375568727,0.002756557418429343,0.40541004366439176,-0.976112224249014,-0.03760982963173429,0.21371187968649036,-0.010847067234116178,0.9154399199178442,0.05283953598014002,45829.19580425184
1685421847933853149,117,1685421847933853149,camera_2,120,0,0.16599005861022698,0.0022692120806083876,0.4056397553195506,-0.9763206623990984,-0.038104184297382895,0.21267611652659202,-0.01071936429011212,1.0444659942295402,0.06033154590942826,45819.84659923521
1685421847944179773,118,1685421847944179773,camera_2,121,0,0.16607090045050796,0.0017760603589650147,0.40588377680563514,-0.9764622829389982,-0.03778017793331554,0.21206130667607828,-0.011138687701936316,1.0382775419857353,0.06004748888556095,45788.181014102905
1685421847954245805,119,1685421847954245805,camera_2,122,0,0.16608396184486104,0.0011671466878432316,0.406020772243624,-0.9764075010430917,-0.03827204874334028,0.21227285416380406,-0.010192034974664445,1.069335089996457,0.06186567747315842,45750.97410102912
1685421847964195489,120,1685421847964195489,camera_2,123,0,0.16600925637761998,0.0004765935631404865,0.4059300059113805,-0.9762831157501686,-0.038367605509954696,0.21277731258579685,-0.011181234160026835,0.9958172879414633,0.05762707779573855,45749.02135733049
1685421847974240303,121,1685421847974240303,camera_2,124,0,0.1660315284237703,-0.0010043833750080387,0.4061987859016725,-0.9767002936818227,-0.03847725585885871,0.2108669599412343,-0.010543353762219503,0.8211795199313201,0.047546438839573935,45753.38047840075
1685421847984506607,122,1685421847984506607,camera_2,125,0,0.16587620549288593,-0.0016687751096682553,0.4059292784791492,-0.9764194190868327,-0.03837270228903198,0.21217775544514292,-0.010642078905487849,1.1074641401064582,0.0640830941891075,45758.2936393481
1685421847994331121,123,1685421847994331121,camera_2,126,0,0.16571413180759847,-0.0022420541627025036,0.40560688512466925,-0.9761731570662393,-0.03882906697136186,0.21321179825454417,-0.010908715163956655,1.0597160892211832,0.06126004796999593,45783.777121790205
1685421848004377841,124,1685421848004377841,camera_2,127,0,0.1655853403613955,-0.0026819457030536416,0.40534678122469675,-0.976175472784541,-0.038577971417260166,0.21325056309695187,-0.010834380187168643,1.105267518258188,0.06382056764988481,45834.81731958685
1685421848014040470,125,1685421848014040470,camera_2,128,0,0.1655273569112433,-0.003057932225791554,0.40525363736810877,-0.97613171094261,-0.03858629487897177,0.21346669473158286,-0.010485751291123419,1.1055074546748074,0.06380993699975601,45842.501409424
1685421848024366140,126,1685421848024366140,camera_2,129,0,0.1655180186564727,-0.0029637817062513738,0.4052106946253244,-0.9760133751223047,-0.03891850000452653,0.21392460085783624,-0.01093192972811539,1.1200416892534122,0.0646566190040768,45834.88577265387
1685421848034057617,127,1685421848034057617,camera_2,130,0,0.16561800066406573,-0.00271337806277635,0.4054328203277364,-0.976180347125173,-0.03869207032558099,0.2132125364876917,-0.010736287299711659,1.1159302614396438,0.06445995048983626,45816.73580923116
1685421848044148683,128,1685421848044148683,camera_2,131,0,0.16581447055788304,-0.0022906091731101515,0.4058436267268507,-0.976372833508308,-0.03849645523148974,0.21233128426943004,-0.011381504384851459,1.1991079520084895,0.0693965245984102,45762.36362334642
1685421848054579734,129,1685421848054579734,camera_2,132,0,0.16623113245113397,-0.001080556566962662,0.4066873739432121,-0.9769580256894776,-0.03839226379596069,0.209639624922636,-0.011413929377561471,1.2678761429269798,0.07358765535128091,45688.04264733033
1685421848064138412,130,1685421848064138412,camera_2,133,0,0.16623254256482092,-0.0003931782337381561,0.4066066990063168,-0.976843871268695,-0.03823626023612608,0.2101452291356864,-0.012370215820844509,1.1175503244739957,0.06486240930783843,45691.07499984816
1685421848074463844,131,1685421848074463844,camera_2,134,0,0.16632627969893193,0.00035405651493747867,0.4067399552518577,-0.9770224022298577,-0.03838776720882164,0.20936652723971264,-0.010920720731817497,1.3076710329041816,0.07587268472084531,45697.168811134514
1685421848084604263,132,1685421848084604263,camera_2,135,0,0.1662063932019145,0.0010145574417995268,0.4063367665149961,-0.9766536552994661,-0.03796066717127747,0.21110373488222828,-0.011909595160085083,1.1030674961511977,0.06393388338133732,45722.06787021062
1685421848094639778,133,1685421848094639778,camera_2,136,0,0.1660906738479311,0.00216378735748479,0.40587474668580936,-0.9762990062754988,-0.038056848148709306,0.2127809968574586,-0.010778405763646384,1.022479930485133,0.05913426179943818,45762.52083713376
1685421848104806900,134,1685421848104806900,camera_2,137,0,0.1661129946053833,0.0025401629231430827,0.4058674545700651,-0.9765485607869367,-0.03798971105955087,0.21165489439954854,-0.010578088451618173,0.9452358261332847,0.05463653641856142,45805.96004868485
1685421848114786386,135,1685421848114786386,camera_2,138,0,0.1660013841570362,0.002751772098002604,0.4055666720396079,-0.9763019218586695,-0.03797695338832948,0.21280785897216156,-0.010252977425783303,0.9376388055388816,0.05413345048891364,45828.9603009885
1685421848124944448,136,1685421848124944448,camera_2,139,0,0.16593250267588477,0.0027681675694932674,0.405403079029961,-0.9762232271136042,-0.037773891946227385,0.21317278432285808,-0.01089531803920911,0.8659474906744435,0.04997328106756983,45851.30887200963
1685421848134739637,137,1685421848134739637,camera_2,140,0,0.1660377788666452,0.002276842162668249,0.4057506709431335,-0.9764726161458881,-0.03793602626161996,0.2120502575877927,-0.009837483704354888,1.0687835855642334,0.06173482969608317,45819.39786514151
1685421848144896984,138,1685421848144896984,camera_2,141,0,0.16616226610876952,0.0017899299681912368,0.4061214940358467,-0.9767282814539482,-0.03795585321647816,0.21084943961872155,-0.010184852826483206,0.9836081150569953,0.05690345839646037,45782.2485989472
1685421848154495477,139,1685421848154495477,camera_2,142,0,0.16626510286585156,0.0011710823072820066,0.4064792395789617,-0.9768763446324746,-0.03823422980704456,0.21008092407885448,-0.010805383229269013,1.0776508511626162,0.062452810774750206,45730.97980617035
1685421848164531230,140,1685421848164531230,camera_2,143,0,0.16614493119902077,0.0004797618101610498,0.4062822056691941,-0.9766127945104114,-0.03814117688416916,0.21129803642218878,-0.011217844203902335,1.079803975764662,0.0625606243615613,45726.958116507136
1685421848174585819,141,1685421848174585819,camera_2,144,0,0.16586490404273546,-0.0010007695228995716,0.40579122470425405,-0.9762855736416091,-0.03837034421411392,0.2127713796425821,-0.011069570414305605,1.0115087440353818,0.05850604739057746,45771.796237826115
1685421848184454679,142,1685421848184454679,camera_2,145,0,0.1659058161880821,-0.0016704102741606892,0.40599471209636895,-0.9765562408541039,-0.038666980236108456,0.21150195073276606,-0.010473677699674102,1.0968543909257278,0.06346836902358854,45769.339122512385
1685421848194130420,143,1685421848194130420,camera_2,146,0,0.16577159774113537,-0.0022499296975727117,0.40575251715951904,-0.9763942054044206,-0.03867626623283454,0.21223978201241192,-0.010619652267426683,1.0713076576357707,0.061946198536772676,45788.741733874194
1685421848204078674,144,1685421848204078674,camera_2,147,0,0.16566568027091638,-0.00267812279787002,0.4055305219753098,-0.9762480464297939,-0.03888045639482262,0.21287809062299057,-0.010534727583151321,1.124624065181706,0.06498007271497562,45808.078165536965
1685421848214077949,145,1685421848214077949,camera_2,148,0,0.1654848939669035,-0.003048092378314773,0.40513836932258257,-0.9759309110499332,-0.039027459596684536,0.21429769821633574,-0.010592959636326336,1.1125120383803733,0.06419958047341963,45836.10717762913
1685421848224314689,146,1685421848224314689,camera_2,149,0,0.16560718637414618,-0.002964540072900653,0.40544212415598296,-0.9761889205068559,-0.03883457931149425,0.2131786217746156,-0.010096640413232083,1.0643723214161582,0.06147103747430863,45813.491064317066
1685421848234741926,147,1685421848234741926,camera_2,150,0,0.1655912015965865,-0.0027104925523408615,0.4053539455235794,-0.9760492014887692,-0.03883881998489413,0.2138152483480789,-0.010126297900335791,1.1182678152108565,0.06456811526586678,45812.20138900403
1685421848244777917,148,1685421848244777917,camera_2,151,0,0.1656585913759547,-0.0022808941853498946,0.40548301692821,-0.9760442315189832,-0.038948120612173474,0.2137902372561196,-0.010697498458480493,1.1638077928801067,0.0672467031202718,45789.58307833409
1685421848254122734,149,1685421848254122734,camera_2,152,0,0.16617247814914893,-0.001089033599666191,0.40656032361961725,-0.9769364697431023,-0.03825704928795287,0.20972581596379034,-0.012108442673853036,1.1850670784479007,0.06875736656052582,45712.23923784541
1685421848264087200,150,1685421848264087200,camera_2,153,0,0.1663029591294657,-0.0004009400364124935,0.4067575906722261,-0.9770705907625834,-0.038086311602011015,0.2091667638556084,-0.011478607650022517,0.9947886209120043,0.05773950196551548,45694.72277287207
1685421848273976325,151,1685421848273976325,camera_2,154,0,0.16624632251297342,0.000364310719910155,0.40653373653269337,-0.9768594470769815,-0.038431936276363425,0.21014676461397214,-0.010341385438299697,1.1045930400141515,0.06403006103537712,45714.4402392211
1685421848283725976,152,1685421848283725976,camera_2,155,0,0.16634667099561654,0.0010353909153045411,0.4066842734872628,-0.9769996509825073,-0.037910394831098655,0.2095269640180124,-0.011529756857959986,1.133677986334078,0.0657772965254185,45704.34862049039
1685421848293838739,153,1685421848293838739,camera_2,156,0,0.16618227177283956,0.002165493234348077,0.406115025430547,-0.9767131351350791,-0.03792474149307594,0.2108858902091369,-0.010968452397129532,0.9909855667501688,0.057345114122680556,45780.96045610214
1685421848303928613,154,1685421848303928613,camera_2,157,0,0.16594873671784552,0.002539700797628351,0.40546609978892506,-0.9761859995314175,-0.037699264004639535,0.2133738830233015,-0.010547315104526618,0.9525939149898477,0.05498904542505224,45830.33998197827
1685421848314105510,155,1685421848314105510,camera_2,158,0,0.16599841576820673,0.0027429059402313085,0.405558450563907,-0.9762560799794983,-0.03807115933806543,0.21297339079071892,-0.010816096561284651,0.84657064138446,0.0488861392167148,45823.99000756837
1685421848324357032,156,1685421848324357032,camera_2,159,0,0.16606857619704282,0.0027617969503873512,0.4057509128971069,-0.9764791168347755,-0.037795196784339624,0.21199393353395293,-0.0108917230231107,0.9184965685126372,0.05307237153756439,45818.74755301885
1685421848333657264,157,1685421848333657264,camera_2,160,0,0.16615817845827702,0.0022678127997084073,0.4060388804697702,-0.9766488116557331,-0.03813649839910341,0.21112501602321393,-0.01135490160668236,0.8611549335764721,0.049824235151166546,45788.241921301
1685421848343584537,158,1685421848343584537,camera_2,161,0,0.16605908911661216,0.0017861212429938936,0.4058693663769246,-0.9764555740302684,-0.037980411033411425,0.21207171173636247,-0.010843864816631951,1.0216160482377745,0.05907053934870594,45791.81473842122
1685421848353847503,159,1685421848353847503,camera_2,162,0,0.16623956659437808,0.001167319973419549,0.406415042674054,-0.9768277804145874,-0.038088164933920546,0.2103229713442002,-0.011001219351688683,1.0807605127920397,0.06262490484226127,45735.92311263201
1685421848363565683,160,1685421848363565683,camera_2,163,0,0.16621709882163968,0.0004739176917443631,0.40646489611071823,-0.9769212343618296,-0.03820701586724727,0.2098293093017648,-0.011695586749846044,1.015175127191469,0.0588497893934345,45740.76894760692
1685421848373697519,161,1685421848373697519,camera_2,164,0,0.165940516416687,-0.0009976191361417684,0.4059951733108709,-0.976387371167525,-0.03816078955298394,0.2123199504968969,-0.011475808740906713,1.1405485324794427,0.06603706786237928,45743.217864934144
1685421848383660316,162,1685421848383660316,camera_2,165,0,0.1658379271907238,-0.0016777966364308087,0.40583223153379255,-0.9764286865502673,-0.03879182523735826,0.2120648705482831,-0.01052164701053685,0.9904400772065856,0.05727491797337212,45784.27051625402
1685421848393629550,163,1685421848393629550,camera_2,166,0,0.16572164029092967,-0.0022492933942471257,0.40564210970109155,-0.9762698312169638,-0.03855290743893545,0.21283053941889157,-0.010679488483524223,1.1580589083605446,0.06694149944386084,45791.310646413825
1685421848404668331,164,1685421848404668331,camera_2,167,0,0.165575794612496,-0.002678337435702131,0.40532373796951515,-0.9759868752100326,-0.03905982744877772,0.21401931262736482,-0.010939978059323346,1.0148100776132196,0.05860712628112404,45810.258472999805
1685421848413850545,165,1685421848413850545,camera_2,168,0,0.16564644358706507,-0.0030537798810256573,0.4055575678114525,-0.9764322662498232,-0.03870220361840396,0.2120927195922751,-0.00994219076796748,1.1330441625323147,0.06544767958113724,45828.172647984684
1685421848424290895,166,1685421848424290895,camera_2,169,0,0.16552264560160462,-0.002967558589538666,0.4052297189719835,-0.9759550517917386,-0.03911108117907351,0.21418476415307156,-0.010341519031648623,1.082379624072928,0.06247602244648312,45821.911528574296
1685421848433834075,167,1685421848433834075,camera_2,170,0,0.16563904871669,-0.0027127121529799403,0.40547081859380807,-0.9761411900814001,-0.038812062219439364,0.21336815633125297,-0.010771755499659929,1.154537524213083,0.0667101089090772,45801.814246639144
1685421848443527698,168,1685421848443527698,camera_2,171,0,0.16580675148389243,-0.0022905909421702883,0.4058171590104089,-0.976313198627728,-0.038667380596410145,0.21259667558152343,-0.010955610197135309,1.0677074592094868,0.061776343334393725,45758.731099806275
1685421848453709840,169,1685421848453709840,camera_2,172,0,0.16602555729013155,-0.0010726662739770916,0.40618167972279096,-0.9766186806207676,-0.03874587793771937,0.21114121676895223,-0.011579990790709727,1.1393392375321127,0.06600198806706883,45744.411338649006
1685421848463969230,170,1685421848463969230,camera_2,173,0,0.16631854139987456,-0.0004012161609900297,0.4068035429711035,-0.9771052564526974,-0.037893288399372234,0.20896449234272685,-0.012777223749193586,1.1306404032511637,0.06567047962257355,45689.99557644361
1685421848474265813,171,1685421848474265813,camera_2,174,0,0.16628396678295781,0.00034651293243981567,0.40661137300488065,-0.976896576225756,-0.037889682192856836,0.20998992861625485,-0.011902992122160495,0.9837917620316148,0.05708347028979033,45700.104925139574
1685421848484120368,172,1685421848484120368,camera_2,175,0,0.166223557130278,0.0010356366387760272,0.4063721952259086,-0.9766871356057804,-0.03801738022117588,0.21098499946316693,-0.011056579254998028,1.0831653264467604,0.06277032086856035,45719.64458457242
1685421848493988037,173,1685421848493988037,camera_2,176,0,0.1662280587911508,0.0021668420858158,0.4062198343043835,-0.9768900396584064,-0.038097244047072674,0.2100599596714072,-0.010452930453306569,0.9757839518715627,0.05646561816699916,45788.9308164227
1685421848504429578,174,1685421848504429578,camera_2,177,0,0.16608433903828287,0.002541689780247157,0.40580458036288813,-0.9764714509671076,-0.03789031452081029,0.21200946336286064,-0.01094609319791436,0.923552198219113,0.05338274242206479,45806.38793825825
1685421848514805793,175,1685421848514805793,camera_2,178,0,0.16600471632690905,0.002745514780364923,0.40557446919174756,-0.9763085811901582,-0.03768756650428236,0.21280335996032873,-0.010767154454183941,0.9248459807713516,0.05340801254306461,45826.93838027726
1685421848524653196,176,1685421848524653196,camera_2,179,0,0.1658679418016878,0.0027727849053327904,0.40525509335438853,-0.9759659555753388,-0.03788539610511025,0.21436091882312758,-0.01022481301440815,0.963947017560713,0.055596377651962424,45839.68958958611
1685421848534277439,177,1685421848534277439,camera_2,180,0,0.16610372172879617,0.0022770331600802905,0.40592058757967514,-0.9765410383915109,-0.03783249783012929,0.21172875708149966,-0.010355475357817515,0.9501762814470567,0.05493395757138418,45793.23356938315
1685421848544733285,178,1685421848544733285,camera_2,181,0,0.16615045534014056,0.0017883669398143258,0.4060942218787414,-0.9765061188883823,-0.03807805562852087,0.21182124422299375,-0.010845365319938668,0.9553197749191895,0.05529284165491484,45750.91696901525
1685421848554733991,179,1685421848554733991,camera_2,182,0,0.16617003041034253,0.001171206995731458,0.40624475529476634,-0.976620448611092,-0.03781034957356304,0.21132277303530855,-0.011205463687948827,1.0413079134305008,0.0603173941240467,45735.98932788732
1685421848564234495,180,1685421848564234495,camera_2,183,0,0.16615112820467803,0.000464140889476852,0.4063113768848621,-0.9767147743558243,-0.03787171025323208,0.21083534378893415,-0.011934861831983772,1.1525840787799098,0.06679719917936845,45737.13663522481
1685421848574152469,181,1685421848574152469,camera_2,184,0,0.1660386170037547,-0.0010105023672080553,0.4062306298107247,-0.9766454042926112,-0.03852570705776928,0.21106208898458143,-0.011502989319556069,1.0837480973568745,0.06278889683310594,45737.80019578454
1685421848584475994,182,1685421848584475994,camera_2,185,0,0.1659710110072117,-0.0016693570833704913,0.40615524277201703,-0.9766144673442316,-0.03872678258967021,0.21119877734840695,-0.01093137368922473,1.0084976368234493,0.05840613678914272,45743.99379861307
1685421848594378948,183,1685421848594378948,camera_2,186,0,0.16574021801976646,-0.002240815382146854,0.4056867983994016,-0.9763719383058821,-0.03877016744780342,0.21234104478346752,-0.010295285578834199,1.1574152613757178,0.06689595811610445,45800.766000980744
1685421848604280948,184,1685421848604280948,camera_2,187,0,0.16552930388598275,-0.002679205610739438,0.40520902128948816,-0.9758920310002664,-0.038626310900664915,0.2145563999481347,-0.010406881265597521,1.013273062533699,0.05848448404328403,45816.37815613042
1685421848613917112,185,1685421848613917112,camera_2,188,0,0.1655266055633627,-0.0030469180465868993,0.40525137378440124,-0.9760901336978607,-0.03890118619097417,0.21360735355361404,-0.010327009172517923,1.1698439479368972,0.06752224349379751,45838.15554480953
1685421848623836278,186,1685421848623836278,camera_2,189,0,0.16559488491914098,-0.002967775877435389,0.4053959169046237,-0.9762826628272524,-0.03890748227458075,0.21271335762367766,-0.010554504936003527,1.0469350997591391,0.06045304539890582,45840.22591108922
1685421848633970260,187,1685421848633970260,camera_2,190,0,0.16556305449614978,-0.002709679467614002,0.4052676348635548,-0.9759261357562695,-0.03878700943253215,0.2143633140185843,-0.010588439454705613,1.0214737835922278,0.058978869628121676,45809.053896553814
1685421848643836021,188,1685421848643836021,camera_2,191,0,0.16577784757778932,-0.0022885046674242394,0.40577402861842626,-0.9763406860047876,-0.038944456067170244,0.21244188487416493,-0.01051854288602865,1.0962951628607698,0.06339671463243887,45775.971535329256
1685421848653903961,189,1685421848653903961,camera_2,192,0,0.16590561556263367,-0.0010924857847405451,0.40589471734247606,-0.9763063607143614,-0.03815556939488167,0.21260003626829527,-0.013086906874861465,1.0677564502693713,0.061839756858254734,45750.26699473384
1685421848664151906,190,1685421848664151906,camera_2,193,0,0.16633720004477776,-0.0003871639091104504,0.40684117215370275,-0.9771648147577984,-0.03814532167029434,0.20867587140760474,-0.012175381977752553,0.9783875430584885,0.05681779659297624,45693.27004431817
1685421848674287557,191,1685421848674287557,camera_2,194,0,0.1661059293001639,0.0003442849373261345,0.4061768195923207,-0.9765825460561446,-0.03830895779125929,0.21138900593275614,-0.011560391957325698,1.043796001584269,0.06045393937939856,45745.294933159836
1685421848684615612,192,1685421848684615612,camera_2,195,0,0.1662865715700638,0.0010295607496664588,0.4065266971728661,-0.9768860815903706,-0.03816581729075595,0.21004224045296793,-0.010918388664909082,1.0355286219273694,0.06002814047200931,45720.749512817245
1685421848694358825,193,1685421848694358825,camera_2,196,0,0.16610356528080208,0.002174814714889347,0.40590738649546937,-0.9764351279242152,-0.03813771057973979,0.21213172169756975,-0.010958496109522504,1.0481854423414916,0.06062139678991708,45779.87972405835
1685421848704420566,194,1685421848704420566,camera_2,197,0,0.1659782695587578,0.0025378966419329443,0.40553481788739865,-0.976245644904338,-0.03782664516257045,0.21305553983901107,-0.01099648420932524,0.828154245915357,0.04782419885260204,45826.56499644974
1685421848714002370,195,1685421848714002370,camera_2,198,0,0.16599388233435775,0.002745578209612011,0.40556496317528634,-0.9762401016262697,-0.03792159716445604,0.21308076232483553,-0.010667950707345327,0.9216399544966407,0.05322232839279396,45819.03698373331
1685421848723795413,196,1685421848723795413,camera_2,199,0,0.16598208023090524,0.002763166913275698,0.40553036500584155,-0.9762987652320279,-0.03778054724897536,0.21284253217602628,-0.010554987109554286,0.8871352976420894,0.0512148364271208,45835.82066089474
1685421848733765602,197,1685421848733765602,camera_2,200,0,0.16595493677488848,0.0022654440104542552,0.4055468668827363,-0.9760437500875548,-0.03792962649801038,0.21396594422173926,-0.010886508257642863,0.9023469000239857,0.052124091020571174,45790.75185125484
1685421848744535923,198,1685421848744535923,camera_2,201,0,0.16622807433670359,0.001798372219005846,0.4062840294267699,-0.9768338107890792,-0.037878335015899704,0.2103453161939534,-0.010760380614774002,1.0714807257754728,0.06204235816158628,45764.35257794103
1685421848754413843,199,1685421848754413843,camera_2,202,0,0.1661223506024026,0.0011818899214245115,0.4061339800898709,-0.9766393316115215,-0.037795300300995156,0.2112101254788068,-0.011722376882898797,1.1804084780160338,0.06835010735034132,45764.71341936453
1685421848764071226,200,1685421848764071226,camera_2,203,0,0.1662105277503031,0.00048036599244864536,0.4064459833891351,-0.9768830772876352,-0.03807878439998825,0.2100220910028023,-0.011839796386338116,1.0982825553510338,0.06367090238050056,45737.562113065964
1685421848773902416,201,1685421848773902416,camera_2,204,0,0.16601366251337757,-0.0009958222206345355,0.4061498189244776,-0.9765830780292152,-0.03853252566768848,0.21137005075998455,-0.011110257169589554,1.1313508137245663,0.06551961271635363,45744.60769122417
1685421848783986330,202,1685421848783986330,camera_2,205,0,0.16593877545400795,-0.0016745094484115965,0.4060778029163702,-0.9765293176146933,-0.03840845601141592,0.21161818968433055,-0.011533609171781449,1.1242031177971512,0.06511073608166507,45744.400640430395
1685421848794017791,203,1685421848794017791,camera_2,206,0,0.16562898065856888,-0.0022420505308375065,0.4053728912857769,-0.9759289536110902,-0.03858531127269584,0.21439364879972703,-0.010450579500245685,1.028701669187285,0.05941558615628274,45791.04777197726
1685421848804315567,204,1685421848804315567,camera_2,207,0,0.1656557129285697,-0.002680080188110605,0.4055080612585018,-0.9762096565216452,-0.03904416690844693,0.21304993834134167,-0.009999165818595656,1.0839100238517858,0.06260821096029161,45807.56079943291
1685421848814297199,205,1685421848814297199,camera_2,208,0,0.1655417778409402,-0.003047683018649383,0.40530337418897955,-0.9760728208585503,-0.038911338255367994,0.21368783842515557,-0.010259817035088855,1.1122196734213503,0.0642097637876093,45823.875891563715
1685421848824040651,206,1685421848824040651,camera_2,209,0,0.16546257437728565,-0.0029642348334924526,0.4050966519980557,-0.975969836158807,-0.03882148464482957,0.21417475749535067,-0.010244241793843176,1.176337967175641,0.06785404124553428,45852.96228944199
1685421848834529876,207,1685421848834529876,camera_2,210,0,0.16569036186865013,-0.0027111897299683754,0.40561801171768214,-0.9764009172180093,-0.03875902789798735,0.21217571626551598,-0.01097506443939469,1.0134622398763895,0.058577104956952876,45814.39396422589
1685421848844327211,208,1685421848844327211,camera_2,211,0,0.16584691469898086,-0.002277090574676033,0.40593676831182923,-0.9765731600997819,-0.03867254911628743,0.21142930873246818,-0.010341389001715436,1.1839485644595698,0.06849607567211524,45778.30089027062
1685421848853940963,209,1685421848853940963,camera_2,212,0,0.16614902605453644,-0.0010841317665234967,0.4064965011201911,-0.9770581625500224,-0.0381072903298873,0.20920038737386118,-0.011848178793130368,1.1993987276800908,0.0695503618705782,45746.53395786742
1685421848863691091,210,1685421848863691091,camera_2,213,0,0.1665170549157634,-0.00037749710163063064,0.40730831380746624,-0.9776087987787007,-0.038524871457757716,0.20658782332141773,-0.010878514831902986,1.1114596693078056,0.06461029180713504,45669.20084735682
1685421848874133586,211,1685421848874133586,camera_2,214,0,0.16638362707592147,0.0003549206544612741,0.40686827748830706,-0.9771681189051349,-0.038438795415686476,0.20866116767961898,-0.011200156470735072,1.1735943264793605,0.06812708727423726,45693.9954428191
1685421848884414196,212,1685421848884414196,camera_2,215,0,0.16618690016117338,0.0010309072304150765,0.40626867758234,-0.9767963443177837,-0.03833356962096419,0.21042755566159693,-0.0109399719292918,0.865548683097586,0.05011881358222316,45763.50769273892
1685421848894105195,213,1685421848894105195,camera_2,216,0,0.16603686231486775,0.002170572067641241,0.40576685521649763,-0.976302224721096,-0.03807969807721285,0.21277450744538098,-0.010531456706568933,1.0906860421528108,0.06303793503682635,45787.948224437176
1685421848904334068,214,1685421848904334068,camera_2,217,0,0.16595560020431435,0.0025352912990523314,0.4054725262573019,-0.9762223970711682,-0.037748685855932176,0.21320203835713517,-0.010476593584519191,0.8113622565870173,0.046831811901721185,45835.21877564211
1685421848914702892,215,1685421848914702892,camera_2,218,0,0.16596917128556757,0.002744225830471124,0.405503892541197,-0.9762942062978563,-0.03775001209090778,0.21287398416675332,-0.010451133974265961,0.8977125720120966,0.05181673692194838,45840.81392711401
1685421848924483060,216,1685421848924483060,camera_2,219,0,0.16611404332153834,0.002773748388422625,0.40587840521884483,-0.976678699191952,-0.037795467562577637,0.21110395350739802,-0.010263624602903023,0.9689632013905793,0.05599156176720203,45824.92268208205
1685421848934133529,217,1685421848934133529,camera_2,220,0,0.16611147386072328,0.002271749369357725,0.40593690623721534,-0.9766300344453515,-0.038171766978258304,0.2112612994979559,-0.01026427588602284,0.8957089734030887,0.05177600421106149,45807.38488027499
1685421848944025754,218,1685421848944025754,camera_2,221,0,0.1661940381564228,0.0017814171269708566,0.4061937690073048,-0.9766675972484031,-0.037858498419010796,0.21109372517051453,-0.011250678918364928,0.9775605358299799,0.05660230077372711,45755.54619343858
1685421848954307556,219,1685421848954307556,camera_2,222,0,0.1662303994442858,0.001162433772433503,0.40638714954750804,-0.9768781097265806,-0.03823108922768442,0.21008870447240283,-0.010501371653018525,1.0163516649627127,0.05886672743996913,45751.37040223927
1685421848964161396,220,1685421848964161396,camera_2,223,0,0.16625361368263883,0.00047132621418333404,0.40655599110376633,-0.976926474732097,-0.03836935921750925,0.2098339430228077,-0.010591109302436027,1.1311479770229198,0.06557015540196351,45721.88413318712
1685421848973950386,221,1685421848973950386,camera_2,224,0,0.16604757887045352,-0.0009940058636769954,0.4062806616174682,-0.976756570543107,-0.03836906582805838,0.2106048673585278,-0.01095474934661543,1.2292622842360288,0.07121020220463993,45745.849555533154
1685421848983922958,222,1685421848983922958,camera_2,225,0,0.16594681795732263,-0.0016702341352381918,0.4060950498290757,-0.9765863894065296,-0.038527059921829865,0.2113974151556675,-0.010287008564208028,1.0007697909604758,0.057929995625969746,45751.04779133995
1685421848994344472,223,1685421848994344472,camera_2,226,0,0.16578181706701253,-0.0022425384057310678,0.40577047700017554,-0.9764407267268936,-0.03864377310140613,0.21202424145453266,-0.010765083611979405,1.095545603428036,0.06335415290777759,45792.56774369115
1685421849004321575,224,1685421849004321575,camera_2,227,0,0.16570877287268815,-0.0026804901093293136,0.4056678476701205,-0.9763507737470162,-0.03891653291279614,0.21241066295898292,-0.010314084107444926,1.147825854481198,0.06634515077098384,45796.36415603664
1685421849014147996,225,1685421849014147996,camera_2,228,0,0.16550813299094813,-0.003049110838204961,0.4052140176159698,-0.9760494383903564,-0.03888531534519412,0.2138029320240309,-0.010184906789079433,1.1618789106287295,0.06705056587348976,45839.49809357127
1685421849024497509,226,1685421849024497509,camera_2,229,0,0.165528417515862,-0.0029726117792949654,0.40525781107152564,-0.9760648811370155,-0.03877195283311217,0.2137539175041086,-0.010165935084254065,1.196565428705071,0.06906141698703971,45832.922054066905
1685421849034499645,227,1685421849034499645,camera_2,230,0,0.16557325632230913,-0.002712137314755535,0.40532122562123973,-0.9759576680823816,-0.03897416381219774,0.21420626315649077,-0.01016471794355561,1.1858175607630983,0.0684675300515219,45804.77954384292
1685421849044290065,228,1685421849044290065,camera_2,231,0,0.16576340661759376,-0.002294846167771209,0.4057188690993081,-0.9763033655487555,-0.03869917324907212,0.21263867964802718,-0.010904326001879665,0.9839738305890933,0.056901168588369,45779.36511259993
1685421849054096460,229,1685421849054096460,camera_2,232,0,0.16612189137584704,-0.0010896790998506914,0.40642841702741556,-0.9767158599048575,-0.038165700287161264,0.2107618656729367,-0.012204274249968543,1.074314868368674,0.06231850662007235,45702.34147455169
1685421849064132928,230,1685421849064132928,camera_2,233,0,0.1662458605917202,-0.0003782757099218769,0.4066545471556736,-0.9769488105056712,-0.03842724201535304,0.20967140585574628,-0.011500882101941686,1.1472185188904405,0.06656259822988013,45700.248983440935
1685421849074242353,231,1685421849074242353,camera_2,234,0,0.16623800879145365,0.0003503986341391631,0.40652368978988185,-0.9767689896105538,-0.03794455482340679,0.21056720356118255,-0.012000186617501895,1.3018394956598058,0.07552095590016956,45698.8268398291
1685421849084137201,232,1685421849084137201,camera_2,235,0,0.16627102029221708,0.0010431547551797847,0.40649374352362316,-0.9768168432948512,-0.03798500426606554,0.21037482093056858,-0.011332644211324343,1.0930085150175728,0.0633715623651802,45715.29308750316
1685421849094203948,233,1685421849094203948,camera_2,236,0,0.16612318442381188,0.00216438322025167,0.40596861391190125,-0.9764884103259325,-0.03802678221755955,0.21191095316941835,-0.010867210320051529,0.9820608019363133,0.056806172868802914,45774.95842952071
1685421849104744672,234,1685421849104744672,camera_2,237,0,0.16604144181714395,0.002540243014704413,0.4057041322151291,-0.9762913358105952,-0.037848752535375854,0.21284808968342794,-0.010880729331936232,0.8843163817655295,0.05110233022691824,45797.08397985785
1685421849114857435,235,1685421849114857435,camera_2,238,0,0.1659916314617473,0.002744740909831939,0.40555670047303416,-0.9762814163220709,-0.037942458791247434,0.21290692622484858,-0.010276513539765495,0.964411307417322,0.0556776308708246,45827.82812839141
1685421849124501705,236,1685421849124501705,camera_2,239,0,0.16593814425720188,0.0027685782802353066,0.40542192742333,-0.9762079865606972,-0.0378889192786013,0.21324145716270873,-0.010510838127099758,0.887603021285031,0.051221779534269145,45844.875035613775
1685421849134444475,237,1685421849134444475,camera_2,240,0,0.16610307050865575,0.002270761571545226,0.405911139290691,-0.9765081824556102,-0.03811330441311951,0.21182070065992584,-0.01054212482812385,0.9467416385887191,0.054739263032689604,45791.4796380955
1685421849144553899,238,1685421849144553899,camera_2,241,0,0.16602277568614238,0.0017885798262600458,0.4057885891713382,-0.9763995345321789,-0.03796747715599408,0.21234186637807692,-0.010646662708492512,0.9239813924068585,0.0534047525853809,45799.99970653908
1685421849154948949,239,1685421849154948949,camera_2,242,0,0.1661763610059226,0.0011754516577150691,0.4062728696176084,-0.976702350014765,-0.038185212733823116,0.21091324398444797,-0.010488685144714165,1.2149620155105367,0.07035328840641526,45746.569274699315
1685421849164797067,240,1685421849164797067,camera_2,243,0,0.16611259961316283,0.0004739410355087308,0.4062003138300964,-0.9765897998438332,-0.037838299164813446,0.21143095174789134,-0.011729390447795281,1.0333078420953825,0.059860912128838165,45739.317752995994
1685421849174274206,241,1685421849174274206,camera_2,244,0,0.16601910483412224,-0.0009979821620598008,0.40618611387984715,-0.9765632108366549,-0.03834297725825668,0.21149428476408066,-0.011148042317193461,1.0313478806638159,0.059742913297387915,45732.23021244793
1685421849184525251,242,1685421849184525251,camera_2,245,0,0.16587144230683293,-0.001677839643504288,0.40589673472087834,-0.9763670449600786,-0.03855705546948856,0.2123671652743161,-0.010997004264700157,1.1260684203007258,0.06516272187421711,45757.061103931395
1685421849194457292,243,1685421849194457292,camera_2,246,0,0.16584610247986203,-0.0022529659312184517,0.40592527835010733,-0.9766140781619446,-0.03874359218846952,0.21120707037706563,-0.01074475792961393,1.0350963870296255,0.05988280201695612,45788.569660018664
1685421849204372167,244,1685421849204372167,camera_2,247,0,0.16574239961553947,-0.0026843064803646005,0.40573394256056494,-0.9765381211796553,-0.03872087031105699,0.21159993003511426,-0.009973048400461901,1.0373532206867822,0.059955614552933,45812.34999574999
1685421849214095830,245,1685421849214095830,camera_2,248,0,0.16547884837223992,-0.003053609910343334,0.4051383905215565,-0.9759556022504209,-0.03871301468287043,0.21430084565161017,-0.009333406837105207,1.0615811755560571,0.06122732184212113,45838.68634306408
1685421849224348783,246,1685421849224348783,camera_2,249,0,0.16550805907204835,-0.002964063132267488,0.40519379599316285,-0.975978631055723,-0.03889010920573738,0.21411179558573426,-0.010459929235670297,1.1528072961373255,0.0665332508946423,45832.68688879114
1685421849234328269,247,1685421849234328269,camera_2,250,0,0.1656287590857859,-0.0027087414544668706,0.4054610174225798,-0.97620376901823,-0.03894465375812837,0.21309074959127575,-0.010091963975848429,1.1527055167825893,0.06657229673206093,45816.46037397531
