%time,field.header.seq,field.header.stamp,field.header.frame_id,field.image_seq,field.transforms0.fiducial_id,field.transforms0.transform.translation.x,field.transforms0.transform.translation.y,field.transforms0.transform.translation.z,field.transforms0.transform.rotation.x,field.transforms0.transform.rotation.y,field.transforms0.transform.rotation.z,field.transforms0.transform.rotation.w,field.transforms0.image_error,field.transforms0.object_error,field.transforms0.fiducial_area
1684734516232105970,6,1684734516232105970,camera_2,8,0,1.213953627776878,-0.143805571717379,0.9600031899343122,-0.8941539378535444,0.043781187335712714,0.445498988945983,-0.01012886492072454,0.021276416460750625,0.018911365794334615,2430.908977182582
1684734516242431640,7,1684734516242431640,camera_2,9,0,1.2141227209620193,-0.14344915091728438,0.9602216168860956,-0.8942566620207643,0.0438347636267801,0.4452999449353363,-0.009565300301164823,0.03398323661531322,0.030181719063745262,2432.289485526155
1684734516252035379,8,1684734516252035379,camera_2,10,0,1.2140801444567977,-0.14319927319011833,0.9602591816865984,-0.8945298533186596,0.04465387017210809,0.44466924023412674,-0.009572888276498883,0.024618594485218637,0.021855418962437714,2437.1440381507273
1684734516261991262,9,1684734516261991262,camera_2,11,0,1.2137147382870512,-0.1433881168456959,0.9599794218031079,-0.8943807764761882,0.04410655364917299,0.4450258846947294,-0.009465756531674313,0.014003452761244262,0.012425788077937542,2435.8130273994184
1684734516272013664,10,1684734516272013664,camera_2,12,0,1.2145209368569951,-0.14384764178163748,0.9606151419897483,-0.8945381238931304,0.04413294151997774,0.44470498293434385,-0.009555444935636596,0.031012166935397545,0.027555674471620502,2434.3099089480247
1684734516282028198,11,1684734516282028198,camera_2,13,0,1.2138071250640532,-0.1442488151583563,0.9600030405698012,-0.8947135199994873,0.04413573291201169,0.4443348958617743,-0.01030798379669144,0.027452587703010067,0.02438425881432386,2438.79772369028
1684734516291810035,12,1684734516291810035,camera_2,14,0,1.2139556075097966,-0.14501906318302335,0.9600321383897682,-0.894854345486873,0.0435776356700282,0.44409508433194095,-0.010781748692897353,0.020932493804139085,0.018606959896368794,2438.6361764472667
1684734516301896095,13,1684734516301896095,camera_2,15,0,1.2121654655465375,-0.1448916847274707,0.9586128199482378,-0.8946318137442795,0.04424722295488029,0.4444517236803334,-0.011779915745983261,0.02087920705162105,0.018540807925507493,2442.9235076209893
1684734516312127590,14,1684734516312127590,camera_2,16,0,1.21355901386128,-0.14491391248702298,0.9596958353770225,-0.8947935266858278,0.043150633480541246,0.44427084552965235,-0.01029481635264924,0.021116481108037988,0.01874596803910593,2439.269294834172
1684734516322053194,15,1684734516322053194,camera_2,17,0,1.2128268601420809,-0.14444938141337355,0.9591361136656851,-0.8942857217324978,0.04334311130271479,0.44528002589194987,-0.010006055648994832,0.014469319303316297,0.012836596490621613,2435.8846793036205
1684734516332036972,16,1684734516332036972,camera_2,18,0,1.2132622326477045,-0.14352484138754582,0.9595134864246357,-0.8940743097494508,0.04382455495816792,0.44564955687403657,-0.010344538981346506,0.02670859517820645,0.023720492608577327,2432.779166905151
1684734516342003345,17,1684734516342003345,camera_2,19,0,1.2157405683347329,-0.1434738001056104,0.9615127228033479,-0.8948517806115425,0.04443697348540942,0.44403757648951286,-0.00981207364062548,0.016487337856233353,0.014669805381346148,2434.6322309416723
1684734516352163076,18,1684734516352163076,camera_2,20,0,1.2130521173826627,-0.1429884905129646,0.9593743459428956,-0.8942409755335137,0.04427094900370741,0.4452818568524544,-0.009860461916725937,0.014520123881084146,0.012877213161301174,2437.0470243633017
1684734516362008333,19,1684734516362008333,camera_2,21,0,1.2126389757059506,-0.14299264090315988,0.9590380527539142,-0.8942216947651715,0.04394295411254326,0.445354075147413,-0.00981453741955052,0.029481847333954647,0.026125386757385443,2438.1470041815182
1684734516372047185,20,1684734516372047185,camera_2,22,0,1.2124857011348302,-0.14368903644208117,0.9588022565043751,-0.8945272378875712,0.043052352225045935,0.44478928697900255,-0.011402010078654318,0.01586694049547077,0.014075335843037051,2440.9902166129896
1684734516382256031,21,1684734516382256031,camera_2,23,0,1.2148105224323693,-0.14442803221327835,0.9605661337870578,-0.8948798658594139,0.043790127645820756,0.4440134457422544,-0.011158422840630976,0.019422527420829283,0.017287487446042093,2436.6458553581606
1684734516392104148,22,1684734516392104148,camera_2,24,0,1.213883351685409,-0.14467867033344486,0.9597622730322464,-0.8947057729647182,0.04390811687857841,0.4443752400217477,-0.010212891431781121,0.019474274224194232,0.017298830415262003,2437.88364232413
1684734516402022838,23,1684734516402022838,camera_2,25,0,1.2116837424420055,-0.1445908815085861,0.957969004648098,-0.8942478654031933,0.04361480765536342,0.44531377811378736,-0.010683763243472687,0.017711722528474638,0.01569951186209446,2439.8281764103435
1684734516411954641,24,1684734516411954641,camera_2,26,0,1.2154489197240113,-0.14472766791351094,0.9609399697527125,-0.8950733641464828,0.043896887405249184,0.4436401980068497,-0.010005537670316762,0.014805651171627687,0.013170715513321192,2436.942161519837
1684734516422028303,25,1684734516422028303,camera_2,27,0,1.2139037504620074,-0.1441337459295369,0.9597408493298024,-0.894768704627119,0.04359003581824032,0.4442816495602409,-0.010133600609036258,0.018772463507048087,0.016663868782123156,2439.174865225563
1684734516432058334,26,1684734516432058334,camera_2,28,0,1.2134252555981462,-0.14359899842380264,0.9594157941814392,-0.8946064192519623,0.04412381994472892,0.44454327342507166,-0.010664014215541846,0.014610469195758924,0.012970093024550102,2439.7295942531787
1684734516441895723,27,1684734516441895723,camera_2,29,0,1.2152174728174334,-0.1434027083382173,0.9608799658015476,-0.8945215770253495,0.04364667187153997,0.444783631289128,-0.009676652720697822,0.019107486648863414,0.016988728769594907,2431.7325469462085
1684734516451887369,28,1684734516451887369,camera_2,30,0,1.2135152437643701,-0.14294526678579383,0.9596047316248888,-0.8942593731083432,0.04364505535803725,0.44529370615354064,-0.010430628490698588,0.0214268731942866,0.019021396811668104,2435.028925603372
1684734516462013006,29,1684734516462013006,camera_2,31,0,1.2121014833902792,-0.14298913587569564,0.9584848017560101,-0.8941235696285998,0.04368737856155816,0.44554849339041724,-0.010999783023272567,0.012899306617327966,0.011437345495852147,2438.4187450326276
1684734516471974134,30,1684734516471974134,camera_2,32,0,1.2137864847818371,-0.14359884981954393,0.9598208816233235,-0.8946036515105269,0.043541518935555315,0.44461081772118843,-0.01047203887084053,0.01746278940117918,0.01550492515560186,2437.7951154538887
1684734516481835365,31,1684734516481835365,camera_2,33,0,1.2148564100405834,-0.14420486896458945,0.9606379991336147,-0.895236437556753,0.04317723788102569,0.44335410313515616,-0.011161820321091462,0.019199209044018062,0.017070760390685433,2441.1719050339893
1684734516491895198,32,1684734516491895198,camera_2,34,0,1.2137714331515044,-0.14488000563677894,0.9596992245534555,-0.8949116414253684,0.044383769877448194,0.44388911292081945,-0.011211174924453313,0.02030106798338238,0.018049117777966604,2441.002978548582
1684734516501948118,33,1684734516501948118,camera_2,35,0,1.2147986835182185,-0.14511396530083065,0.9605303977046353,-0.8949431543393519,0.04420918347675253,0.4438502252256982,-0.01092136276051454,0.015032561925181653,0.01338270498801951,2437.075423110684
1684734516512109518,34,1684734516512109518,camera_2,36,0,1.2128695399160727,-0.14471915459893328,0.9590223481677199,-0.8945239497624177,0.044161555057968496,0.44471884465188893,-0.010090072734860036,0.015078365486260736,0.013378374728647415,2439.405590405687
1684734516522130727,35,1684734516522130727,camera_2,37,0,1.2132433932153157,-0.14445511903648467,0.9594059763281331,-0.8943002295245063,0.0437578152076675,0.44520141652368556,-0.01039479706251472,0.02010455323033966,0.017857114150863725,2434.758229551372
1684734516531931638,36,1684734516531931638,camera_2,38,0,1.2158832171512737,-0.14386831688025867,0.961611289200338,-0.8952154967178545,0.04473142617654287,0.4432732176359842,-0.009857407116419734,0.020154327710770307,0.017930800517242967,2438.8330547581436
1684734516542100191,37,1684734516542100191,camera_2,39,0,1.212419275264008,-0.14313159186123486,0.9589071704256841,-0.8935527231271544,0.04346389731078097,0.4467651269852149,-0.008679973069642292,0.011640531854936853,0.010311927852541727,2429.3863230617726
1684734516552229881,38,1684734516552229881,camera_2,40,0,1.2148339242715949,-0.14327681288690808,0.9608872889963221,-0.8947641272413202,0.043874419934984525,0.44426945475019564,-0.009840907143721541,0.01981375385366846,0.017603123219313167,2436.6471113158605
1684734516561917781,39,1684734516561917781,camera_2,41,0,1.2137600654123741,-0.14326648075375392,0.9600503122290664,-0.8945305706026774,0.04392618378144946,0.4447542643230631,-0.00889904501043083,0.0154096912156092,0.013659429694556512,2437.844841563492
1684734516571948766,40,1684734516571948766,camera_2,42,0,1.2120999042581349,-0.14381979920468344,0.9586710787322305,-0.8941523527333891,0.04285335245496457,0.44560960445668757,-0.00934027305115256,0.01710404656478204,0.015140612618734773,2437.3790181413065
1684734516581921815,41,1684734516581921815,camera_2,43,0,1.2148502819223472,-0.1446328886068057,0.9608182534121306,-0.8950824822413441,0.043084088923908775,0.44368970033139626,-0.010514803189143093,0.020377633063617395,0.01811693060986375,2438.463964882072
1684734516591904878,42,1684734516591904878,camera_2,44,0,1.2130502202654365,-0.14476671328843715,0.9593298013073491,-0.8949371578605885,0.04308536881503749,0.4439745859459535,-0.010849032611421595,0.0202723059192067,0.01798647934259632,2443.1899225392253
1684734516602025985,43,1684734516602025985,camera_2,45,0,1.213355994975183,-0.14499647804647103,0.9595241300316575,-0.8947397362280978,0.04444876095853584,0.4442215036784164,-0.011505117705251257,0.014429125010792632,0.012831936857083674,2439.9194500743765
1684734516612170219,44,1684734516612170219,camera_2,46,0,1.2122120750280467,-0.14455573377184766,0.9586532079918211,-0.8941518632298247,0.04376605899328347,0.4454845479799297,-0.01097702482220316,0.024034045258304104,0.021336730487699625,2436.358014715778
1684734516622054815,45,1684734516622054815,camera_2,47,0,1.2119417272629283,-0.14410934022955751,0.9584563070189551,-0.8941707475490971,0.043574398060895234,0.44547625527305806,-0.010528629968470002,0.016411592790973373,0.014549923866889369,2438.1930374717344
1684734516631992340,46,1684734516631992340,camera_2,48,0,1.2145967644254674,-0.1439334309680365,0.9606010738458781,-0.8945494541283505,0.04403279115467525,0.44468863557888777,-0.009716213706292316,0.02703310002470971,0.024026360083675747,2433.9892306520483
1684734516642028093,47,1684734516642028093,camera_2,49,0,1.2137398475857668,-0.14343130570527254,0.9599539312765956,-0.8940944850227817,0.043770293703322784,0.4456197611997856,-0.010111462269011887,0.024582158512203023,0.02184023259518539,2431.3096468434665
1684734516652110815,48,1684734516652110815,camera_2,50,0,1.2122083778922494,-0.1429303087711793,0.9587468300799323,-0.8940403264290916,0.044472185958393376,0.44566352326518777,-0.009906736370007026,0.016311384770233417,0.014454391588483198,2437.7297585508786
1684734516661975383,49,1684734516661975383,camera_2,51,0,1.213255567137344,-0.14326608771735846,0.9595789794491753,-0.8945793219841244,0.04418324756112296,0.4445992418620709,-0.010353330336120964,0.023571180634462507,0.02091158098661769,2440.372020874288
1684734516671901226,50,1684734516671901226,camera_2,52,0,1.2117382954817493,-0.14343922476404072,0.9582924849395296,-0.8942271187652355,0.04394569239923039,0.44533681806675574,-0.010087351414255196,0.01547584106810973,0.013702678717589095,2441.0629323439216
1684734516682034015,51,1684734516682034015,camera_2,53,0,1.213786200097566,-0.14414294201477965,0.9598401885762395,-0.8946654982625246,0.043378403759291015,0.4445020895850081,-0.010481061994181176,0.006870227603940293,0.00610137722255376,2437.759441000526
1684734516692057609,52,1684734516692057609,camera_2,54,0,1.2144214924345866,-0.14492931994744945,0.9602207808676106,-0.8951124725239872,0.04389457227496621,0.44353178105268287,-0.011246655192859556,0.01879092444505659,0.01671473882503947,2440.7880430828673
1684734516702035188,53,1684734516702035188,camera_2,55,0,1.2137819589517806,-0.1449225440074539,0.9596580272104359,-0.8947256480895324,0.04355193964955361,0.4443560255606687,-0.010815070570926254,0.020209745998727158,0.017961831636665905,2437.7890607035356
1684734516712071418,54,1684734516712071418,camera_2,56,0,1.212818158157535,-0.14463920969842806,0.9588720718941367,-0.8944100756677003,0.04373601218674406,0.44499198366214493,-0.009995611963718183,0.017583740198460873,0.01559772884895175,2437.893554167822
1684734516721970081,55,1684734516721970081,camera_2,57,0,1.2145176377535145,-0.14445772902033252,0.9602595815123305,-0.8947711562711697,0.04420637916397184,0.44421159572745966,-0.01031659670769899,0.022688723198371008,0.02017324356492526,2436.851897992253
1684734516732061147,56,1684734516732061147,camera_2,58,0,1.2133293759150985,-0.14338371461670857,0.9593833944257616,-0.894217846052213,0.04354778204306791,0.44539820718208356,-0.009923281707978904,0.019446621707174927,0.017253697149614916,2434.706164677685
1684734516742037773,57,1684734516742037773,camera_2,59,0,1.2127588164460408,-0.142975015622424,0.9589641597492032,-0.8938848888404771,0.04414605948271211,0.44600010896277364,-0.010238834894204093,0.017889786631712923,0.01587440485253765,2433.204226245287
1684734516751836776,58,1684734516751836776,camera_2,60,0,1.2140259268256433,-0.14297545249539606,0.960005079848668,-0.8943345388417474,0.043873310282095276,0.44510344454326006,-0.01112604760618589,0.028413500491296872,0.02526229449640436,2434.0785652885697
1684734516761846780,59,1684734516761846780,camera_2,61,0,1.2130008235438623,-0.14295094062913968,0.9591640546556512,-0.8941329107804451,0.04319089463912371,0.4455882694610031,-0.010581994061109571,0.025062984510441314,0.022236903434200254,2434.882685146469
1684734516772143840,60,1684734516772143840,camera_2,62,0,1.213286845368447,-0.14373059564454765,0.959349139234441,-0.8943892363839981,0.04334254006604624,0.4450578892536536,-0.010620417795668743,0.017693231100565754,0.01570635221633569,2436.442739987747
1684734516782067775,61,1684734516782067775,camera_2,63,0,1.2132286890224417,-0.1442276101881818,0.9592429981839226,-0.8943213540263608,0.044267835940133324,0.4450893533222976,-0.011186688195031535,0.008694475531228818,0.007729026555049451,2435.695066858898
1684734516791991233,62,1684734516791991233,camera_2,64,0,1.2150358542675053,-0.14480574364549423,0.9606599439060968,-0.8947509019276725,0.042919022979188516,0.444380145484506,-0.010250232450915001,0.039380177717248444,0.03503143655256492,2433.135961814143
1684734516802063941,63,1684734516802063941,camera_2,65,0,1.2135496323229285,-0.14486051720681659,0.9594615991177526,-0.8949846522761918,0.04349003913467237,0.4438466181569859,-0.010548376023606372,0.0224927963281516,0.01996477408840121,2442.395967762044
1684734516812024354,64,1684734516812024354,camera_2,66,0,1.2142275861819496,-0.1446572443842341,0.9600505755955124,-0.8947119825770505,0.04339278398128677,0.4444175193989063,-0.010030103823970645,0.025369631872308673,0.022538267004729145,2436.2977997824783
1684734516821996212,65,1684734516821996212,camera_2,67,0,1.2155259075600955,-0.14441398409409448,0.9611426524263887,-0.8949177620329994,0.043430327330014194,0.44398664215290995,-0.010576741258039252,0.02297444865689613,0.02045379325337511,2434.2869500881075
1684734516832007169,66,1684734516832007169,camera_2,68,0,1.213704393278897,-0.14376651035848487,0.9597987686666475,-0.89449449217929,0.043684061016644904,0.4448220279045368,-0.010230824253393637,0.020484565411607036,0.018188071478914283,2436.5343405998447
1684734516841940164,67,1684734516841940164,camera_2,69,0,1.2129335984978167,-0.14326902965617808,0.9592435794985767,-0.8937244615169839,0.043577694546998794,0.44639641433822036,-0.009370842551521394,0.02166421069705393,0.01921721214372606,2429.5942634185194
1684734516852086782,68,1684734516852086782,camera_2,70,0,1.2126449064022549,-0.1429887641764077,0.9591013677581761,-0.8939237338185795,0.04374482036838367,0.44596858685967455,-0.009938226258855123,0.027897758456674637,0.024739614732514473,2433.7621472949386
1684734516862094640,69,1684734516862094640,camera_2,71,0,1.213308164209661,-0.14328949926071877,0.9596188861856652,-0.8942671163043259,0.04416976806552553,0.44524603099671944,-0.00955657718283768,0.017085944360587746,0.015155901083232432,2435.9873231766987
1684734516872034072,70,1684734516872034072,camera_2,72,0,1.213361705463711,-0.1436976462254008,0.9596626733733152,-0.8942589000728248,0.04400020678744885,0.44525303314076564,-0.010711578882280562,0.017664488059381256,0.015694478253679922,2434.7134289281676
1684734516881963729,71,1684734516881963729,camera_2,73,0,1.2133410022718218,-0.1441787245628543,0.9596002258044319,-0.8944942466067562,0.043462437803803815,0.4448370221787679,-0.010539591390976814,0.015703694971307414,0.013943860994956361,2437.0591842085123
1684734516892049551,72,1684734516892049551,camera_2,74,0,1.213839400455352,-0.14499448869995263,0.95993467033293,-0.8947648249120678,0.04377934847405659,0.44424479495260727,-0.011217794113810069,0.01764715343597345,0.015695666389903856,2437.9216589619186
1684734516902059316,73,1684734516902059316,camera_2,75,0,1.2123765504153476,-0.1449377123165197,0.9587989250781931,-0.8944392689183697,0.04374667662137241,0.44490884704886746,-0.010988189978562084,0.01793033461581217,0.015916745780201233,2439.1634653534843
1684734516911978483,74,1684734516911978483,camera_2,76,0,1.215226255959633,-0.14513368363217444,0.9610550520325627,-0.894947635826824,0.04356181723645982,0.44390779379757334,-0.010815165870517193,0.031485985633480595,0.028041483255225208,2434.8575384250144
1684734516921991825,75,1684734516921991825,camera_2,77,0,1.2117650428613722,-0.1443859015917539,0.9583570542080178,-0.8939745084327574,0.043340749083102356,0.4459043128131331,-0.010025046432472618,0.016647313477733405,0.01475400247185746,2435.7075298302807
1684734516932069063,76,1684734516932069063,camera_2,78,0,1.2147246211848992,-0.14381465178472985,0.9607783154071355,-0.894809613012626,0.044760413893160385,0.44410475569851565,-0.009122925751614708,0.02140233321188134,0.019006999074978114,2437.9246244791448
1684734516942008733,77,1684734516942008733,camera_2,79,0,1.2135820501715375,-0.14332443019135768,0.959895191168256,-0.8941771964787939,0.04408931977232764,0.4454474794027238,-0.008933995360303095,0.020670685888035223,0.018333933424208797,2433.708796026999
1684734516952095270,78,1684734516952095270,camera_2,80,0,1.213669501363382,-0.14318619438686925,0.9599861035301441,-0.8944556551300442,0.043841292617776875,0.44490485335231905,-0.009310936098887527,0.01722541383060161,0.015275244297282577,2437.0841270510573
1684734516962004661,79,1684734516962004661,camera_2,81,0,1.2145976750805434,-0.14337060075271377,0.9607082769373324,-0.8946331882436224,0.044119515650905355,0.44453047853956906,-0.00880797826759912,0.016266675520455465,0.01443574244951805,2436.0759944685274
1684734516971919298,80,1684734516971919298,camera_2,82,0,1.2125093878140107,-0.14385147170855395,0.9589627039418509,-0.8940695093776849,0.0437180294316582,0.44567691187149505,-0.01002679053566685,0.018154842822696082,0.016102271014400447,2435.144539453322
1684734516982090950,81,1684734516982090950,camera_2,83,0,1.2145094119228832,-0.14451851054748033,0.9604540531077238,-0.8949448814839093,0.04343715000472535,0.4439224403033906,-0.010942581975979436,0.016684691105183447,0.014838031680502899,2438.2534656408825
1684734516991869211,82,1684734516991869211,camera_2,84,0,1.2133397110976367,-0.14471803137514183,0.9594424963738392,-0.8946893925462575,0.04299755821808403,0.44448884274457395,-0.01057211086211376,0.017877505597425625,0.015870106456081397,2438.7870035843216
1684734517002105951,83,1684734517002105951,camera_2,85,0,1.2137325965765087,-0.14493426644011842,0.9596932951536424,-0.8948215054286442,0.04436842904749576,0.4440768613425945,-0.011029829843764282,0.017198096571519272,0.015290040982252819,2439.8437209782433
1684734517011981248,84,1684734517011981248,camera_2,86,0,1.2132002113241283,-0.14449054386508836,0.9592217622012028,-0.89437750259388,0.04365629773964886,0.44505746443313615,-0.010337498437688594,0.02579369131490239,0.02290155889578168,2435.9993220401802
1684734517022014141,85,1684734517022014141,camera_2,87,0,1.215473166244975,-0.14432901343691834,0.9610330062798631,-0.8950726341770753,0.04354071576660865,0.44368877379194804,-0.009458204313754645,0.026221462994726608,0.023303129466373324,2437.183189932257
1684734517032131910,86,1684734517032131910,camera_2,88,0,1.213751414872858,-0.1436334096347872,0.9596865961346028,-0.8946133645739635,0.04385239374325434,0.4445469768657494,-0.011039965949317047,0.01548358719810494,0.013756861056088657,2438.197043181164
1684734517042046546,87,1684734517042046546,camera_2,89,0,1.2148055766398451,-0.14332463585510294,0.9605490451334361,-0.8949003967845469,0.04317812283170674,0.44404339114732466,-0.01069562162638871,0.018327716610656353,0.016287106056524656,2438.028601514409
1684734517051921367,88,1684734517051921367,camera_2,90,0,1.213696232021897,-0.14289867438437115,0.9596899559206546,-0.8944539362930742,0.04300376668887473,0.4449485944097143,-0.011116664662289208,0.024140714114764705,0.021438162303468924,2436.442891144892
1684734517062063217,89,1684734517062063217,camera_2,91,0,1.2155750573350557,-0.14332125613167065,0.9611633458556208,-0.8953116028667402,0.04388008856941304,0.4431361768569257,-0.011045377311639895,0.011441461614595028,0.010177822248370333,2441.200038329524
1684734517072119712,90,1684734517072119712,camera_2,92,0,1.2148149953965006,-0.1435874303512814,0.9605117787868528,-0.894728068327433,0.04406507720262452,0.44429865192593404,-0.01089314532102234,0.018199219939560862,0.01619063740127103,2435.9654349233033
1684734517082100391,91,1684734517082100391,camera_2,93,0,1.2132731524461862,-0.1438976849929448,0.9592229625301693,-0.8944210958188266,0.043720392502672116,0.4449566766311909,-0.01062951339373825,0.011703530501108617,0.010390884905480744,2437.0858101277836
1684734517091828823,92,1684734517091828823,camera_2,94,0,1.2133940792310993,-0.14467870416969175,0.9592797920452236,-0.8945182474989154,0.04414677011666014,0.44472315835069953,-0.010463269389371256,0.022787503505242057,0.020241247438358888,2437.3784236677457
1684734517101947307,93,1684734517101947307,camera_2,95,0,1.2124744475665414,-0.14467518552464814,0.9585543402529392,-0.8941804998022499,0.043699114332996676,0.44546265914764877,-0.009728334133656594,0.024757606122875586,0.021952665727531972,2436.0848685394753
1684734517112113952,94,1684734517112113952,camera_2,96,0,1.213863882168161,-0.14473997512321363,0.9596989550965652,-0.8947206957873906,0.04394560015186626,0.4443467357416891,-0.009981943334120382,0.03449170560998027,0.03062962137027136,2438.2321173814134
1684734517122178554,95,1684734517122178554,camera_2,97,0,1.2142665976705898,-0.1444782819858786,0.9600684161628144,-0.8947396787132749,0.0437984059608947,0.44431372491471416,-0.010388494778462732,0.0119190336590691,0.010593482376164552,2436.985325929417
1684734517131853342,96,1684734517131853342,camera_2,98,0,1.2128707787064619,-0.1434480810726644,0.9591418702938347,-0.8943020462342876,0.044362022159042405,0.4451351464812058,-0.010514868438672859,0.02644537654487067,0.023468083744100386,2437.989434681019
1684734517142049551,97,1684734517142049551,camera_2,99,0,1.2122093622601606,-0.14305461604242897,0.9586573374061103,-0.89373191530872,0.044524208466450735,0.44629667058294953,-0.008952108445350264,0.01263298608319019,0.011190485898244198,2433.624281759141
1684734517152015209,98,1684734517152015209,camera_2,100,0,1.2131996142306252,-0.14304321701587547,0.9595241979396139,-0.8940883476126363,0.044172480137412054,0.4455997212493273,-0.009782999761698151,0.026062779958010648,0.023124774878712846,2434.228339079535
1684734517161975383,99,1684734517161975383,camera_2,101,0,1.212404679987709,-0.1431089831866781,0.9589195684340238,-0.8941254713864718,0.0438823596473924,0.44557537832051836,-0.0087499808127462,0.009733520088047953,0.008614097929569037,2437.7121820107577
1684734517171871423,100,1684734517171871423,camera_2,102,0,1.2148164970606683,-0.1441638539233931,0.9608053760004939,-0.8950888770153641,0.043762866288747065,0.44361674754385505,-0.010241829728102147,0.01938390992654604,0.017226313764141736,2439.900944803724
1684734517181947469,101,1684734517181947469,camera_2,103,0,1.2135021213423665,-0.14449355223016885,0.959745856111405,-0.894938333348297,0.0432117847296259,0.44398045181049633,-0.009973944776289384,0.02133747981133638,0.01892346370881486,2442.1131463513593
1684734517192020893,102,1684734517192020893,camera_2,104,0,1.2125973869381828,-0.14475262957092783,0.958965707697983,-0.8943027493032256,0.04358773199299944,0.4451975972362395,-0.011036377280494624,0.021225953842076706,0.018851905329115775,2436.529311894381
1684734517201910495,103,1684734517201910495,camera_2,105,0,1.2129412826017525,-0.14498230563567086,0.9592107887330634,-0.8944794851190386,0.04355732439167559,0.4448317143489073,-0.01157394066125604,0.018009880237514153,0.01601021837748846,2437.194949804515
1684734517211909294,104,1684734517211909294,camera_2,106,0,1.213764546854856,-0.14479552708762317,0.9599130056913123,-0.8948264729914743,0.04386065965908756,0.4441263344894594,-0.010659492523796537,0.020662352173530962,0.018359551243757054,2439.514505269704
1684734517221926450,105,1684734517221926450,camera_2,107,0,1.2129647019033885,-0.14426429072404776,0.9593199493164379,-0.8941862164762964,0.044281058498648565,0.44539043961735003,-0.009876964083612038,0.018517521592002595,0.01643733102277179,2434.9550005186466
1684734517232044219,106,1684734517232044219,camera_2,108,0,1.2132352180378136,-0.14384433544687544,0.959594487751568,-0.8940573235603797,0.04389229256571574,0.44570640578996457,-0.008987139654396745,0.014257839113270165,0.012646426784132489,2432.5511636908627
1684734517241944313,107,1684734517241944313,camera_2,109,0,1.2150235960126545,-0.143634753998436,0.9610483737528718,-0.8947239518034937,0.04424788903541098,0.444327257041955,-0.009190377283966293,0.020356499662739225,0.01808595103523478,2435.3576280602138
1684734517251886367,108,1684734517251886367,camera_2,110,0,1.212821595384301,-0.14307571619122603,0.9593361960697374,-0.8942594644244255,0.044060153997108824,0.4452769761768358,-0.009334216834014739,0.026098740883753635,0.023123505052954366,2437.9600515615903
1684734517262067794,109,1684734517262067794,camera_2,111,0,1.213879870183282,-0.14337837742091025,0.9601285792440285,-0.8945171027718408,0.04406007950009147,0.4447573921209303,-0.009419362871588836,0.016000620282284217,0.014196711990840676,2437.036166162289
1684734517272015333,110,1684734517272015333,camera_2,112,0,1.2128837260897936,-0.14360537264506162,0.959290189914912,-0.8943529345616141,0.043595089600567356,0.4451279369815902,-0.00966521196153026,0.0261032669513952,0.023137354083524537,2437.93393189757
1684734517281953811,111,1684734517281953811,camera_2,113,0,1.2152354833812564,-0.14433447867882157,0.9610809186956482,-0.8951710318544036,0.04318894020992518,0.4435073195008825,-0.01023702698091735,0.018491480572265573,0.01643899833054924,2438.7745882472955
1684734517291932344,112,1684734517291932344,camera_2,114,0,1.2125692316666665,-0.14470223238867735,0.9588000609698093,-0.8945326346908394,0.04350252683297692,0.44476166161652225,-0.0102936868187061,0.01580632293553208,0.014016914196782875,2440.11633209046
1684734517302000999,113,1684734517302000999,camera_2,115,0,1.2128252877039365,-0.14480522753152025,0.9589683855770593,-0.8946161329865493,0.043294667629599125,0.4445940522354195,-0.01112092945416109,0.031321147180278786,0.02780688856850493,2439.813619563821
1684734517311999082,114,1684734517311999082,camera_2,116,0,1.2130242896915244,-0.1446464146558603,0.9590923481596961,-0.8944560162373019,0.04319021670010863,0.4449427561012015,-0.010439539805953798,0.0248697787465062,0.022072842334229147,2437.146866931113
1684734517321960926,115,1684734517321960926,camera_2,117,0,1.2159992004734064,-0.14462852047335825,0.9614339465702013,-0.895092392343909,0.044229903349877406,0.4435458339435787,-0.01097351397746149,0.02703540021684603,0.0240986770787872,2435.208791024401
1684734517331848144,116,1684734517331848144,camera_2,118,0,1.2124856881797434,-0.1432744083138368,0.9586960117430543,-0.8939605662657831,0.043719127883068,0.4458993750537745,-0.009843330003491567,0.012646091359783895,0.011209970393981986,2434.701778204996
1684734517341882228,117,1684734517341882228,camera_2,119,0,1.2125260779129472,-0.1429202788609711,0.9587893366634743,-0.8938293913954952,0.04369904723504236,0.44615253853076214,-0.010359764035205587,0.04087459832953755,0.036257515529239025,2433.038572665421
1684734517352024555,118,1684734517352024555,camera_2,120,0,1.2137216342438208,-0.14291269748872207,0.959738490217935,-0.8945271693355785,0.04371999032426914,0.4447514172361679,-0.01028992871419189,0.021911445077421376,0.019443735123993323,2438.0985366258533
1684734517362047195,119,1684734517362047195,camera_2,121,0,1.2134953739530256,-0.14299342365036233,0.959554480436288,-0.8944352027421344,0.04356709159783082,0.44493615758428356,-0.010926678336828661,0.02605017503083218,0.023129013583675785,2437.3216095137177
1684734517371855974,120,1684734517371855974,camera_2,122,0,1.2135677187842384,-0.14377302289309668,0.9595366333633862,-0.8944724493116868,0.043913006019922214,0.44482960760874524,-0.010830767253324242,0.010640981246979209,0.009453201056951913,2436.8701708071158
1684734517382031679,121,1684734517382031679,camera_2,123,0,1.2135766880104417,-0.1442620128492849,0.9594909523352853,-0.8946867738679232,0.04373166467294009,0.44442089000261575,-0.010639111806164446,0.01480661955429241,0.01314862558051139,2439.104719341849
1684734517391999959,122,1684734517391999959,camera_2,124,0,1.2133354590240133,-0.14460150344591544,0.9592655929424718,-0.8947744925108206,0.043442970360928576,0.4442788799465854,-0.010372690664933976,0.02956574081326835,0.026234709833721257,2440.6943803749764
1684734517402064800,123,1684734517402064800,camera_2,125,0,1.213895194533448,-0.14489481407547883,0.9597021069344303,-0.8950033723761446,0.04352376503430158,0.44381360921955293,-0.010204194435687037,0.026259231777657988,0.0233106595001526,2441.4231331375195
1684734517411913394,124,1684734517411913394,camera_2,126,0,1.2141199569087258,-0.14462378412257157,0.9599145299317048,-0.894717455578107,0.043698681650868425,0.4443844960560238,-0.00967055173441509,0.023434320311935153,0.020807808609087305,2437.210187951686
1684734517422036647,125,1684734517422036647,camera_2,127,0,1.2132556255859628,-0.14412897733878047,0.9592723785074984,-0.8942072865116429,0.043625848408221195,0.4454197919951851,-0.00955630677162449,0.019884791967342608,0.01764256734266089,2434.069044875214
1684734517432010412,126,1684734517432010412,camera_2,128,0,1.2127006437946395,-0.14357855810631262,0.95890366119339,-0.8938980017944378,0.04352856858604451,0.44602722549303886,-0.010551787703664774,0.02661935642026947,0.02363042839530495,2432.2687355846874
1684734517442043542,127,1684734517442043542,camera_2,129,0,1.2132247225854382,-0.14324832155528228,0.9593874079431836,-0.8941532593876125,0.04303725165115808,0.445567386227066,-0.01036571404219858,0.017355980322463438,0.015402524538713163,2433.8003998508784
1684734517451908111,128,1684734517451908111,camera_2,130,0,1.2130052363251964,-0.14295087875494703,0.9592971570700247,-0.8942253577048171,0.0440835819130478,0.44533401468599604,-0.009760266751499644,0.026339930456742877,0.023353271872150368,2436.9800011389884
1684734517462007045,129,1684734517462007045,camera_2,131,0,1.2118278441734873,-0.14302909316230816,0.9583698332734472,-0.8940706624131894,0.043400384380990864,0.445709255641551,-0.00986492184852145,0.02466810967598576,0.02183578813304399,2438.7028583352217
1684734517471995830,130,1684734517471995830,camera_2,132,0,1.2125294490021712,-0.1435002737025693,0.9589177862110282,-0.8939802244767004,0.04448733047739963,0.44577256929825726,-0.010346600060572548,0.009476543593336828,0.00841031228726302,2434.8577803801745
1684734517482016324,131,1684734517482016324,camera_2,133,0,1.2131101087566567,-0.14406214333996126,0.9593565852179045,-0.8944651824312556,0.04308739879385163,0.4449267962581457,-0.010754508583039885,0.017673402315267595,0.015688168023734718,2437.385727451998
1684734517492083787,132,1684734517492083787,camera_2,134,0,1.2141416838417403,-0.14496763547144648,0.960141910076206,-0.8949165264977823,0.04397924327021131,0.443913414833134,-0.01145062852901762,0.016705104659195058,0.014864620375243956,2439.0124526912687
1684734517502142190,133,1684734517502142190,camera_2,135,0,1.2131022857480183,-0.14494984644336162,0.9593296735255639,-0.8944712923793299,0.04393219610756555,0.4448350301783014,-0.010623802553112814,0.013273738808493363,0.011791501366917815,2437.0577324039195
1684734517512226104,134,1684734517512226104,camera_2,136,0,1.2123421206990062,-0.14476542570814427,0.9587697294582722,-0.8942190592347303,0.04391553142956156,0.44532854495354635,-0.011233309849306861,0.013537595008529024,0.01202513177602502,2436.537094334781
1684734517522311449,135,1684734517522311449,camera_2,137,0,1.2134961032623557,-0.14455311010844807,0.959749573836739,-0.8944620067083292,0.0433336116936476,0.44493150509331036,-0.009791446690600756,0.024627488528494727,0.02186032651401136,2435.6113338121213
1684734517532034635,136,1684734517532034635,camera_2,138,0,1.213354776785705,-0.1436682350940865,0.9597814976153836,-0.8941541326996838,0.04405838954827048,0.44550124114158796,-0.008711453827806295,0.01707928282849025,0.015143875236882622,2433.8011278827325
1684734517542103767,137,1684734517542103767,camera_2,139,0,1.2131596385382304,-0.14332685824675687,0.9596886657598998,-0.8944316811220058,0.043871665649714155,0.4449525541171321,-0.009190720484440957,0.031274541517632315,0.027713474204783844,2438.5412607532935
1684734517552104711,138,1684734517552104711,camera_2,140,0,1.214514949841359,-0.14337132763427418,0.9607819348960206,-0.8945882146657066,0.04428103226850059,0.44459565151041225,-0.009264071485672654,0.01715900979252183,0.015237167237527003,2435.6857811280643
1684734517562027931,139,1684734517562027931,camera_2,141,0,1.213928524669661,-0.14341562192588406,0.9603755114029359,-0.8946352785383712,0.043737199590214666,0.4445538597163866,-0.009308145778831321,0.025304793976829387,0.022445269381505442,2438.0659314037766
1684734517571890354,140,1684734517571890354,camera_2,142,0,1.2134707645977452,-0.14414054541306998,0.9599340511585451,-0.8946015559164515,0.04467711880758478,0.444522872569286,-0.009561745116217263,0.011404956952901557,0.010120985593034322,2439.1553725699778
1684734517582056283,141,1684734517582056283,camera_2,143,0,1.2127307159009855,-0.14450392597185013,0.9592911537455802,-0.8941900353447261,0.04427448165493154,0.445382795086791,-0.009905392726301608,0.015177530811342876,0.013471075717075192,2435.471809057519
1684734517592027902,142,1684734517592027902,camera_2,144,0,1.2119991668559529,-0.14476811697795589,0.9586572303824441,-0.8941076583273685,0.0439946677151156,0.4455634852549389,-0.010447255163828674,0.02927821261982899,0.025978031099370545,2436.501368485624
1684734517601933479,143,1684734517601933479,camera_2,145,0,1.212058842390296,-0.14493225868425336,0.9586125707649497,-0.8942840988521754,0.043735364553086326,0.445214677377679,-0.011272066139374816,0.015643472423107596,0.013889420390943959,2438.1094006524654
1684734517611849308,144,1684734517611849308,camera_2,146,0,1.2119069882789564,-0.14454810558059622,0.958428506156061,-0.8940150823398252,0.04373965920184232,0.4457790840114233,-0.010241241123947363,0.026363699540524976,0.023379988679002758,2435.8205761623685
1684734517621937751,145,1684734517621937751,camera_2,147,0,1.2137915786318392,-0.1443190067247435,0.9599332759169895,-0.8945552788429552,0.04400563112909217,0.4446521954082672,-0.010898744961753153,0.025135511055850657,0.022347558743742172,2436.355553966655
1684734517632002115,146,1684734517632002115,camera_2,148,0,1.2146184554764405,-0.14387811236540804,0.9605757887392424,-0.8945008176104625,0.044483121293924094,0.4447450602680616,-0.009558796018460276,0.025361442094435915,0.0225425013629242,2433.7360394365396
1684734517642036199,147,1684734517642036199,camera_2,149,0,1.2136586633895479,-0.14333515526942694,0.9598196344112261,-0.8944603802610367,0.04453308217005717,0.44481713902791736,-0.009754258697346158,0.015883935018791817,0.014096665698823585,2437.5554338421207
1684734517651826381,148,1684734517651826381,camera_2,150,0,1.2133233665747332,-0.1429002067113393,0.9594893408957424,-0.8944448091944317,0.04330540786174263,0.4449566760737296,-0.010328667507620359,0.03155799575688434,0.02798863830112032,2438.1363579001636
1684734517662021160,149,1684734517662021160,camera_2,151,0,1.212899764971414,-0.14301585650206475,0.959090940106592,-0.8945093468517268,0.044035558366052975,0.4447398717620793,-0.010970162229259681,0.013652662750246236,0.012111828746419525,2440.960020112804
1684734517671870708,150,1684734517671870708,camera_2,152,0,1.2134702805722968,-0.14343193878557398,0.9594836686875952,-0.8947178280646606,0.04392357118476905,0.44432333640126237,-0.011291623748764112,0.01672339389915578,0.014851542004683324,2440.9708387037977
1684734517681907415,151,1684734517681907415,camera_2,153,0,1.2143122948396456,-0.14396379870500714,0.9600369468349231,-0.8947859310442494,0.04318929003597073,0.4442783024285087,-0.010469614257797012,0.019629884849564405,0.01743701666788591,2437.677141807275
1684734517691816329,152,1684734517691816329,camera_2,154,0,1.2127941222316099,-0.14452109622234321,0.95869687233789,-0.8944766239312825,0.04473900222655403,0.44474837358152,-0.010434323977149457,0.01515005191686214,0.013445925381134366,2439.8876315953676
1684734517701927423,153,1684734517701927423,camera_2,155,0,1.2112106496457131,-0.1444074369539709,0.9574247056520079,-0.8941324531319862,0.04375049202130233,0.44553789538049865,-0.010441957861745977,0.029265224657137878,0.025916053056976675,2440.612370781135
1684734517711940288,154,1684734517711940288,camera_2,156,0,1.2136827270728452,-0.1445469880377166,0.9593818516780515,-0.8946060716088305,0.043881465136642935,0.4445849865751038,-0.009928915856837566,0.03501815574418288,0.031086072207792293,2437.6890570194796
1684734517721882820,155,1684734517721882820,camera_2,157,0,1.2139329189099106,-0.1442443888337358,0.959620021149382,-0.894396404168598,0.043679630383683735,0.445014526737201,-0.0104514636626528,0.02509983707932406,0.022307860824112652,2433.8693014015444
1684734517731975317,156,1684734517731975317,camera_2,158,0,1.2159888902380462,-0.14360602213972098,0.9613976388419043,-0.8952554093600545,0.043452268386501146,0.44330612341893794,-0.01045625759542769,0.028387013328028843,0.025253495723033897,2438.364831989107
1684734517741929054,157,1684734517741929054,camera_2,159,0,1.213573295592428,-0.1430223007357147,0.9595485352033395,-0.8943096156774084,0.04355917855524411,0.44521475490367496,-0.009835206483804069,0.016595987344771856,0.014721894877291983,2435.5517079880224
1684734517752346038,158,1684734517752346038,camera_2,160,0,1.2133297955890612,-0.14289678365041175,0.9594141906071575,-0.8943313289493207,0.043759203347079625,0.44513972982292527,-0.010355052648068163,0.03155317998607643,0.02799531953281612,2436.964448184707
1684734517762042284,159,1684734517762042284,camera_2,161
1684734517772045612,160,1684734517772045612,camera_2,162,0,1.2121042861264038,-0.1437185492061221,0.958489343043998,-0.8939636006556827,0.0439025576606875,0.44586787216589296,-0.010172841482892672,0.016148783470271155,0.014318071679647708,2435.6334473321936
1684734517782131195,161,1684734517782131195,camera_2,163,0,1.2144825918207258,-0.14451661026653978,0.9603742595114642,-0.894958199047791,0.04380623112579375,0.44385824037681304,-0.010986287875683056,0.015527819254202768,0.013810171501306106,2438.879149468965
1684734517792113304,162,1684734517792113304,camera_2,164,0,1.2133140547469652,-0.14479500368722414,0.9594553031360409,-0.8941215648371399,0.044286261495807076,0.4455147522823398,-0.010097516264648719,0.009136644097452518,0.008120134811890936,2432.0565310580423
1684734517802044868,163,1684734517802044868,camera_2,165,0,1.2129039043567091,-0.14497798418955385,0.9591470112453929,-0.8946370810971485,0.04389533741952206,0.44448973368227085,-0.011250294656787459,0.01695466658929945,0.015062418818537012,2439.9070486881537
1684734517812086582,164,1684734517812086582,camera_2,166,0,1.2130255985878384,-0.14477302324505992,0.9593603788341801,-0.8945733955120051,0.04355454698045552,0.4446605124763384,-0.010884398179466641,0.014244267866160953,0.012650667882679933,2438.553505041811
1684734517822006702,165,1684734517822006702,camera_2,167,0,1.213539514793165,-0.1444281003719892,0.9598452371527441,-0.8945980511786435,0.04342135666844963,0.44465667728693403,-0.009452616388490577,0.01635704341242672,0.014510106347953406,2437.5902216137624
1684734517831989049,166,1684734517831989049,camera_2,168,0,1.2126076417389018,-0.1438864790789593,0.9591821978139815,-0.894335285882056,0.044666622238348365,0.4450714366549125,-0.008983627219009504,0.01643611694453284,0.014561390573231043,2439.3369091455825
1684734517842017173,167,1684734517842017173,camera_2,169,0,1.2136711004493144,-0.14360481532034663,0.9600845921519569,-0.8943148033643146,0.044402824763600864,0.44513190151064297,-0.009328016615528048,0.017761772080120863,0.015764632641198675,2434.968558508437
1684734517851984977,168,1684734517851984977,camera_2,170,0,1.2140415991520832,-0.14340823701880087,0.9604935937573026,-0.8948205965974982,0.043537293556522694,0.4441773786690573,-0.0103469924787515,0.02488261637336109,0.022091271742958354,2439.748946765554
1684734517861830949,169,1684734517861830949,camera_2,171,0,1.214662970543695,-0.14366718591607838,0.9609985454758204,-0.8949283302249895,0.04437573963941272,0.44387448993137496,-0.010464926197971708,0.027058618612500144,0.02405644594363648,2439.142099759193
1684734517872002124,170,1684734517872002124,camera_2,172,0,1.212392602850735,-0.14378200947563585,0.9591811875559098,-0.8943982921884066,0.04324050072227771,0.4450562844685454,-0.010337198982398125,0.01974897632317152,0.01750612190304239,2439.549362905672
1684734517881904125,171,1684734517881904125,camera_2,173,0,1.2139327345127564,-0.144415201333222,0.9603449683468452,-0.8947303254531956,0.044260643646308724,0.44430174617330903,-0.00972617529050073,0.017552200431964593,0.015586947674607561,2438.3879440482115
1684734517891831636,172,1684734517891831636,camera_2,174,0,1.2127984169280712,-0.14496326181055308,0.9592884518497578,-0.8945016263648672,0.04375053736328041,0.4447871122627545,-0.010823847559529202,0.019169352191966027,0.01702446206101949,2438.2930909126308
1684734517901908874,173,1684734517901908874,camera_2,175,0,1.2133203777665458,-0.14507176991047202,0.9596602621178777,-0.8948485543997149,0.04383593541109391,0.44407140262361955,-0.011183238675181537,0.014539135991071817,0.012919958549474394,2440.9305600530342
1684734517911943912,174,1684734517911943912,camera_2,176,0,1.2114635855000044,-0.1446537178726194,0.9581325127347645,-0.8939587642805065,0.04352988279807139,0.445903887296849,-0.010611331830408832,0.014490773159195669,0.012849162177145622,2436.284935793141
1684734517922016143,175,1684734517922016143,camera_2,177,0,1.2146608774521266,-0.14459844581669962,0.9606264855516016,-0.8951035853779052,0.044024209565294646,0.44355535256373047,-0.010492360451066135,0.02358383978207712,0.020966907839123902,2440.326700940902
1684734517931842088,176,1684734517931842088,camera_2,178,0,1.2139736133339731,-0.1434478494999432,0.9600235737597471,-0.8945130518024839,0.04391029635823927,0.4447701385334278,-0.009889888659332418,0.024458339335978962,0.021713582470952,2436.433514975127
1684734517941966533,177,1684734517941966533,camera_2,179,0,1.2122266007013227,-0.14284720051310035,0.9585879877768213,-0.8938088377131148,0.04438249798140022,0.44612632823864573,-0.010356386974505307,0.012788698008080246,0.01134222537264112,2434.490340807125
1684734517951964855,178,1684734517951964855,camera_2,180,0,1.2137855985275712,-0.14279533454900234,0.959752419650473,-0.8940052795396449,0.043245532065165855,0.4458382499123941,-0.010613153475558716,0.013396882772212848,0.0119034563064545,2430.321848551627
1684734517961897611,179,1684734517961897611,camera_2,181,0,1.2129328268920683,-0.14274487673098146,0.9589823323580657,-0.8941781447984956,0.044043083851726963,0.4454087941106418,-0.010800845265732446,0.007943938839162001,0.00704954393230463,2436.7237625905555
1684734517971860885,180,1684734517971860885,camera_2,182,0,1.2143496789249204,-0.14357093082397132,0.9599375537400704,-0.8947118151926624,0.04380063779946231,0.4443523385775845,-0.011102751174512836,0.03295785551381414,0.02930060642371343,2437.4617093034312
1684734517981965541,181,1684734517981965541,camera_2,183,0,1.2132924843245847,-0.14390380182943793,0.959021328552402,-0.8945630533080859,0.04387853253432134,0.44466107159198653,-0.010399492747992956,0.01821965564158745,0.016166725880387752,2439.328276715707
1684734517992079734,182,1684734517992079734,camera_2,184,0,1.213435185474214,-0.14428462830773853,0.9590293072960417,-0.8946178430739467,0.043989615787956085,0.444538000233868,-0.010478306381331811,0.02260879977620789,0.020070204349709696,2439.1926304932567
1684734518002023458,183,1684734518002023458,camera_2,185,0,1.21360447872149,-0.14451404736634849,0.9591198999309225,-0.8948632902564132,0.044042093947353186,0.44404797076674063,-0.01006903024817709,0.014954432357626501,0.01326786546802385,2441.8032968390617
1684734518012010097,184,1684734518012010097,camera_2,186,0,1.213058497843895,-0.1442189602381572,0.958724129067109,-0.893945370345765,0.04467409504479116,0.4458408809091616,-0.009581700237698491,0.01203807229467202,0.010686248493234768,2432.2024522536085
1684734518021909952,185,1684734518021909952,camera_2,187,0,1.2116463708027194,-0.1436833867975816,0.9576778019689399,-0.8938270295443494,0.04407634535104546,0.44613813164551336,-0.009554293708633001,0.028665454330621287,0.025381026885004047,2436.2087031509136
1684734518031986474,186,1684734518031986474,camera_2,188,0,1.2145766265489286,-0.1436014538710168,0.9600750206379325,-0.8942458142356743,0.04334350182834339,0.4453440334026573,-0.010698433711765236,0.026823931490071118,0.023863423949649618,2429.86715764529
1684734518042071819,187,1684734518042071819,camera_2,189,0,1.2128895216152784,-0.14306351849913734,0.9588241146276912,-0.8942650834859228,0.04352221628703676,0.44531501229887616,-0.009503524011217882,0.019552676094463095,0.017319768714647698,2437.716922642663
1684734518051994800,188,1684734518051994800,camera_2,190,0,1.2121608456006425,-0.14283568996531762,0.9584251313735186,-0.8942280250178827,0.04356880173231179,0.4453580298116803,-0.010687566162888362,0.019049765865929658,0.016878869508798234,2439.9150436483324
1684734518061938762,189,1684734518061938762,camera_2,191,0,1.2139215349829187,-0.14329577900034532,0.9598883294204457,-0.894517205998621,0.04341660308138661,0.4447881386146145,-0.01083874979140543,0.015239201256918022,0.013537936811296083,2436.3021635301993
1684734518071987390,190,1684734518071987390,camera_2,192,0,1.2128376594286112,-0.14359765215676948,0.9590448874997384,-0.8944168149620696,0.043470127258857086,0.4449878223471534,-0.010712007839060397,0.011316342282952974,0.010038983226793202,2438.762193960719
1684734518082022190,191,1684734518082022190,camera_2,193,0,1.213047882748323,-0.1441153263733056,0.9592130001838229,-0.8943278594170468,0.04344423213919494,0.4451743068123007,-0.010493575107949446,0.020473534808843397,0.018174279828594823,2436.0701454504165
1684734518091960906,192,1684734518091960906,camera_2,194,0,1.2146396527703875,-0.14512176677132813,0.9604802403357884,-0.8950397166976243,0.044034550867034034,0.4436675881402109,-0.01113261414149637,0.01968239097186597,0.017518307927190918,2438.7642370938574
1684734518101944208,193,1684734518101944208,camera_2,195,0,1.212974342743168,-0.14503117908467716,0.9591779006749228,-0.8945470452233438,0.04363168830505536,0.4447000516269145,-0.011123117407228753,0.020422890076588374,0.018144533018777196,2438.167339755397
1684734518111931324,194,1684734518111931324,camera_2,196,0,1.2142926701162127,-0.14505689558225524,0.9602596929652254,-0.8948648032658807,0.04399763171511699,0.4440482884048804,-0.010114832874226116,0.01391246632556431,0.012365717650884166,2437.9615096310154
1684734518121999979,195,1684734518121999979,camera_2,197,0,1.2146648817414372,-0.1447430903654872,0.9606548329547124,-0.8950371847664744,0.043476156037638804,0.4437454905199191,-0.010401989460255901,0.027788525552750798,0.024703532341132678,2438.7743120191144
1684734518131992578,196,1684734518131992578,camera_2,198,0,1.214137492182221,-0.14375714912725018,0.9603692194301655,-0.8944436631921681,0.04444957549170902,0.44485987940693245,-0.009718863515442882,0.01824212956125848,0.016207065450185017,2434.7526484525297
1684734518142028808,197,1684734518142028808,camera_2,199,0,1.213703199733413,-0.1433538833024297,0.9600817988677037,-0.8941209271966707,0.043780826625207894,0.44558527927149766,-0.009206827114754304,0.01841663047162001,0.01634403687829944,2432.035100748063
1684734518152034759,198,1684734518152034759,camera_2,200,0,1.2118914867576733,-0.14299149955424528,0.9587066332373355,-0.8940723564472655,0.04376552854505227,0.4456689192466873,-0.009920401478559169,0.011626462583080865,0.010295860886431361,2438.5807096390045
1684734518162026643,199,1684734518162026643,camera_2,201,0,1.2132302770537104,-0.1432519669904515,0.9597756616845103,-0.8943502874678978,0.04413192888113817,0.4450749454931641,-0.009911057137146302,0.014788137257710332,0.01311988859686058,2437.2127920496287
1684734518172024250,200,1684734518172024250,camera_2,202,0,1.2145788549936154,-0.1441385264001461,0.960766323522676,-0.8948022478680586,0.04423437354966546,0.44416951987343406,-0.009257160598225242,0.01776517674443312,0.01577746199355106,2437.412139913066
1684734518182079076,201,1684734518182079076,camera_2,203,0,1.2148559126920988,-0.14464731435439315,0.9609560686179941,-0.894956869328606,0.04390972480031061,0.4438641365900814,-0.010429111114731764,0.026759834348922595,0.023804949532671097,2437.2860858637146
1684734518192037105,202,1684734518192037105,camera_2,204,0,1.2139746822754454,-0.14490487874140817,0.9602041080883488,-0.8948491197165451,0.04401099700697361,0.4440947109622613,-0.009379380593743833,0.030928005147870863,0.027453390830980768,2439.260767205269
1684734518201764106,203,1684734518201764106,camera_2,205,0,1.2130399636229772,-0.1450001025144432,0.9594480483179797,-0.8944307515931258,0.04400190373411502,0.44491144331506927,-0.010548491817878002,0.039902384734887164,0.035447859588021,2436.6669118886357
1684734518211861133,204,1684734518211861133,camera_2,206,0,1.2122034622390048,-0.14460893296510857,0.9587716695401256,-0.8939342138680219,0.04373713606909034,0.4459355859047046,-0.010494638081588237,0.01921504827987519,0.01705835128899683,2433.3034997624923
1684734518221985101,205,1684734518221985101,camera_2,207,0,1.2138483486101113,-0.1443489405824066,0.9600740539920696,-0.8944857555331408,0.044340424892215645,0.4447757729086898,-0.010181930178583737,0.022736205064575188,0.02020682038718994,2435.5119985974743
1684734518231958389,206,1684734518231958389,camera_2,208,0,1.2145028411655046,-0.14397111658993123,0.9605918439343949,-0.8945286151166705,0.04387735064256327,0.4447475179994027,-0.009642617456491798,0.024334859888767824,0.02162477426086228,2433.843309815391
1684734518241827249,207,1684734518241827249,camera_2,209,0,1.2136642224439251,-0.1434577719783134,0.9599273536603268,-0.8943089376319161,0.04455469499183999,0.4451096065847011,-0.010190257694013194,0.01931513701856602,0.01715851788183089,2435.1151718862825
1684734518251800060,208,1684734518251800060,camera_2,210,0,1.2120420876350382,-0.1429483586263049,0.9585951911739979,-0.893772279866687,0.04373723139627609,0.4462756437997936,-0.009808979700924788,0.02615147850883659,0.023171444445728957,2434.0947031715195
1684734518261850357,209,1684734518261850357,camera_2,211,0,1.2128658238296866,-0.1432189884277087,0.959191935048015,-0.8940379733664935,0.04369304800620405,0.4457535665335086,-0.009527730963745136,0.021746552960394183,0.019278995515915887,2434.313078215113
1684734518271770000,210,1684734518271770000,camera_2,212,0,1.2139877002955877,-0.1436776020722108,0.9599878443747112,-0.8948487489883445,0.04344857136502705,0.44411204802372445,-0.011064668115497348,0.01789289611406275,0.01589497188471304,2440.0717843940956
1684734518281837463,211,1684734518281837463,camera_2,213,0,1.2151714864611516,-0.14425658448073073,0.9608265630561694,-0.8950627530644841,0.042855258498499506,0.44375964291233827,-0.010172227777987987,0.019813226521364413,0.017609507295431145,2437.5385193622205
1684734518291770696,212,1684734518291770696,camera_2,214,0,1.2125593347249877,-0.14462018900027634,0.9585484886421023,-0.8945059763344176,0.04393237944596945,0.4447629746061118,-0.010719177102220666,0.020806239615922095,0.01846011503870156,2440.3182444001427
1684734518301973104,213,1684734518301973104,camera_2,215,0,1.2110334501206026,-0.1444904087081796,0.9572862418502962,-0.8940385432939655,0.04402610548929483,0.44570186991902216,-0.010326097565729577,0.03107152240772848,0.027514504685319418,2440.136016512406
1684734518312076330,214,1684734518312076330,camera_2,216,0,1.2136167236311965,-0.14461949605186492,0.9592883385488633,-0.89480779926163,0.04416025400693173,0.4441322077266382,-0.010745064283843015,0.03488663238385925,0.030986396025940895,2440.6825777557106
1684734518322096824,215,1684734518322096824,camera_2,217,0,1.2135836195776843,-0.14421535172946776,0.9592353207147571,-0.8946431300185967,0.04386684345912586,0.4444850770629281,-0.011062830732847443,0.03816759669643943,0.033909091308367945,2438.7654631933547
1684734518332113981,216,1684734518332113981,camera_2,218,0,1.2152205803464506,-0.14345058806809155,0.9605455006777593,-0.8946282579238786,0.043579409003199385,0.44456721791868237,-0.010055047839813265,0.0241038325621048,0.021431621125734143,2433.2449201059044
1684734518342171430,217,1684734518342171430,camera_2,219,0,1.2142547946854394,-0.1429644787606446,0.959787174430447,-0.8942850200580421,0.0447152316139474,0.44513663566819717,-0.010403198906918439,0.021203512063948438,0.01884771929085217,2433.666732966086
1684734518352172136,218,1684734518352172136,camera_2,220,0,1.2124935581034293,-0.14259938007015266,0.9584223765525068,-0.8941832097151736,0.04408317557074998,0.44540296634659843,-0.01045268696170196,0.014665674494608538,0.012997546747389139,2438.972528165206
1684734518362205982,219,1684734518362205982,camera_2,221,0,1.2156662978259334,-0.14305467883546213,0.9609457609682691,-0.8946827737092145,0.04422594188738624,0.4443595788280104,-0.011461465698302063,0.017867464910523267,0.0159217314798731,2432.9108385307463
1684734518372085571,220,1684734518372085571,camera_2,222,0,1.2158719451181543,-0.14378432198537414,0.9610429782012415,-0.8949752445816084,0.043800185888204175,0.443824552350767,-0.010982806239323156,0.01885925920578302,0.016796709952356634,2435.032104225131
1684734518381901502,221,1684734518381901502,camera_2,223,0,1.2137738040421393,-0.14401966751549428,0.9593297010984112,-0.8945048820685573,0.04387983734199573,0.44479106834628923,-0.009822492032222527,0.024277593391161645,0.021547254788855042,2436.7305165514117
1684734518391980886,222,1684734518391980886,camera_2,224,0,1.21465525762084,-0.14451901187107064,0.959992169297587,-0.8951770808652048,0.04501454300043358,0.4432970329723795,-0.010928191524573853,0.014863899825286353,0.013218796212403244,2442.6187542992993
1684734518402010202,223,1684734518402010202,camera_2,225,0,1.2144417356448165,-0.14469272166288677,0.9597931758885668,-0.8948339917316321,0.0449984119763412,0.4440120179986968,-0.010029857125898513,0.018762217780022183,0.016676478472917346,2438.723168993136
1684734518412095069,224,1684734518412095069,camera_2,226,0,1.2140670738034436,-0.14442029027134612,0.9595832799152608,-0.8949035499167998,0.044413169359619815,0.44391227901713687,-0.01081643525175232,0.011122153897304088,0.009883941438045064,2440.7215409375503
1684734518422014713,225,1684734518422014713,camera_2,227,0,1.2148559557253666,-0.14412215270354953,0.960336149134051,-0.8948212547413671,0.04397518824298305,0.44413899090230474,-0.010082739824199232,0.027520920313691022,0.02446318416953344,2436.6982489263173
1684734518432010889,226,1684734518432010889,camera_2,228,0,1.215153064954875,-0.1437507287480373,0.9606573929175635,-0.8946553771115212,0.04429706847831601,0.44445225517174014,-0.00957699339163912,0.012305687723710435,0.010939964227638606,2434.051259525528
1684734518442076921,227,1684734518442076921,camera_2,229,0,1.2133783692059732,-0.14320934963862822,0.9593574904032387,-0.8941407901778882,0.04252321756613843,0.445662996455642,-0.009408341940166083,0.016672774887410924,0.014779089456010254,2433.0370635357685
1684734518452116489,228,1684734518452116489,camera_2,230,0,1.211159945840559,-0.14285107797427982,0.9578240806167219,-0.8938475353779921,0.043504494571367895,0.4461473023195504,-0.009824819782907428,0.015030396039946936,0.013294935464345521,2438.5177975484416
1684734518462062597,229,1684734518462062597,camera_2,231,0,1.2139156613919824,-0.14344546318820783,0.9600864258623293,-0.894275797301748,0.043566247352764445,0.4452857174898753,-0.009664897901564787,0.029174345025239745,0.025901852957158616,2433.088879354182
1684734518471988201,230,1684734518471988201,camera_2,232,0,1.2123313279769765,-0.1437513659415396,0.958851704797433,-0.8938858081818061,0.04348687106857217,0.4460701526480028,-0.009923350866126503,0.010614755970891565,0.00941314763982556,2433.2226880840026
1684734518482004165,231,1684734518482004165,camera_2,233,0,1.2141824766779348,-0.14451286361784196,0.9603805164612434,-0.8946955554563744,0.04453143310886895,0.44434273865985946,-0.009815554601542351,0.015469686262804316,0.013746697342914976,2437.1273613837557
1684734518492126941,232,1684734518492126941,camera_2,234,0,1.2138563271490603,-0.14533555667224857,0.9601933872008577,-0.8944750248420467,0.04326984651079677,0.4449016617096214,-0.010230431309076745,0.026803032043972053,0.023831241872778203,2433.0787049526098
1684734518501939058,233,1684734518501939058,camera_2,235,0,1.2136136706618101,-0.1454623525278441,0.9600297868214029,-0.894522874396921,0.04387033747714887,0.4447597665932072,-0.00964213100238571,0.018268771629664116,0.01622953271213425,2435.1238190496797
1684734518512160301,234,1684734518512160301,camera_2,236,0,1.2131264850314887,-0.14527473721263176,0.9596836362785628,-0.8945715285763141,0.04435063298866339,0.44461175340372766,-0.009756554176808117,0.01264172970331856,0.011223281223876672,2438.2444302735967
1684734518522181987,235,1684734518522181987,camera_2,237,0,1.212211556578877,-0.1448193846800752,0.959003583585003,-0.8941428894034458,0.04448475776191762,0.4454578056807638,-0.009845964361088219,0.015989444586011814,0.01418593776442729,2436.5025844681077
1684734518532406806,236,1684734518532406806,camera_2,238,0,1.2131463085205971,-0.14391814928598298,0.9598083254712675,-0.8941427507471292,0.043565481295055636,0.44556169795172273,-0.00925005104121234,0.033097508716309676,0.02935875075257611,2433.4670099476352
