%time,field.header.seq,field.header.stamp,field.header.frame_id,field.image_seq,field.transforms0.fiducial_id,field.transforms0.transform.translation.x,field.transforms0.transform.translation.y,field.transforms0.transform.translation.z,field.transforms0.transform.rotation.x,field.transforms0.transform.rotation.y,field.transforms0.transform.rotation.z,field.transforms0.transform.rotation.w,field.transforms0.image_error,field.transforms0.object_error,field.transforms0.fiducial_area
1682303029911359310,0,1682303029911359310,camera_1,1,0,0.6620779403679224,0.48830522650490993,1.813230449424589,-0.9801229584999221,-0.044483939500013135,0.15637247601483978,0.11370054570189035,0.20103213808033615,0.018896857407364992,20541.064623862614
1682303029921734809,1,1682303029921734809,camera_1,2,0,0.6620612537360473,0.48914910387870847,1.8132429344262073,-0.9801380374644598,-0.044486377785621325,0.15579103593939833,0.11436582893400207,0.20965470996452495,0.01970857285881858,20537.0319427622
1682303029931820869,2,1682303029931820869,camera_1,3,0,0.6619455552397233,0.48941797811888355,1.8128853896150723,-0.9801002561743695,-0.04443319918458141,0.15666793224316392,0.11350919638430165,0.23256488738115877,0.021858895201116432,20537.44705864787
1682303029941804885,3,1682303029941804885,camera_1,4,0,0.6618238888888469,0.48917399669149886,1.8125481953917262,-0.9800522524726348,-0.044468326865796715,0.15684898192535704,0.1136597870755115,0.21752051881048828,0.020436463125355412,20541.775670737137
1682303029951254129,4,1682303029951254129,camera_1,5,0,0.661797520141344,0.48849101711063814,1.8124516407485034,-0.9800174261533955,-0.04456508168405838,0.1568825118566154,0.11387570155097247,0.20202398614492267,0.01897565445079106,20545.865718833164
1682303029961527585,5,1682303029961527585,camera_1,6,0,0.6620323201379412,0.4877311038401393,1.8130407442451277,-0.9801065321067237,-0.04435645628844774,0.15659916246876815,0.11357989620237849,0.21860830223886296,0.02054391120494872,20546.478606249788
1682303029971612215,6,1682303029971612215,camera_1,7,0,0.66211263986608,0.48692499601505324,1.8131973466707376,-0.9801609971844513,-0.04448457969235769,0.15621521537332062,0.11358850405672004,0.22262318903813139,0.020921205917509487,20554.58528790821
1682303029981243610,7,1682303029981243610,camera_1,8,0,0.6618504681215707,0.4863314215844214,1.812508736789519,-0.9800881363711853,-0.044703365421457954,0.1562743030746403,0.11404909584467497,0.21067307994235307,0.019780602090786404,20567.430299157866
1682303029991335868,8,1682303029991335868,camera_1,9,0,0.6618448067035511,0.4864674131373091,1.8124962815958172,-0.9800878033224352,-0.04450809161715126,0.15673688286928447,0.11349218963269246,0.20033169019734487,0.01881145885373945,20565.36182604288
1682303030001296281,9,1682303030001296281,camera_1,10,0,0.6618440081310322,0.4871486341497048,1.812481903388494,-0.9800838376546485,-0.044692876223765866,0.1565078348653004,0.11376957242057163,0.20643794594798237,0.019386031325795944,20561.428517522872
1682303030011236667,10,1682303030011236667,camera_1,11,0,0.6621201745836588,0.48831808229973916,1.8133172104637012,-0.9801536265796823,-0.044500002162236686,0.15595416299401837,0.11400402253908835,0.1890736361965537,0.01777330193848052,20542.42584033451
1682303030021311044,11,1682303030021311044,camera_1,12,0,0.6619074950875425,0.4889993397857654,1.8127451989811847,-0.9801241595463861,-0.04444307187345729,0.15627198973891512,0.11384423770653254,0.20014001056551933,0.018805499562142163,20546.035925131517
1682303030031249046,12,1682303030031249046,camera_1,13,0,0.6617188625238686,0.48923092018713077,1.812228052133173,-0.9800858704971454,-0.04451586654956696,0.15637149052184973,0.11400868839333721,0.2195548702729866,0.020619583279166215,20551.609732560588
1682303030041247129,13,1682303030041247129,camera_1,14,0,0.6619315851909816,0.48926847366157333,1.812851642772617,-0.9801060535483029,-0.04456654403586852,0.15649716502713473,0.11364235253258337,0.21541151229757816,0.02024447052544056,20540.58825668321
1682303030051208972,14,1682303030051208972,camera_1,15,0,0.6617169057009661,0.48844416859705003,1.8122703757047065,-0.9800325777966717,-0.04453546343588828,0.15697400664035613,0.11363054251843828,0.2121872623101808,0.019926905725610955,20551.267843166483
1682303030061211347,15,1682303030061211347,camera_1,16,0,0.6620502221643679,0.487752876284088,1.8131485901314743,-0.9801761624941525,-0.04444592638773358,0.15594293469008552,0.11384661271208987,0.20250516495434567,0.019030953325152086,20551.890263228444
1682303030071450710,16,1682303030071450710,camera_1,17,0,0.6619944903858268,0.4868559829950134,1.8129339569066383,-0.9801399918521497,-0.044464120242848466,0.1565443892348631,0.11332428063826923,0.20828875625738874,0.019568931577845675,20558.527931758203
1682303030081136226,17,1682303030081136226,camera_1,18,0,0.6618886161744076,0.48635074138156814,1.8126189178751615,-0.9800628681101778,-0.04466719881444403,0.1566468038581074,0.11376904123162336,0.20459489693166688,0.01921314584696133,20562.16944434749
1682303030091282606,18,1682303030091282606,camera_1,19,0,0.661897333002044,0.4865118096513883,1.8126547295580073,-0.9801442902810481,-0.04463650206794884,0.156508272203082,0.11326920872242502,0.19566944136749953,0.018376682928852476,20567.806504832464
1682303030101227521,19,1682303030101227521,camera_1,20,0,0.6618285713235879,0.48713377428801824,1.8124180714092661,-0.9800722214404126,-0.044566910645585434,0.15635852529618224,0.1141238047191144,0.22859291464556009,0.021464626752522156,20561.307715269966
1682303030111376285,20,1682303030111376285,camera_1,21,0,0.6620006256968181,0.4882433605473221,1.8130116474945672,-0.9801195896669457,-0.04442228553064029,0.15610174108867972,0.11412491808722243,0.20498474716441706,0.01926272880382701,20545.7593077427
1682303030121285200,21,1682303030121285200,camera_1,22,0,0.6619829091345135,0.4890696607838096,1.8129886232005066,-0.9801475861928797,-0.04435295140598726,0.15605528606015284,0.11397487738327966,0.19445758231449872,0.01827586943011522,20542.691561817886
1682303030131223917,22,1682303030131223917,camera_1,23,0,0.6619722964789938,0.4894286878972014,1.8129396016536712,-0.9801409301501796,-0.04451885217658923,0.15625688173583882,0.1136908780659728,0.22378316102549434,0.02103360782374123,20540.70286766976
1682303030141324281,23,1682303030141324281,camera_1,24,0,0.6617858049103584,0.4891448744865313,1.8124322481406954,-0.9800602886764307,-0.044482617575881386,0.1566308407090026,0.11388549965584044,0.22374778980156407,0.021018189827476035,20545.353833966547
1682303030151193857,24,1682303030151193857,camera_1,25,0,0.6618430326751422,0.4885295329936432,1.8125683843815927,-0.979996598648759,-0.044567981605809645,0.15696031519557038,0.11394657127862462,0.2200676673091948,0.02067348774262783,20541.06951068319
1682303030161364316,25,1682303030161364316,camera_1,26,0,0.6619914411115069,0.4877080237150657,1.8129625558887408,-0.9800751296592775,-0.044444694991062454,0.15653490815321353,0.11390448560073044,0.2154616416664794,0.020245614417513793,20545.958278822945
1682303030171265363,26,1682303030171265363,camera_1,27,0,0.6620066729004768,0.48684034811466065,1.8129336051216556,-0.9801229146788225,-0.04452930043448595,0.1565050427670268,0.11350059520899482,0.21001375128980726,0.019730748093797913,20557.181729452677
1682303030181242942,27,1682303030181242942,camera_1,28,0,0.6619043875674475,0.48636296739849877,1.8127027569238887,-0.9800900779554761,-0.04469677776450292,0.15667205090576244,0.11348790955728148,0.16978269180981442,0.01594530738657856,20563.216807981957
1682303030191210269,28,1682303030191210269,camera_1,29,0,0.662018152741242,0.4866058772634586,1.812955025590269,-0.9801640185224909,-0.04460999782412327,0.15647243589167673,0.11315839206218435,0.19127417902927846,0.017970039213884726,20562.524370540872
1682303030201278686,29,1682303030201278686,camera_1,30,0,0.6617948920609215,0.48711690317320305,1.812344071049218,-0.9800077154231545,-0.04454510920355832,0.15746562573034356,0.1131600091484792,0.21215146535541862,0.019922357718500608,20555.82415594405
1682303030211303234,30,1682303030211303234,camera_1,31,0,0.6619563861682279,0.4881913287019001,1.8128404459189937,-0.9800592560499093,-0.04457540590761312,0.15610893279820992,0.11457263599862726,0.21529617375927046,0.020227363099663245,20544.487899166765
1682303030221174001,31,1682303030221174001,camera_1,32,0,0.6620549133588726,0.48913593184333143,1.8132153522694572,-0.9801428705167664,-0.044356880592388064,0.1561280762482471,0.11391419721126825,0.20971376408124343,0.019714913941291778,20537.172420918596
1682303030231467485,32,1682303030231467485,camera_1,33,0,0.6619452556000489,0.48943981966813493,1.812878292340183,-0.9801572006131556,-0.0444127162349674,0.1558099628414931,0.11420432654740874,0.23183113196864727,0.02178711643186339,20543.505132763763
1682303030241377592,33,1682303030241377592,camera_1,34,0,0.6617544076210478,0.4891254632935901,1.8123730223539904,-0.980020826016857,-0.04442695205384251,0.1569466245751292,0.11381205357481379,0.22838528186548504,0.021453094129440072,20542.642910990173
1682303030251212835,34,1682303030251212835,camera_1,35,0,0.6617783683228834,0.48849804892921395,1.812429062357007,-0.9799691049763016,-0.04456122240886738,0.1570843234209229,0.11401476257382062,0.214200864196755,0.020119058712788598,20541.75477573602
1682303030261248588,35,1682303030261248588,camera_1,36,0,0.6622107471761524,0.48785861253798185,1.8135498362883653,-0.9801558126818021,-0.044638081395709475,0.15612006933565506,0.11370377524962216,0.19920229964191094,0.018729300134289098,20541.352734339896
1682303030271429300,36,1682303030271429300,camera_1,37,0,0.6621099443304419,0.48691820305595856,1.8132039476175135,-0.9801501342701742,-0.0442855886635834,0.15674306376905078,0.11303146857035412,0.21650775789748877,0.020348467165605153,20552.181482288284
1682303030281366109,37,1682303030281366109,camera_1,38,0,0.6617071196652885,0.4862273865993797,1.8120843054939098,-0.980013645336028,-0.044667507978006275,0.15680182481893107,0.11397919292431385,0.2175321516697295,0.020416225981721707,20569.28673277213
1682303030291336774,38,1682303030291336774,camera_1,39,0,0.6618499454780276,0.48647729263147343,1.8124984117002243,-0.9801075753774761,-0.044552129184143585,0.1567506401164113,0.11328497383121795,0.20658393815392628,0.01939907945363167,20567.157248188734
1682303030301186800,39,1682303030301186800,camera_1,40,0,0.6618115701129453,0.4871473521666313,1.8124189414825846,-0.980073619046102,-0.04451674673388351,0.15677798684903588,0.11355449506589703,0.21988487162161618,0.02064848584574378,20560.8686453303
1682303030311393737,40,1682303030311393737,camera_1,41,0,0.6620355375255788,0.488263735069637,1.813095037559855,-0.9801544676689525,-0.04453186771779326,0.1559480196799252,0.11399275162950927,0.19451103184837848,0.01827999089497949,20547.659962559123
1682303030321312189,41,1682303030321312189,camera_1,42,0,0.6620067134088814,0.4890932993423204,1.8130645615853744,-0.9801206854318143,-0.04451811364684169,0.1562269872489334,0.11390657575890333,0.2181071487138979,0.020500817442715785,20538.979728907572
1682303030331415653,42,1682303030331415653,camera_1,43,0,0.6618216440871737,0.4893405756614312,1.8125627422362676,-0.9801335106255824,-0.04461053554041098,0.15619613294196077,0.11380232652079822,0.20472972671268508,0.019234059876456985,20549.1533079095
1682303030341256141,43,1682303030341256141,camera_1,44,0,0.6619131452941389,0.4892383196499256,1.8127681077026447,-0.980116335089504,-0.044437087204547504,0.15640214357430507,0.11373515048944723,0.23377397714648396,0.02196827874265603,20542.854239568696
1682303030351319789,44,1682303030351319789,camera_1,45,0,0.6618049413374897,0.48850941516406093,1.8124985050226916,-0.9800229698218167,-0.04451131686098881,0.15729298130728575,0.11328123994904445,0.20480424450943246,0.019239433817882935,20544.708015680895
1682303030361355304,45,1682303030361355304,camera_1,46,0,0.6620064008240419,0.4877220046236836,1.813004489745849,-0.9800716331207444,-0.04455122603758504,0.1564643150897371,0.11398991321202288,0.19791988877113909,0.018597545263547482,20545.30255017337
1682303030371423721,46,1682303030371423721,camera_1,47,0,0.6620683622769208,0.4869020332172772,1.8131234625474717,-0.9801968382099935,-0.04441996149495687,0.15622123365355717,0.11329585844009998,0.20564422599272802,0.01932414113938151,20559.568324658554
1682303030381273031,47,1682303030381273031,camera_1,48,0,0.6619114895481735,0.48638324812725753,1.8127252100539493,-0.9800747315487487,-0.04469359662756319,0.15655317443404745,0.11378535307658774,0.1937892876449041,0.018200037026865803,20561.313362454755
1682303030391169786,48,1682303030391169786,camera_1,49,0,0.6618822236483264,0.4865087306081463,1.8125817647487992,-0.9801154265551476,-0.04443824562013095,0.1567350489059274,0.11328335005322943,0.20667242479976267,0.01940919845907485,20565.50656368909
1682303030401054859,49,1682303030401054859,camera_1,50,0,0.6618691656894927,0.4871825251954655,1.8125721515926834,-0.9800873998012896,-0.04451608926897471,0.15660018656494865,0.11368108072483916,0.19981292012380436,0.0187660543220884,20558.926047177512
1682303030411188840,50,1682303030411188840,camera_1,51,0,0.6620676666866284,0.48828162408066206,1.8131142561337488,-0.980133606136883,-0.04435832026143487,0.15600190014409038,0.114165934919864,0.23295631085056812,0.021894404956363873,20543.977213217528
1682303030421082019,51,1682303030421082019,camera_1,52,0,0.6620621396058984,0.48914729187069295,1.813230110155366,-0.9801354915219919,-0.04451565554916649,0.15608057803257133,0.11398082220702711,0.2028872271766886,0.01907318785351946,20536.768026859976
1682303030431115865,52,1682303030431115865,camera_1,53,0,0.6618758251238446,0.4893781289867416,1.8126665695374768,-0.9801114616261384,-0.04448608900651067,0.15610176672926007,0.11416982568955532,0.23597589315613732,0.022172058215387938,20544.018871593056
1682303030441258668,53,1682303030441258668,camera_1,54,0,0.6617413982293222,0.48911836744749704,1.8123441056411154,-0.9800679357513937,-0.044445045235147425,0.1567769291374009,0.11363306629803811,0.2175797534873709,0.02043732247221337,20547.906751831993
1682303030451331615,54,1682303030451331615,camera_1,55,0,0.6618458935699367,0.48852689229616314,1.8126021801537793,-0.9800087668910759,-0.04464696962770551,0.15681915144764758,0.11400534487003455,0.1960961805889383,0.018421412486748168,20542.218027195075
1682303030461400270,55,1682303030461400270,camera_1,56,0,0.6621742694522258,0.48785036039659835,1.8134621934690356,-0.9801625089480431,-0.04447466982524868,0.15574108747346657,0.11422860180005029,0.2270902976160869,0.02134826718222941,20543.608031080446
1682303030471245050,56,1682303030471245050,camera_1,57,0,0.6620153191985442,0.48684683055497957,1.8129716824235973,-0.9801534083088196,-0.04444351612578053,0.1561975838075868,0.11369426048685882,0.20267379964934662,0.01904104651427684,20559.25028885086
1682303030481223583,57,1682303030481223583,camera_1,58,0,0.6617744449911362,0.4862885892988162,1.8123311907887742,-0.9800496287825462,-0.044682420637638186,0.15672808753813655,0.11376516595950213,0.22075495828175917,0.020724508329481525,20567.387274547596
1682303030491535902,58,1682303030491535902,camera_1,59,0,0.6617946890543298,0.4864250666113522,1.8123162979395253,-0.9800655435938465,-0.04459479599729591,0.1566371577230945,0.1137876761801917,0.2091792618157342,0.01963785312305857,20567.656538611976
1682303030501277446,59,1682303030501277446,camera_1,60,0,0.6617702579683027,0.4871403598288667,1.8123373836545897,-0.9800335948244865,-0.044525248084036496,0.15631545197646043,0.11453006055985529,0.20895848475629464,0.019618067940516282,20559.73427076032
1682303030511251449,60,1682303030511251449,camera_1,61,0,0.6622637968890824,0.4884436245947322,1.8137267533152748,-0.9801726713019518,-0.04444808546803417,0.15606782301611574,0.11370460302922022,0.21558733109850436,0.020275906564570935,20534.462463891836
1682303030521277666,61,1682303030521277666,camera_1,62,0,0.6621136446005207,0.4891774129669222,1.8133646710346252,-0.9801362994220498,-0.04447528485036586,0.15594466286285164,0.11417550401605589,0.19313431362388656,0.018158418856682103,20533.836682748974
1682303030531259298,62,1682303030531259298,camera_1,63,0,0.6617820232715584,0.4893154020418057,1.812460153248321,-0.9801020429427326,-0.044480696736482486,0.1560476535329882,0.11432664984231669,0.2384732033824548,0.022401087124944628,20548.11876485985
1682303030541257619,63,1682303030541257619,camera_1,64,0,0.6618214630707142,0.48919024849852644,1.8125895392910574,-0.9800671161506359,-0.044485337137159756,0.1566501953407445,0.11379902864117841,0.2153589686495252,0.02023350332426798,20542.728660150537
1682303030551281452,64,1682303030551281452,camera_1,65,0,0.6617632157657589,0.4885006491265293,1.8123953517204001,-0.9800030491726172,-0.04448644208316457,0.15696666677234777,0.11391420282621895,0.21758816408691928,0.020436524616019955,20545.41292224615
1682303030561359882,65,1682303030561359882,camera_1,66,0,0.6621178756043343,0.48780064448548865,1.8133177457300969,-0.9801664396399572,-0.04449475954664963,0.1560999178130042,0.11369600975931028,0.21454822004307061,0.020167221003859957,20547.052655430736
1682303030571230173,66,1682303030571230173,camera_1,67,0,0.6620443420278824,0.4868713130847322,1.8130240727807228,-0.980162935454273,-0.04441268641206421,0.15658202663846818,0.11309377604941946,0.21250674466136843,0.01996797571747284,20558.10759685527
1682303030581288337,67,1682303030581288337,camera_1,68,0,0.6618579020795617,0.4863394725367363,1.812545842630713,-0.9800614715672323,-0.04458417838276111,0.15708273723876462,0.11321120372552565,0.19624692114302889,0.018429227239614272,20562.846529330112
1682303030591155767,68,1682303030591155767,camera_1,69,0,0.6619232247843572,0.48655021966284784,1.812736655839888,-0.98010872058591,-0.04467043123363991,0.15637793014245227,0.11374265413297457,0.21457335742888972,0.020153144691001563,20562.87724425015
1682303030601231098,69,1682303030601231098,camera_1,70,0,0.6618816118135501,0.48719386373430956,1.8125826742067281,-0.98006570269395,-0.04454222443768933,0.15681052104533713,0.11356790538988712,0.23021892487304285,0.021623087393136804,20556.328131619728
1682303030611217737,70,1682303030611217737,camera_1,71,0,0.6620720785856632,0.488288591790217,1.8131834538123897,-0.9801450306783878,-0.044426782823016965,0.156240629502296,0.11371387557015705,0.21568484761519358,0.020273317099743646,20543.86760885537
1682303030621243238,71,1682303030621243238,camera_1,72,0,0.6620043871004506,0.48910293131428395,1.8130437048944228,-0.980094148607093,-0.04440652056759725,0.1561323797051504,0.11430748359063853,0.21650446590501815,0.020349050696642737,20536.492360323668
1682303030631336212,72,1682303030631336212,camera_1,73,0,0.6617858761355755,0.4893222592583136,1.8124481223624263,-0.9800967021853653,-0.04449268221679443,0.15636332336253425,0.1139358007895262,0.2286926189553924,0.021483220851191632,20547.47303372297
1682303030641279458,73,1682303030641279458,camera_1,74,0,0.6619127459015121,0.4892642709853951,1.8128504302647148,-0.980115247723348,-0.04447677275951807,0.1566860719295002,0.11333751686181329,0.23581886233296245,0.02216346169255537,20541.077686008535
1682303030651292085,74,1682303030651292085,camera_1,75,0,0.6618025072198063,0.48849888163991184,1.8124844107807592,-0.9799977610573639,-0.04450233831555787,0.15741014622376942,0.11334009031588549,0.2074316803482361,0.019486122871536168,20542.531497485
1682303030661746025,75,1682303030661746025,camera_1,76,0,0.6620442196467946,0.4877413705898016,1.8130895909719569,-0.9800922444618468,-0.04443079858146592,0.1565675761437807,0.11371759135513908,0.2102491168770939,0.019758900652337673,20544.524248819453
1682303030671324491,76,1682303030671324491,camera_1,77,0,0.6620405717016217,0.4868724161397226,1.813034260961242,-0.9801197708861075,-0.04446896988986855,0.15645256546905537,0.11362367796040311,0.2200697910739109,0.020677638161887082,20554.434367240865
1682303030681404352,77,1682303030681404352,camera_1,78,0,0.6618074192698047,0.48629447466593717,1.8123591131870518,-0.9800264282345845,-0.04456734650168679,0.15716427446750342,0.11340785871651334,0.20361991925165057,0.01911775592418848,20563.42670195899
1682303030691363334,78,1682303030691363334,camera_1,79,0,0.6619718105325987,0.4865548698261404,1.8127972480837684,-0.9801554620573234,-0.04471548878697717,0.1562430736820408,0.11350725610341039,0.21360861201537773,0.020064262165971517,20565.8165719125
1682303030701275348,79,1682303030701275348,camera_1,80,0,0.6618566748745865,0.4871539995201025,1.8125167926462848,-0.9800817712764943,-0.04459716699105471,0.15664281777769068,0.11363908635045657,0.20037589233834296,0.018817903507307398,20559.92457018257
1682303030711608648,80,1682303030711608648,camera_1,81,0,0.6620777417602702,0.48829908751342477,1.8132046529600505,-0.980104271906832,-0.044494676254071455,0.15655685889338353,0.1136036527073909,0.20790246088290587,0.01954272773766322,20539.629622450797
1682303030721156597,81,1682303030721156597,camera_1,82,0,0.6620561350097259,0.48913450608055875,1.8131941882291518,-0.9801478485661507,-0.04453336544642237,0.15587856635480798,0.11414397427955358,0.20713191846152768,0.01947094278196026,20538.95256354461
1682303030731336593,82,1682303030731336593,camera_1,83,0,0.6619147410857752,0.4894101503623153,1.812820082798028,-0.980095819752703,-0.04461380274997677,0.1562844387901674,0.11400424070843004,0.22864771855529398,0.0214873751809805,20539.7204921284
1682303030741365194,83,1682303030741365194,camera_1,84,0,0.6618144753193694,0.48916831734739796,1.8125394858315682,-0.9800366466325786,-0.044590903944630646,0.15680133175359326,0.11381197170276423,0.20607497286982834,0.01936030478940189,20541.236789186478
1682303030751234292,84,1682303030751234292,camera_1,85,0,0.6618835957213558,0.48857352713576463,1.8127275244015286,-0.980025075032311,-0.04462871543773286,0.15697579762357175,0.11365618780662491,0.22110929136397317,0.020775320675367994,20540.53598373325
1682303030761360883,85,1682303030761360883,camera_1,86,0,0.6622051061412392,0.4878569331269639,1.8134977200475277,-0.9801446857246581,-0.04453109345922271,0.15614300276698043,0.11381010257419155,0.2345607943716459,0.02205316155230447,20540.687862327206
1682303030771352767,86,1682303030771352767,camera_1,87,0,0.6620506658093485,0.48687611577711115,1.8130754105188247,-0.9801393734535484,-0.04455493370236081,0.15652111167420044,0.11332611388879557,0.20520921854767948,0.019282563906829798,20555.66941117937
1682303030781384706,87,1682303030781384706,camera_1,88,0,0.6618378946290426,0.48633219924426246,1.812449619232913,-0.9800848432444585,-0.0445278640633705,0.1562658881925041,0.11415752954512873,0.21577261929633093,0.020258175974745742,20567.553882920885
1682303030791264533,88,1682303030791264533,camera_1,89,0,0.6618260291399354,0.48647265838803927,1.8124393652466362,-0.9800589937628187,-0.0446052489570555,0.15668622095235246,0.11377244250591138,0.21576453471789137,0.020258957779904087,20564.30794553668
1682303030801409721,89,1682303030801409721,camera_1,90,0,0.6618497712217876,0.4871590676109417,1.8124874527841628,-0.980052743115459,-0.04454497622656714,0.15701442879707023,0.11339680310471086,0.20391668315278366,0.019150912347996717,20557.170674595516
1682303030811228990,90,1682303030811228990,camera_1,91,0,0.662016912115196,0.48826339705002086,1.8130449736270846,-0.9800788250581206,-0.04447893942862117,0.1562919104236161,0.11419264142726238,0.21179400070104748,0.019903649068203424,20541.142534607316
1682303030821413993,91,1682303030821413993,camera_1,92,0,0.6620658452842108,0.4891529048448548,1.813231414289485,-0.9801371079303166,-0.044520414809965984,0.15621670189192918,0.11377840029263768,0.22104250441771,0.020780899727721597,20536.60073058866
1682303030831179857,92,1682303030831179857,camera_1,93,0,0.6618666948057201,0.48937521584499666,1.8126898801139617,-0.9801096919590012,-0.04448922882893613,0.15627582447718952,0.11394545594367883,0.2125109724001959,0.019967921231377757,20543.535812279802
1682303030841424465,93,1682303030841424465,camera_1,94,0,0.6618380279993847,0.48919618790457026,1.8125991933234202,-0.9800839151028933,-0.044514512323609194,0.15667599335712362,0.11360726497339203,0.22540571476565674,0.021178367825448588,20543.8738381397
1682303030851204872,94,1682303030851204872,camera_1,95,0,0.6618329552428235,0.4885406465993516,1.8125805614704282,-0.9800327585491877,-0.044620452626616534,0.15679794117473575,0.11383853926166573,0.2003972750972025,0.018825324585139264,20544.744308055837
1682303030861325263,95,1682303030861325263,camera_1,96,0,0.6621655831001447,0.4878398394030643,1.813415071225943,-0.9801460224246206,-0.04453217694196238,0.15575651962295572,0.11432657843628831,0.22382404695963487,0.021039989775031888,20543.257412123607
1682303030871224880,96,1682303030871224880,camera_1,97,0,0.6620533545656055,0.4868772670467752,1.8130898514723706,-0.9801503932700258,-0.04452506124617577,0.15619275327597332,0.11369498369633076,0.2026193731580861,0.019038318650495517,20556.699183600373
1682303030881563901,97,1682303030881563901,camera_1,98,0,0.6618715561721958,0.48635047112441415,1.8125997403648775,-0.980076686231019,-0.04468102116849934,0.15703184892631933,0.1131118644375839,0.2018406285205856,0.018955696648534307,20563.54455397883
1682303030891175985,98,1682303030891175985,camera_1,99,0,0.6619028673741472,0.4864948997132792,1.8125990164840742,-0.980105387683072,-0.04449536263804346,0.15657021807899635,0.11357534305041725,0.19998825568472967,0.018781087575155207,20564.54890724737
1682303030901275396,99,1682303030901275396,camera_1,100,0,0.6619595695101459,0.487237185451812,1.8127950219385887,-0.9801084886366097,-0.044495820655679454,0.1563303271557449,0.11387844948898816,0.22045378817711025,0.020709253333536713,20555.919494490838
1682303030912106275,100,1682303030912106275,camera_1,101,0,0.6621141210490753,0.48832605640851484,1.8132996804269201,-0.9801422687871197,-0.044426879332056746,0.15621291136476934,0.1137757076558755,0.21649624907877296,0.02035201144856893,20541.013642657785
1682303030923356533,101,1682303030923356533,camera_1,102,0,0.6621186235040715,0.48918278514264374,1.8134090759397234,-0.9801774342517956,-0.044370724413353,0.1559521061132764,0.11385243430614322,0.20430422277422622,0.019210131836736612,20536.359698970915
1682303030941357374,102,1682303030941357374,camera_1,104,0,0.6618249971198213,0.4891791905537987,1.8125635424958648,-0.9800786626303902,-0.044494875946382836,0.1564296583645836,0.11399904848322952,0.2106558009982109,0.019790459132316012,20544.494505108454
1682303030951602458,103,1682303030951602458,camera_1,105,0,0.6618123399013209,0.4885182404765695,1.8125084391819202,-0.9800323861793901,-0.04461968522686683,0.15684065475439485,0.1137831918430783,0.21114407142158598,0.019833692822630394,20546.186173523784
1682303030961398124,104,1682303030961398124,camera_1,106,0,0.6620906212953874,0.4877727466000081,1.8132305973207772,-0.9801147238146112,-0.04450880270930534,0.15651345220818463,0.11356775035664397,0.19974589894991368,0.01877463134095338,20543.914748791132
1682303030971432447,105,1682303030971432447,camera_1,107,0,0.6621646336603725,0.4869643521397463,1.8133534229574897,-0.980235386734937,-0.04435596108897093,0.15566509298546688,0.1137519851884273,0.22235878725768998,0.020898791883441646,20558.046540993255
1682303030981377840,106,1682303030981377840,camera_1,108,0,0.6617902912187092,0.4862810489325873,1.8123087703566505,-0.9799790318533632,-0.044650789589021404,0.157012032653049,0.11399397229231023,0.20222869073040783,0.018984706367959903,20560.816284421482
1682303030991376399,107,1682303030991376399,camera_1,109,0,0.661861013040892,0.48648153927147003,1.812540724540756,-0.9800867232439078,-0.04450257063993688,0.1567486554947161,0.11348742277475596,0.20410691562574357,0.019166939148564672,20564.232335880974
1682303031001423835,108,1682303031001423835,camera_1,110,0,0.6617537790789876,0.4870873081691432,1.812250888459704,-0.9800344223289971,-0.04453113037373191,0.15701465308627185,0.11356015231631363,0.203869866381865,0.01914112005872669,20560.997521477297
1682303031011329889,109,1682303031011329889,camera_1,111,0,0.6619824703121452,0.48822321819612013,1.8129433845935812,-0.980094923356499,-0.04441636949061916,0.15651145177174755,0.11377738262234462,0.21570615645032376,0.02027023454370968,20544.418439408415
1682303031021231174,110,1682303031021231174,camera_1,112,0,0.6619654552076693,0.48909463580440726,1.812988247532589,-0.9801333144210526,-0.04444332826501137,0.15631675617267804,0.11370377423103457,0.21994573209667578,0.02067248133856504,20541.440413287826
1682303031031357765,111,1682303031031357765,camera_1,113,0,0.6617963650505384,0.48931316062686925,1.8124760143527878,-0.9801155049916201,-0.04440753584841911,0.15620305479775917,0.11402707269214991,0.23731859907275066,0.022293950204223277,20548.45799346408
1682303031041296720,112,1682303031041296720,camera_1,114,0,0.6618745224709783,0.4892309760645154,1.8127291788204762,-0.9801454857168437,-0.04450070297808163,0.15650611113238355,0.11331527452893175,0.2151600998477079,0.020218620334676134,20546.87995919085
1682303031051331043,113,1682303031051331043,camera_1,115,0,0.6619524074486085,0.4885956661542572,1.8128555475069172,-0.9800644615065977,-0.04460362842055239,0.15673282149975515,0.1136617362538081,0.20449815969914198,0.019216834782479847,20541.249250209898
1682303031061537265,114,1682303031061537265,camera_1,116,0,0.6621115423975894,0.48778849461348744,1.8132828920577597,-0.98012003142306,-0.044379147720272606,0.15654297295148506,0.11353199051541672,0.20100552000803873,0.018894347088708227,20542.619023083596
1682303031071289777,115,1682303031071289777,camera_1,117,0,0.6620780360739219,0.486895975558492,1.8131376918312188,-0.9801765167061224,-0.04461144654163706,0.15623409887654416,0.11337866326407868,0.22102134831948206,0.02076945085567464,20558.089617334314
1682303031081220149,116,1682303031081220149,camera_1,118,0,0.6618843840673364,0.48636274569107685,1.8126487664001862,-0.9800519920278431,-0.04475136670798834,0.1567429206340423,0.11369725120307053,0.20268368179677054,0.019034363492875267,20560.89975964604
1682303031091410160,117,1682303031091410160,camera_1,119,0,0.6619713951694494,0.48656471848320804,1.8128289012385441,-0.9800935286560115,-0.04463080511230285,0.15656989590142795,0.11362497093091618,0.23233799071749672,0.02182476420027616,20558.879739256103
1682303031101104974,118,1682303031101104974,camera_1,120,0,0.6618857698588175,0.4871945402048904,1.8126107946680736,-0.9800804308650413,-0.044492771506444304,0.15670344241456016,0.11360798147356145,0.21089570818003267,0.01980823290941804,20557.145932559393
1682303031111446380,119,1682303031111446380,camera_1,121,0,0.6620381894378787,0.48824266951134165,1.8130337680759507,-0.9801127815866354,-0.044428200653516076,0.1564726858544794,0.11367219949787527,0.22483104647835717,0.021130325156077236,20543.775950442185
1682303031121353149,120,1682303031121353149,camera_1,122,0,0.6620458081485145,0.4891258583547811,1.8131611849028217,-0.9801797275319183,-0.044557752779122134,0.15607933066996538,0.11358499434496021,0.21006502321688458,0.01974727839938393,20542.421637721247
1682303031131313562,121,1682303031131313562,camera_1,123,0,0.6618344809219955,0.48932362129061213,1.8125653659510392,-0.980103547184,-0.04457832057140873,0.15610277336562428,0.11420041278355461,0.22681447106879202,0.021308501138837293,20546.21954933112
1682303031141230821,122,1682303031141230821,camera_1,124,0,0.6618296606568477,0.48917255383493585,1.8125303287265209,-0.9800998782326538,-0.04451934651851334,0.15637498549451226,0.11388204593127614,0.22739315003855154,0.021362627638345004,20547.06581530044
1682303031151247501,123,1682303031151247501,camera_1,125,0,0.6618862058943749,0.4885842957037437,1.8127498003674734,-0.9800208672723187,-0.04464696240097628,0.1566219071689903,0.1141723550336353,0.21912725822767243,0.02058796983311878,20540.199992936337
1682303031161586999,124,1682303031161586999,camera_1,126,0,0.6619675751834798,0.48769369510386545,1.8129241909401494,-0.980077319918769,-0.04447653586308049,0.15675705169719667,0.11356721129650663,0.21244726644363254,0.01996224735889653,20547.09287571663
1682303031171276330,125,1682303031171276330,camera_1,127,0,0.661998333655195,0.48684669718528595,1.812929650261391,-0.9801959233855024,-0.044434166065880236,0.15623172662658655,0.11328373342959518,0.21448084886651486,0.02015040613277267,20563.87330942019
1682303031181293725,126,1682303031181293725,camera_1,128,0,0.6617898096226686,0.4862912437004058,1.812368523260564,-0.9800780245532944,-0.044656062356486184,0.1564120635220098,0.11396564511866081,0.2197310186456889,0.020628265315455332,20569.479177895017
1682303031191608428,127,1682303031191608428,camera_1,129,0,0.661803614915741,0.4864355439405533,1.8123382834349522,-0.9800432963421836,-0.04461249068178731,0.156767687274263,0.11379259728380138,0.19185335969086736,0.01801170012860821,20565.04268187587
1682303031201186895,128,1682303031201186895,camera_1,130,0,0.6617920817372553,0.4871221422771071,1.8123540226174595,-0.9800348643102417,-0.04459319777091614,0.15714946031569524,0.11334530679060364,0.22301909397356212,0.02094236107227147,20558.645617988426
1682303031211508512,129,1682303031211508512,camera_1,131,0,0.6620267300883151,0.4882488131107534,1.8130497262851808,-0.9801227430000216,-0.04455445916685901,0.15609502649613932,0.1140554756494929,0.19764512486290187,0.018573805785769764,20545.617710439605
1682303031221423149,130,1682303031221423149,camera_1,132,0,0.6620620088743155,0.4891400277995536,1.8132167808353177,-0.9801276943646625,-0.04446106212440158,0.1564266456109521,0.1135941074047707,0.20823540620040148,0.01957701211723435,20535.68416391081
1682303031231235742,131,1682303031231235742,camera_1,133,0,0.6618758079611574,0.48938813102173384,1.812696614230306,-0.9801229058582308,-0.0445394776800325,0.15641222056202084,0.11362456424059707,0.2091660844744183,0.019654580588003522,20544.459551922275
1682303031241363048,132,1682303031241363048,camera_1,134,0,0.6619244495369497,0.4892660537943115,1.812835928322603,-0.9801324973836782,-0.044550069605743835,0.15629958724949816,0.11369264662322699,0.2385385393863544,0.022417531840680065,20543.433158458916
1682303031251299619,133,1682303031251299619,camera_1,135,0,0.6618481359765926,0.4885250256922391,1.8126009724378456,-0.979998930319018,-0.04455775666744048,0.15685024017873414,0.11408201019538217,0.19973029580432922,0.01876279664571808,20540.93470886466
1682303031261281013,134,1682303031261281013,camera_1,136,0,0.6620816913879961,0.4877607880523085,1.8131921943224298,-0.9801380059041128,-0.04448504885859309,0.1561461261731988,0.113881328985314,0.20455703511834145,0.019225101341038494,20547.151732215076
1682303031271125078,135,1682303031271125078,camera_1,137,0,0.6620174607844285,0.4868439142606573,1.812954017373886,-0.9801666364495994,-0.04451984235777912,0.1562148405257776,0.1135265256538024,0.20040100294863805,0.01882745793570276,20561.017949716304
1682303031281472206,136,1682303031281472206,camera_1,138,0,0.661940488061645,0.4863876453245624,1.8127262592865432,-0.9800885124211557,-0.04465936039574222,0.15676250240743503,0.11339121301092267,0.19034005323192105,0.017877311455637136,20561.728453493197
1682303031291352987,137,1682303031291352987,camera_1,139,0,0.6619613016015493,0.48657009149899993,1.8128657921217293,-0.9801625830193348,-0.044638058056249215,0.15649067194044525,0.11313454033786759,0.18762978038284928,0.017625689227111174,20564.911762470845
1682303031301320075,138,1682303031301320075,camera_1,140,0,0.6617584146530953,0.4870891118594506,1.812285370418264,-0.9800383692068896,-0.04440070476091182,0.1571208991458175,0.1134301342265121,0.21152734971838072,0.019861374361754388,20560.035127164087
1682303031311303138,139,1682303031311303138,camera_1,141,0,0.6621052298142258,0.48832247328201356,1.8133110934950933,-0.9801736747963017,-0.044462208814154594,0.1561182752427754,0.11362113957755286,0.18792806850979105,0.017666245926045866,20544.164612417226
1682303031321261167,140,1682303031321261167,camera_1,142,0,0.6619886196365526,0.489075405113988,1.813038407682821,-0.9801170334109343,-0.04446288734393925,0.1560063625466343,0.11426139904516315,0.2013840471045114,0.018927232441524375,20539.481191223134
1682303031331520795,141,1682303031331520795,camera_1,143,0,0.6618602609204566,0.4893796528518634,1.8126817474774792,-0.9801183108172153,-0.04458233838218844,0.15616450792951728,0.11398753602177995,0.22630932345055044,0.021264163582985437,20544.941329661073
1682303031341204881,142,1682303031341204881,camera_1,144,0,0.6619426268781203,0.4892640282060976,1.8128538406918808,-0.9801042940347473,-0.04457791394063875,0.15641673316585553,0.11376373758396033,0.21158548508537933,0.019884647714774054,20540.402962597087
1682303031351424217,143,1682303031351424217,camera_1,145,0,0.6618147692658971,0.48850715427837815,1.8125014837384283,-0.9800304812367083,-0.04455864070903333,0.15629834504858123,0.11456705774429142,0.21437347412575036,0.02013480105833855,20546.526175002087
1682303031361451864,144,1682303031361451864,camera_1,146,0,0.6620820421044251,0.4877602374222952,1.8132127889850507,-0.9801135078120848,-0.044566358285689577,0.15642824576000222,0.11367301985031616,0.20028172311140224,0.018824294129197908,20544.591140437165
1682303031371219396,145,1682303031371219396,camera_1,147,0,0.6621566940366199,0.4869504555561825,1.8133174732976576,-0.980191466848406,-0.04444831028015918,0.15593229424736962,0.11372842934623084,0.21727684914367273,0.020420634783556588,20554.93474218587
1682303031381343841,146,1682303031381343841,camera_1,148,0,0.6617261991203724,0.48623931313513924,1.8121552322025551,-0.9800334548303345,-0.044540591729391496,0.15684845424685656,0.11379422437929776,0.21927553729619828,0.020581874839175625,20569.062785481576
1682303031391078233,147,1682303031391078233,camera_1,149,0,0.6618702985797218,0.4864853129388557,1.8125307793258691,-0.9800975114802731,-0.044575986749547866,0.15657531975241476,0.11360465941108742,0.20490470237564296,0.019241300582384074,20565.707380056025
1682303031401423215,148,1682303031401423215,camera_1,150,0,0.6619822489950056,0.4872575761237428,1.8128653219972595,-0.9801055263080699,-0.0446130681577946,0.15633398318299474,0.11385305069284937,0.20378692902158946,0.019144829097198706,20554.57202835393
1682303031411120653,149,1682303031411120653,camera_1,151,0,0.662038660718798,0.4882661018954066,1.8130739658889696,-0.9800730358562237,-0.04457821094545364,0.1565331067609484,0.11387279738477206,0.20347269461490214,0.01912309795025823,20539.958340775578
1682303031421426534,150,1682303031421426534,camera_1,152,0,0.6620072418806491,0.48910926104054714,1.813096748079085,-0.9800869358853682,-0.04445811261635623,0.1565378205643822,0.11379360730012399,0.21693536860402673,0.020392010949494915,20534.688429731403
1682303031431785821,151,1682303031431785821,camera_1,153,0,0.6617812074169965,0.48929465084707524,1.8123953354558406,-0.980107324126535,-0.044384332075368405,0.15643721216492884,0.1137851612022054,0.2239097614074126,0.021033193837600658,20549.031859884508
1682303031440902471,152,1682303031440902471,camera_1,154,0,0.6618346534906935,0.4891859162044919,1.8125660520192204,-0.9800966822237215,-0.044553012004837016,0.15651764744582308,0.11370025793011775,0.2193670886917971,0.02060980934257424,20546.013133082422
1682303031451061487,153,1682303031451061487,camera_1,155,0,0.6618152697861426,0.488526793688072,1.8125367185575096,-0.9800544601087925,-0.04449672437149626,0.15663638286668108,0.11392251886046433,0.21385795169044286,0.020088744970168763,20547.378149750646
1682303031461574316,154,1682303031461574316,camera_1,156,0,0.6620880301705123,0.4877737019432764,1.8132400886596025,-0.9801083225128393,-0.044413080814008264,0.15640184940481644,0.1138139529953579,0.20342811051523313,0.019120394267324998,20542.9511673646
1682303031471490144,155,1682303031471490144,camera_1,157,0,0.6619409998379177,0.48679539186248955,1.8127568634622522,-0.9800645562244956,-0.044520794770796374,0.15674435930322242,0.1136774836635718,0.20592324604513124,0.019342614246851148,20555.60534156125
1682303031481092453,156,1682303031481092453,camera_1,158,0,0.6617887018482821,0.4862784963328081,1.8123649168271543,-0.9800419474530314,-0.044739524795540414,0.15649963375440198,0.11412283202005116,0.18222040182445198,0.01710604333672577,20566.70149717678
1682303031491668701,157,1682303031491668701,camera_1,159,0,0.6616866585124528,0.4863624541620716,1.8120715633256472,-0.9800492383709202,-0.04454732212049014,0.15724198439124004,0.11311049820939413,0.20869450183818117,0.019589072920702354,20571.01791507285
1682303031501412630,158,1682303031501412630,camera_1,160,0,0.6618787718163492,0.4871729387486715,1.8125675895644187,-0.9801068762998598,-0.044554657968604756,0.1564811885968845,0.1136619157780573,0.18685764214023948,0.017548943497875516,20561.06652866513
1682303031511193275,159,1682303031511193275,camera_1,161,0,0.662074909381957,0.48827791919971025,1.8131445286606778,-0.9801061887767603,-0.04458301841947821,0.15657065331811207,0.11353344753702144,0.19186839781468734,0.01803438460709389,20541.306658250393
1682303031521224737,160,1682303031521224737,camera_1,162,0,0.661901215058895,0.4890214183933866,1.8128105921766826,-0.980077538045394,-0.0444575726261547,0.1566198944401331,0.11376182277298012,0.21652863320196047,0.020347533459369682,20540.276114001157
1682303031531108617,161,1682303031531108617,camera_1,163,0,0.6617748750260092,0.48929051936080636,1.8124175071586703,-0.9800344924004946,-0.04446313636356826,0.15677540877943846,0.11391617274145022,0.22550207818858325,0.021183392390632532,20542.066717859474
1682303031541062355,162,1682303031541062355,camera_1,164,0,0.661840631854364,0.4892156750715956,1.8126357276008445,-0.9801274248693442,-0.0445370771653959,0.15634760431573178,0.11367544326407086,0.21935059659881517,0.020609404237676134,20547.610111400718
1682303031551220655,163,1682303031551220655,camera_1,165,0,0.6617449302016774,0.4884470432521226,1.8122983509444608,-0.9800366948207441,-0.04453701308313487,0.1570603585971229,0.11347499736861685,0.21947712352266535,0.020612868673801518,20550.672303367406
1682303031561088800,164,1682303031561088800,camera_1,166,0,0.6621073122070703,0.4877939036059733,1.8133029758979244,-0.9801530264171319,-0.044539973889363337,0.15586336100318765,0.11411769463173614,0.19745995837729424,0.01855929966747226,20546.77451380552
1682303031571129798,165,1682303031571129798,camera_1,167,0,0.6621736983255878,0.486954600527865,1.8133474972499002,-0.980165442308576,-0.04438873045520315,0.1560555424693569,0.11380691533120296,0.2371431274805218,0.022289020311877693,20551.360883278307
1682303031580943584,166,1682303031580943584,camera_1,168,0,0.6620374643801439,0.486463150033709,1.8129930720446206,-0.9801256363831313,-0.04475993503158243,0.15601585004750293,0.11405849225062317,0.2179568312712945,0.020475157859231922,20560.251273717036
1682303031591218471,167,1682303031591218471,camera_1,169,0,0.661856966417498,0.4864755734767602,1.8124952755206356,-0.9800978643687147,-0.04452284509890049,0.15682168504002741,0.11328217699792956,0.20665820356225595,0.01940619227993098,20566.040291015874
1682303031601221799,168,1682303031601221799,camera_1,170,0,0.661967662959855,0.4872527426481228,1.812848025626436,-0.9801042892360466,-0.0445358148973241,0.15639509725403186,0.11381000381089969,0.21051606599939987,0.01977673766219724,20554.63432960178
1682303031611392259,169,1682303031611392259,camera_1,171,0,0.6620969637832936,0.48831986872777206,1.8132378411964554,-0.9801378726609393,-0.04453562057069449,0.1560533417364194,0.11398983993745998,0.21684891020413488,0.02038316840031935,20542.483664076535
1682303031621160030,170,1682303031621160030,camera_1,172,0,0.6622096048257106,0.48924321810467475,1.8136163561110084,-0.9801777215001902,-0.04447215427677372,0.1559914584186856,0.11375643572602788,0.20436196110676974,0.01922032327345549,20531.7887404837
1682303031631037235,171,1682303031631037235,camera_1,173,0,0.6618772425388069,0.4893670146926065,1.8126646558053496,-0.9801177326254192,-0.04445413488799478,0.15623164412081517,0.11395057463599814,0.21762851194944233,0.020448433615716344,20544.4657656803
1682303031641079902,172,1682303031641079902,camera_1,174,0,0.6617188621983432,0.48909730621522274,1.8122838515469641,-0.9800122991512267,-0.04463826394681129,0.1567320989935029,0.11409806330184821,0.22519962635124102,0.021150665834570443,20545.041022253805
1682303031651076316,173,1682303031651076316,camera_1,175,0,0.6617673389289216,0.4884760925260619,1.8123916008033678,-0.9800184584144711,-0.044549128935946654,0.15709474005831686,0.11358009915465815,0.2085500211105682,0.019588226658290214,20547.07780190138
1682303031661160945,174,1682303031661160945,camera_1,176,0,0.6619594344176037,0.4876992330169088,1.8129308371941228,-0.9801096594745573,-0.044499102063255434,0.15641657007509,0.11374859087556098,0.20892783923773095,0.01963063058297126,20550.540390466816
1682303031671025514,175,1682303031671025514,camera_1,177,0,0.6618648265098577,0.48675732297073965,1.8125854258283995,-0.9800813593360822,-0.04444588937501495,0.15690180756301458,0.11334423136207704,0.20495949435280636,0.019249213482608087,20560.646013212747
1682303031681213855,176,1682303031681213855,camera_1,178,0,0.6618962720682355,0.4863661650403699,1.8126155303620766,-0.9800858782451368,-0.044673570532189746,0.1567609625598694,0.11341051087825871,0.2085245894268155,0.019583061457887043,20564.00269855839
1682303031691223144,177,1682303031691223144,camera_1,179,0,0.6619588546508515,0.4865382709376198,1.8127313563610814,-0.9801460106133519,-0.044503840064403805,0.15603077232921225,0.11396317029901552,0.2144965759362094,0.020145267609639632,20565.743653219193
1682303031701083898,178,1682303031701083898,camera_1,180,0,0.6617417178345534,0.4870739601516355,1.812212741775329,-0.9799855093877519,-0.0445557922377422,0.1570653603323894,0.11390195499530398,0.1937200032407418,0.018186758222376358,20557.48017699457
1682303031711183309,179,1682303031711183309,camera_1,181,0,0.6621114604932584,0.4883262016398356,1.8133039140866691,-0.9801279754740679,-0.04440388384874354,0.1560329510724902,0.11415412814200851,0.19500325073022395,0.01833047148548439,20539.84611236583
1682303031721350908,180,1682303031721350908,camera_1,182,0,0.6618682235591952,0.4890129873637844,1.8127333726350798,-0.9800732440840697,-0.044320602811711754,0.15650405504064124,0.1140114079939809,0.20953003130853176,0.01968756727538301,20541.211079692934
1682303031731051206,181,1682303031731051206,camera_1,183,0,0.661902374407847,0.4894072474029861,1.8127788806201344,-0.9801500044823304,-0.04455446253749871,0.15620755226586835,0.11366648229090479,0.22565097210463136,0.021205326152225625,20545.375191195868
1682303031741089820,182,1682303031741089820,camera_1,184,0,0.6619554937832459,0.48927620367658003,1.8129040918532497,-0.9801482193125417,-0.044529975791464,0.15594242099006073,0.11405485859981614,0.22156401997199282,0.020822416985370726,20543.681970525067
1682303031750861883,183,1682303031750861883,camera_1,185,0,0.6618173246666003,0.4885079876228008,1.8125207091061861,-0.9800092448549916,-0.04452238677000104,0.15683312814006295,0.11403072828345125,0.23400196753209457,0.02198107523611881,20543.406513007714
1682303031761197566,184,1682303031761197566,camera_1,186,0,0.6620632506723698,0.4877570698819328,1.8131357911658812,-0.980146179165364,-0.04448685037890146,0.15607799146422455,0.11390367944626292,0.21536843886133283,0.02024004247987441,20549.100351699395
1682303031771154165,185,1682303031771154165,camera_1,187,0,0.6618693942434698,0.4867366370526675,1.8125672816346892,-0.9800815776634921,-0.04451122047217252,0.15682686611162389,0.11342039694131224,0.1960829069139436,0.01841481765661149,20561.425812477242
1682303031781505107,186,1682303031781505107,camera_1,188,0,0.661879124832304,0.4863382683982187,1.812560518847557,-0.9800823333563846,-0.04467937239736851,0.15659552374563254,0.11366712571237492,0.20464816258754578,0.01921710812523932,20565.19867554574
1682303031791188240,187,1682303031791188240,camera_1,189,0,0.6618214536929232,0.4864542204164928,1.8123965970196916,-0.9800791169089973,-0.04462726189807431,0.15674698277573498,0.11350645569774588,0.2196877800161019,0.020627087143669995,20567.000461419815
1682303031801148653,188,1682303031801148653,camera_1,190,0,0.6618095230514556,0.48712482099600474,1.8123917179254567,-0.9800224508799421,-0.04455761680971303,0.15721624284013042,0.11337401617100448,0.21303885185625404,0.020005965071355627,20556.465929381895
1682303031811174631,189,1682303031811174631,camera_1,191,0,0.6620729973003936,0.48830810656815377,1.8132125895402238,-0.9801231057237425,-0.04457000715708473,0.15609309129784812,0.11404893220694629,0.20950108615215868,0.01969165297025912,20542.03593714792
1682303031821492195,190,1682303031821492195,camera_1,192,0,0.6619467981744163,0.48904800147278416,1.8129151379360673,-0.9801194435269814,-0.044484926312655014,0.15609807238345075,0.1141067901112327,0.22085277049336582,0.020754870234734442,20542.37282883178
1682303031831001996,191,1682303031831001996,camera_1,193,0,0.6617893726100887,0.48931230522046215,1.8124858453312949,-0.9800480725981059,-0.04451802260653596,0.15636097952159783,0.1143466883778809,0.21357481478480622,0.020062784445723854,20542.605047864727
1682303031841168642,192,1682303031841168642,camera_1,194,0,0.661784009732952,0.48915981975711403,1.812437457328279,-0.980099779279435,-0.044588586860486876,0.15614938501493256,0.11416501275630048,0.22826463112141937,0.02144132007078348,20549.746527701143
1682303031851267576,193,1682303031851267576,camera_1,195,0,0.6617627007520951,0.4884933073735978,1.8123802176584345,-0.979995792234387,-0.04455342037313757,0.15679485560801248,0.1141867470016252,0.22294381179381162,0.02093854726021043,20545.467805237728
1682303031861406803,194,1682303031861406803,camera_1,196,0,0.6620737121939101,0.4877640572893076,1.8131873581236306,-0.9801404309602895,-0.04439600182512323,0.1562242008427637,0.11378809116055034,0.2090832554968074,0.019650721121053327,20547.087197049408
1682303031871095657,195,1682303031871095657,camera_1,197,0,0.6621269654374706,0.4869489121646197,1.8133037952517557,-0.98015381866807,-0.04449548990945746,0.1563744477943417,0.11342695978087533,0.20352612913120538,0.019128784257474028,20551.79712346103
1682303031881215333,196,1682303031881215333,camera_1,198,0,0.6618740195871127,0.48634684867730826,1.812592733060219,-0.9801302604932006,-0.04467776722931328,0.15675240110357522,0.1130365176798976,0.19181633705738932,0.01801369035276515,20568.9174672889
1682303031891265869,197,1682303031891265869,camera_1,199,0,0.6617879289709964,0.48642429366563933,1.812309628570707,-0.9800982142014147,-0.0446179529843255,0.1568858940753451,0.11315275087626499,0.19371584110194817,0.018187157484890037,20570.66000652034
1682303031900769233,198,1682303031900769233,camera_1,200,0,0.6617654531331975,0.4870898592128772,1.8122588205170722,-0.9800367307596198,-0.04464219457244132,0.15664702194120933,0.11400347074849486,0.20662928611272946,0.01939910770745946,20561.77212135285
1682303031911418914,199,1682303031911418914,camera_1,201,0,0.6622126002317653,0.4884022239049475,1.8135432825751767,-0.9801785798617549,-0.04447576489082195,0.15599795701701105,0.11373871515050828,0.21668213763041422,0.02037482678623681,20539.03127542581
1682303031931465148,200,1682303031931465148,camera_1,202,0,0.6617828767760356,0.4892979620646865,1.8124219486457496,-0.9800653952925599,-0.04439129370724682,0.1567219841108772,0.11375171950078587,0.2172888975474052,0.020412175944678215,20544.457340625817
1682303031940775632,201,1682303031940775632,camera_1,203,0,0.6621235405269541,0.4893995216659945,1.813389952800454,-0.9801884980246302,-0.04443117862165445,0.155943092823322,0.11374590325461005,0.20405727036995813,0.0191876241530635,20536.21863659355
1682303031951329231,202,1682303031951329231,camera_1,204,0,0.6618033891887495,0.48850817384943923,1.8125016996181313,-0.9800197858714899,-0.04464270595555945,0.15673945636994321,0.11402188790850319,0.21240798057988286,0.019951616945827377,20545.532691693392
1682303031961311817,203,1682303031961311817,camera_1,205,0,0.6620843178134834,0.48778130999400493,1.8132542614061455,-0.9801415277121575,-0.044435654612837425,0.15634956719042298,0.11359080549311282,0.20616923680063337,0.01937861619050768,20545.87465750984
1682303031971253156,204,1682303031971253156,camera_1,206,0,0.6620973717913796,0.48690086879293293,1.8131265372577667,-0.980206056040883,-0.04442225477169505,0.1560054632678729,0.11351231832868393,0.21743390272604302,0.020431802135025757,20560.194042463678
1682303031981221199,205,1682303031981221199,camera_1,207,0,0.6618136886554509,0.4862973723479218,1.8123916504283535,-0.9800292942512401,-0.04469178598907857,0.1569425964219568,0.11364087338126898,0.21849167940672487,0.02051398502045983,20563.831532406388
1682303031991151809,206,1682303031991151809,camera_1,208,0,0.661795752494361,0.48641538651587346,1.8122999959963664,-0.9800354588260377,-0.04460695269641809,0.15697533727634175,0.1135758015677462,0.20658767421264201,0.019395073921619817,20564.894586911418
1682303032001275539,207,1682303032001275539,camera_1,209,0,0.6619659398023793,0.48724447231221435,1.8127887930465096,-0.9800808110597555,-0.04449769650631248,0.15657921605588515,0.11377393329497001,0.22145654290216044,0.02080403381102947,20553.073162321467
1682303032011129856,208,1682303032011129856,camera_1,210,0,0.6620495458576408,0.48828787127506473,1.8131615566674713,-0.9800498578980051,-0.04457010446601208,0.15668239230979064,0.11387014429634189,0.20053228753386065,0.01884843081756808,20536.03778875585
1682303032021444320,209,1682303032021444320,camera_1,211,0,0.6619599270639285,0.48907461564257587,1.812953937306438,-0.9800862166622125,-0.04450231689087766,0.15628128378971992,0.11413462242953076,0.2207795471767895,0.020749242361371083,20538.17111645965
1682303032031146049,210,1682303032031146049,camera_1,212,0,0.6617999532426327,0.4893148572016221,1.8124764794030126,-0.9800714531617583,-0.044494608629870286,0.15628579916515373,0.11425815279262737,0.21602210332639515,0.02029268441529491,20544.731763320404
1682303032041498661,211,1682303032041498661,camera_1,213,0,0.6618405707697415,0.4892184877556847,1.8126284792204177,-0.9801120008672877,-0.04439965647670878,0.15661961715581837,0.1134875842664617,0.21359196479897946,0.020069020331534782,20545.434181220357
1682303032051139593,212,1682303032051139593,camera_1,214,0,0.6618723398471601,0.48854729393608426,1.8126498966792064,-0.980015060808853,-0.04456731261970226,0.15702167798161157,0.11370324479766163,0.21617190563119948,0.020309751873783262,20540.91648400436
1682303032061341524,213,1682303032061341524,camera_1,215,0,0.662051050511265,0.48773437625381233,1.8130859517842883,-0.9800978865023674,-0.044575300317548854,0.15640098714806844,0.11384158596181992,0.222772951296065,0.020935430803905638,20545.79305202875
1682303032071130037,214,1682303032071130037,camera_1,216,0,0.6620205756310804,0.48684288268610926,1.8129488051248535,-0.9800912055610721,-0.04438638056720533,0.1565681935069536,0.11374303839777054,0.19935870345216244,0.018729684232364836,20553.26706558466
1682303032081218004,215,1682303032081218004,camera_1,217,0,0.6617760326065143,0.486259191724919,1.8122535406238356,-0.9799772795001247,-0.04472350722135772,0.1570149484892091,0.11397651300284092,0.21760813414584845,0.020427583478731838,20562.063126170193
1682303032091237783,216,1682303032091237783,camera_1,218,0,0.6620053142579245,0.48659699306853,1.812935900205264,-0.9801213173908205,-0.044635325845077164,0.15655532862499405,0.11340335075255202,0.21043722791364416,0.019769878279019232,20559.116353345576
1682303032101212501,217,1682303032101212501,camera_1,219,0,0.6618434807127376,0.48717809073964663,1.812521043910703,-0.9800834149812704,-0.044544265261553175,0.15695440479049844,0.1132149412746384,0.21515669615473598,0.0202075588921203,20559.394847848685
1682303032111116886,218,1682303032111116886,camera_1,220,0,0.6619967314580711,0.48821860037784703,1.8129438094983354,-0.9801028704570193,-0.04452029094018291,0.1563995884930594,0.11382212322617592,0.19650613761041313,0.018465501046868546,20545.6092818987
1682303032121212959,219,1682303032121212959,camera_1,221,0,0.6621172581174487,0.48915853030909173,1.8133456720423464,-0.9801762544301998,-0.04442789517668867,0.15587592737978714,0.11394458146329252,0.20689317991491407,0.019452201004363196,20537.697982124977
1682303032131159305,220,1682303032131159305,camera_1,222,0,0.6618709018641042,0.48937767212487426,1.8126890611356496,-0.980142435273365,-0.04444912903043045,0.15614467010507363,0.11385922669073216,0.21670390095096081,0.02036200457411477,20546.4148196904
1682303032141300439,221,1682303032141300439,camera_1,223,0,0.6618542918398436,0.4892038903174214,1.8126506153312263,-0.9800703399859163,-0.04452846430674869,0.15660710151056173,0.11381370876495447,0.22882770549040288,0.021500573085405313,20541.68614674476
1682303032151202201,222,1682303032151202201,camera_1,224,0,0.6617977226965273,0.48850169544037514,1.8125053268361728,-0.9800183902411361,-0.04465016375082756,0.15664322675965692,0.1141631165329642,0.20305081747937948,0.019072177953149996,20545.63276654447
1682303032161152362,223,1682303032161152362,camera_1,225,0,0.6619553151327217,0.4876861161800281,1.812886624585055,-0.9800614426321322,-0.04446185436767644,0.1565068085815268,0.11405407068420173,0.20795899268705398,0.019538357125925016,20546.759910199555
1682303032171498775,224,1682303032171498775,camera_1,226,0,0.6622031046380277,0.4870103482400378,1.8135319693268774,-0.9801775697861698,-0.04465974566391604,0.15618090051853167,0.11342382958855235,0.19575780472951007,0.01840269667094955,20549.831618101103
1682303032181331634,225,1682303032181331634,camera_1,227,0,0.6619640434104853,0.4864177771769618,1.812828822974869,-0.9801080838183409,-0.044614307058812946,0.15648393040694006,0.1136243247020547,0.21240644750650972,0.01995146732470462,20561.45332197007
1682303032191275596,226,1682303032191275596,camera_1,228,0,0.6619653722405402,0.48657401913513004,1.812803495752033,-0.9802132799196768,-0.04448505246340344,0.1560789053702329,0.11332423074906546,0.22467025893274695,0.021103770682041768,20570.19491096923
1682303032201363086,227,1682303032201363086,camera_1,229,0,0.6617715630441274,0.4871173253621684,1.8123361543000327,-0.9800016768828894,-0.04463574967776814,0.15662832991855008,0.11433253878207351,0.21652955620083958,0.020329649377997975,20557.04861194954
1682303032211313724,228,1682303032211313724,camera_1,230,0,0.6622154035659564,0.4883937714338786,1.8135869694267732,-0.9801800485595901,-0.044600011964737875,0.15600306958259968,0.11367037265387842,0.19808478228515014,0.018626591059554914,20539.051625803113
1682303032221427917,229,1682303032221427917,camera_1,231,0,0.6620335843163098,0.48910967753259676,1.8131587911318197,-0.9801234155556053,-0.04457824342693232,0.1560251364599648,0.11413600345742236,0.217318071576301,0.020427915228282707,20537.72476966004
1682303032231484889,230,1682303032231484889,camera_1,232,0,0.6617904511383091,0.48930678006543105,1.8124707271966298,-0.9800671335123207,-0.04450310940836049,0.15650031556644736,0.1139979749361058,0.2122238285955973,0.019936404624991112,20544.396043059893
1682303032241298437,231,1682303032241298437,camera_1,233,0,0.6618931487910185,0.48925259165925983,1.812788014831592,-0.9801468637492217,-0.04440646007198336,0.15603444984804354,0.1139887812333234,0.22778425249271095,0.021404548738784654,20545.766663744813
1682303032251302719,232,1682303032251302719,camera_1,234,0,0.6619500415724179,0.4886308630495974,1.8129045877876937,-0.980102024777436,-0.044589590687201364,0.15637417913697418,0.11383718868961715,0.21436235413420945,0.020144032361387437,20544.009319291206
