%time,field.header.seq,field.header.stamp,field.header.frame_id,field.image_seq,field.transforms0.fiducial_id,field.transforms0.transform.translation.x,field.transforms0.transform.translation.y,field.transforms0.transform.translation.z,field.transforms0.transform.rotation.x,field.transforms0.transform.rotation.y,field.transforms0.transform.rotation.z,field.transforms0.transform.rotation.w,field.transforms0.image_error,field.transforms0.object_error,field.transforms0.fiducial_area
1684938105187973737,3,1684938105187973737,camera_1,4,0,-0.247192897490668,-0.03715370321500578,0.6888475997942316,0.9817790969340795,-0.05543173533561906,0.1778059544659589,0.03771167057337241,0.02248895209049806,0.00320947975769453,20725.99915309948
1684938105197489976,4,1684938105197489976,camera_1,5,0,-0.24699197625891814,-0.03759809028011174,0.6882470640876607,0.9813403151162299,-0.05535002175213299,0.18015852007216496,0.03808501890539631,0.03408342145849019,0.004858957989869487,20722.108784904485
1684938105207735776,5,1684938105207735776,camera_1,6,0,-0.24715947726873316,-0.03836045121720151,0.6886578600065436,0.9816785665185501,-0.055497835657416825,0.1784525410801562,0.037173550509228936,0.023466025188099593,0.003348688439088564,20719.541754075908
1684938105217382907,6,1684938105217382907,camera_1,7,0,-0.24697766656358508,-0.038503018930394116,0.6881422988747953,0.9815464634926205,-0.055097308901807036,0.17925633915606623,0.03738972357846337,0.034890994254965335,0.004972613520606112,20736.4868350646
1684938105226457834,7,1684938105226457834,camera_1,8,0,-0.24695507185290322,-0.03846979092776834,0.6880907599630357,0.9815282275166892,-0.0553013015044402,0.17935265498564193,0.037104309580729716,0.020444611611310393,0.0029135295399961058,20739.422071809167
1684938105235789299,8,1684938105235789299,camera_1,9,0,-0.2469795059893914,-0.03827075228586226,0.6882162773370116,0.981461645715033,-0.055343103637463045,0.17966775717949954,0.03727835699438259,0.022511186019983143,0.0032092637857098778,20728.719041762975
1684938105245483636,9,1684938105245483636,camera_1,10,0,-0.24691078048256318,-0.03790299331622507,0.688089628070926,0.9814374285254986,-0.054965010941544386,0.17977066815838735,0.037972731417947166,0.02831469214288518,0.004034212126723068,20736.00170447211
1684938105255920410,10,1684938105255920410,camera_1,11,0,-0.24723537072941754,-0.037046806083477955,0.6890787938379779,0.9817698227051409,-0.05549444414643983,0.1778390897191867,0.037704642449504326,0.045191217213869095,0.006453685970334979,20713.502366460612
1684938105265381097,11,1684938105265381097,camera_1,12,0,-0.24695728339275622,-0.03659085340708608,0.6883049768442119,0.9814355685931262,-0.05549513041275154,0.17970854249741858,0.03754137656256634,0.020777315483428538,0.002962158273962212,20735.600690138526
1684938105274562835,12,1684938105274562835,camera_1,13,0,-0.2468931588242908,-0.03628102300347671,0.6881496533656026,0.9813463816744374,-0.055183932663806896,0.18000456054249875,0.038889213596419246,0.01864520477829501,0.002656076643216245,20738.73653104109
1684938105284099102,13,1684938105284099102,camera_1,14,0,-0.2468768763594609,-0.03615777953269842,0.6881018681560566,0.9813968272104919,-0.05521969575063143,0.17966360582782545,0.03914130150277595,0.02747825306141749,0.003913207439358397,20746.730591809264
1684938105293488740,14,1684938105293488740,camera_1,15,0,-0.24688366002449982,-0.036207833950020245,0.6881021382495924,0.9813654294048294,-0.05537159474287339,0.17985019111213404,0.03885600624915829,0.024728724209126085,0.003522152600750086,20744.330242352087
1684938105303914308,15,1684938105303914308,camera_1,16,0,-0.24699925807277132,-0.03682424030019488,0.6883312801940938,0.9815108266009509,-0.05530678589565804,0.17920761049796305,0.0382398880571104,0.021954988944344223,0.003129313280947031,20737.016837107018
1684938105313363313,16,1684938105313363313,camera_1,17,0,-0.24717506566936648,-0.037315223702697034,0.6887858873570457,0.9817726448042926,-0.05531056965905737,0.1778213937333878,0.03798376927966069,0.030749964353162795,0.004387461886347316,20727.329659432522
1684938105322223424,17,1684938105322223424,camera_1,18,0,-0.24706106350791732,-0.037766423270929314,0.6884251839718404,0.9815424505850006,-0.05538228871923059,0.1791971453316704,0.037357768948262725,0.03853368025738746,0.00549582930240161,20726.72788760601
1684938105331922292,18,1684938105331922292,camera_1,19,0,-0.24702758382666382,-0.038161928184146605,0.6882879509428708,0.9814979350425272,-0.05515969585073859,0.179398223763595,0.03788784463883157,0.039534346025902785,0.005636089190172429,20726.858478271282
1684938105341441392,19,1684938105341441392,camera_1,20,0,-0.24692739046499992,-0.03841682702838702,0.6879948452992184,0.9814216014334496,-0.055243031002394416,0.17977058575926466,0.03797873432912928,0.029668785107787695,0.004226447093464005,20736.45724427711
1684938105351871490,20,1684938105351871490,camera_1,21,0,-0.2470670099072631,-0.038426761574009566,0.688415117882449,0.9816662612795733,-0.05494004112643808,0.17859646772715862,0.03763303152539899,0.028459523513447493,0.0040579880386834,20730.090153176578
1684938105361282825,21,1684938105361282825,camera_1,22,0,-0.24694593317083743,-0.038124394269068176,0.6881088769261413,0.9816036009250486,-0.055380097688856086,0.17890016630952688,0.03717722320688279,0.011115620785858482,0.0015838185333908758,20747.888931044843
1684938105371028423,22,1684938105371028423,camera_1,23,0,-0.24711169315672743,-0.03775409155607064,0.6886146314816438,0.9817285867911101,-0.05520522994590016,0.17812732267662768,0.03784205834526755,0.027506561891641468,0.0039233430155764994,20730.243260539602
1684938105381281852,23,1684938105381281852,camera_1,24,0,-0.24713243881374128,-0.03729242810164961,0.6887312713446478,0.9815765706959879,-0.05516115095703414,0.17903942262334538,0.03754421969489655,0.04692772001726553,0.006697907604987089,20714.551209613797
1684938105391619443,24,1684938105391619443,camera_1,25,0,-0.24700555456742895,-0.03681172450827153,0.6884353436545606,0.9815646268519445,-0.05514483164276367,0.1790351856318267,0.03789898629081624,0.027226235368289053,0.0038818442427180763,20735.23484048702
1684938105400915622,25,1684938105400915622,camera_1,26,0,-0.2468393809970937,-0.03621080343455568,0.6879807509883238,0.9813642949273925,-0.05519367310403365,0.17989803785022385,0.038916257124578114,0.02210832480341196,0.003147762902295894,20750.6818622622
1684938105411483764,26,1684938105411483764,camera_1,27,0,-0.2469797512469437,-0.03617317775765099,0.6883619843323342,0.9814930483789963,-0.05538133910480494,0.17901211980815965,0.03948372100566249,0.022917073452845216,0.003265196664192826,20739.507904391736
1684938105421181201,27,1684938105421181201,camera_1,28,0,-0.24698159175256176,-0.03629366435720964,0.6883589864022971,0.9814513732737115,-0.05531248849388904,0.1794249950886404,0.038735018435528484,0.02595555706648156,0.003699326705710628,20734.979521856876
1684938105431098461,28,1684938105431098461,camera_1,29,0,-0.24694560720427108,-0.03657788685220338,0.6882223416498068,0.9814449669009354,-0.05529713245461204,0.17949863038774522,0.038577788635983074,0.02823442086810246,0.004022922535921119,20740.26534436934
1684938105441249608,29,1684938105441249608,camera_1,30,0,-0.24718373429762566,-0.037015098751245805,0.6888405989803064,0.981769808548068,-0.05530643194281944,0.17781138242724584,0.038109761066638465,0.013369388063438237,0.0019076506709374305,20726.33448676835
1684938105451040744,30,1684938105451040744,camera_1,31,0,-0.247064408734346,-0.0379153353442521,0.6884145764771761,0.9814835182212361,-0.055059821442890705,0.17965108525726958,0.037202245747090815,0.021783252188470215,0.0031072411115302136,20719.706624597195
1684938105461256504,31,1684938105461256504,camera_1,32,0,-0.2470786986129976,-0.03827687000549737,0.6884227992693079,0.981624427799447,-0.05509465913594977,0.17880227032852894,0.0375207863385822,0.025429829896893352,0.003626395513795184,20727.89184851758
1684938105470999717,32,1684938105470999717,camera_1,33,0,-0.24697408889245137,-0.03846534844904052,0.6881096978763716,0.9815131611830762,-0.055212862460042006,0.17955421696937887,0.03665702404569368,0.017957870149984956,0.0025597675797933567,20736.378112715094
1684938105480741739,33,1684938105480741739,camera_1,34,0,-0.24700774069245093,-0.038502493298995244,0.6882243406660004,0.9815530844560948,-0.05526789024148869,0.17919619301225692,0.037252209503535326,0.020654889580328017,0.00294441065772066,20732.930802745628
1684938105491064786,34,1684938105491064786,camera_1,35,0,-0.24688045825089963,-0.03833081784271501,0.6878985028710187,0.9814336431014176,-0.055130201898581484,0.1798682507026613,0.03736411937227512,0.028660496114753187,0.004082420210468825,20743.569028240854
1684938105501097917,35,1684938105501097917,camera_1,36,0,-0.24700746433041595,-0.03759646137021902,0.6883530999338372,0.9816331237071957,-0.05515124922662416,0.17869151071823103,0.037737171950647304,0.02800065971678123,0.003991471163928647,20739.278179244968
1684938105511061429,36,1684938105511061429,camera_1,37,0,-0.24713228498518242,-0.037139273624733675,0.6887484217698238,0.981661236042253,-0.05503949191065212,0.17857912159914938,0.03770105185654199,0.03693021379876882,0.005270046364685709,20721.192848839222
1684938105521288633,37,1684938105521288633,camera_1,38,0,-0.2469227247758626,-0.03667358828442986,0.6881930398918548,0.9814426583194975,-0.05510098206227679,0.1796961764642403,0.03799308319501667,0.030206288560293615,0.004304498125216981,20740.37058571691
1684938105531100511,38,1684938105531100511,camera_1,39,0,-0.2469618649451558,-0.03634820309048392,0.6883401143921934,0.9814893775981379,-0.05546003657466252,0.17920877969694068,0.038561629694431325,0.027193591115064922,0.0038755291989823596,20739.77893581648
1684938105541234970,39,1684938105541234970,camera_1,40,0,-0.2469674464703603,-0.036183794094474336,0.6883528755151012,0.9815564011445919,-0.05520149823453508,0.1788578117666082,0.03885497567622805,0.021907060814555734,0.0031215284219779636,20744.45237473922
1684938105550876140,40,1684938105550876140,camera_1,41,0,-0.2469530324322151,-0.03639837413204306,0.688254088908305,0.9815180531071391,-0.05541758781167389,0.17895320301868156,0.03907625257443841,0.025426361593417823,0.00362202106657882,20746.302438780087
1684938105561083555,41,1684938105561083555,camera_1,42,0,-0.24697657794622757,-0.03674183502348489,0.6882977784863417,0.9814330398194641,-0.05517637787627061,0.17954763671023471,0.03882527304412653,0.025993164512328804,0.0037041318054984607,20733.077894990332
1684938105570880413,42,1684938105570880413,camera_1,43,0,-0.24716666249521485,-0.037225813984503864,0.6887591454933354,0.9816455718291413,-0.05528952743155997,0.17864480835111587,0.037430895177997005,0.028965978242922574,0.0041341962463785015,20719.063288862817
1684938105580932140,43,1684938105580932140,camera_1,44,0,-0.24702809526712938,-0.03766961649674114,0.6883117271280843,0.9814144147372481,-0.055189333064584414,0.17970694988741723,0.03853954104543026,0.037282338307704777,0.0053146969233915054,20722.708276082405
1684938105591049432,44,1684938105591049432,camera_1,45,0,-0.2469946876419684,-0.03808369079389448,0.6882011596891487,0.9814882056599781,-0.05531322150733809,0.1795277349350814,0.03729801691666275,0.027133865631185472,0.003867976025930015,20732.595252788735
1684938105601245403,45,1684938105601245403,camera_1,46,0,-0.24705447309484246,-0.038516863968660546,0.6883395786614641,0.9817049146667394,-0.05529844313585968,0.17830458970087576,0.0374835430225389,0.020916996407322586,0.0029817841387416834,20738.38229839712
1684938105611209869,46,1684938105611209869,camera_1,47,0,-0.24705472021296088,-0.038237577953605474,0.6884090890145762,0.9817202785542111,-0.05506156358092269,0.1783168694795834,0.037371285105913435,0.02205250260885805,0.0031442349124123008,20737.118539622985
1684938105621149539,47,1684938105621149539,camera_1,48,0,-0.24688499713402767,-0.03783735639101421,0.6879999258847037,0.9814831851219925,-0.0552115664620323,0.17949989755135978,0.03771242541455878,0.02410106494789943,0.003433002562790257,20746.510709459068
1684938105631154537,48,1684938105631154537,camera_1,49,0,-0.2470634170968682,-0.03741727871708087,0.688533356868152,0.9816255045780339,-0.054933241382992694,0.17873987064960306,0.03802323491289921,0.031081060937140137,0.004432481542823385,20728.43686023925
1684938105641370296,49,1684938105641370296,camera_1,50,0,-0.24693683079040168,-0.03655023891040147,0.6882551517702962,0.9814553974049232,-0.05546266658917109,0.17949641222845353,0.03808193163005436,0.017013125936500728,0.0024245859695518628,20740.502568457283
1684938105651142120,50,1684938105651142120,camera_1,51,0,-0.2469850669096064,-0.03628237581681905,0.6883912378187782,0.9815252176799907,-0.055316084417866083,0.1790717877800732,0.038492501661630846,0.02600744488881901,0.0037069183714459894,20739.30048304517
1684938105661240577,51,1684938105661240577,camera_1,52,0,-0.24706650612815564,-0.036181156697658465,0.6886209643466499,0.9815893657142096,-0.055298742860553654,0.17844151220611087,0.03978684300638193,0.020373963401652873,0.002904271161982199,20731.61391816148
1684938105671230792,52,1684938105671230792,camera_1,53,0,-0.24699231717063735,-0.036244573275779256,0.68838801535116,0.9814147759150286,-0.05536286917960295,0.17962301513035672,0.03867250660787725,0.025854570674709976,0.0036855609558367544,20730.770034780144
1684938105681160688,53,1684938105681160688,camera_1,54,0,-0.24698673341066535,-0.036493138938867915,0.6883403564839311,0.9815093233797444,-0.05539625817466806,0.1791405172353225,0.03846268039987591,0.013620816345792264,0.0019411900908184252,20739.538454850317
1684938105691100597,54,1684938105691100597,camera_1,55,0,-0.24712591611641194,-0.037359919368235926,0.688629191616747,0.9816603734799375,-0.0552996640076643,0.178260235890179,0.038834863206236636,0.024312441353686154,0.003467002854349973,20727.08228900761
1684938105701285123,55,1684938105701285123,camera_1,56,0,-0.24708093883054733,-0.037815491617588896,0.6884779058022096,0.9815470885807029,-0.05529494705551996,0.17906196380537096,0.038007826128799466,0.030211693490855396,0.004308571598145802,20723.21556793806
1684938105711172819,56,1684938105711172819,camera_1,57,0,-0.2470788047814914,-0.038207696777732905,0.688437234314786,0.9815979265903616,-0.05545366680217911,0.17881138058099935,0.03764161960401118,0.025135620962828398,0.0035844996646544774,20727.201743373647
1684938105721360683,57,1684938105721360683,camera_1,58,0,-0.2469914526354524,-0.03844777497575873,0.6881514799909785,0.9814508777202178,-0.055234082401533956,0.17961235479695128,0.037983848775086974,0.01651500939624384,0.0023535637862096715,20729.014812235022
1684938105731153249,58,1684938105731153249,camera_1,59,0,-0.24701933535585577,-0.03852432074530592,0.6882371783983247,0.9814672798554273,-0.05519203201442308,0.1796748742176309,0.03731966974915812,0.021639223326928914,0.003085267946754336,20724.44648074231
1684938105741114139,59,1684938105741114139,camera_1,60,0,-0.2469315334519674,-0.03809289385811913,0.6880997267684174,0.9816012380232969,-0.05508906195343567,0.17903159785257605,0.03703905688020331,0.025206280581187457,0.0035916730212714374,20747.446318083443
1684938105750935316,60,1684938105750935316,camera_1,61,0,-0.24704258554491398,-0.03768968325876797,0.6884604233376442,0.9817077942885202,-0.05524787305490304,0.17823805695112752,0.03779780695178797,0.022282664489466697,0.0031768554395604108,20738.83675307769
1684938105760109424,61,1684938105760109424,camera_1,62,0,-0.2470988010969624,-0.03723313089724622,0.6886590172594177,0.9817089562771737,-0.05515807838260856,0.17819235037399106,0.03811296134536063,0.031016985652968287,0.0044240601507421155,20730.373709884014
1684938105769924640,62,1684938105769924640,camera_1,63,0,-0.24704751164271754,-0.03678081234628548,0.6885427500289228,0.9815875436225214,-0.05526671624108447,0.1788793037475202,0.03786395346281872,0.0357120634871535,0.00509322798128545,20731.383371927783
1684938105780930995,63,1684938105780930995,camera_1,64,0,-0.2470394605643106,-0.03643235858898222,0.6885435171095088,0.9815682299119092,-0.055321773845956934,0.1788031670564627,0.038635978267891675,0.03023596020648256,0.004311051284496807,20732.75950779766
1684938105791338205,64,1684938105791338205,camera_1,65,0,-0.24671323169099305,-0.03615262532893963,0.6876257421825752,0.981160009553637,-0.05512170380613754,0.18109273131647544,0.038627141837758366,0.04146558255888522,0.005900541585561939,20755.181686009517
1684938105801294088,65,1684938105801294088,camera_1,66,0,-0.24691191990659553,-0.036337542377379975,0.6881490414985826,0.9813931686894649,-0.05520801014128687,0.1799057418935514,0.03812411441098467,0.03035083436407149,0.004324591928469445,20741.70859299972
1684938105811087369,66,1684938105811087369,camera_1,67,0,-0.24705518708122193,-0.03665772822654677,0.6885161305449875,0.9815935882319352,-0.05525503530411644,0.17860105070608862,0.03902016532737942,0.016796612762846053,0.002394320664853586,20734.015048954985
1684938105821094989,67,1684938105821094989,camera_1,68,0,-0.24719404706692732,-0.03757028263395366,0.6887903159423422,0.9817003814753947,-0.05499540196734474,0.17829570054052712,0.03808556081085666,0.03125325060682371,0.004459925300775028,20717.44816671648
1684938105831966161,68,1684938105831966161,camera_1,69,0,-0.24700139987578734,-0.03831399650696581,0.6882039510817661,0.9815417779853594,-0.05522161984438355,0.17927411474425659,0.0372438257133312,0.02701234712731093,0.0038505159600463234,20734.472683768945
1684938105841183185,69,1684938105841183185,camera_1,70,0,-0.24701036562136974,-0.03849782035405271,0.6882171779461465,0.981602654515843,-0.055410741781368865,0.17879544293470903,0.0376572427093426,0.020162934437394142,0.0028735741450834807,20738.01219435293
1684938105850820779,70,1684938105850820779,camera_1,71,0,-0.24698348221142033,-0.038505467109639015,0.6881433485631981,0.9814893616353759,-0.055273083562593125,0.17952111852711003,0.03735889763952378,0.020942714880220592,0.002984968038665453,20732.443245261908
1684938105860876798,71,1684938105860876798,camera_1,72,0,-0.24709709232916977,-0.03832840065408309,0.6885113373598174,0.9816989984091523,-0.05531689527502522,0.1782351637362503,0.03793868774102443,0.020938244299031794,0.0029857738561789244,20729.664693269184
1684938105869717597,72,1684938105869717597,camera_1,73,0,-0.2469707341240152,-0.03798078467134115,0.6882155898165291,0.9816583004038262,-0.0549712271216833,0.1787997631652352,0.03682105551262294,0.02961059910012409,0.00422065024310832,20745.460167593097
1684938105879843235,73,1684938105879843235,camera_1,74,0,-0.24709075050260368,-0.03709223828724238,0.6886360246580602,0.9816259701430824,-0.055219484174505604,0.17874006127590822,0.037593268057441225,0.042413584305904806,0.006051143502829881,20726.184891515877
1684938105889833927,74,1684938105889833927,camera_1,75,0,-0.24703564127199648,-0.03666086635447239,0.6885166416534407,0.9815866364530604,-0.055324200986930444,0.17870538821599635,0.038617251902421205,0.029524052573833615,0.004209217600503974,20734.135764576033
1684938105899890184,75,1684938105899890184,camera_1,76,0,-0.2469107255346013,-0.036329760800473565,0.6881880270270753,0.9813723490291035,-0.05522998084033892,0.17994710212476459,0.0384317865103188,0.025656061770860106,0.0036557155919537073,20738.24286033074
1684938105910532712,76,1684938105910532712,camera_1,77,0,-0.2469695944865327,-0.03619452330810836,0.6883375879624549,0.9815393212033886,-0.05515354575229842,0.17899613128120478,0.03871733860819942,0.04043451591860503,0.005761976365573169,20743.40024755698
1684938105921628475,77,1684938105921628475,camera_1,78,0,-0.24696958410919234,-0.036219160341811704,0.6883337333380807,0.9816338654043085,-0.05501958439709209,0.17849115262613416,0.038842091323219426,0.028414396045263857,0.004048090396372036,20750.672381578006
1684938105931189298,78,1684938105931189298,camera_1,79,0,-0.24698592442297237,-0.03679467700293869,0.6882956094337923,0.9813314213256762,-0.055279752696460634,0.17996735695445892,0.039300647470148865,0.017263685760553926,0.0024601949771205075,20724.74628589314
1684938105941052436,79,1684938105941052436,camera_1,80,0,-0.24719825294932513,-0.03729133667999781,0.688832055917811,0.9817733303386835,-0.05531147427866057,0.17787045980682656,0.037734177835477355,0.02719551866175607,0.0038811210912794137,20724.670811902502
1684938105951416492,80,1684938105951416492,camera_1,81,0,-0.24709431187329636,-0.03773091717609733,0.6885038605586219,0.9816089141606389,-0.05543077246960957,0.17861913635501797,0.03829586441877901,0.02931426663417369,0.004180072388011339,20727.840281841585
1684938105961189270,81,1684938105961189270,camera_1,82,0,-0.2469674956944123,-0.038124566491877496,0.6881239737062246,0.9814220943892762,-0.05523392436944962,0.17981648808725423,0.037761314268479916,0.022582975099794567,0.003218322124772103,20731.189515794165
1684938105971333265,82,1684938105971333265,camera_1,83,0,-0.24706286010416645,-0.03843057081047427,0.6883599777540078,0.9816645348779283,-0.05518301551176581,0.17861430245115298,0.0372358257840108,0.024487418530043215,0.0034915387100102635,20733.933562238934
1684938105980998992,83,1684938105980998992,camera_1,84,0,-0.24700759038990863,-0.03844758247264614,0.6882437296809877,0.9815951738021774,-0.055350500210344954,0.17885798206114092,0.03764384608079192,0.015540890919510275,0.0022150039399606797,20736.23536997626
1684938105990959882,84,1684938105990959882,camera_1,85,0,-0.2470397500546025,-0.03819668192424812,0.688370801384839,0.9817013847578172,-0.055116621541077396,0.178440843377481,0.03719428194246056,0.024850196321494877,0.003543059280565834,20738.439244760906
1684938106001040220,85,1684938106001040220,camera_1,86,0,-0.24705681572930965,-0.03780905185194923,0.688494484411422,0.9816305651986698,-0.055241213412085696,0.1787259695095421,0.03750826084177844,0.026177548163104806,0.0037334072409780216,20729.53183464973
1684938106010874509,86,1684938106010874509,camera_1,87,0,-0.24705780132558564,-0.03734817123295983,0.6885327706233073,0.9815935486746347,-0.0552843893038559,0.17870518186337955,0.038499343823162537,0.03899619076400995,0.0055604549942628225,20728.26255367789
1684938106020978450,87,1684938106020978450,camera_1,88,0,-0.24697284410973983,-0.03688120021535301,0.688327630647036,0.9814835281714958,-0.05514532908261495,0.17945121223732918,0.03803076432253131,0.013512126402929425,0.001926069303962589,20734.430629148832
1684938106030693769,88,1684938106030693769,camera_1,89,0,-0.24692848808670242,-0.03625419650430006,0.6882351228255187,0.9814813664391896,-0.05500825299753307,0.17930167997702195,0.03897854528119925,0.021336525212973356,0.0030394911284386183,20743.92745270172
1684938106040929555,89,1684938106040929555,camera_1,90,0,-0.24695509945317048,-0.03617970545076042,0.6883010761176231,0.9815676194279601,-0.055268902475371966,0.17866893915855178,0.03934167115988662,0.024915608228184283,0.0035490465844595196,20748.750039365146
1684938106050692081,90,1684938106050692081,camera_1,91,0,-0.24689377433506549,-0.036263828132982574,0.6880983960853165,0.981287668002642,-0.05529521798474127,0.18021035100567556,0.03925787671752002,0.02838054916355759,0.004042348185626025,20737.195272104684
1684938106059998035,91,1684938106059998035,camera_1,92,0,-0.24694224939229292,-0.036535687301132824,0.6882066573775288,0.9813464431519129,-0.055178698469925846,0.18010818590106512,0.038412382374460714,0.025006091804243624,0.0035635700093719666,20732.806387501652
1684938106070427656,92,1684938106070427656,camera_1,93,0,-0.24708034772067572,-0.036948683262786025,0.688534030841552,0.9815870659375693,-0.05542763967695203,0.17874031185420838,0.03829503443236597,0.021466751350089908,0.003061132322065641,20730.57162471488
1684938106080518722,93,1684938106080518722,camera_1,94,0,-0.24699859766241591,-0.037858881778771405,0.6882138176926602,0.9814220176584773,-0.055118952083065095,0.17992911632977077,0.037393013695289926,0.04014165763510391,0.005723000110252238,20727.216311421602
1684938106090933561,94,1684938106090933561,camera_1,95,0,-0.24701314668484478,-0.038474148237664436,0.688233324880831,0.9815578063303575,-0.05528232903736083,0.17910996406360075,0.0375200972983446,0.020489388261921704,0.002920599905181204,20733.030465803335
1684938106101037263,95,1684938106101037263,camera_1,96,0,-0.2470232387218903,-0.03852222780202663,0.6882613464786097,0.9816144166406898,-0.055240422562791505,0.17887517434179717,0.03721968246014589,0.02622617915039882,0.003738744169392039,20735.370566052738
1684938106111017704,96,1684938106111017704,camera_1,97,0,-0.24698527465535272,-0.03838256196316761,0.6881837824622906,0.9814367110187073,-0.05499546610594969,0.1798020578425106,0.03779816090989329,0.03281409840565175,0.004677311099917457,20725.693655820913
1684938106120949983,97,1684938106120949983,camera_1,98,0,-0.247004480774146,-0.037648231981724394,0.6883667075996155,0.9815978531000078,-0.05530175314276418,0.17880851664717906,0.037879879398277326,0.02331395272631198,0.003323457047738664,20736.150741384365
1684938106131006956,98,1684938106131006956,camera_1,99,0,-0.24705615374791415,-0.037183320878284964,0.6885429662447562,0.9815925824628514,-0.05529036276618127,0.17891241073820344,0.03754100588608099,0.03135556750930846,0.004472530659844266,20728.755706547185
1684938106140984773,99,1684938106140984773,camera_1,100,0,-0.24697456420454444,-0.03672985452262392,0.6883269888036401,0.9815074206480816,-0.055015575583668895,0.17935549457263555,0.0380535967098105,0.02190804190468043,0.0031227668404440042,20736.791096775087
1684938106151145219,100,1684938106151145219,camera_1,101,0,-0.2469117258159182,-0.036389134627976855,0.6881979409306413,0.9814277380110459,-0.055382774248446696,0.1796254865004048,0.03830180124433491,0.03901521349325776,0.005559179253754702,20742.55963057303
1684938106161086559,101,1684938106161086559,camera_1,102,0,-0.24677481437406987,-0.03617910568304817,0.6878212521109727,0.9812330304913458,-0.05527667788108631,0.1807020206031817,0.03837979292710606,0.02965851715998724,0.004222491018182455,20750.183451725286
1684938106171232461,102,1684938106171232461,camera_1,103,0,-0.24693308215295273,-0.03638345497709634,0.6882102367471394,0.9814052279063283,-0.05547866181143097,0.1796406510749333,0.03866695233807216,0.028202149202115834,0.0040182257760595416,20740.129802855434
1684938106181223630,103,1684938106181223630,camera_1,104,0,-0.24716664343212782,-0.03673688548667792,0.6888103304417847,0.9817470125890099,-0.05516955696659708,0.17787920712054028,0.03857604089110039,0.02444529498461634,0.0034873623553071296,20727.761477190532
1684938106191188573,104,1684938106191188573,camera_1,105,0,-0.24702373554350607,-0.03716199728639152,0.6883863527957571,0.9814005307530946,-0.05538009263814852,0.17981072155025263,0.03813329244258769,0.04943234601523727,0.0070488263578667954,20722.541343144716
1684938106201198101,105,1684938106201198101,camera_1,106,0,-0.2470076822954436,-0.037611897074540955,0.6882765462268444,0.981391388775251,-0.055101479688112534,0.17990995636755747,0.03830374098946926,0.026603717706166208,0.0037923714985064914,20723.177557896004
1684938106211014032,106,1684938106211014032,camera_1,107,0,-0.24712217105984283,-0.038054380876734836,0.688567402907149,0.9817361134070804,-0.05535385716121446,0.17800618159149126,0.0379993874286571,0.022301028890069574,0.003180306503358811,20731.518824982224
1684938106221220970,107,1684938106221220970,camera_1,108,0,-0.24694410653120158,-0.03850951803573894,0.6880386084811151,0.981508506238587,-0.055122997495157325,0.17948339273968733,0.03725881183153735,0.028582451457623392,0.004072667537852798,20739.613292452523
1684938106231167793,108,1684938106231167793,camera_1,109,0,-0.2469898621728633,-0.03848532301058576,0.6881902843845144,0.9815144989525126,-0.055317557877522426,0.17936202350677027,0.03739680013078168,0.02155909663997591,0.003072991966204804,20732.3649132885
1684938106241286993,109,1684938106241286993,camera_1,110,0,-0.24696105506949012,-0.0382792594755585,0.6881523401204028,0.9815733911809286,-0.055319213321905626,0.17907461894785845,0.037225572013021145,0.021009050717111677,0.002994079685420651,20741.358173749053
1684938106250964164,110,1684938106250964164,camera_1,111,0,-0.2470596814235722,-0.03794109509974513,0.6884838842827387,0.9816597690097761,-0.05517877544730596,0.17871659303509294,0.036875195209487614,0.019959671481046822,0.002847056212139245,20731.028719273858
1684938106261205434,111,1684938106261205434,camera_1,112,0,-0.2469731588854215,-0.037486925603765785,0.6882918799474317,0.9813615893356751,-0.05514163281442353,0.18015042810224763,0.0378768341033687,0.043575880816206336,0.006213082755638104,20721.861747294446
1684938106271120309,112,1684938106271120309,camera_1,113,0,-0.24687025674676663,-0.03660098064066618,0.6880692754081844,0.981381622885832,-0.05525963093147485,0.17978229079562855,0.03892057768795381,0.028511162556242198,0.004060447806021782,20744.430041643558
1684938106281134605,113,1684938106281134605,camera_1,114,0,-0.24684458035866133,-0.03629874726215683,0.6879975241730774,0.9812740000793565,-0.055239636532186664,0.18054472452030526,0.038125080615496305,0.04548942780820653,0.006480147305653141,20741.714359656205
1684938106290975332,114,1684938106290975332,camera_1,115,0,-0.24693666151299887,-0.03619154438031994,0.6882588032659772,0.9815724536741853,-0.055246747704491554,0.1788096373616602,0.03860607002412002,0.029623030102811754,0.00422014244675287,20751.422644180715
1684938106301277875,115,1684938106301277875,camera_1,116,0,-0.2468346602249099,-0.03621752823163839,0.6879601319966712,0.9812459906922849,-0.05520251453798913,0.18055570279760674,0.03884103920162186,0.028242339205462486,0.004021849507371191,20742.12909323455
1684938106311328649,116,1684938106311328649,camera_1,117,0,-0.2470158097478399,-0.036463427404267196,0.6884281911209962,0.9815046859387059,-0.05549848299489364,0.17904257723917485,0.03888734242889294,0.022189221112057567,0.003162751465572854,20734.68217285013
1684938106321282863,117,1684938106321282863,camera_1,118,0,-0.2470286248188319,-0.03730940779869507,0.6883911743131018,0.9814391313737791,-0.055326040977697354,0.17960691892686553,0.03817872799890455,0.040153818437829614,0.005725476664943244,20723.956342318445
1684938106331062555,118,1684938106331062555,camera_1,119,0,-0.24707805972239266,-0.03818399572743694,0.6884211060690016,0.9816531269911773,-0.05519886631371252,0.17863652869983968,0.037406069563584964,0.02420781087130308,0.0034520374742336383,20731.524923910736
1684938106341231584,119,1684938106341231584,camera_1,120,0,-0.2470142196532106,-0.03844578552879707,0.688243262494304,0.9814509307954211,-0.055111830136659434,0.17976005256218022,0.03745771112376981,0.029472292284481227,0.004202048002882094,20723.219048070256
1684938106351160764,120,1684938106351160764,camera_1,121,0,-0.24698275022551902,-0.03853341431110024,0.6881460198744473,0.9814922299634872,-0.05508441245434092,0.17956513176030647,0.037350682480581536,0.024727054813411087,0.003524416638787528,20731.474988214788
1684938106361286163,121,1684938106361286163,camera_1,122,0,-0.24691771940745297,-0.038135439277173694,0.6880555446816745,0.9814654008234376,-0.05513006582178931,0.17972537581286285,0.03721736312394581,0.022042071854230016,0.0031409089834289784,20738.819587239534
1684938106371169805,122,1684938106371169805,camera_1,123,0,-0.24712945784888887,-0.03776348140195056,0.6887066535471243,0.9818829229623991,-0.05533690173431143,0.1772867718951753,0.037591932808125054,0.024529098183847964,0.0034988882119560438,20738.272010179004
1684938106381144762,123,1684938106381144762,camera_1,124,0,-0.2470750236803631,-0.037292292729444294,0.6885920662654819,0.9815449687253327,-0.055189979464921976,0.17912588588593212,0.03791381729959368,0.026098089467268437,0.003722951061683034,20720.731224260402
1684938106391010999,124,1684938106391010999,camera_1,125,0,-0.24708153328042123,-0.036841257550534065,0.6886413803713963,0.9816040180268742,-0.05525421219190564,0.17869497841201143,0.03832268934820393,0.025482486526016146,0.0036346367875903125,20726.42934926075
1684938106400982618,125,1684938106400982618,camera_1,126,0,-0.24692486868849442,-0.03645857580042777,0.688225386912593,0.9815348812883353,-0.055178255062933015,0.17912891163695113,0.03817682540842089,0.02687774779042229,0.0038295269772334966,20748.145515887307
1684938106410865545,126,1684938106410865545,camera_1,127,0,-0.24688551350897814,-0.036173022537753945,0.6881016468898051,0.9813905349885007,-0.05537038018373531,0.17959039749050118,0.039421161353983734,0.03199355211108923,0.004555908056090926,20746.645800571772
1684938106421341657,127,1684938106421341657,camera_1,128,0,-0.24683037237072042,-0.03628483642908176,0.6879253134397371,0.9812585594688146,-0.05507846042684999,0.18044754193616475,0.0392006029977969,0.024869331740774214,0.003540706237863815,20744.03368651646
1684938106431182622,128,1684938106431182622,camera_1,129,0,-0.2469979796246431,-0.036601669775775,0.6883571341626562,0.9814932924162683,-0.055304732411429434,0.17920905191523656,0.03868357825248695,0.014078858541324736,0.0020065154076421197,20735.93130067014
1684938106441163539,129,1684938106441163539,camera_1,130,0,-0.24708575064924584,-0.037015024937206854,0.6885639368326651,0.9815335388889125,-0.05535384258120622,0.1789835225221062,0.03863628881351739,0.018028048216365278,0.002570901417844793,20723.812296003445
1684938106451298713,130,1684938106451298713,camera_1,131,0,-0.2469526939681128,-0.037461347061742,0.6881521128117952,0.9812853074154254,-0.05517994451897596,0.18038768319538584,0.03866009473472837,0.037240592238958925,0.00530699359961012,20723.688915706247
1684938106461049556,131,1684938106461049556,camera_1,132,0,-0.247004713737885,-0.03827635045845264,0.6882391440505526,0.981675766436454,-0.05533677240672304,0.1783268975289211,0.03807950667638102,0.02449623105349019,0.0034903445935576477,20744.431787615526
1684938106471338748,132,1684938106471338748,camera_1,133,0,-0.24709267748707897,-0.038498528441283285,0.6884294216309025,0.9816803780024383,-0.055242253035672505,0.17849286800639239,0.03731253134518114,0.014244960679206997,0.002031397776421302,20730.707855267683
1684938106481168746,133,1684938106481168746,camera_1,134,0,-0.24688421760287624,-0.0385085805170029,0.6878769411471752,0.9813212091723812,-0.05516005788913033,0.18044587681225133,0.03748783780883224,0.027867270109709352,0.003969845218092531,20734.15158820628
1684938106491195678,134,1684938106491195678,camera_1,135,0,-0.24688536796430752,-0.03833797494915187,0.6879106503745417,0.9814183560290495,-0.055362579475874356,0.1797779725478003,0.03785334634636506,0.020748423296026886,0.0029550321615620734,20742.643028938794
1684938106501016139,135,1684938106501016139,camera_1,136,0,-0.24697470755629303,-0.03803533605283835,0.6882219779068542,0.9815675498331456,-0.05521442277187812,0.17907771446736612,0.03751912597153889,0.026299913472030312,0.0037484517793381707,20738.39665738681
1684938106510939359,136,1684938106510939359,camera_1,137,0,-0.24711854219182589,-0.03714996456340357,0.6887175648622904,0.9818204673114787,-0.05528436621642824,0.17753698745692797,0.03811596653682531,0.03571772010764107,0.005094445562025684,20737.172359681455
1684938106521197080,137,1684938106521197080,camera_1,138,0,-0.24699064180892014,-0.03669441976673456,0.6883924415783969,0.9815463041069403,-0.05539422680339795,0.17903526078030865,0.03800931370317631,0.018014945671893656,0.0025680949728686038,20738.293764915896
1684938106531018733,138,1684938106531018733,camera_1,139,0,-0.24691605918584733,-0.036357153879788336,0.6881963666410491,0.9815105949953021,-0.0553672197912043,0.1790681108920775,0.03880766092027708,0.02023222198477015,0.002881885145377765,20749.48760784325
1684938106541125297,139,1684938106541125297,camera_1,140,0,-0.24691341188578497,-0.036196349823022285,0.688194819932877,0.9814944325261948,-0.0552917140530362,0.1790979815718329,0.03918441366226653,0.028640523669309914,0.0040791443880334125,20749.12960409956
1684938106551190376,140,1684938106551190376,camera_1,141,0,-0.24688406539774957,-0.036197390818292874,0.6880908302034509,0.9813581627750022,-0.0552736076178677,0.17979391283338791,0.03943518180303507,0.02595615421887487,0.003696203100847835,20744.013871621122
1684938106561002016,141,1684938106561002016,camera_1,142,0,-0.24697844686845546,-0.03675898791155627,0.6882739233053305,0.9813898054381041,-0.05520207372459502,0.17982032959693794,0.03861903549175042,0.024887422914616764,0.0035469286601216904,20730.624086261374
1684938106571183681,142,1684938106571183681,camera_1,143,0,-0.2472054360657751,-0.037705328617609196,0.688848752149601,0.9817957505869664,-0.055534716945736536,0.17761803705607984,0.03801094915254009,0.030679348623380065,0.004378057280580884,20723.50501852308
1684938106581279039,143,1684938106581279039,camera_1,144,0,-0.24702799734274658,-0.03809628276758396,0.6883017794317641,0.9816504227045275,-0.05516862503481356,0.17849394525459514,0.03819400376027597,0.023655272147152573,0.0033711463071125526,20739.180469715382
1684938106591101646,144,1684938106591101646,camera_1,145,0,-0.2469356495611709,-0.03839288156888636,0.6880340547726213,0.9814563286140761,-0.055276036356469896,0.17953054883975175,0.0381682703484791,0.038652016897685826,0.005506155793985713,20737.410382411326
1684938106601351261,145,1684938106601351261,camera_1,146,0,-0.2470508560555415,-0.038483043645974394,0.6883527464189344,0.9817137867310076,-0.05529441078305624,0.17819680722198422,0.037768597727628826,0.018694956437684596,0.0026647960887450626,20738.77064978377
1684938106611101388,146,1684938106611101388,camera_1,147,0,-0.24698553574858392,-0.03824253589196088,0.6882407711908402,0.9816752946210393,-0.05504301605618252,0.17853728644545094,0.03752758535836831,0.02622501004952937,0.0037373791458064965,20743.624941134596
1684938106621107101,147,1684938106621107101,camera_1,148,0,-0.24701152957856068,-0.03787420278438002,0.6883683233028458,0.9816852633224766,-0.055043182064933874,0.17844826417296875,0.037689639124044355,0.015216106898151338,0.0021689837287104034,20740.095351017433
1684938106631075143,148,1684938106631075143,camera_1,149,0,-0.24719185983951297,-0.03745748218006423,0.688899652735871,0.9817852545062128,-0.0553920160413352,0.17785481215780596,0.03737785956096027,0.0393108093412593,0.0056117989159291835,20721.431613743072
1684938106641063928,149,1684938106641063928,camera_1,150,0,-0.24711968015713223,-0.03697727017449687,0.6887269111630259,0.9817560118420048,-0.05508870164856199,0.17785735571770375,0.038563313911843464,0.021165355574339628,0.003018661687960802,20731.844890630808
1684938106651191234,150,1684938106651191234,camera_1,151,0,-0.2469258895000024,-0.03627414731363768,0.6882193775779611,0.9814622112219271,-0.055192967792559375,0.1794781004471334,0.03838327382472389,0.019391771289519966,0.002762979830814747,20743.818206397576
1684938106661243677,151,1684938106661243677,camera_1,152,0,-0.246940272446946,-0.03617300493150351,0.688251563995376,0.9815677035470838,-0.05513315033290319,0.17868962934867297,0.03943596646346958,0.02501074329484254,0.0035620524415740976,20750.99552892184
1684938106671086311,152,1684938106671086311,camera_1,153,0,-0.24692656997364243,-0.03624868141484338,0.6882026917819629,0.9813439832896542,-0.055227934796331805,0.1799790633309576,0.03900510789420177,0.02182987576816231,0.00311016930419756,20735.457882118753
1684938106681107759,153,1684938106681107759,camera_1,154,0,-0.24699229051847363,-0.03650056274241939,0.6883422447859612,0.9815769522619918,-0.05539632840572356,0.1786700230062421,0.03892244167795335,0.02102411986561492,0.0029955868980000343,20744.805384618696
1684938106691016674,154,1684938106691016674,camera_1,155,0,-0.24699543559832488,-0.03688457635895327,0.688294211841545,0.981388620033081,-0.05523907417868632,0.17979397724542667,0.03871881841840752,0.015517036837991327,0.0022115584288935493,20728.29808094864
1684938106701102495,155,1684938106701102495,camera_1,156,0,-0.24717291014519516,-0.03783987859878586,0.6887429694889909,0.9818221882023412,-0.055426703716898486,0.17751150252507938,0.037983387683755754,0.03376216354081407,0.004816444746102761,20730.34533292614
1684938106710970640,156,1684938106710970640,camera_1,157,0,-0.24701552848693722,-0.03821204545318707,0.6882563973897081,0.9815798069406096,-0.05538130840521757,0.1787934634015387,0.038300009538438956,0.02638634917093441,0.0037602047367718307,20736.122578219147
1684938106721103191,157,1684938106721103191,camera_1,158,0,-0.2469786338262392,-0.03845792520476148,0.6881459519081429,0.9815837125300032,-0.05519686990620123,0.17897319319617033,0.03762069863174274,0.02934323821682483,0.004181286610298342,20740.207764442664
1684938106730897188,158,1684938106730897188,camera_1,159,0,-0.24704470043602986,-0.03854354105633578,0.6883284958138048,0.9816946241945459,-0.05532845060881228,0.17834227699687324,0.03752944998701923,0.02233909087954089,0.0031844047774465018,20738.271402263083
1684938106741048097,159,1684938106741048097,camera_1,160,0,-0.24691624439193469,-0.03840301368238233,0.6879973041329345,0.9814909131228147,-0.05518998374559867,0.17957098139980368,0.03720101867712467,0.02546168875414878,0.0036276451422738026,20742.082664406746
1684938106750954866,160,1684938106750954866,camera_1,161,0,-0.2470046257929065,-0.03769441787373239,0.6883365527518686,0.9815449232424375,-0.05527494279414492,0.1792126983071768,0.03737717380384119,0.02001659630332142,0.0028539414896872725,20732.83855664602
1684938106760867357,161,1684938106760867357,camera_1,162,0,-0.24713841857575622,-0.03725614978178748,0.6887842837822447,0.9817029589159798,-0.05536143746895784,0.17814698047210897,0.03818461791940376,0.04017486301017925,0.00573221005208586,20723.37502702326
1684938106770984411,162,1684938106770984411,camera_1,163,0,-0.24703902563968028,-0.0367833012752968,0.6885165677194828,0.9815754606987701,-0.05529727685607743,0.17890229244229947,0.03802362272574239,0.021518507797736675,0.003068564747559733,20732.06061307957
1684938106779822349,163,1684938106779822349,camera_1,164,0,-0.24701296020854524,-0.03643361116790844,0.6884646217280714,0.9815030341251094,-0.05536204481281472,0.17910730838724528,0.03882537932364148,0.022408690536394715,0.0031944138489131495,20732.30591099802
1684938106789689779,164,1684938106789689779,camera_1,165,0,-0.2468253598426903,-0.0362045702846875,0.6879536326734789,0.9812454043071057,-0.05531615391539367,0.18042613214771944,0.03929364427495683,0.024449393094982952,0.0034810251976238253,20743.354424259167
1684938106800395965,165,1684938106800395965,camera_1,166,0,-0.24698612093605424,-0.03635329101525094,0.6883600045484602,0.9815242387607734,-0.05531590901328461,0.17904441519101785,0.03864474510233723,0.028420926304534078,0.004050400524286894,20740.36379871668
1684938106810692310,166,1684938106810692310,camera_1,167,0,-0.24709900942837282,-0.03709637319248111,0.6885680157074636,0.9815291084179245,-0.05512213450119258,0.17918393052700254,0.038148114727221044,0.026003602659329772,0.0037091225677689846,20721.174552545763
1684938106820815324,167,1684938106820815324,camera_1,168,0,-0.24704122745289794,-0.037544687890394876,0.6883835199352291,0.981419898127842,-0.05510024626857179,0.17982241618277234,0.037984800355782763,0.043087394325993955,0.006144551401959266,20719.642492409323
1684938106831761121,168,1684938106831761121,camera_1,169,0,-0.24689147931585032,-0.03795706311073,0.6879194870214986,0.9811926680695513,-0.05522772404190322,0.1809616576378823,0.038258660309225735,0.030562495638150722,0.004353841472355912,20725.96904803533
1684938106841238498,169,1684938106841238498,camera_1,170,0,-0.24703725311208335,-0.038513133241793264,0.688289889231745,0.9817523318878741,-0.05537475119192848,0.1781389140744098,0.03691236995295273,0.0253237847937271,0.003609936775861884,20745.51314808195
1684938106851133346,170,1684938106851133346,camera_1,171,0,-0.2471283565137619,-0.03852904257997308,0.688572561322594,0.9818615097262381,-0.05531497002237777,0.17746005755141636,0.03736519481260563,0.029947838513180614,0.0042711532010595256,20737.432543869014
1684938106861052989,171,1684938106861052989,camera_1,172,0,-0.24699613271040038,-0.03832882577071787,0.6882425807684981,0.981615391688591,-0.055143032961183246,0.1789357237693743,0.037046936108483884,0.028542100335471332,0.004068761840878074,20738.142693324116
1684938106870986223,172,1684938106870986223,camera_1,173,0,-0.24692943106807963,-0.03798587555984148,0.6881191775030894,0.9814785616270346,-0.055154793895721796,0.17962795713707264,0.03730387100033409,0.03625664679566398,0.005167125725098725,20737.604193119332
1684938106880877494,173,1684938106880877494,camera_1,174,0,-0.247085746057992,-0.03757581462536148,0.6886204882905609,0.9816770161576557,-0.05498124274355232,0.17853133261991672,0.03760135858094955,0.03063041646964848,0.004369566347496979,20726.68136981537
1684938106890888452,174,1684938106890888452,camera_1,175,0,-0.2469677006408493,-0.03664829041259917,0.6883281192544126,0.9815060954122427,-0.05523766304449229,0.17920041922250524,0.038494090461722565,0.02521424659062177,0.0035934521095243818,20738.456704798387
1684938106901289701,175,1684938106901289701,camera_1,176,0,-0.24676794979756392,-0.036322805205421846,0.6877962114261676,0.9812611618658416,-0.05547261956033113,0.18061788532774173,0.03776903748506545,0.029322626360226423,0.00417506793053343,20753.766451953674
1684938106911180496,176,1684938106911180496,camera_1,177,0,-0.24689468469329112,-0.03618156408396397,0.6881328136069585,0.9815431497518852,-0.055252053147189735,0.17876501283550844,0.039538917335821766,0.030182630580384284,0.004297135971942051,20756.74763563136
1684938106921029329,177,1684938106921029329,camera_1,178,0,-0.24692384026890993,-0.036216986229654476,0.6882070170655034,0.9816006891766715,-0.05534265445580358,0.17870022164960192,0.03825582815797138,0.02125804906245321,0.003028179042050943,20756.92037541606
1684938106931188821,178,1684938106931188821,camera_1,179,0,-0.24689666170603108,-0.03643713750475745,0.688105329017006,0.9813838767842284,-0.055278313381239445,0.17970848309641774,0.03917723268517767,0.03509379760362208,0.004998044860769079,20743.39789855642
1684938106941093921,179,1684938106941093921,camera_1,180,0,-0.2470716489899729,-0.037273386593215725,0.6885115017120168,0.9814146442690717,-0.05543058519622726,0.1796249991819162,0.038569494524971104,0.024571996822487563,0.0035044455593561032,20715.616017987253
1684938106951257228,180,1684938106951257228,camera_1,181,0,-0.24706164572166625,-0.03773913671542664,0.688436307320869,0.9816409002568347,-0.05517164794581196,0.1786279091938578,0.03780611409448609,0.02668511716183275,0.0038048528838256247,20733.373526816256
1684938106961010694,181,1684938106961010694,camera_1,182,0,-0.24689111265730904,-0.03812417336964871,0.6879076964217712,0.9812756217281079,-0.05522741578045833,0.18063350862614175,0.03767787560010768,0.03325436660088599,0.004737572015412791,20732.022001358906
1684938106970969438,182,1684938106970969438,camera_1,183,0,-0.24686236576137568,-0.038409155617546424,0.6878179624280631,0.9812610119099376,-0.05523167261074346,0.18082286192529282,0.037140024922600955,0.027426080196164552,0.003907106632039673,20733.901061341166
1684938106981156587,183,1684938106981156587,camera_1,184,0,-0.24695067101855037,-0.038529760645878305,0.6880585600163426,0.9814262250436544,-0.05505340434937769,0.17989938895676785,0.03752195782589053,0.025600065535400063,0.0036481216906843177,20731.205423824253
1684938106991082668,184,1684938106991082668,camera_1,185,0,-0.2469685958210683,-0.03819284533813498,0.6882049656030097,0.9815741604899823,-0.05501771980287244,0.17908925303011394,0.03758001350711535,0.02032159926602617,0.0028961468972466204,20737.88702059398
1684938107001174688,185,1684938107001174688,camera_1,186,0,-0.24710939932279413,-0.037817774264542116,0.6886374524980508,0.9817395739660354,-0.055067476345919436,0.17813301163242315,0.03773078483999354,0.019524529925547537,0.0027850193057077904,20728.975105464804
1684938107011014223,186,1684938107011014223,camera_1,187,0,-0.24714644341583805,-0.037379976654452265,0.6887804488752727,0.9816610858654947,-0.055369133513183635,0.17844752546352668,0.0378451081029139,0.03351493610534817,0.004782909192897798,20718.99193287408
1684938107021258831,187,1684938107021258831,camera_1,188,0,-0.24701677900410857,-0.03690870298370123,0.6884747444663677,0.9814550717636977,-0.055198655003369596,0.17961448339568917,0.037916855745613084,0.04457597859436646,0.006357552920989698,20723.557371526716
1684938107031158685,188,1684938107031158685,camera_1,189,0,-0.24692182166895216,-0.03651707950379531,0.6882245407178335,0.981612573840861,-0.05512725782176104,0.17878004801608527,0.037887131772409134,0.043092598556540906,0.0061397832823356134,20753.914700947007
1684938107041214704,189,1684938107041214704,camera_1,190,0,-0.24685203688107699,-0.03617195207214214,0.6880093600840842,0.9813326290622533,-0.05513889155549466,0.17996764506890373,0.03946670120684886,0.023570342746097594,0.0033557839415002595,20746.389861376716
1684938107051052331,190,1684938107051052331,camera_1,191,0,-0.24682127587714633,-0.03653099719600825,0.6878858680380944,0.9812239201946691,-0.05526836040901736,0.18085722022576287,0.03789053533158948,0.030167429242283106,0.00429679179721346,20742.439358626027
1684938107060616970,191,1684938107060616970,camera_1,192,0,-0.247187824232436,-0.03697160979730225,0.6888548574159007,0.9817146821093631,-0.05529957878156543,0.1780619948279378,0.03836880914739063,0.020182709966320544,0.0028800082742994992,20721.28283500299
1684938107069973468,192,1684938107069973468,camera_1,193,0,-0.24724178946319558,-0.03745168695239541,0.6889675122914987,0.9818565483027138,-0.055113089163494625,0.17739762188880806,0.03808345711897845,0.0301995305926539,0.0043104818182594234,20721.465782301962
1684938107080345392,193,1684938107080345392,camera_1,194,0,-0.24699029113231227,-0.03824527765789135,0.6882028134282423,0.9815299889828741,-0.05515233232541492,0.17935607828059677,0.03726255694595615,0.026932373992167413,0.0038390606102641387,20734.08714508533
1684938107090891838,194,1684938107090891838,camera_1,195,0,-0.2470603342660015,-0.03848444860858658,0.6883527781337998,0.981626799985255,-0.05536719124905974,0.17871198241163022,0.037487691665445244,0.025097580044530332,0.0035783723560613495,20731.728157911675
1684938107101866483,195,1684938107101866483,camera_1,196,0,-0.2470103596284381,-0.038535976172954164,0.6882317854473908,0.9815171234988443,-0.05523269391458762,0.17946370792011854,0.036962999621975835,0.023256254731677473,0.0033158790181331446,20729.0964545589
1684938107111092329,196,1684938107111092329,camera_1,197,0,-0.24699723031847734,-0.038395935015453325,0.6882310721976067,0.9816475892662814,-0.055238731819622446,0.17865864300516146,0.03738692651465921,0.023953464697115123,0.0034139700283057598,20741.235120925703
1684938107121377468,197,1684938107121377468,camera_1,198,0,-0.24687483410605998,-0.03806192616923441,0.6879557264699455,0.9814803401637081,-0.0552073716793735,0.17955917591090628,0.0375098697756155,0.019990890403278172,0.002847416140049017,20747.07753827423
1684938107131068944,198,1684938107131068944,camera_1,199,0,-0.2471101933004462,-0.03719294944554628,0.6886997910544259,0.9816493576068833,-0.055236154005128456,0.17857709376527148,0.03773231483840569,0.03525619237916544,0.005030439174250747,20723.766615127446
1684938107141101598,199,1684938107141101598,camera_1,200,0,-0.24696816050596926,-0.03673864216876106,0.6883346820523013,0.9815934566009717,-0.05519456696090539,0.17893651287230708,0.03754424186547494,0.022412751393858343,0.003194828049527712,20744.288867128438
1684938107150905370,200,1684938107150905370,camera_1,201,0,-0.24686961752058512,-0.03638476209325332,0.6880666320848287,0.9813632082907565,-0.055279787671201015,0.17996627051847938,0.03850376558168981,0.022921716852579266,0.003264880570010133,20744.61306346988
1684938107160660028,201,1684938107160660028,camera_1,202,0,-0.24688969995429344,-0.036201270823643536,0.6881281084171087,0.98135430223803,-0.055209429946182,0.17997598659873001,0.03878526230078715,0.02829229150665924,0.004030229286879861,20741.22109612741
1684938107170788764,202,1684938107170788764,camera_1,203,0,-0.24687257346601565,-0.036197028751113344,0.688071420655265,0.9813548102220179,-0.05536071404689433,0.17990821670805704,0.03887108636573001,0.03110763628501445,0.004430455099692843,20745.28740462115
1684938107180706024,203,1684938107180706024,camera_1,204,0,-0.24695790127617104,-0.03671838308856329,0.688228671012816,0.9814029619441411,-0.05506813880074513,0.1798633855234146,0.03827386738160086,0.02426892233779654,0.0034587013098872767,20734.055317210506
1684938107190666913,204,1684938107190666913,camera_1,205,0,-0.24705433949828684,-0.037158113143671706,0.6884592505471668,0.9814056009261232,-0.055336573751686664,0.17978904414273403,0.03816817630567763,0.03577157494146377,0.005101858516354033,20718.25343426853
1684938107200765371,205,1684938107200765371,camera_1,206,0,-0.2471320073343312,-0.03764022445470602,0.6886462048857296,0.9816109470356609,-0.0551327729048185,0.17873739703005503,0.03812176431514217,0.042439164069946855,0.006054493597143798,20719.138151142048
1684938107210621356,206,1684938107210621356,camera_1,207,0,-0.2469622669935017,-0.038032409222628,0.6881185004875872,0.9814112380810363,-0.05523556382132647,0.17983775520809026,0.037939373470089986,0.020986522373277694,0.0029906154790066484,20731.406917345143
1684938107220690250,207,1684938107220690250,camera_1,208,0,-0.2470134472065595,-0.03835956745882185,0.6882385357454628,0.9815162644710521,-0.05497430270067343,0.17936808903836404,0.0378250876547802,0.019984984188340604,0.002848653935080786,20728.827201265605
1684938107230674028,208,1684938107230674028,camera_1,209,0,-0.24701358075020502,-0.038500107962569655,0.6882483145433053,0.9816621789941183,-0.05537718112046739,0.17857922066767248,0.037177897861459995,0.019328084599692374,0.0027550101165281465,20740.987716848496
1684938107240588426,209,1684938107240588426,camera_1,210,0,-0.24702091032336135,-0.0382969409514331,0.6883218258191002,0.9815848457571681,-0.05522480462640974,0.1788486687276084,0.03813876280392112,0.02493893902283162,0.0035547714562780028,20731.63816264725
1684938107250736713,210,1684938107250736713,camera_1,211,0,-0.24695090160971736,-0.03793667623490638,0.6881685085371626,0.9815580751691554,-0.05523124465704712,0.1792181420900331,0.037069019809708635,0.02019644033862278,0.0028785098449478205,20741.732864148216
1684938107260719537,211,1684938107260719537,camera_1,212,0,-0.24702095514698644,-0.037505459245887496,0.6884259897408463,0.9815128767767966,-0.05489490905492149,0.17927682598694603,0.038455706276642444,0.027177296462468803,0.003874695096954894,20724.974021735718
1684938107270681381,212,1684938107270681381,camera_1,213,0,-0.24710613957481847,-0.03705515617932412,0.6886909993265166,0.9815493631279248,-0.05539215071213388,0.17917632209089035,0.03726127996501461,0.051182116847485304,0.007305069653671159,20717.769238995625
1684938107280669450,213,1684938107280669450,camera_1,214,0,-0.2469822156277629,-0.03632514633263271,0.6883906523638822,0.9815746384641406,-0.05519367361376714,0.1787016046781951,0.039123190085250795,0.02056793955853209,0.0029307392538429154,20742.626322299704
1684938107290717363,214,1684938107290717363,camera_1,215,0,-0.24684241278649294,-0.03622366350409799,0.6879952997140378,0.981269477725761,-0.05528339835984439,0.18045605484257912,0.03859495070927091,0.024069415114354342,0.0034280238906388726,20742.39987714682
1684938107300689458,215,1684938107300689458,camera_1,216,0,-0.24708162897981653,-0.036486849693198854,0.6886141573260868,0.9817423422046642,-0.0554642239982172,0.17788841219102366,0.03822834271757365,0.019043346401304007,0.0027153556039729715,20742.55409890809
1684938107310632705,216,1684938107310632705,camera_1,217,0,-0.24718042591854497,-0.036880433904463925,0.6888372240473769,0.9815934335120338,-0.05551023154006171,0.17871736245698633,0.038118890813396644,0.02557769842678681,0.003650695425805013,20714.060477751766
1684938107320769548,217,1684938107320769548,camera_1,218,0,-0.24685011828137238,-0.037751939175685374,0.6878302414800548,0.9812472422640551,-0.055047332419286096,0.18084715531311618,0.037655639124317124,0.031596991582773626,0.004500450772086857,20736.70376111858
1684938107330609321,218,1684938107330609321,camera_1,219,0,-0.24711222504150498,-0.03819446519383985,0.6885319103618603,0.9817491248978952,-0.055208373415505295,0.1781456595155934,0.03721310606204864,0.036702856537885964,0.005235076687237836,20732.842703653732
1684938107340713262,219,1684938107340713262,camera_1,220,0,-0.24691955640737284,-0.03844329189487565,0.6879652309663613,0.981478341719286,-0.05530531374563898,0.17965928926048935,0.036934087099491676,0.023316021251957864,0.0033220251199360578,20742.83942616987
1684938107350899219,220,1684938107350899219,camera_1,221,0,-0.2470123748520436,-0.038534705105372456,0.6882229598326101,0.9815803186162512,-0.055302637324324395,0.1788922339801877,0.037937646629317937,0.0141083454946056,0.002010584021489903,20735.08975748392
1684938107360711574,221,1684938107360711574,camera_1,222,0,-0.24695223380194348,-0.038431085802988846,0.688086190223098,0.9815263617755785,-0.05519274314120894,0.17935792936268757,0.03728934725727902,0.028642492077779025,0.004081598058339691,20739.324669446796
1684938107370683908,222,1684938107370683908,camera_1,223,0,-0.24700852032211934,-0.037754184857971676,0.6883716300656476,0.9816337446324124,-0.05527308566974584,0.17885813302624265,0.03674024564234439,0.024701616901438683,0.0035225129995080026,20737.72587257914
1684938107380620479,223,1684938107380620479,camera_1,224,0,-0.24709080043245446,-0.03730342661961411,0.6886312470363314,0.9816814389371084,-0.05513690968445209,0.1784223148959346,0.0377750073989801,0.03292523947311565,0.004696690341982352,20729.05855585087
1684938107390615224,224,1684938107390615224,camera_1,225,0,-0.24701938066738452,-0.036840962327827076,0.6884589014238571,0.9814861681117211,-0.055074915736351045,0.1795648579397159,0.037524888475434864,0.017400390992406756,0.0024817009812101347,20726.70471300197
1684938107400647401,225,1684938107400647401,camera_1,226,0,-0.24689001432278468,-0.036460543922569505,0.6881251254463319,0.9813704203954223,-0.055343562691336945,0.1798400931321973,0.038816606545970835,0.026403027237392962,0.0037609573733348245,20741.544185126673
1684938107410645008,226,1684938107410645008,camera_1,227,0,-0.24686614632390103,-0.03622652473160349,0.6880479370322509,0.9812926245553235,-0.05505464117913305,0.18033176419739916,0.03891306078189717,0.014877300069201738,0.002118879175085846,20739.973342128906
1684938107420709609,227,1684938107420709609,camera_1,228,0,-0.24692158690015367,-0.036311013764806783,0.6881887318095524,0.981363746421975,-0.05531967813491931,0.1799403314083868,0.03855395637693378,0.02730581333162263,0.0038907193086117446,20737.809789687046
1684938107430655479,228,1684938107430655479,camera_1,229,0,-0.24690679460204815,-0.03658434252652653,0.6880987548874813,0.9812887612961549,-0.05536770637274168,0.18022968475405865,0.03903901610353885,0.016409730480518192,0.00233745927727246,20735.11184924841
1684938107440739154,229,1684938107440739154,camera_1,230,0,-0.24727037703589663,-0.03705040999667601,0.6890644913498559,0.9817089141564274,-0.05549187555543728,0.17801573156921227,0.03845333440712835,0.024673328909557313,0.0035229388175955093,20708.434073269476
1684938107450629472,230,1684938107450629472,camera_1,231,0,-0.24698522160351657,-0.037473878544854906,0.6882329640326401,0.9813567547626093,-0.0552414185449334,0.17999543346322208,0.03858690828934645,0.03302932862425223,0.004707500913041164,20724.813986686066
1684938107460845708,231,1684938107460845708,camera_1,232,0,-0.24697436305346127,-0.03791586877298938,0.6881628119279615,0.9813650900890765,-0.055413626822508506,0.17996326613004432,0.03827679140995798,0.0208888222114183,0.002976911866643342,20726.799410548767
