%time,field.header.seq,field.header.stamp,field.header.frame_id,field.image_seq,field.transforms0.fiducial_id,field.transforms0.transform.translation.x,field.transforms0.transform.translation.y,field.transforms0.transform.translation.z,field.transforms0.transform.rotation.x,field.transforms0.transform.rotation.y,field.transforms0.transform.rotation.z,field.transforms0.transform.rotation.w,field.transforms0.image_error,field.transforms0.object_error,field.transforms0.fiducial_area
1677846660059113766,28,1677816601168224811,camera_1,29,0,0.14366585983498917,-0.2899445618952311,2.6466165509644073,0.7045174712351367,0.7062988784688599,0.02668008619008125,0.06391556930020156,0.004012666118796915,0.000734907691285122,10659.04888956633
1677846660066506139,29,1677816601175508022,camera_1,30,0,0.1436129138285267,-0.28984443780184027,2.645559869909084,0.7043841271930709,0.7061778116176263,0.02338287162278532,0.06789065511591834,0.001585079706273973,0.0002903600298438527,10660.327642631364
1677846660072802255,30,1677816601182143211,camera_1,31,0,0.14360075163249073,-0.2897635500857787,2.6448707457940555,0.7044137543183431,0.7062013891616717,0.026355475369344322,0.06622876709797645,0.0016917939065024257,0.0003096230587026813,10667.698996894418
1677846660079296443,31,1677816601188369035,camera_1,32,0,0.14353331163182634,-0.28970045103662534,2.644212485272539,0.7044102276620805,0.7061885837343503,0.02586192629586649,0.06659636729278576,0.0016096109175123274,0.0002944608071454816,10672.505175006343
1677846660086416968,32,1677816601195308685,camera_1,33,0,0.14366583212626732,-0.2899172138373605,2.6463161459965256,0.7046459056951363,0.7062247214131112,0.02159754138772814,0.06522527622064894,0.000794207735452801,0.00014548168883790998,10662.189939141848
1677846660092631502,33,1677816601202008485,camera_1,34,0,0.14366207470799588,-0.2898897760111898,2.64604056900427,0.7045731963125187,0.7061096931570292,0.028390350686774417,0.06465060135473795,0.0019650247413665056,0.00035980913653591565,10660.327575034466
1677846660098304266,34,1677816601208350658,camera_1,35,0,0.1436888886343814,-0.289914391228521,2.646470719772031,0.7044694864546726,0.7062639857252673,0.022122289122582267,0.06651713648170968,0.0019484467920847237,0.00035704904101187664,10657.3953317909
1677846660105343489,35,1677816601214865207,camera_1,36,0,0.14358750747161125,-0.2898080786963566,2.6453799816914385,0.7046011090925552,0.7060382089778409,0.024058097065409706,0.06684708291687376,0.0003303586272522807,6.049607819259513e-05,10663.942896109424
1677846660112503669,36,1677816601222197771,camera_1,37,0,0.14368918424924113,-0.2899540093977407,2.646777646792199,0.7045037766324462,0.7061807916015623,0.024662257977212502,0.06614296119071664,0.004918238730169832,0.0009013059427169722,10653.991116569963
1677846660119036108,37,1677816601228607177,camera_1,38,0,0.14356308403600304,-0.2897545789877928,2.6449040208454764,0.7045466535524214,0.7059954089569034,0.02469065569615497,0.06763776327727587,0.000953452312387526,0.00017457116963838135,10665.27176900068
1677846660125878935,38,1677816601235373735,camera_1,39,0,0.143686869277883,-0.289964968836574,2.6469534273067556,0.7044882845618703,0.706406104535594,0.0220958590715953,0.06479541188856752,0.004269880591891706,0.000782394105712615,10657.802607478465
1677846660133082345,39,1677816601242145299,camera_1,40,0,0.14356838300297675,-0.2897619191751116,2.6449998110083444,0.7045646149462843,0.7061371074993231,0.02219648226210849,0.06683116752886788,0.0012533263652585447,0.00022943376385047058,10668.39717193868
1677846660139302982,40,1677816601248640537,camera_1,41,0,0.1435589080106221,-0.28977096562018273,2.6451188976454816,0.7046022228921027,0.7059997729333961,0.025094244478270463,0.06686035452767027,0.002167956263292581,0.0003968928821057328,10665.200518866763
1677846660146334842,41,1677816601255437850,camera_1,42,0,0.14353679252431797,-0.28969528005832934,2.64453408169894,0.7044981284717374,0.7060930827628389,0.02574357143487823,0.06672491276927595,0.001478472608141601,0.0002705456174909684,10669.723054911243
1677846660151667008,42,1677816601261651754,camera_1,43,0,0.14368985452279084,-0.28990788694931413,2.6466445478878913,0.7045592342046477,0.7061862044042575,0.021823866048099605,0.06649096988902664,0.001886501326225698,0.0003457361364003103,10656.28487116762
1677846660159502559,43,1677816601268740653,camera_1,44,0,0.1436194788701289,-0.2897837692932551,2.6452006449204872,0.7044603303158077,0.7062117922670053,0.023819036046905016,0.06658228740561134,0.0017511192127130926,0.0003205852283631321,10666.222568561669
1677846660166494585,44,1677816601275413036,camera_1,45,0,0.1436447819044704,-0.28989651624813045,2.645887460771484,0.7043621815126185,0.7062377637176572,0.023894163057721737,0.0673142431112363,0.0017909243470057845,0.0003281003445943338,10658.767250725767
1677846660172133194,45,1677816601281996965,camera_1,46,0,0.14359953163039507,-0.2898308363210379,2.6456129051607635,0.7045617716139094,0.7062994654958726,0.022534682089629554,0.06500740822116736,0.001297644921578467,0.00023756596578894772,10667.763167469642
1677846660179241898,46,1677816601288786172,camera_1,47,0,0.14353073753113874,-0.28977729131160196,2.6451163737068923,0.70448801634423,0.7061059179646698,0.02514789817140978,0.06692272155407099,0.002981208323035389,0.0005457696729420236,10665.026810682843
1677846660185652499,47,1677816601295376062,camera_1,48,0,0.14362724543575994,-0.2899017068846142,2.6464832755173395,0.7047438118578646,0.7059541525341335,0.02543327967894176,0.06571181364589654,0.0021184374927543104,0.00038812411158415733,10656.836454824195
1677846660192264134,48,1677816601301532745,camera_1,49,0,0.14353250954755553,-0.28969337520221133,2.644595376413555,0.7046411971635785,0.7059845553449698,0.02827775712541882,0.06532196664369443,0.0017613127711229026,0.0003222096244874902,10670.468749633876
1677846660199357880,49,1677816601308780908,camera_1,50,0,0.1437101737582706,-0.28995997964853304,2.646757816933001,0.7046796682860268,0.7059713236922552,0.026619640914456302,0.06574534163030778,0.0016860062605701387,0.0003089897215822631,10653.499486379562
1677846660206025761,50,1677816601315411806,camera_1,51,0,0.14361095985232109,-0.28972089060929346,2.644493382106496,0.7043535514447241,0.7061463981675682,0.026271503561387247,0.06747701106894667,0.003463594533968717,0.0006338927717407884,10667.64630240493
1677846660212606338,51,1677816601322271823,camera_1,52,0,0.14372106595830458,-0.28989184068716867,2.6463111541492004,0.7045443675297269,0.7062780158328447,0.025097800573992378,0.06448797515588005,0.0019236770458519459,0.00035229833121299233,10661.450644049793
1677846660218842603,52,1677816601328088521,camera_1,53,0,0.14356993284073488,-0.2897664663670874,2.6450278211523046,0.7046410211642523,0.7060909148351948,0.02574516021633467,0.06522145356577724,0.0019294505473226309,0.0003530731874766789,10669.472707086941
1677846660225316592,53,1677816601335028409,camera_1,54,0,0.14362034564952808,-0.28990464646789105,2.646429919415678,0.704568947476558,0.7060974344926695,0.023733983853413076,0.06667615214671394,0.002191541891079396,0.00040159330637648045,10656.194258963926
1677846660234913121,54,1677816601342202901,camera_1,55,0,0.14351009452413013,-0.2897721628166664,2.6452343886475416,0.704406492227494,0.7062319104645444,0.026296437112057546,0.06600363432848931,0.0024001942365430295,0.00043935639532712576,10665.443782066695
1677846660238188677,55,1677816601348114252,camera_1,56,0,0.14354715567019516,-0.2898216657160868,2.6456363004231886,0.7043374022769991,0.7062437536368961,0.028118301784943345,0.06586308000152215,0.002369878173340112,0.0004339295904504333,10660.907352676611
1677846660245675188,56,1677816601354975700,camera_1,57,0,0.14362616772883238,-0.28987715402342373,2.646044627715264,0.7046310804459748,0.7060864542498796,0.024078076756988025,0.06600913432287694,0.0018464728491380813,0.00033821179988332867,10660.680994398423
1677846660253550122,57,1677816601362066030,camera_1,58,0,0.1436150266472941,-0.2897919113912781,2.644892119257617,0.7042548856461225,0.7060276722900686,0.027683222605365383,0.06916372741846805,0.004095945740118623,0.0007501217402269019,10658.79228313104
1677846660260120401,58,1677816601369225502,camera_1,59,0,0.14364025343045203,-0.28975979753611136,2.644563153953344,0.7041780198199554,0.7062747209774805,0.02818303844254016,0.06719413110365359,0.0022138808271847665,0.0004051881453994249,10666.05269818602
1677846660265688738,59,1677816601375434398,camera_1,60,0,0.14366651164533983,-0.28978297231372,2.645017426616562,0.7044504852936903,0.7061721441325154,0.024328226466245176,0.06692199950522511,0.002270260942168534,0.0004155998208057257,10666.414887291383
1677846660272895565,60,1677816601382065773,camera_1,61,0,0.14359203129256837,-0.2897522460198445,2.6446902860738923,0.7043966788235332,0.7062297723089489,0.025823616095528745,0.06631718041787882,0.0009708950528874993,0.00017767643713255895,10669.381314967872
1677846660277749659,61,1677816601387828111,camera_1,62,0,0.14351818119773294,-0.2897542289751661,2.6450321949170377,0.7045167832466525,0.7061035121129435,0.025649640030721187,0.06645320362367871,0.0036808340228162706,0.0006737205180870114,10666.484479979375
1677846660285129780,62,1677816601394929170,camera_1,63,0,0.14358746709688136,-0.28986583193534377,2.6461865737592105,0.704535039584454,0.7062034534143068,0.025883803454701638,0.06509292666762849,0.0008337825420312583,0.00015270942981062923,10660.383235859805
1677846660292659119,63,1677816601402100563,camera_1,64,0,0.1435258039806647,-0.28982275044647415,2.64550864481409,0.7044665710697089,0.7060690965193511,0.026770925153030607,0.0669073893683277,0.0023169128107838333,0.0004242896914951881,10660.540316385679
1677846660298074932,64,1677816601408174753,camera_1,65,0,0.1437158443764389,-0.2899921077799302,2.646865397634294,0.7045527259813689,0.7062367132071907,0.02691020191946923,0.06411709805644641,0.002178932831156999,0.00039918360215828586,10656.33901667094
1677846660304613612,65,1677816601414647817,camera_1,66,0,0.14361533711046745,-0.2897631001941838,2.6447793168890117,0.7043168785350474,0.7063154370698673,0.026048973644890536,0.06616410612633851,0.0036804733681492507,0.0006735145436855324,10668.84849856899
1677846660312901407,66,1677816601422348976,camera_1,67,0,0.14370761021020226,-0.2898923112056136,2.64622174944516,0.7045301983548431,0.7061237174749765,0.025674703204494036,0.06608558723932469,0.0025986144319176674,0.00047604134003793815,10657.764361640206
1677846660320327945,67,1677816601428781032,camera_1,68,0,0.14360383283372252,-0.28979318132296794,2.645146517845187,0.7044389408586829,0.7061397244910939,0.028028657004032915,0.06593074005416132,0.0009103295160457492,0.00016664006068112158,10664.723007176774
1677846660324786290,68,1677816601435021877,camera_1,69,0,0.1437055094109001,-0.2900240224240962,2.6473094889570272,0.704594503046771,0.7063070936524297,0.022665988079912776,0.06452231177579588,0.0013840501778759062,0.00025367130434632924,10655.195221628997
1677846660331559016,69,1677816601441494226,camera_1,70,0,0.1435966480848612,-0.28981541183735965,2.6454621062362933,0.7043859508976095,0.7061644186017061,0.02662772170149955,0.0668072639461645,0.0030915525858290493,0.0005661040360339904,10661.269881544285
1677846660339063087,70,1677816601448714017,camera_1,71,0,0.14365735719705652,-0.2899622542582745,2.646985584272587,0.7045192484143309,0.7062849924099204,0.025654256762994848,0.06446702428500313,0.0016130743315443397,0.00029556559695306437,10655.6602021642
1677846660346697454,71,1677816601455777168,camera_1,72,0,0.14357394670647322,-0.2897819847493333,2.6452424028323462,0.7044586140104466,0.7062013439465707,0.024063641448096976,0.06662330008934994,0.002068702015094459,0.00037874205355572247,10665.62006310001
1677846660352738364,72,1677816601462144374,camera_1,73,0,0.14363315740926608,-0.28987335945446774,2.646143266406874,0.7046314239488662,0.7060923953927484,0.026470252377897567,0.06501854574945727,0.002880937943700701,0.0005275957967445874,10660.384212284698
1677846660358917010,73,1677816601468422412,camera_1,74,0,0.1436961042788021,-0.28993701637823666,2.6465429575813655,0.7045255439876762,0.7062038761272036,0.024004036959835183,0.0659063685952525,0.003704776579979807,0.0006788010050436733,10656.96677385945
1677846660365897446,74,1677816601475478887,camera_1,75,0,0.1436464693134654,-0.28990075779738456,2.64601943228285,0.7045909394322563,0.706117151472777,0.024829918360295775,0.06583047637806436,0.0008153055678121746,0.00014933562910433287,10660.715398769242
1677846660372682605,75,1677816601482034206,camera_1,76,0,0.14365232273648476,-0.2898430820095518,2.645627517415868,0.7044224989121308,0.7062606988215738,0.022369332089244447,0.06696552328125553,0.002113721624482423,0.0003871326342081781,10662.860541674774
1677846660378589114,76,1677816601488006114,camera_1,77,0,0.14351388597683828,-0.2896599155240184,2.643960632075102,0.7043149074580166,0.7059003377233618,0.028756610111283866,0.06941384378751098,0.0009719351073727012,0.000177897485222669,10664.65756216773
1677846660386074662,77,1677816601494826793,camera_1,78,0,0.14363495407283391,-0.28982984240061427,2.645581576114436,0.704370169460092,0.7062851382702925,0.0229426881715669,0.06706415505124635,0.001500603393651545,0.00027483532512929986,10662.587077539762
1677846660392536237,78,1677816601502169132,camera_1,79,0,0.14363358674520435,-0.2897891648967718,2.645400856437884,0.7045228889401127,0.7062078171378102,0.024434437243343335,0.06573413306287673,0.0026852147420868278,0.000491558379786415,10666.26406809816
1677846660398870885,79,1677816601508667945,camera_1,80,0,0.14365298138673313,-0.28986884143577046,2.6459184558853517,0.7046613828377681,0.7060822300072622,0.026768075543198894,0.0646814512580672,0.003150089818518609,0.0005767415989753104,10662.728360225909
1677846660405913948,80,1677816601515387535,camera_1,81,0,0.14362304546267232,-0.28986661497012894,2.645949204683528,0.704598822533228,0.7061358065197061,0.025258875216456356,0.06538127605325934,0.002127205312717706,0.0003895430008980593,10662.06658968551
1677846660412813591,81,1677816601522040128,camera_1,82,0,0.14362262197653844,-0.28992577285300547,2.646396998669466,0.7044027593893655,0.7062786697311673,0.023751681621998883,0.06650602128790735,0.003272135159932077,0.0005995457170875598,10656.856275131457
1677846660418264048,82,1677816601528044223,camera_1,83,0,0.14356014127011618,-0.28982330008110924,2.6456189251809628,0.7045023434394595,0.7061375197575488,0.025329472198462943,0.06636768126968694,0.001939109235536307,0.00035509731583649885,10662.237167904157
1677846660425565192,83,1677816601534892559,camera_1,84,0,0.1436768751253723,-0.2900115112323501,2.647362491991471,0.7045962012582055,0.7063111853793711,0.02489970227983185,0.06362945392559663,0.002499884576536715,0.0004580863901327379,10655.254255773041
1677846660432608333,84,1677816601542173862,camera_1,85,0,0.14356764148566067,-0.2897863127543193,2.6452121314173778,0.7046059634518037,0.706173777847982,0.02510269891384785,0.06495295416919232,0.001622658979613334,0.0002969570795508867,10669.1817779718
1677846660438832064,85,1677816601548246622,camera_1,86,0,0.1436385324608929,-0.28977247538494744,2.6452131864982524,0.7044556242948246,0.7060555720707783,0.02594204990188543,0.06748935170886723,0.0010217447998002172,0.00018710393447007916,10662.124028592487
1677846660445504534,86,1677816601555347919,camera_1,87,0,0.14359713351597217,-0.2897596379110488,2.644556229791565,0.7043800638937153,0.7060330925815632,0.02814721441423895,0.06762937297889225,0.0008584150345996022,0.00015712541933198278,10665.04277101974
1677846660452387666,87,1677816601562037229,camera_1,88,0,0.14372192064897807,-0.28992160494498176,2.6462750037339173,0.7046183608346444,0.70617061470234,0.02546239946487955,0.0647124000413312,0.0034969239495694637,0.0006404138282621874,10660.872926420874
1677846660459599152,88,1677816601568830728,camera_1,89,0,0.1436597459123468,-0.28987370994001405,2.6460088735792886,0.7043854845019343,0.706134516436634,0.02431392959975207,0.06799975549363858,0.0014433902106247842,0.0002645024339803416,10655.736327552933
1677846660465892915,89,1677816601574927330,camera_1,90,0,0.14361541626607593,-0.2898697783484744,2.6459504378604257,0.7045253733206123,0.7061626232785176,0.02680740529745685,0.06526646039944577,0.002010060357861221,0.00036808299454191724,10661.023351237527
1677846660472171268,90,1677816601581582307,camera_1,91,0,0.14350655094804846,-0.2897311241247948,2.6450280427885575,0.7044646667300001,0.7061332651380801,0.026365090851543205,0.06640954132362041,0.0015126738580875099,0.00027688821345079245,10666.043846152374
1677846660478749320,91,1677816601588664293,camera_1,92,0,0.1436271698615705,-0.2899490977428373,2.646939181020382,0.7046380229248519,0.7062474707129536,0.02401994986926083,0.06420910191234627,0.0033075750689022243,0.0006059609155823768,10657.974317570912
1677846660486357388,92,1677816601595400333,camera_1,93,0,0.14357989510919883,-0.28978054528466346,2.6451567862464214,0.7044471513598012,0.7059673572794439,0.03008091179348799,0.06677903969519028,0.0034208931610919535,0.0006262619370089973,10660.51201068773
1677846660492473197,93,1677816601602178096,camera_1,94,0,0.14366236479034952,-0.2899022794506322,2.6462062825269737,0.7045560125207609,0.7060837724587858,0.026242677004937497,0.06601403937670705,0.0007892533903941512,0.00014458930297028363,10657.594250175982
1677846660499667841,94,1677816601608015537,camera_1,95,0,0.1437014495358975,-0.2899037400788054,2.6460825564372694,0.704536150719148,0.7063953106648194,0.02458395791330576,0.06348311912560825,0.0011258943704888225,0.00020612489616342932,10666.09430215263
1677846660505597885,95,1677816601615318536,camera_1,96,0,0.143636491685744,-0.28977885529617853,2.6448793945731572,0.7043382891512169,0.7061396233684498,0.026559234063501407,0.06759448076996244,0.0016898337053135037,0.000309375710856324,10663.976595697462
1677846660512300601,96,1677816601622170448,camera_1,97,0,0.14370810080571905,-0.28989531230472515,2.646101453657943,0.7045085540029621,0.7060723695428845,0.025782556803635642,0.06681890503008228,0.0022298829862847924,0.000408536563544431,10656.789687592422
1677846660518167325,97,1677816601628016710,camera_1,98,0,0.1435985839074375,-0.2898277468890285,2.6454488563287937,0.7044178732900538,0.7061896530680608,0.026588411875541368,0.0662169921022276,0.002003349654842168,0.0003667956209663813,10662.88321025356
1677846660525948965,98,1677816601635333538,camera_1,99,0,0.14360991302611154,-0.28994201351747145,2.646795449855268,0.7045497037225005,0.7062607845903546,0.025913321520756975,0.06429555896106318,0.0038922284729778767,0.0007130063053189234,10657.395149907563
1677846660532922868,99,1677816601642097711,camera_1,100,0,0.14352353730883316,-0.28983090521743593,2.645916240815291,0.7045814097495069,0.706190388307805,0.025414866846638802,0.06491730924981837,0.003699077700730413,0.0006772652176378185,10663.395994593622
1677846660538235297,100,1677816601648022174,camera_1,101,0,0.14355474439144478,-0.2898418929089309,2.6458552788968976,0.7045178133226137,0.7061255132608355,0.025830520294812007,0.06613769314501192,0.00040493899723514915,7.416837380083698e-05,10660.510124311431
1677846660545804390,101,1677816601655409336,camera_1,102,0,0.14362323505106242,-0.28967879076108627,2.6444118029419137,0.7044290897628307,0.7061682216823748,0.025209415356549626,0.06686243758077703,0.0017160275601781905,0.0003140112379870147,10670.77379237185
1677846660553011770,102,1677816601662016153,camera_1,103,0,0.1436885430975057,-0.28981512670922055,2.645177883245083,0.7045146585480323,0.7059977403071745,0.02767136329556136,0.06678759035538036,0.0021974489209242165,0.0004023128552151732,10662.608764058212
1677846660558877402,103,1677816601668015241,camera_1,104,0,0.14368015686882346,-0.2897812627139111,2.6448676379604414,0.7045818221183383,0.7061353586923764,0.0241277661337061,0.0659936515597396,0.0014367704861797392,0.0002629492770751423,10670.090079583226
1677846660566184225,104,1677816601675425052,camera_1,105,0,0.14366305578745264,-0.28987887734378276,2.645997939864333,0.7044141442567405,0.7063382284415592,0.024499977609117624,0.0654734412585483,0.0022100487840361893,0.00040473849804923106,10662.03949686198
1677846660572560272,105,1677816601682166099,camera_1,106,0,0.14359428192569235,-0.28978751003741854,2.645405643886529,0.7044852897969885,0.7061308379455776,0.026610254309231463,0.06611815580857919,0.0011268268572166562,0.00020630639284033506,10663.483923333699
1677846660579406315,106,1677816601688725709,camera_1,107,0,0.14354608479634726,-0.28986431170287286,2.6460329448192064,0.7045170642605054,0.7061255990393591,0.02864518747526388,0.06497536288141896,0.0018908368656411767,0.00034625090117950465,10659.40975617408
1677846660585806385,107,1677816601695409774,camera_1,108,0,0.14356458572261757,-0.2898935211801625,2.64643488767575,0.7043906706050317,0.7062473183654958,0.024524989099800318,0.06668608082496918,0.0022324416204355657,0.00040908399595993635,10655.552585992844
1677846660592453679,108,1677816601702217817,camera_1,109,0,0.1436060746085843,-0.28991412104492337,2.6466474540066116,0.7044855003636389,0.7064228556312746,0.021260784644673784,0.06492232170403037,0.0015183008508756757,0.0002781577868641031,10660.543730338806
1677846660600313003,109,1677816601709899425,camera_1,110,0,0.14351428596051008,-0.28967663383928827,2.644128488486444,0.7043772921117533,0.7061248635193446,0.02624362762539377,0.06746539473063551,0.0008728992543183267,0.00015971988106989804,10670.671710450202
1677846660607426316,110,1677816601715344429,camera_1,111,0,0.14365507219271992,-0.28975988976617334,2.644757026361437,0.7043649280343474,0.7063076663674301,0.02355771789495507,0.06666755217754196,0.000764352735131979,0.000139898379824258,10669.740115853725
1677846660611078476,111,1677816601721367835,camera_1,112,0,0.14363462459456489,-0.2897193065104343,2.6445355013448766,0.704596615759514,0.7060170079497783,0.02610457697299586,0.06634865942084685,0.0025696709053590894,0.0004701704205302284,10670.297502122003
1677846660618660393,112,1677816601728623151,camera_1,113,0,0.14370180076289857,-0.28986588770376126,2.6458360630496016,0.7044031382537317,0.7062077088493658,0.025165526426528823,0.06673520105386324,0.0019538647611625493,0.0003579037912103427,10659.645437795902
1677846660626301210,113,1677816601736162900,camera_1,114,0,0.14362880276392642,-0.2898922788067021,2.646377553224819,0.7043697107600843,0.7061451336776334,0.026961630495764714,0.0670479770624167,0.0007194574573077261,0.00013185099669435477,10653.030782647435
1677846660632297298,114,1677816601742120981,camera_1,115,0,0.14352029932427998,-0.2897454409817234,2.6449936365425164,0.7045513558653154,0.706092306076874,0.026897456338769138,0.06570821173865501,0.0020097772357985377,0.00036780025485114984,10667.580905467968
1677846660638118256,115,1677816601747980356,camera_1,116,0,0.14356284594328547,-0.28982391341956515,2.6457195196417898,0.704345173711249,0.7060496350074549,0.029222820512730573,0.06736331298853195,0.003445023554377258,0.0006310281595215045,10655.400387910193
1677846660645724579,116,1677816601755328655,camera_1,117,0,0.14352891348747726,-0.28975035014035116,2.644727768307591,0.7043915579990707,0.7059950633794453,0.026460817003746598,0.06858081850626328,0.002025972295086831,0.0003709456325849059,10662.778559972416
1677846660652753134,117,1677816601762562036,camera_1,118,0,0.1437156070114665,-0.29002621746581375,2.6475680077474726,0.7047091497205706,0.7063364083033938,0.022042298266087047,0.06315084870625784,0.0007903435034677386,0.0001448411271139036,10656.849882266954
1677846660659174113,118,1677816601768709421,camera_1,119,0,0.14362570252349446,-0.2898850605636673,2.6460921125273678,0.7046069812986886,0.7061770074202377,0.02462178339480857,0.06509073573563545,0.0019177216454409063,0.00035119924819203817,10662.14305586345
1677846660666584531,119,1677816601774671316,camera_1,120,0,0.1436845156142951,-0.2898305755222526,2.6455531946594104,0.7044496255272887,0.7060700681885981,0.026905192925193305,0.06702159723752764,0.005482728185597807,0.0010040694839752323,10659.717219828857
1677846660672215526,120,1677816601782037496,camera_1,121,0,0.1435825646472217,-0.28977007635223845,2.6450539397779864,0.7044914556537009,0.7061979879406982,0.025973762420376866,0.06558623640039814,0.002281474939081818,0.000417528984559954,10668.166963684842
1677846660679106002,121,1677816601788910627,camera_1,122,0,0.1436321649033631,-0.28990102749900976,2.6462108876159167,0.7045779515551358,0.7060300742357263,0.02944994620059078,0.06499342371229515,0.002296886232215911,0.00042065732496199276,10657.10828876065
1677846660685007311,122,1677816601794835805,camera_1,123,0,0.14366593985325413,-0.28990810230658537,2.6462268312277644,0.7045601985868875,0.7062174955399818,0.023685214507393804,0.06550409280480478,0.0018481084262020886,0.0003385178038965055,10660.74623586237
1677846660692002434,123,1677816601801582574,camera_1,124,0,0.14361721104661004,-0.2898746304732592,2.6459410690214065,0.7044687829022444,0.7062520940110792,0.0262105333797401,0.0651515276961777,0.0019811669480986893,0.00036278605330805337,10661.897806004501
1677846660698773847,124,1677816601808635711,camera_1,125,0,0.14359570735889857,-0.28982533458314375,2.6453484486638916,0.7044224540200454,0.7063068464426099,0.027314793627190366,0.06460299520747156,0.003024909761734307,0.000553570042216099,10667.0149095247
1677846660705851753,125,1677816601815451622,camera_1,126,0,0.14356731344845475,-0.28974924117411177,2.6450605972159957,0.7044660232674126,0.7062341493613974,0.0245080073333895,0.0660326125041814,0.0022028140374459326,0.00040317559067561495,10668.22360144986
1677846660712363122,126,1677816601822104692,camera_1,127,0,0.14357173956074387,-0.28988853765224254,2.645870823364802,0.7043492992883484,0.7061710611096358,0.027701982822142937,0.0666865592981478,0.002722371369600296,0.0004986571307870921,10657.316302267482
1677846660718577376,127,1677816601828018665,camera_1,128,0,0.1435592635500171,-0.28979841882997526,2.645319147838488,0.7043599895700997,0.7062131157689092,0.026094753182466065,0.06677652330815527,0.0044776517315767705,0.0008197930645180018,10662.969167875248
1677846660724963841,128,1677816601835017919,camera_1,129,0,0.14364536510025952,-0.28994163523625693,2.646383290085751,0.7044465271884573,0.7060908068676744,0.02996049239619617,0.06552275699675723,0.001329901278950274,0.0002436323271106029,10653.892534073442
1677846660732812818,129,1677816601842002630,camera_1,130,0,0.1436692589068357,-0.2898127748488566,2.6453454337493114,0.7044976546093233,0.7060860501758143,0.02757910220583108,0.06606767377924257,0.0027189290849491954,0.0004977506751341233,10663.175168861866
1677846660740227893,130,1677816601848734378,camera_1,131,0,0.14372746312948753,-0.28988662624020084,2.6460044992660348,0.7045368294816067,0.7060965701084513,0.026600062265013324,0.06593880703033628,0.004233426530845463,0.0007753523151384326,10659.061750038754
1677846660744895909,131,1677816601854871511,camera_1,132,0,0.14364318185974984,-0.289773415894492,2.6450974805187566,0.704500835895913,0.7061105037340698,0.0265658253952774,0.0661875038012908,0.0029236465343274176,0.000535140266916226,10665.791808600072
1677846660751693362,132,1677816601861539840,camera_1,133,0,0.143652700809116,-0.2898404273950754,2.645772679720364,0.704505430428474,0.7060583698067379,0.028308659738866322,0.06597193878030204,0.00798187602777034,0.0014615754963396132,10659.324461073731
1677846660758568691,133,1677816601868247509,camera_1,134,0,0.14357484806566145,-0.28977889575530863,2.6453262991357973,0.7044600451392344,0.7061365928660812,0.025533675025605128,0.0667471981254395,0.0036000495892949402,0.000659145133704194,10663.468547810568
1677846660765183181,134,1677816601874909877,camera_1,135,0,0.14359785152254995,-0.2899604766115641,2.6469175709594923,0.7045904596772842,0.7062741992568984,0.024099975172106033,0.06440676045637186,0.0030836326768621802,0.0005649795021129817,10657.61164761451
1677846660772618426,135,1677816601881532430,camera_1,136,0,0.14353744870744808,-0.28981832878180985,2.645517929378151,0.7044960262465166,0.7061308057716781,0.027852973078767954,0.06548928182368169,0.0009772767662070692,0.00017891626036189634,10663.028015197488
1677846660778313570,136,1677816601888181924,camera_1,137,0,0.14370646053729635,-0.2900260371843809,2.647520779064974,0.7046591242988552,0.7062613937744414,0.023441339848162653,0.06403800271929781,0.0022466754307970405,0.00041177712997423705,10654.122002859021
1677846660785124708,137,1677816601894838094,camera_1,138,0,0.14366850098366502,-0.2898122947225801,2.645452701509921,0.7044254016441638,0.706182110655278,0.02539527988643348,0.06668403008520776,0.002262935391627252,0.00041437202619864214,10662.679796829356
1677846660792012670,138,1677816601901548147,camera_1,139,0,0.1437227729412047,-0.28986712398456055,2.6457227897652262,0.7044349349106312,0.7061147493671349,0.029021335981599207,0.06581143716320169,0.003140492655802518,0.0005750541263181336,10659.390440767163
1677846660798282267,139,1677816601908217906,camera_1,140,0,0.14365161555459727,-0.2897066671468713,2.644438659036393,0.7045212991805693,0.7060147047973148,0.026237821068915836,0.06711596200933821,0.003570975095499307,0.0006534815790973648,10669.024928712286
1677846660805791979,140,1677816601915139436,camera_1,141,0,0.14364314834325212,-0.2898083987168626,2.64551328382461,0.7045658526067755,0.7061197761931577,0.025746460819621297,0.06571864853050492,0.0034420679439790547,0.0006301919581054997,10664.331379415698
1677846660812753509,141,1677816601922034502,camera_1,142,0,0.14363049733202643,-0.2899187215068695,2.6465817325605876,0.704586732163172,0.7060101096529533,0.023532973392739714,0.06747933825063726,0.0032194157247431576,0.0005901125981644762,10653.088921176499
1677846660819098406,142,1677816601928745746,camera_1,143,0,0.14360043717639287,-0.28990346483185836,2.646425482099496,0.7045514343535082,0.7062440288278107,0.024064569946185728,0.06517318903339109,0.002901444095186889,0.0005314734679796471,10659.720686509274
1677846660825681909,143,1677816601935406923,camera_1,144,0,0.14356136826639743,-0.2898247442019693,2.645895232214568,0.7043944270681437,0.7061403422231007,0.025546621562194942,0.06739197524291651,0.005118001776281745,0.0009375953532353634,10657.270487573227
1677846660833139666,144,1677816601942058801,camera_1,145,0,0.14350626365940086,-0.2897181266698487,2.6445406513268526,0.7043878742637293,0.7061527653562357,0.025433298597269796,0.06737315409291783,0.004396050295326859,0.0008044957049381192,10668.27810924314
1677846660838323545,145,1677816601948024034,camera_1,146,0,0.1436037745298583,-0.28981586928675895,2.6455471342990187,0.7045595429176235,0.7062463886443263,0.02517777033267976,0.06463720980697972,0.0013119035866111517,0.00024013531304820906,10667.19363620109
1677846660845910461,146,1677816601955475091,camera_1,147,0,0.14357327752579307,-0.2896463251437509,2.6438035356191083,0.7044748867157608,0.7059240331618104,0.02773758369103675,0.0679486559275625,0.0019162804819643497,0.0003505682166282255,10670.679361653747
1677846660852454201,147,1677816601962056398,camera_1,148,0,0.1437066258448119,-0.2898347983614099,2.6456009283305257,0.7045851079072853,0.7061025906158046,0.026409337309686923,0.06543320367972023,0.001619398477487266,0.0002964817608543646,10663.729844512764
1677846660859807822,148,1677816601968629837,camera_1,149,0,0.14363015116857725,-0.28975856653510207,2.644867001690365,0.7044830474743258,0.706241712161257,0.023094993071110445,0.06627896438440012,0.0027647336246445775,0.000506023052607541,10670.190881338429
1677846660864199402,149,1677816601974650621,camera_1,150,0,0.14365930217099304,-0.28989475577741863,2.646263519894691,0.7044722823248897,0.7063365387594595,0.024428962747487102,0.06489008574774272,0.0007123606628738344,0.0001304734531342115,10661.406112388238
1677846660872523406,150,1677816601982059955,camera_1,151,0,0.14349601702004552,-0.2897039787712836,2.644605827218167,0.7044367833499824,0.7060095252315373,0.02665024565725558,0.06789059546268082,0.0012229200219735503,0.0002238583413973257,10665.414363504737
1677846660881013810,151,1677816601988710403,camera_1,152,0,0.14366720171571706,-0.2900223867612744,2.647549692832245,0.7046386073833174,0.7063924549493008,0.021591057540602688,0.06346620210692888,0.001107629097532481,0.00020299728846894375,10656.571055175504
1677846660884748864,152,1677816601994638442,camera_1,153,0,0.14360608689185486,-0.2899217122172006,2.6466699328262617,0.7045073150339125,0.7062231766164535,0.022307934774099546,0.0664877727073748,0.0017027268186211586,0.0003120623773995941,10655.785896308253
1677846660892159451,153,1677816602001961708,camera_1,154,0,0.14362794568218362,-0.28989015627152065,2.64618274941348,0.7046624650456061,0.7061658994517603,0.025097030280107877,0.06442570821074109,0.003086015465669334,0.0005650847245805771,10662.653834053317
1677846660899711183,154,1677816602008615970,camera_1,155,0,0.14356833832375146,-0.28976376240440976,2.644797599676722,0.7044718767152376,0.7062122095751077,0.026156256112213404,0.06557087944009776,0.001432830758858472,0.00026217539590102227,10670.099279873302
1677846660906460665,155,1677816602016076087,camera_1,156,0,0.1436962779595381,-0.28983806443957894,2.645451876059241,0.704462122811066,0.7062142060537248,0.02421178420939574,0.06639579954960682,0.0016528036794625225,0.0003026676827779686,10664.332198224032
1677846660911176771,156,1677816602021418809,camera_1,157,0,0.14382574903598003,-0.29004308745662466,2.6472781806858343,0.7045448754123127,0.7063623798292584,0.023904776408890868,0.06400990983462009,0.004425486200489104,0.0008109553090389417,10655.716283412654
1677846660918675024,157,1677816602027991533,camera_1,158,0,0.14358442745706623,-0.28970210658844564,2.644326676579689,0.7042731499811166,0.7060713898996485,0.02483839130566085,0.0696101781221793,0.0005691476399078965,0.00010421741977424987,10664.643695262488
1677846660925625161,158,1677816602035387039,camera_1,159,0,0.1436529171023284,-0.2899176013524639,2.646568267426571,0.7045384496057131,0.7062711733108347,0.023605140901330403,0.06518742286931921,0.002787206380162388,0.0005106094868605902,10658.870394525697
1677846660932159812,159,1677816602042010545,camera_1,160,0,0.1435400071783535,-0.28980007439381567,2.645531913623259,0.7044349771107815,0.7060681412160198,0.027950142094418276,0.06676775074531925,0.001741095562465489,0.0003188418341183503,10659.649166715797
1677846660938969178,160,1677816602048180580,camera_1,161,0,0.14355081231220893,-0.2898311829261199,2.6457694006153845,0.7043267282406187,0.7061920756716952,0.0262942245331094,0.06726979932013372,0.0027456243406049907,0.0005029338301740914,10657.95202118356
1677846660945523036,161,1677816602055286645,camera_1,162,0,0.1435146822287468,-0.28972699197060053,2.6445627715240283,0.7042933848308053,0.7059913746240696,0.028751193418260424,0.06870499193661002,0.0018316333880648017,0.0003353370531343325,10661.686142906201
1677846660952855537,162,1677816602061986446,camera_1,163,0,0.14363847033630267,-0.28981108604552075,2.6455251915130997,0.7044693523546619,0.7060680756013742,0.02456158963776423,0.06773132601715048,0.002152476692572236,0.0003942651102607355,10660.124638272679
1677846660959393446,163,1677816602068999767,camera_1,164,0,0.14364932896503363,-0.2898230209385237,2.6454316398392606,0.704359825982946,0.7061888020125019,0.024548354532458055,0.06761649017192523,0.0033023901632986963,0.0006048251357300429,10661.161826138152
1677846660964727105,164,1677816602074701786,camera_1,165,0,0.1436590817090685,-0.289894808701256,2.645991846447544,0.7044691698760661,0.706159918734342,0.024335717323373182,0.06685155742082986,0.0015958223957568407,0.0002923488696022618,10658.766361196176
1677846660972069475,165,1677816602081314563,camera_1,166,0,0.1435307763306917,-0.2896707450321314,2.6439512818430853,0.7043411886686277,0.7060059246133228,0.027476983841222675,0.06858673133151084,0.0014901894610375166,0.00027269785717103025,10668.091906992024
1677846660978658610,166,1677816602088731050,camera_1,167,0,0.14356347185071097,-0.2897857861276688,2.6451298809508996,0.7044974376466748,0.7060952562279098,0.02516718313525213,0.06692878584547098,0.0030429415637627244,0.0005570895662019386,10664.869052109425
1677846660985794734,167,1677816602095310688,camera_1,168,0,0.14363782852873094,-0.2899111677689685,2.646413158912202,0.7045135662502052,0.706194336081553,0.024358863666365003,0.06600636648563334,0.0039498553378507495,0.0007236422193194919,10657.512811542605
1677846660992843726,168,1677816602102296829,camera_1,169,0,0.14352654052162886,-0.2897447991601214,2.6446807433479997,0.7044249818529225,0.7060322888136498,0.028932972937027433,0.06683363802079194,0.005184453562833369,0.0009487445974784328,10665.351339691782
1677846660999487162,169,1677816602108694791,camera_1,170,0,0.14356822503545297,-0.2897644258410285,2.64491805348129,0.7043096888535274,0.7062029480727926,0.026119655288759248,0.06740194305760416,0.0006464716861955822,0.00011835679806780538,10664.577040305829
1677846661006150494,170,1677816602114660978,camera_1,171,0,0.1436491238965098,-0.28990960445733416,2.646316456490993,0.7043973599270754,0.7063389415066537,0.023738875528502706,0.06592514564010223,0.001985885959584266,0.00036382007390938317,10658.960600538647
1677846661012222652,171,1677816602122135639,camera_1,172,0,0.14364644975255222,-0.28996517613547784,2.6469701325746433,0.7046221495876557,0.7062259393613278,0.023944074763527425,0.06464696564727852,0.003143885056488216,0.0005760522919719597,10656.709419434665
1677846661019451421,172,1677816602128670930,camera_1,173,0,0.14354768163014675,-0.2897486921751709,2.6452038230264403,0.7044843739507249,0.7061251522020844,0.02564757961181826,0.06656754424562886,0.0016869259416125715,0.0003088314384890501,10664.830367347218
1677846661026124200,173,1677816602135259389,camera_1,174,0,0.14368087830166493,-0.28993911622030527,2.6468773330918682,0.7046309673137356,0.7061745233487572,0.02480546475648939,0.06478758672677581,0.0031265743309631944,0.0005728532695808931,10656.438550436054
1677846661032109075,174,1677816602141952276,camera_1,175,0,0.1436612072333724,-0.2898456406043448,2.645820520447688,0.7045469824226684,0.7061803755666825,0.023688387054834222,0.06604306960122171,0.0005669791135005653,0.0001038416968868908,10662.685135685137
1677846661038866884,175,1677816602148665189,camera_1,176,0,0.14369775115870487,-0.28991001119716037,2.6461005522967374,0.7044944468194642,0.7060131145844412,0.02603530040901233,0.06749236673822012,0.002280916611198336,0.00041794774517397553,10654.8662760139
1677846661045885931,176,1677816602155524015,camera_1,177,0,0.14368866443385261,-0.2899082105303644,2.6461626238999623,0.704628787407607,0.7061965467354494,0.027223035833396355,0.06358943037506533,0.0028993076412007213,0.0005307888458674456,10662.971654350173
1677846661053737321,177,1677816602161416530,camera_1,178,0,0.14369435073259623,-0.2900059692296925,2.6470024590535663,0.7045755995940975,0.7062675984509539,0.02760408534556899,0.06322434900554189,0.0016305522294715047,0.00029869170833312904,10656.752593167359
1677846661058765380,178,1677816602168769359,camera_1,179,0,0.14352427605263865,-0.2897681408981922,2.645140793563137,0.7045753901064475,0.7060726256412296,0.024927514606060568,0.06643482514473809,0.0022220106911845505,0.0004067521892843306,10666.24856849853
1677846661065494436,179,1677816602175481081,camera_1,180,0,0.14356732158260674,-0.2898809341300687,2.6463481126187047,0.7044422769081851,0.7063747865052163,0.023431522263635145,0.06516673429389279,0.0047256615362130105,0.0008655348888215635,10660.854794885268
1677846661071910726,180,1677816602181602716,camera_1,181,0,0.14357877788921294,-0.289843849642574,2.645845859902228,0.7044059985684565,0.7062502915748099,0.02556684103861648,0.06609880082556586,0.0017787032993510365,0.0003257559051885205,10660.889621790728
1677846661078107827,181,1677816602188171863,camera_1,182,0,0.1436617784577423,-0.2899612239622268,2.646813718618484,0.7044630230588369,0.7063348805286611,0.023251679056036968,0.06543886545808651,0.0007249623304232955,0.00013285330088577896,10656.534050734366
1677846661085857940,182,1677816602195436716,camera_1,183,0,0.14367298003350404,-0.28980805566046064,2.6450649438289466,0.7043335360646987,0.7061000536966034,0.027491623164418565,0.06768452408074614,0.0015733828186057508,0.0002880973416336664,10661.401728240311
1677846661092345053,183,1677816602202189207,camera_1,184,0,0.14370112587954548,-0.2898057447094951,2.64521541517841,0.7044854802545562,0.7060266536393829,0.02865301792983751,0.06637452090067952,0.002527241420466453,0.00046264696072463617,10662.425025136326
1677846661099200634,184,1677816602208806514,camera_1,185,0,0.14363856333735897,-0.2896943061183884,2.644306959357265,0.70444518317667,0.7061101072381627,0.025223603003342532,0.06729985294804197,0.0015072348760440946,0.00027580768675654756,10670.468508571506
1677846661107497928,185,1677816602215480566,camera_1,186,0,0.14351231080036653,-0.2896921873645414,2.644354493478686,0.7044988259766229,0.705990456708173,0.02702292118603209,0.06729517787418894,0.0008582154987379909,0.00015704866679020738,10668.60935579043
1677846661112032775,186,1677816602222099542,camera_1,187,0,0.14362627106215461,-0.28996964358693555,2.6469571946602146,0.7047160110384534,0.7061366089125954,0.02504329138252204,0.06418151522206894,0.005735172133427113,0.001050676855332782,10657.076667343266
1677846661119053805,187,1677816602228720426,camera_1,188,0,0.1435750640317902,-0.2898578126867872,2.6461087740678426,0.7044613511516533,0.7062198013897849,0.02286329798760719,0.06682115281622739,0.0024616049486212432,0.000450977490820501,10659.06942889944
1677846661125931478,188,1677816602235455989,camera_1,189,0,0.1436082824458069,-0.2898537341521724,2.646157271977218,0.7045229230806626,0.7060079230253027,0.027862613146333294,0.06651269253334419,0.005333284905645996,0.0009769848554048296,10655.33842510264
1677846661131058742,189,1677816602241266250,camera_1,190,0,0.1435615097830469,-0.28974731082967187,2.644755898536285,0.7044806409604852,0.7061120872079095,0.028493742407304908,0.06558089244909646,0.0012456116965040565,0.0002279143628828766,10668.300667523172
1677846661139180156,190,1677816602248245477,camera_1,191,0,0.1436974053073083,-0.28992753093012746,2.6463032595210603,0.7046058020383732,0.7062173659977685,0.024708321875219166,0.06463121944652978,0.0007839979371055961,0.00014359075881757892,10661.46243834123
1677846661145494798,191,1677816602255416393,camera_1,192,0,0.14355730481610723,-0.28966689680245616,2.6440015246863284,0.7043855598955645,0.7061250654865532,0.02658633869277778,0.0672424084721538,0.00023175112437456846,4.2399166847805346e-05,10671.943242200186
1677846661152366589,192,1677816602262230157,camera_1,193,0,0.1436720919094113,-0.2899123009462911,2.6463583412497513,0.704529537752667,0.7062591888854901,0.025050201161455506,0.06487353829254171,0.00032958638621494174,6.0371543907054475e-05,10660.182540595995
1677846661158209810,193,1677816602267862081,camera_1,194,0,0.14357963356346484,-0.28975213868072125,2.645146484875558,0.7044366477770478,0.7061937242879331,0.02636417440331328,0.06606332835246728,0.0030268553528003395,0.0005540314418915098,10665.925706892507
1677846661165740042,194,1677816602274945497,camera_1,195,0,0.1436031721062182,-0.2898688121129451,2.646073446040606,0.704534300468224,0.7061365461332754,0.02558323579191762,0.06594009194059448,0.0037184873363003135,0.0006810644492976906,10659.433622245328
1677846661172627342,195,1677816602282059669,camera_1,196,0,0.14359959198093372,-0.2897363733926587,2.644932552412291,0.7043767684151803,0.7061067537890017,0.02613330868687439,0.06770281048540222,0.0027546671335585415,0.0005043494108363192,10663.687705511113
1677846661178796541,196,1677816602288682222,camera_1,197,0,0.14366287071724376,-0.28993171059327144,2.6463784446907876,0.7043194993339691,0.70619116475239,0.025435040978884247,0.06768412202291188,0.004342194646596909,0.0007958301819188937,10652.668566681557
1677846661184788260,197,1677816602294810056,camera_1,198,0,0.14362004376113538,-0.28978458130257984,2.6452626900371388,0.7045165147519196,0.7060272217232835,0.02671477273433598,0.06684581920556132,0.0035699059953913093,0.0006536275817637559,10662.696042617203
1677846661192787957,198,1677816602302133560,camera_1,199,0,0.14359909217286868,-0.28980659455171337,2.645333826591304,0.7045456178759285,0.7060059644371076,0.027166435927559168,0.06658104287294887,0.0024633982102386653,0.0004510343352611962,10662.387785388506
1677846661198818387,199,1677816602308735847,camera_1,200,0,0.14359147608255918,-0.2897783784163247,2.645244182432062,0.7044351614189229,0.7062266328263963,0.024180421152198952,0.06656090200927699,0.0014115393860265613,0.00025842880693952356,10665.669673337487
1677846661204795459,200,1677816602314709186,camera_1,201,0,0.14353302179282812,-0.2897455554430019,2.6448327739215673,0.7044031556208176,0.7061002838964063,0.028522208865333826,0.0665211773369287,0.0015278554637916386,0.0002796323898492684,10665.327550028915
1677846661212455252,201,1677816602322129487,camera_1,202,0,0.14371788597075894,-0.28999492800304755,2.6472773381804457,0.704735860514252,0.7063316075814863,0.021798453633038235,0.06299090772324695,0.0021563521586358547,0.00039506992648777843,10659.71981822816
1677846661219438761,202,1677816602328722238,camera_1,203,0,0.1437226967498663,-0.28998216036269214,2.647068603675816,0.7045193141859415,0.706381918471036,0.023976711072901894,0.0640487199112977,0.003538636607117951,0.000648332830523287,10657.310348211788
1677846661225917218,203,1677816602335460901,camera_1,204,0,0.14371587398812577,-0.28994099529679934,2.6467419549003686,0.7044774049925198,0.7062481038791937,0.024863131169258177,0.06562793864284679,0.00044990499736741185,8.244999172915181e-05,10655.399128475929
1677846661231991421,204,1677816602342121839,camera_1,205,0,0.14359539704957897,-0.28972401035397494,2.6446657549126336,0.704355182131364,0.7060980201745335,0.027661283012818533,0.06741080575383938,0.0004779220907948911,8.748420409467067e-05,10665.210438281534
1677846661238149229,205,1677816602347813844,camera_1,206,0,0.14364251600136302,-0.28987959009527786,2.6458841848418326,0.7045963571358697,0.7061127943817428,0.028213241815333162,0.06444150919662263,0.002747155085671693,0.0005029307975215528,10662.260396093472
1677846661246057165,206,1677816602355306863,camera_1,207,0,0.1435904099239361,-0.2897994478916839,2.6456552059567437,0.7045085495934419,0.7061559524687296,0.022213863059062467,0.06721620809536355,0.000884125183802098,0.0001619449864171676,10662.164718991842
1677846661253953230,207,1677816602362010002,camera_1,208,0,0.14363005767640616,-0.28993432898697713,2.646979961403479,0.7045355237813654,0.7063077835084934,0.024256016887362408,0.06458061884339944,0.0039077975088730454,0.0007159950906264109,10656.580219049123
1677846661258877524,208,1677816602368669033,camera_1,209,0,0.1435096884746679,-0.2897334710414137,2.6445848229143585,0.7043416702943612,0.7060499480069581,0.028603570105568167,0.0676617926420581,0.0019291344797238708,0.00035310479815592284,10664.343231151579
1677846661265431171,209,1677816602374790906,camera_1,210,0,0.14365211641961653,-0.2898656779912535,2.64585545840927,0.7043704131128539,0.7062369339983467,0.029466976083152123,0.06498777968477831,0.0029460200457833707,0.0005393910203175789,10659.950305131613
1677846661272721756,210,1677816602382026672,camera_1,211,0,0.14375415621871854,-0.2899122424300027,2.6464219387836536,0.7045381121199532,0.7062639351715488,0.023252157593682803,0.06539602139036373,0.003540550882462412,0.0006485824397023806,10659.747157635982
1677846661279253943,211,1677816602388675212,camera_1,212,0,0.1437920178219075,-0.2900333306464092,2.6474269715349728,0.704517844788561,0.7062128472090919,0.02357051484259721,0.06604885798682428,0.000871897442266345,0.000159880002383576,10649.822789411879
1677846661285151084,212,1677816602395027637,camera_1,213,0,0.1436515195393581,-0.28984812277539357,2.6454064654201557,0.7044694998106755,0.7061075943411422,0.02674502091852135,0.06647926674031121,0.002116287185344845,0.00038748605725522767,10662.39082471142
1677846661292000414,213,1677816602401668310,camera_1,214,0,0.14362107896797238,-0.28975607217209337,2.6449113395171233,0.7044862629391186,0.7060947535309595,0.026523758506818377,0.06652664579550571,0.0029867746052332222,0.0005466805444025416,10666.481775304426
1677846661299183126,214,1677816602408707857,camera_1,215,0,0.1436027416928185,-0.2898459326492092,2.6458199835838263,0.7044225560501666,0.706189486528184,0.024565473389395458,0.06694631552195134,0.002347614266909659,0.00043001626045819047,10659.767134956197
1677846661306324069,215,1677816602415307521,camera_1,216,0,0.14357040100192092,-0.28978584629718984,2.6453801829676196,0.7044678064330208,0.7061612923837273,0.021876012116061154,0.06769622539174658,0.0021200586925260723,0.00038828006249395485,10663.372472134304
1677846661312258281,216,1677816602422041654,camera_1,217,0,0.14357518122019403,-0.28982967183614233,2.645836624733892,0.7046455581332589,0.7061365661945114,0.028842293335243976,0.06335542124598428,0.0019657028024084866,0.00035977557627806184,10664.69590168027
1677846661319555577,217,1677816602428716182,camera_1,218,0,0.14357163940616086,-0.2898218698793802,2.6455989054012625,0.7045653970143908,0.7060722694969344,0.027816844204240732,0.06538940859129526,0.002299363841302693,0.00042095693731167624,10662.646842984017
1677846661325887139,218,1677816602435485363,camera_1,219,0,0.14369751125796268,-0.2899273449847851,2.646436603933856,0.7045859312202454,0.7061267434566633,0.024249693414612476,0.06599727320946494,0.0014414148172363639,0.0002641103340967849,10657.40587447677
1677846661332728395,219,1677816602441599845,camera_1,220,0,0.14358062003061495,-0.2896791318774803,2.644247359199008,0.7043580533854354,0.7061868543861658,0.0245937896818946,0.06763878201398392,0.0007028355030342937,0.00012861714220768427,10670.616055313265
1677846661339264319,220,1677816602448622941,camera_1,221,0,0.14369888398065295,-0.2899291619953185,2.646237273872951,0.7045915664812503,0.7061549117852614,0.027517039885135694,0.06433333133770879,0.0006005269242450595,0.00010997674065095808,10660.3108616008
1677846661345791646,221,1677816602455320119,camera_1,222,0,0.14360687135550365,-0.2897377737805028,2.6446670702978645,0.7044739400364677,0.7062269393988159,0.022541782664706366,0.06672215457532651,0.002362753381021321,0.0004324036238507254,10671.083475846099
1677846661352573340,222,1677816602462074279,camera_1,223,0,0.14364382688482594,-0.2898037458824332,2.645791622033535,0.7046545295380561,0.7060565582898422,0.01929594591026532,0.06762985264534901,0.0019440492615103722,0.0003561481480400932,10661.819439651445
1677846661358388509,223,1677816602468170404,camera_1,224,0,0.14359046504051498,-0.28988721881957835,2.6460428697639613,0.7044146048170821,0.7062331706549893,0.025498644995042664,0.06621625397447171,0.001699832093436271,0.00031136617804282195,10659.05373224616
1677846661365290286,224,1677816602475085258,camera_1,225,0,0.14362468563602843,-0.28998057250472514,2.647015498883815,0.7046485450679586,0.7061919520382199,0.024570612376222923,0.06449526972976424,0.002072484407108277,0.00037974986397695007,10656.230203969055
1677846661373742519,225,1677816602482012510,camera_1,226,0,0.14351739009165182,-0.28974720108880797,2.6447517181086106,0.7044663814171355,0.7061312814620627,0.02436397606666148,0.06717237128474346,0.000739012029953301,0.0001352734576444726,10667.947933827527
1677846661378697371,226,1677816602488733530,camera_1,227,0,0.14368971900588187,-0.2899796331537365,2.646880103044603,0.7045507427105717,0.7061279928789287,0.027756062664190635,0.0649700669857979,0.0018195686279796064,0.00033341549886385706,10653.402591265274
1677846661386011077,227,1677816602495283126,camera_1,228,0,0.14363820198113275,-0.28985351087407185,2.645663912589855,0.7045431278730685,0.7060601093849562,0.026886463589768247,0.06614545319047285,0.0003928082878701389,7.193558889365207e-05,10661.058738023161
1677846661392529378,228,1677816602502008438,camera_1,229,0,0.14369240541041578,-0.2899043050069219,2.6461672220009542,0.7044636624631885,0.7063446281477838,0.026060550842734998,0.06425777964957459,0.002165633311960846,0.00039655647921961766,10662.356398351258
1677846661398941192,229,1677816602508619546,camera_1,230,0,0.14364594056128388,-0.2897801376685846,2.64513288005306,0.7044286827310802,0.7061881606213315,0.02366396235208088,0.06722000914768611,0.0005921291885897517,0.00010842177957276387,10665.261044722047
1677846661405706634,230,1677816602515338897,camera_1,231,0,0.14357112200337935,-0.28983794172855437,2.645608843051065,0.7043691055285489,0.7064010210834908,0.025494032960794378,0.06489849668911926,0.000691887573339045,0.0001266623885447317,10665.80500663491
1677846661411789843,231,1677816602521586894,camera_1,232,0,0.14357697976823783,-0.28984914235687204,2.6454998975896045,0.7045009506319415,0.706092332704621,0.026803588897485967,0.0662842053331858,0.001141863758675754,0.00020908423241532847,10662.112315948003
1677846661419486275,232,1677816602528162956,camera_1,233,0,0.14364968742151202,-0.2899414349673331,2.6466871960535796,0.7045852960089466,0.7062051102497282,0.022766060270527685,0.06569329802128206,0.0041648694314062595,0.0007631291960167909,10657.272943449207
1677846661425759468,233,1677816602535280227,camera_1,234,0,0.14367541351613303,-0.2899713116145417,2.6470588449661547,0.7044888316257324,0.7062592364064877,0.025508443157496223,0.06513598416248972,0.0031619399087503552,0.0005794595238822332,10653.556869018008
1677846661432584392,234,1677816602542111158,camera_1,235,0,0.143657635585925,-0.28987882458446096,2.646002028922473,0.7046589061465104,0.7061243977424916,0.024022580572808934,0.06532286371424545,0.0003349893959239125,6.135147010553122e-05,10662.748382944843
1677846661438990675,235,1677816602548640251,camera_1,236,0,0.14365585021686234,-0.28991359183419163,2.646233135519479,0.7045964579578595,0.7061655048831976,0.023179958514631355,0.0658543899034607,0.0004468701081350446,8.186587359614761e-05,10660.20505025738
1677846661446355327,236,1677816602555485248,camera_1,237,0,0.14359841065271162,-0.28979235987235136,2.6453980086948214,0.704521530927759,0.7061217751846598,0.022689859146662925,0.06728017063872586,0.000392367597669363,7.185948451073017e-05,10663.717876315
1677846661452889427,237,1677816602562125682,camera_1,238,0,0.14373151767959536,-0.2900033960294446,2.6474950063037856,0.7045357242501838,0.7062351883263769,0.02469872454694475,0.0652015723018257,0.001079560606740415,0.0001979227346131146,10650.549591460029
1677846661459233494,238,1677816602568810939,camera_1,239,0,0.1435256043352593,-0.28968185991888074,2.644151741267692,0.7044062877851835,0.706131925291569,0.02659230726363966,0.06695024277114639,0.00237850658595562,0.0004351277569688669,10671.481684010358
1677846661466058798,239,1677816602575507640,camera_1,240,0,0.1435842410208572,-0.28971455772888977,2.644614913339899,0.7044344399850668,0.7060763771055885,0.027589551275719968,0.06683626348604811,0.0028464883216656744,0.0005209024216063202,10667.144481870231
1677846661472924087,240,1677816602581999301,camera_1,241,0,0.1436987536742714,-0.28986575472658016,2.6460551732044184,0.7044925321553391,0.7061631918487945,0.025911617938564092,0.06597277219495339,0.0011350775021128356,0.00020791348684535166,10659.193142952856
1677846661478826839,241,1677816602588721752,camera_1,242,0,0.14375567009480258,-0.28995786650248073,2.6470486466255636,0.7046021859630351,0.7063069067362477,0.022651070693713846,0.06444565174791873,0.0031583993113599718,0.0005787552937688577,10657.489459697392
1677846661486447229,242,1677816602595492601,camera_1,243,0,0.14364700433663635,-0.2898642399043575,2.645875848550492,0.7045177662468809,0.7062877967765847,0.023734328039000347,0.06518394617940966,0.001135753991547972,0.00020796973162480334,10664.325705803694
1677846661492147483,243,1677816602602037429,camera_1,244,0,0.14362465109795397,-0.2898624115812919,2.646057962958489,0.7044971841509309,0.706221323983443,0.023539203406029885,0.06618961381887553,0.0013345750630833209,0.0002444720745464244,10660.546346035553
1677846661498501567,244,1677816602608152627,camera_1,245,0,0.14352476827205524,-0.2897747560109772,2.6451125807121927,0.7045896840097995,0.7060305280506305,0.025150829717861593,0.06664612825980107,0.0018841896671801805,0.0003449258566158211,10665.755952893287
1677846661506526252,245,1677816602615489959,camera_1,246,0,0.14358105915736852,-0.28989001920237983,2.646176524176055,0.704626344277543,0.7062628649626554,0.02527950883218137,0.06368223424167255,0.002291114942636341,0.00041947262685524913,10664.360469231615
1677846661511313501,246,1677816602621349811,camera_1,247,0,0.14356566662156622,-0.2897852844551942,2.645135743311294,0.7043968893873024,0.706105548940667,0.027532106332782916,0.0669474353322965,0.0028630404849536717,0.0005241534084774642,10662.73025296722
1677846661519668302,247,1677816602628841876,camera_1,248,0,0.14366951766466235,-0.2899134198277938,2.6464175471244435,0.7045298469442588,0.7063174187884347,0.02136600778337046,0.06555068567256175,0.0008187491330318153,0.00014999939549608878,10660.737209610756
1677846661527830373,248,1677816602635485410,camera_1,249,0,0.1436670067649812,-0.28981272543848996,2.645110269940167,0.7045883622951821,0.7061036673729281,0.02621528458057411,0.06546456671401753,0.001478072255849838,0.0002705159029818429,10667.75399570761
1677846661532425292,249,1677816602642185211,camera_1,250,0,0.14362986556104498,-0.2897540169351339,2.6446646564856073,0.7044611899213439,0.7062686031805807,0.021662205153276493,0.06670712798384552,0.001812049828004092,0.0003316316857480299,10671.722892381946
1677846661539151933,250,1677816602648755788,camera_1,251,0,0.14366113410354522,-0.28989466023090915,2.6460484027583884,0.7044715967800518,0.7062485229647225,0.026440626874377326,0.06506678408221699,0.0018045284668914974,0.0003304604743022959,10661.023772154473
1677846661544954589,251,1677816602654837131,camera_1,252,0,0.14356611073360273,-0.28985736335333384,2.645965326209488,0.7045798915128672,0.7062931326245162,0.021534434127812984,0.06521852060541707,0.0024515854311175644,0.000448925830869327,10665.11355024192
1677846661552974634,252,1677816602662122011,camera_1,253,0,0.14358911441496167,-0.2899016319429252,2.6466031153173075,0.7044723118145785,0.7061861981150205,0.025913995023720153,0.06594149179679776,0.002872365526854992,0.000526323741133573,10654.927885260322
1677846661559720630,253,1677816602668802261,camera_1,254,0,0.14351076165608415,-0.28972662795839677,2.644823329789113,0.7043522843319958,0.7061110302989728,0.027856631905084965,0.06722410657886892,0.004573819343931973,0.0008372124530793618,10664.279037691884
1677846661566041434,254,1677816602675436735,camera_1,255,0,0.1435715003683976,-0.28976680604341815,2.644999574432542,0.7045977248770624,0.7061075260131295,0.02725951424390646,0.0648931944726982,0.0002984051243402064,5.460498434350615e-05,10669.184082891677
1677846661571837236,255,1677816602681431055,camera_1,256,0,0.14358744462616804,-0.2896577846384623,2.6438477669771996,0.7043683354629551,0.7060403288396585,0.02332760192020972,0.0694847108203332,0.003222749335691333,0.0005898382072075145,10669.970890268565
1677846661579499883,256,1677816602688724756,camera_1,257,0,0.14371688969307178,-0.2899032017882186,2.646117542435873,0.7046343961562893,0.7060920656461138,0.026606794250646413,0.06493412881351034,0.003407674899790436,0.0006240275817896945,10660.625045365885
1677846661588248300,257,1677816602695298910,camera_1,258,0,0.14366549622584018,-0.28986229435873134,2.6458272084063696,0.7046550971838339,0.7062783743251018,0.021665371169218083,0.06451870787324486,0.0017346244421787558,0.0003175630412748313,10667.792223098222
