%time,field.header.seq,field.header.stamp,field.header.frame_id,field.image_seq,field.transforms0.fiducial_id,field.transforms0.transform.translation.x,field.transforms0.transform.translation.y,field.transforms0.transform.translation.z,field.transforms0.transform.rotation.x,field.transforms0.transform.rotation.y,field.transforms0.transform.rotation.z,field.transforms0.transform.rotation.w,field.transforms0.image_error,field.transforms0.object_error,field.transforms0.fiducial_area
1678311224371780002,176,1677825034883761644,camera_1,179,0,0.12323380962357425,-0.32155147712292526,2.642943636840522,0.7041914960707545,0.7062712097280425,0.03411580865169273,0.06427617576490574,0.006686621985863894,0.0012236999467177942,10659.189551701307
1678311224378454112,177,1677825034890496969,camera_1,180,0,0.12319212920175229,-0.32138346983342503,2.641737519831755,0.7038434353224087,0.706314970042345,0.03367814421880785,0.06774484666458855,0.004547352727968246,0.0008322283595223015,10660.752089198912
1678311224384373803,178,1677825034896349191,camera_1,181,0,0.1232098413812721,-0.3214251647017067,2.6416775700243336,0.7038727592947067,0.7062128272688961,0.03490520058178181,0.06788378522205238,0.003396115789655596,0.0006215551872633809,10659.328924388861
1678311224390923177,179,1677825034903126478,camera_1,182,0,0.12323507839488315,-0.3213394767308079,2.6409102414744754,0.7038681379459806,0.7061183077799704,0.034351459976479225,0.06918494778413307,0.003169419476762414,0.0005799047906137551,10662.761355633262
1678311224398620522,180,1677825034910499572,camera_1,183,0,0.12325654634186778,-0.32137502949843766,2.641245212748432,0.7040540005899686,0.7062455480088639,0.03474185184032232,0.0657129660084319,0.00415496074128896,0.0007598384181122079,10668.52353097382
1678311224406610848,181,1677825034917077779,camera_1,184,0,0.12333413136102599,-0.32152909992734746,2.6427570795217696,0.7040571378057943,0.7062420144181006,0.033617512057240624,0.0662995223094224,0.003503789252135903,0.0006415233708542401,10656.257913698675
1678311224411736591,182,1677825034923938274,camera_1,185,0,0.12320750305893169,-0.3213148843029904,2.641015015008383,0.7038659805582852,0.7062918942802313,0.03471273547347626,0.06722698478077767,0.002200111746788025,0.0004024083123385196,10666.618690301546
1678311224417981809,183,1677825034930506706,camera_1,186,0,0.12324425823623653,-0.32147319211486775,2.642361164843725,0.7040743772511442,0.7062439657046781,0.03335927655324171,0.06622605885893722,0.004086848173756152,0.000748014180802899,10659.96107619151
1678311224424398765,184,1677825034936291694,camera_1,187,0,0.12316807550178469,-0.3213527801739874,2.6412873928420173,0.7038729619391038,0.7063514196752618,0.03461466068462676,0.06657590134202923,0.0030875058146193624,0.0005647185754789325,10666.213265242288
1678311224430881162,185,1677825034943076372,camera_1,188,0,0.12327940247823643,-0.3215587588796089,2.6431948026735554,0.7041550587241161,0.7064218383754394,0.028520007855883156,0.06573012012313348,0.008080620900727808,0.001479638961502846,10659.711719778012
1678311224441010288,186,1677825034950578927,camera_1,189,0,0.12320494643713666,-0.3213688794864784,2.641523684442299,0.7039401257699003,0.706411965130101,0.033748392315733323,0.06566186768733659,0.007275325478985906,0.0013306361147557499,10667.670033357805
1678311224444767294,187,1677825034957170009,camera_1,190,0,0.12322257756314788,-0.32137234902023143,2.6415660476052043,0.7039089286626279,0.706295615419116,0.03318654019423786,0.06750835014055567,0.004974343697540462,0.000910218094193955,10663.307652567048
1678311224451903749,188,1677825034963759183,camera_1,191,0,0.12316032800133644,-0.3212324693685751,2.6400584207284727,0.7038218792967393,0.7062510734593533,0.0364623316793068,0.06719138210533718,0.005382216942962259,0.0009836135573508575,10672.16040625644
1678311224457150316,189,1677825034969747304,camera_1,192,0,0.12318439008477285,-0.3212920109502935,2.6406510616378305,0.7039136157174544,0.7061587966157352,0.03688836905492381,0.06696733381481473,0.0031644537230022256,0.0005785849548917037,10667.401825492965
1678311224465212717,190,1677825034976616382,camera_1,193,0,0.12321689304680031,-0.3213682007583545,2.641430666582673,0.7039449695317473,0.7063285679732151,0.032517428337286096,0.06711222534072414,0.005204763438086957,0.0009522077151750347,10666.18104686088
1678311224471450463,191,1677825034983732461,camera_1,194,0,0.12327684879752783,-0.3215168657490238,2.6425318708769865,0.7039161145462088,0.706297496037236,0.03570867075164804,0.06611234080600925,0.0026865600957535207,0.0004917745596664329,10655.954070650045
1678311224477718100,192,1677825034989924907,camera_1,195,0,0.12320895472938825,-0.3213888800967953,2.6415741964939143,0.7040255919215828,0.7061558260780401,0.0350352800828635,0.06681649770095144,0.0024534271215088665,0.0004488584061578276,10662.755437282263
1678311224484410508,193,1677825034996572017,camera_1,196,0,0.12326837501444843,-0.3215560561505648,2.6430808117562417,0.7041196636135596,0.7062841863287407,0.03349215026371464,0.06524127010864478,0.003772341297008097,0.0006906749088932787,10656.475874980566
1678311224491219340,194,1677825035003214836,camera_1,197,0,0.12323299067589277,-0.32144069074984416,2.6422756960929528,0.7040830065934026,0.7062846915755324,0.03258680651258936,0.06608444835027914,0.003414947830606252,0.0006250112351122513,10661.928222855204
1678311224497633503,195,1677825035009919881,camera_1,198,0,0.1232055013406233,-0.32134904982161017,2.6411681844617747,0.7038079180997334,0.7062478082824676,0.03562295595260814,0.0678192651503119,0.0038665124448016286,0.000707351443443837,10662.701150066912
1678311224505060215,196,1677825035016564369,camera_1,199,0,0.12326613396729397,-0.32144557273910934,2.6420862716923157,0.703960241926209,0.7061303874774985,0.035110210412625464,0.06772833079924931,0.003550402063410729,0.0006499811164095579,10656.199778720036
1678311224510768149,197,1677825035023276329,camera_1,200,0,0.12321554336079155,-0.32130121157692526,2.6407331085293717,0.7039058252777501,0.7062293541366396,0.03465610938544439,0.0674955004282401,0.007626964128576217,0.0013946209947079042,10668.246959297452
1678311224518261769,198,1677825035029927730,camera_1,201,0,0.12321220481344133,-0.3213463028321727,2.6409983790697753,0.7039028159935147,0.7060375010072321,0.03675151104460031,0.0684192899977915,0.003252432041335851,0.0005950331883153871,10661.016982762376
1678311224525235774,199,1677825035037101984,camera_1,202,0,0.1231969763343247,-0.32133206554059657,2.64113956299242,0.7037827034214377,0.7062939822501103,0.03543293194376006,0.06769951503491446,0.0034753383370116353,0.0006357491301344851,10663.496594786524
1678311224531552649,200,1677825035043729066,camera_1,203,0,0.1231923586457413,-0.3213231913329262,2.6409832697529567,0.7040170303820056,0.7060883573504811,0.03376418173826974,0.06825857145990283,0.0029610662604682148,0.0005416771778181801,10665.352040034139
1678311224536758639,201,1677825035049594640,camera_1,204,0,0.12317628212064602,-0.3213136380347641,2.641031035902808,0.7039254194968165,0.7062557995393937,0.03205014137499419,0.06829742192092977,0.003952760132960975,0.0007231115557135955,10666.877319742227
1678311224547333627,202,1677825035056460380,camera_1,205,0,0.12322044878071452,-0.32141794885121056,2.641965349711317,0.704040480485138,0.7061752866837269,0.03466603180079127,0.06664632438926192,0.005218663194682449,0.0009549795803262243,10660.516861925953
1678311224551979425,203,1677825035063745260,camera_1,206,0,0.12325141737417035,-0.32148525604531614,2.642349220233012,0.7041015020043273,0.7062086722093615,0.03356809615501552,0.06620852733650451,0.0037740725674666464,0.0006908107171448229,10659.843842025966
1678311224558466012,204,1677825035070535659,camera_1,207,0,0.12317425334346348,-0.32129728856966927,2.6408814083983674,0.7040109822791529,0.7060272313496716,0.034580206958827055,0.06854410776824148,0.004111080546863377,0.0007520493309871516,10664.451538035879
1678311224564873191,205,1677825035077146768,camera_1,208,0,0.12322631423466292,-0.32146388795317965,2.6420080840633577,0.7040912431590464,0.7061331319278625,0.033237128983697795,0.06728160638256006,0.004101029073353857,0.0007506233152721337,10660.238627300012
1678311224571911659,206,1677825035083746671,camera_1,209,0,0.12319805280456475,-0.321346625701252,2.6414420732269335,0.7039113418572274,0.7059857405271173,0.035659004744624474,0.06943624671422353,0.002578220854047686,0.0004719682785564244,10656.242155512797
1678311224577789167,207,1677825035089646100,camera_1,210,0,0.1232247703433206,-0.321458993577595,2.642167600587419,0.7039537492543053,0.7062021827746439,0.032658805613474874,0.06827150482475483,0.004452223074622452,0.000815143519281387,10657.086439613366
1678311224584648354,208,1677825035096402168,camera_1,211,0,0.1232032189737219,-0.3214056145470814,2.641655462283375,0.703882991192553,0.7062639008411344,0.03487705626114281,0.06725792165273625,0.0017004915280267596,0.00031116778150664634,10661.168261038838
1678311224591576683,209,1677825035103788137,camera_1,212,0,0.12321260802343485,-0.32138114045370636,2.641455239629848,0.7039368682467276,0.7063246299502286,0.03496718623501942,0.06599771613826873,0.004336079640779644,0.0007930446258617404,10665.862996301847
1678311224598431121,210,1677825035110538482,camera_1,213,0,0.12319871588099046,-0.3212734415791744,2.6404339490955935,0.7038704339262432,0.7062244840604308,0.0352162784592861,0.06762546923710382,0.0033973765675909817,0.0006211867657971013,10669.620777102886
1678311224604613274,211,1677825035117165327,camera_1,214,0,0.12325808237042649,-0.32135957790936653,2.641036921295922,0.7039924386288596,0.7062558547212029,0.0323554680711989,0.06745693227021424,0.0034345315070822835,0.000628178446151038,10668.598498041974
1678311224612490039,212,1677825035123746395,camera_1,215,0,0.1232973859462143,-0.32149756992558254,2.6422315343913376,0.704041938066714,0.7063006643985865,0.03416403758383601,0.06555257012010192,0.005954951862804592,0.0010896907604552905,10661.682295838142
1678311224618013594,213,1677825035130510568,camera_1,216,0,0.12319664744481787,-0.32137742420245896,2.6417366506883955,0.7038696132658071,0.7062585914710465,0.03299394957951614,0.06839421602387803,0.005704368639271706,0.0010441194073620072,10659.882167506497
1678311224625492128,214,1677825035137161731,camera_1,217,0,0.12317708948940352,-0.32139400924749056,2.6418168195694234,0.7039576638226658,0.7062506929773184,0.03386211877395304,0.06713362143167366,0.005211102426983416,0.0009536404817215087,10661.470117542658
1678311224630060194,215,1677825035142889976,camera_1,218,0,0.12320228484264632,-0.32141936065379423,2.6420600770722458,0.7040081649590982,0.7063812697120373,0.03397253273433913,0.06514501124834812,0.002621783991344273,0.00047964939015462683,10664.375282886667
1678311224638439532,216,1677825035149996757,camera_1,219,0,0.12323162494862634,-0.32138175406145814,2.641591554865515,0.7037795892075337,0.7062923672302481,0.03705184086229654,0.06687707302119797,0.005085676850285381,0.000930427854084687,10659.853800123436
1678311224646427064,217,1677825035157121181,camera_1,220,0,0.12323736700765474,-0.3213956380750265,2.641621165998038,0.7040324700637574,0.7060637964302449,0.036132165973023295,0.06713168438622896,0.006827477889601141,0.0012493318874477071,10660.17400442611
1678311224650228629,218,1677825035162902355,camera_1,221,0,0.1232190313310961,-0.32133377083479736,2.640839019104573,0.7038548645492726,0.7062098943343876,0.035795403893927415,0.0676358178379538,0.0025765469763427973,0.00047121834442073306,10665.574575707202
1678311224657505603,219,1677825035169990301,camera_1,222,0,0.1232369104558091,-0.32135389615544985,2.6410440506314363,0.7039249978506261,0.7062102364928733,0.03477670597012786,0.06743352278758234,0.0034865786437876523,0.0006377105764444591,10665.733421031618
1678311224665971543,220,1677825035177170276,camera_1,223,0,0.1232349101085894,-0.3213983783152997,2.6415964426944165,0.703890195198601,0.7062330624615791,0.032753475759249355,0.06856139157793686,0.005472525139339268,0.0010016198194538663,10660.806441303339
1678311224671490349,221,1677825035182896375,camera_1,224,0,0.1232337110167107,-0.32147963476692143,2.6423621042950525,0.7040238798281498,0.7063156607090358,0.03394741680554869,0.06569731319549836,0.004253904975485057,0.0007785192419573333,10660.577710372629
1678311224677592325,222,1677825035189406871,camera_1,225,0,0.12318538829242076,-0.3213662980078914,2.6413792834006755,0.7039113059247678,0.7061747443720027,0.03727202535366695,0.06661005876337461,0.004426198138389736,0.0008095973356677104,10661.94527874747
1678311224684537206,223,1677825035197112321,camera_1,226,0,0.12324036607713304,-0.3214699964762768,2.642460289326632,0.7041027561648342,0.7063320924463425,0.031907382886799326,0.06569781471838083,0.0029265411430969834,0.0005356313381506102,10662.17096034263
1678311224694632459,224,1677825035203797817,camera_1,227,0,0.12322063953986602,-0.32137729422110495,2.6415029544001154,0.7040054778170427,0.7062941555591555,0.033331145616984,0.0664370962522916,0.004667988221626729,0.0008538698764275813,10666.365691981511
1678311224698034396,225,1677825035210479021,camera_1,228,0,0.12325365512523913,-0.3213586683153451,2.6410125526296784,0.7039022249662817,0.7061660624825524,0.03394760329640482,0.06854713791133772,0.00328591390280053,0.0006011892221240252,10664.100378496461
1678311224705059454,226,1677825035217265844,camera_1,229,0,0.12331166303830385,-0.3214899977672955,2.6422805730723704,0.703923492146852,0.7062441026439317,0.034674153508566924,0.06714676286250133,0.0022656777291558683,0.0004147824395110423,10656.643964499235
1678311224711332888,227,1677825035223191499,camera_1,230,0,0.12327375968006901,-0.3214271462501202,2.641651787164978,0.704175553294259,0.7061393061957545,0.03397507805701517,0.06595274413640859,0.00278171815443784,0.000508851440057103,10665.57621858548
1678311224717387302,228,1677825035229886770,camera_1,231,0,0.12315838866424485,-0.3212390219481267,2.64028341140558,0.7038444644738683,0.7061207103648067,0.03714515109532094,0.06794667006925352,0.0039930533384904265,0.0007300458467685279,10667.511602616873
1678311224724087811,229,1677825035236518383,camera_1,232,0,0.12316901286537978,-0.3213535046753716,2.641479977011884,0.7039840854305344,0.7061655810409424,0.03428946382080837,0.06753378624454387,0.0026076166541315615,0.0004771259187110022,10662.633018477587
1678311224731384341,230,1677825035243291378,camera_1,233,0,0.12316699831506575,-0.321374084785027,2.6415172942601335,0.703908476231704,0.7061202156141245,0.03643502109596248,0.06767264903903016,0.0028944219811819494,0.0005296498689004099,10659.244240322263
1678311224737625788,231,1677825035249891042,camera_1,234,0,0.12311542264484182,-0.3212240765404625,2.640202135277219,0.7037920741303386,0.7059525854465291,0.038170751449744335,0.06964665983691426,0.005911086744163185,0.001081040265563256,10662.302223189039
1678311224744061461,232,1677825035256554603,camera_1,235,0,0.12325222107711457,-0.3214528907919772,2.6418827431284795,0.7038690899672265,0.7063024832339095,0.03429088114798566,0.06729964217152885,0.0031984401284717023,0.0005853721544425263,10659.927965403076
1678311224750534709,233,1677825035263068437,camera_1,236,0,0.1231494015419507,-0.3212213645523833,2.640278605778503,0.7039770911563823,0.7059876029852595,0.03584086769262511,0.06865268939499827,0.0033984823967330158,0.0006214463974418388,10667.439664804026
1678311224758052843,234,1677825035269887208,camera_1,237,0,0.12316958088445724,-0.3212639658248914,2.6404219555350736,0.7038263222218729,0.7061292030323241,0.03578287194620764,0.06877239888100903,0.0011569199268706143,0.00021158566481702945,10666.014355747726
1678311224766054902,235,1677825035277042627,camera_1,238,0,0.1232556748903398,-0.3214649654121882,2.6421270995141315,0.7038555524584256,0.7062837455261224,0.03489563683498318,0.0673270124758052,0.002957414137199521,0.0005413617650242887,10657.161007894782
1678311224772002180,236,1677825035283699512,camera_1,239,0,0.12331209714910873,-0.3215499625378152,2.642917163584648,0.7042615680586232,0.7061951982885835,0.0321280186029796,0.0653588256504384,0.003394783940166235,0.0006214772253109235,10659.050188281108
1678311224777690909,237,1677825035290376901,camera_1,240,0,0.12324577914411286,-0.3215054260292526,2.6426423131798495,0.7042984907655768,0.7060810458900645,0.032820819663901685,0.06584820678433945,0.0030763757531531155,0.0005631356858389484,10659.276188180893
1678311224785924070,238,1677825035297504425,camera_1,241,0,0.12319434920040684,-0.3213684725860297,2.6414214498006077,0.7038335972405645,0.7061800174017306,0.03678551759952463,0.06763783048585724,0.005357570247724652,0.0009803203883368278,10659.634287575493
1678311224792414709,239,1677825035303963899,camera_1,242,0,0.12318621990611205,-0.3213620949936364,2.641397666466654,0.7038266248352301,0.706240052468481,0.03469104057282319,0.06818799136461245,0.00660499488003552,0.0012086179538944824,10661.089778879073
1678311224797597721,240,1677825035309730768,camera_1,243,0,0.12323133365757066,-0.3213970444688662,2.6416058100843633,0.7041182459389475,0.7061842553654598,0.03573579155130667,0.06514788110132423,0.0037251199246384203,0.000681260373507377,10665.792699413496
1678311224804892853,241,1677825035316989421,camera_1,244,0,0.12331942513062044,-0.3215645730827031,2.64289237183714,0.7041384421952263,0.7061610887246416,0.03368859393331666,0.06626197727886732,0.002443752659019083,0.00044746210415919557,10655.162094258587
1678311224812585728,242,1677825035323693037,camera_1,245,0,0.12322581648493659,-0.32136769018966316,2.640975424890732,0.7039286375864673,0.7061043155812436,0.036998199742251964,0.0673223730942115,0.003030322666745633,0.0005542113508500722,10663.687072675908
1678311224818047963,243,1677825035330392837,camera_1,246,0,0.12328932296271217,-0.32146580559445465,2.642046698208304,0.7038090125717659,0.7063822809541269,0.033551955833632185,0.06746268032430232,0.007738468644674867,0.0014164424014425315,10659.079561139455
1678311224824240312,244,1677825035336114168,camera_1,247,0,0.1231791284134679,-0.3213183815710441,2.641119866338664,0.7039592956003194,0.7063586478774104,0.033662645991207475,0.06607266432927654,0.005542508792132139,0.0010134781581807297,10669.999839709373
1678311224831455826,245,1677825035343665838,camera_1,248,0,0.1231579645271886,-0.3213311781149114,2.6411407771580215,0.703924605059074,0.7060589431324156,0.03488220915696147,0.06895034952408322,0.004961714614182711,0.0009079691401215027,10660.928535807177
1678311224838484447,246,1677825035350376844,camera_1,249,0,0.1232030209407249,-0.321423760914776,2.641906955369189,0.7040158180849214,0.7062118882991933,0.032814105258536536,0.06745169536185598,0.0030777899082750078,0.0005633241744276131,10661.13932249357
1678311224844617362,247,1677825035357006788,camera_1,250,0,0.12319158909480764,-0.32140477354833563,2.641760983252001,0.7039681045046796,0.7061771120278986,0.03432824379975559,0.06756009151599687,0.0031645121634937823,0.0005791608067837136,10660.238269468071
1678311224850772765,248,1677825035363012313,camera_1,251,0,0.1231732149916469,-0.3212730029765,2.6407308625277044,0.7038978750316419,0.7062321791223161,0.033257211240260855,0.06824843293882009,0.0070223689544945955,0.0012843615299768646,10668.040597206687
1678311224857506868,249,1677825035369699478,camera_1,252,0,0.12321639562778589,-0.321348847495098,2.6412072858205136,0.70403173646758,0.7060570466812998,0.03422452295272738,0.06820148757016437,0.003259588615037501,0.0005963991687142571,10663.139088599593
1678311224865102384,250,1677825035377024412,camera_1,253,0,0.12334102252274413,-0.3216045893458922,2.643255219757014,0.7040949605279487,0.7063049020267375,0.03502017454232408,0.06447681216664208,0.004764882731251419,0.0008723631777632382,10655.052629461507
1678311224871729352,251,1677825035383746147,camera_1,254,0,0.12327104000980098,-0.32145594364627195,2.6419939423020655,0.7040544565182959,0.7061212568429408,0.03481288853023691,0.0669936988339488,0.005925067875068634,0.0010843811642686609,10659.178845447019
1678311224878230955,252,1677825035390368700,camera_1,255,0,0.12319224566513658,-0.32138572758976075,2.6414467497977703,0.703970722491521,0.7062215666149372,0.0354719608717569,0.06646849415040465,0.004469730833079666,0.0008175441600077032,10664.104571399392
1678311224884716355,253,1677825035397015571,camera_1,256,0,0.1232106939126044,-0.321397505148653,2.6419244034047096,0.7039697751858804,0.7062107731525271,0.03566558200956149,0.06648959142580255,0.0031303431605920196,0.0005728067592133831,10660.001101324222
1678311224890643729,254,1677825035402904510,camera_1,257,0,0.12318174211730887,-0.32133096697885766,2.641333302603451,0.7038447540728129,0.7062650112321238,0.03352129063721102,0.06832729430824143,0.004018646781332791,0.0007353165228375464,10662.678675393692
1678311224897796107,255,1677825035409975528,camera_1,258,0,0.12322045469538905,-0.32133700445869157,2.6412644640074405,0.704120872366702,0.7061157925463314,0.03276592023003521,0.0673845611820684,0.005161268752999604,0.0009441551761691862,10666.539086652101
1678311224905438487,256,1677825035417053222,camera_1,259,0,0.1232051810910802,-0.3212552575680772,2.640329075105982,0.7037731476290926,0.7062199289643508,0.03626248308077309,0.06813076346734503,0.0035996236256323755,0.0006581596613204711,10667.812625797347
1678311224911620220,257,1677825035423679590,camera_1,260,0,0.12319669454009957,-0.32126639319998074,2.640235680777337,0.7038779169100928,0.7060429310309915,0.036848868119420446,0.06856689103198896,0.004256104642990977,0.0007782166217650448,10666.63275023131
1678311224918334698,258,1677825035430486440,camera_1,261,0,0.12331107026178531,-0.3215357844456186,2.6426973077558014,0.7040983573829034,0.7063340966999461,0.03341884563141776,0.06496789766055244,0.0033941580913960934,0.0006212051753520624,10660.284941323573
1678311224925045823,259,1677825035437006950,camera_1,262,0,0.12319167858080654,-0.3213564429005641,2.6413932412778776,0.7038841198721744,0.70623558039605,0.03389855887325532,0.06803924221172247,0.003733278950676322,0.0006831301005624529,10662.481329245958
1678311224930623784,260,1677825035443045377,camera_1,263,0,0.12316997467133033,-0.3214491766071109,2.6421821901015363,0.704036796114329,0.7064251318628175,0.035183332502822795,0.06370130221327844,0.0024595543509349227,0.00044985104192981734,10665.41748386878
1678311224937143546,261,1677825035449673652,camera_1,264,0,0.12318570997147332,-0.32141235631969556,2.64206678946761,0.7039420699800975,0.7065590473441414,0.031148108077405198,0.06534271261183788,0.005789381102658809,0.0010592073124888076,10667.084654459151
1678311224945709498,262,1677825035457026004,camera_1,265,0,0.12324215079827569,-0.3214934816071226,2.642599307923636,0.7038797443757145,0.7064095146709284,0.03219618027242966,0.06709924750567335,0.004994509858079255,0.000914489715586437,10657.184923656632
1678311224953487578,263,1677825035463811874,camera_1,266,0,0.12315293143481339,-0.3212305204031387,2.640295866215416,0.7036775007547091,0.7061098486511218,0.035675605318804635,0.070527354655007,0.003981645742896944,0.0007284012720217713,10662.504995052004
1678311224958203217,264,1677825035470443964,camera_1,267,0,0.12330599726285725,-0.3214788565975226,2.6421076353855724,0.7039542382198575,0.7062458014638681,0.0350191329733685,0.06662551112563776,0.004825667187105864,0.0008831528345539339,10658.924992395796
1678311224963456978,265,1677825035476294517,camera_1,268,0,0.12323647708361359,-0.32138276260165766,2.641147538230829,0.7038387671237601,0.7061503550140058,0.03695711532314398,0.06779998255376554,0.007709439087193459,0.0014103047046893028,10661.134929535916
1678311224971718705,266,1677825035483033418,camera_1,269,0,0.12325279492338874,-0.3214250981010498,2.6416067022450487,0.703849843196668,0.7062157338273723,0.037400143512327434,0.06675301335482142,0.0029197119874879718,0.0005341624413729889,10659.532815195736
1678311224978044240,267,1677825035490359306,camera_1,270,0,0.12323466369227479,-0.32146889822389135,2.6422157767585603,0.7039152937457589,0.7062395813973761,0.03600080244134369,0.06657969001174768,0.0021271876175887883,0.0003893335520310001,10656.957438200716
1678311224985302357,268,1677825035497017621,camera_1,271,0,0.12314367481563085,-0.32136988180639,2.6416171520364986,0.7039944170803153,0.7062800337935711,0.033113068302802924,0.06681241869497723,0.002994578506331891,0.0005479119380850833,10664.79281166487
1678311224991408383,269,1677825035503709554,camera_1,272,0,0.12322521876915216,-0.3214691620896998,2.642638891434385,0.7040531432289707,0.706357020610302,0.03180890590673068,0.0660085180030625,0.006336647435091436,0.0011600715801133282,10660.097220172644
1678311224997941554,270,1677825035510363340,camera_1,273,0,0.12322197288323661,-0.3213314582440494,2.6412552338333,0.7041185496780128,0.7060998969697988,0.03236280645367126,0.06776910990276899,0.003976750711444765,0.0007275372099108887,10666.086283212993
1678311225003637127,271,1677825035516306400,camera_1,274,0,0.12323617664242775,-0.3213837827655226,2.6414745894649974,0.7039412242953295,0.7061908078063727,0.034830288567204645,0.06743994888566303,0.0028189157019369304,0.0005157582305350073,10662.2040870632
1678311225010949300,272,1677825035523036956,camera_1,275,0,0.12323993952725214,-0.3214049064798277,2.6417412950611543,0.7041041913890244,0.7060976495843568,0.03429943705720546,0.06698466643504263,0.00157724239397794,0.0002886252758777341,10661.889767186254
1678311225018045596,273,1677825035530386924,camera_1,276,0,0.12328507155311223,-0.32150628087690825,2.642305017440227,0.7038777434195715,0.7063738246290239,0.03561340358361384,0.0657558186225957,0.0053251347853802145,0.0009745030525105491,10658.780132640037
1678311225025871517,274,1677825035537023782,camera_1,277,0,0.1231576205068194,-0.32125349799149616,2.6403825209489242,0.7038341890421371,0.7060317435800552,0.037066193158089254,0.06901238089989113,0.004258357104845345,0.0007787787389616529,10664.023410668946
1678311225032325280,275,1677825035543740272,camera_1,278,0,0.12320771867265691,-0.3214092092530908,2.6418126314504025,0.703862264109926,0.7061933834848033,0.03415407648655847,0.06857344488710303,0.004152596928179264,0.0007601802315525528,10657.398333784666
1678311225038415033,276,1677825035550420522,camera_1,279,0,0.12316733658898164,-0.3214156420408186,2.6420153703721967,0.7039976581432855,0.7062536049902637,0.033559888889994435,0.06683469626412424,0.007064333593007177,0.0012929685644416477,10661.006101718176
1678311225043436853,277,1677825035556342601,camera_1,280,0,0.12322678178530032,-0.32146002915940297,2.642356177100777,0.7041970125392392,0.7061447777506173,0.03348233785052397,0.06591701933799424,0.0032310205278918147,0.0005913129244568344,10660.642872144817
1678311225051753335,278,1677825035563626527,camera_1,281,0,0.12315358339631731,-0.3212713235781219,2.6406715701673233,0.7039929916377807,0.7061507590044092,0.033440223049578936,0.06802003208451723,0.005241771345026791,0.0009585972680906511,10668.894244670862
1678311225058091162,279,1677825035570414543,camera_1,282,0,0.1231570231018348,-0.32131515266802685,2.6407953709227057,0.7039085908615641,0.7060436768975175,0.03613724331843175,0.06862304037031293,0.003352117259055376,0.0006132124474833356,10662.944993642162
1678311225064343713,280,1677825035576356649,camera_1,283,0,0.12322826098648532,-0.32139339690620045,2.6414511378339065,0.7038719173852631,0.7062380257822457,0.03533724978547348,0.06740514545039178,0.004948027548380196,0.0009052996877980683,10661.842190957861
1678311225071426041,281,1677825035583664894,camera_1,284,0,0.12328646121559035,-0.3214648935672891,2.6419724323031866,0.7038097877081787,0.7065311315624881,0.03411837398967843,0.0655856647103549,0.0059061916545033455,0.001080534897226146,10663.74341859598
1678311225078605657,282,1677825035590401887,camera_1,285,0,0.12330003661016893,-0.3214972618334562,2.6421550370034033,0.7038199182754293,0.7063830581210357,0.035940874395585166,0.06609653081684372,0.0022894417634233832,0.00041898730545765744,10658.699814304251
1678311225084938665,283,1677825035597009420,camera_1,286,0,0.1231445588363408,-0.32120230912579717,2.639951180395568,0.7038025542482572,0.7060932199005213,0.03577351275090557,0.06938721229163024,0.005077555717434734,0.0009284143884759058,10668.207598314617
1678311225092200833,284,1677825035603729724,camera_1,287,0,0.12317549957294563,-0.3213540491788404,2.6412245024287504,0.7039148535569918,0.7061388068128941,0.032676240451658775,0.06931181547648534,0.005746909126173705,0.0010517293645394058,10661.923925620504
1678311225098161171,285,1677825035610400676,camera_1,288,0,0.1231773299125826,-0.32133842692338205,2.6414879161110663,0.7040529266534642,0.7062375224163366,0.033797978090637365,0.06630033996074869,0.00405393575783819,0.0007415497071448622,10666.322443228799
1678311225105338832,286,1677825035617014169,camera_1,289,0,0.12320488631530359,-0.3214288472458041,2.642099779885734,0.7039507151534721,0.7062933226598358,0.03438281924109588,0.06649026050541776,0.002465293335262686,0.0004511628572737064,10660.184813099564
1678311225111876124,287,1677825035623694896,camera_1,290,0,0.12322173440000835,-0.32141138538019276,2.6417058786801833,0.7039231425323804,0.706280532766772,0.03412226843702719,0.06704990110905629,0.002733460976742208,0.0005001733519076929,10662.219687333913
1678311225118151932,288,1677825035630375146,camera_1,291,0,0.12331938678654722,-0.32150712447699187,2.6421877793752806,0.7040391391323112,0.706132113820908,0.03397631397330372,0.0674680553257469,0.0052084276103414595,0.0009534361902331512,10657.387778538283
1678311225125026764,289,1677825035637262821,camera_1,292,0,0.12321974598916642,-0.3213132010171707,2.6405524729837477,0.7037043346949282,0.7060468569145325,0.036658844521580684,0.07038589554037634,0.0037531479028984904,0.0006867519780626451,10659.480287931628
1678311225132030032,290,1677825035643690347,camera_1,293,0,0.12318518598654557,-0.3212741689826018,2.640537356282485,0.7036468142481631,0.7061629980160385,0.03637274907691551,0.06994286351014907,0.0056747543858364224,0.0010382219008531366,10661.21695224219
1678311225138094154,291,1677825035650347948,camera_1,294,0,0.12318137187256811,-0.32136777820062357,2.64168772504149,0.7041577149857579,0.7061428671577344,0.03416289051819858,0.066008033599949,0.0041510434239171445,0.0007593555015984652,10665.002023314359
1678311225145072000,292,1677825035657071828,camera_1,295,0,0.12321225230732152,-0.3214760031288932,2.64227555020476,0.7039364654553495,0.7063131275054415,0.03304942115251931,0.06710405559424307,0.005847239983268082,0.0010703459582337284,10658.783612427305
1678311225153718339,293,1677825035663634061,camera_1,296,0,0.12310701186539134,-0.3212600556622119,2.6407217336024513,0.7038455292509741,0.7061668680434475,0.035318928860982035,0.06842805488421842,0.002925398002844304,0.0005350989008560876,10665.154012591232
1678311225157118530,294,1677825035669648408,camera_1,297,0,0.1231923306741376,-0.3213164762567355,2.6409614514497135,0.7037583480271975,0.7061814484330193,0.033930317411199604,0.06986188539860658,0.005578316457103938,0.001020852219326252,10661.099324426152
1678311225164630867,295,1677825035676990509,camera_1,298,0,0.12321668665117234,-0.3213296855815821,2.640872179896975,0.7038407373778165,0.7061727577906709,0.03663917067387487,0.06771871036944542,0.0066450092708691955,0.0012152724802023031,10664.002798540285
1678311225171429991,296,1677825035683659791,camera_1,299,0,0.12330844270909455,-0.3214676072040461,2.6420818846200453,0.7038644588146156,0.7063817837767123,0.036634275240703555,0.06524974362881905,0.006802050571423024,0.0012444324472302092,10660.514896178265
1678311225177938439,297,1677825035690332174,camera_1,300,0,0.12322716096449574,-0.3213600243130723,2.64123615983267,0.7040010471875406,0.7061694972978492,0.03571094388784265,0.06657248028719287,0.005019504984375089,0.0009180278866607149,10665.227209834618
1678311225185131325,298,1677825035696966171,camera_1,301,0,0.12321703850357019,-0.32135371375412003,2.6411599833421913,0.7037705208619922,0.7064248599306123,0.03605103598818159,0.06611576243101233,0.005484132387209684,0.0010028088545214807,10666.555769691593
1678311225190488659,299,1677825035703012466,camera_1,302,0,0.12321596175483747,-0.32144276684824297,2.6421498959483505,0.7041236519979234,0.7060979107123024,0.03388606288941969,0.06698774460065963,0.003225910884793848,0.0005904407397583812,10659.109149967087
1678311225198296561,300,1677825035709858894,camera_1,303,0,0.12315224179087847,-0.32135720889541275,2.6416298862395675,0.703899268896472,0.7063469375863533,0.03224476501929685,0.0675284987116048,0.006002042267937213,0.0010982983051465855,10663.867605576987
1678311225204369203,301,1677825035716956615,camera_1,304,0,0.12321355752313883,-0.32138282915107397,2.641728582733772,0.7040262713436081,0.706348419596546,0.03511874289400408,0.06469616131597775,0.00453056552214548,0.0008285340858564336,10666.731381590947
1678311225210872553,302,1677825035723027944,camera_1,305,0,0.1231831242049263,-0.3212500543047052,2.640371504634118,0.7039083579192285,0.7060856177071405,0.03587205713792321,0.06833242008940331,0.0028343070880509913,0.000518252901191601,10667.461852222683
1678311225219272215,303,1677825035730298519,camera_1,306,0,0.12328551131300262,-0.32146277466316536,2.642018947672971,0.7038645879733433,0.7064926162839815,0.03588873340216361,0.06445792230687326,0.003139260516036302,0.0005742012747815316,10663.941215224912
1678311225225003476,304,1677825035736937999,camera_1,307,0,0.12318323694763107,-0.3213034854017284,2.6406080090998083,0.7038956875992707,0.7061948446685392,0.03566171259499043,0.06743845043830826,0.0031446065986528993,0.0005749857546595052,10668.127798734702
1678311225231383137,305,1677825035743620872,camera_1,308,0,0.12336186015811995,-0.32163375279269335,2.643638741557377,0.7040609419555641,0.7065989494999699,0.03213866657913449,0.06311276169443027,0.003411709680221975,0.0006245928898934906,10658.692763303872
1678311225238401701,306,1677825035750428915,camera_1,309,0,0.12312699304968065,-0.3212629948296852,2.6408776532416045,0.7039202668142686,0.7062397328400106,0.03499635873312321,0.06705932151179203,0.006352858152240515,0.0011617938060690912,10667.857683152195
1678311225245357408,307,1677825035757591724,camera_1,310,0,0.12327145270768766,-0.3215659150742545,2.643200550060964,0.7041574015885922,0.7062805895553274,0.03497620898901709,0.064083909135897,0.004738321586046368,0.0008673566612175944,10656.545753826385
1678311225251105920,308,1677825035763080120,camera_1,311,0,0.12318847419907601,-0.321414518652939,2.6419794184222067,0.7041216880470309,0.7061434235191524,0.03557860101279145,0.065637466377241,0.006092845113016665,0.001114644060982283,10661.805547222375
1678311225257450521,309,1677825035769843101,camera_1,312,0,0.12325661049250167,-0.3214308744745254,2.6418327356532623,0.7040211127228965,0.7064051577947557,0.03397581351291515,0.06474310756765463,0.0015950686647556722,0.00029174025870678995,10667.141692884614
1678311225265341185,310,1677825035777068376,camera_1,313,0,0.12318594180760811,-0.3212374630418624,2.640110235048343,0.703663336953829,0.7062565416458806,0.03595518637258767,0.06904223477202365,0.008078463026322424,0.0014772099035100226,10667.58722480899
1678311225271367522,311,1677825035783717870,camera_1,314,0,0.1232850228069376,-0.3215160878030259,2.6421914464286704,0.7039225512174945,0.7062503454299466,0.036945333268983506,0.06586754752667684,0.002410203276667744,0.000441081264785367,10657.653991756382
1678311225278025988,312,1677825035790408372,camera_1,315,0,0.1232684728353302,-0.32148912275431785,2.6425123235457297,0.7041578427422789,0.706180111761637,0.03478501741865755,0.06527928323783803,0.001433424069546163,0.00026234295952914016,10659.378331693359
1678311225284990564,313,1677825035797030210,camera_1,316,0,0.12319681487725918,-0.321409438209145,2.6416879440106853,0.704040169834,0.7061376670654103,0.03419819505346128,0.06728683278783135,0.0005065718432888389,9.270184479896392e-05,10661.668353686575
1678311225291833828,314,1677825035803778648,camera_1,317,0,0.1231834773319346,-0.3213497624208964,2.6414584540383284,0.7040571723358926,0.706195631199071,0.03421726473548282,0.06648614405840318,0.008530514198355377,0.0015603467133295734,10665.569711825457
1678311225298370771,315,1677825035810540437,camera_1,318,0,0.12319402597775284,-0.32142582444598,2.642044820244654,0.7039436251808595,0.7062327325282878,0.03439367847997606,0.0671995160211259,0.00202710967278108,0.0003710457896021839,10658.811769501188
1678311225304992919,316,1677825035817027568,camera_1,319,0,0.12322649936417017,-0.32144083475199425,2.6421873840661996,0.7040530343383538,0.7062704079883416,0.034903390150916355,0.06536963358403856,0.0027794393245130777,0.0005085476122666674,10661.638028204441
1678311225311368111,317,1677825035823714494,camera_1,320,0,0.12318351024692391,-0.3212712357643085,2.6408211225199483,0.7039008600636136,0.706160286440475,0.03489587784861092,0.06814328114484958,0.003019448195118457,0.0005522722559980727,10665.605147857215
1678311225318421385,318,1677825035830425262,camera_1,321,0,0.12333853738146082,-0.32155516365181236,2.6429929060933084,0.7041568946128847,0.7062701133138211,0.03114669856509344,0.06614739584682494,0.0025986432447098196,0.000475845995674855,10657.552343290536
1678311225323704618,319,1677825035836252689,camera_1,322,0,0.12322372043831716,-0.32130755285626034,2.6408528492535654,0.7038966115511454,0.7063110891596224,0.03533178152307293,0.06637673381065015,0.005652749561704695,0.0010334663367820424,10669.29752234137
1678311225331984643,320,1677825035843706846,camera_1,323,0,0.12320783773432889,-0.32130561716880107,2.6410347363081943,0.703892113096183,0.7063033097534226,0.03514580550867641,0.06660555613083123,0.003769758273847401,0.0006893742338230374,10667.514220969984
1678311225338176923,321,1677825035850383758,camera_1,324,0,0.12323602391806834,-0.32144731719782993,2.6422297441195925,0.7040169811682132,0.70634838710466,0.035914259932313015,0.06436002015968835,0.002199928800109774,0.0004024420623706144,10662.49631134095
1678311225345300596,322,1677825035857123613,camera_1,325,0,0.12320205828076823,-0.3214113961656671,2.641789112111624,0.7039520743998763,0.7060800606275878,0.0343229331229274,0.06873398863802631,0.002169861865695566,0.00039723766555829906,10656.955426966078
1678311225350364251,323,1677825035862987279,camera_1,326,0,0.12311369760299987,-0.32117249730046094,2.6399794636161924,0.7038628913178578,0.7061740509345796,0.033397671039027556,0.06913635499127944,0.00544093589996919,0.0009947579318948636,10671.614358330262
1678311225357874283,324,1677825035869719266,camera_1,327,0,0.12321529356053734,-0.3213995915995845,2.6416593537442634,0.704047274084754,0.7060909008753127,0.03341845154308223,0.06809025371798359,0.0036842210683971643,0.0006742906258288498,10660.763211770802
1678311225365037556,325,1677825035877058506,camera_1,328,0,0.123212032120611,-0.3213974086888292,2.6417649035085535,0.7040757322017708,0.7061576171807574,0.034589009462067964,0.06650100335008685,0.0020973573555238545,0.00038375112595881667,10662.589819129204
1678311225374499005,326,1677825035883660554,camera_1,329,0,0.12327759221830985,-0.32147255573213024,2.6420723252532996,0.7039915351940442,0.7061047608829494,0.03569203300765425,0.06736515281171923,0.002026029513217509,0.0003708710513552314,10656.47812079615
1678311225377773902,327,1677825035890463590,camera_1,330,0,0.12328529340393019,-0.3214784143880589,2.641961436988378,0.7039611036266592,0.7062352260640142,0.03552005439188498,0.06639951643682472,0.004121195001062006,0.0007541134561476347,10660.030709577492
1678311225384987251,328,1677825035897118568,camera_1,331,0,0.12321469870284424,-0.3212858087807823,2.640651811248888,0.7038847464709411,0.7061347164015904,0.03467833619724203,0.06868361505173932,0.0026008555432781577,0.0004757196540351017,10665.785505997019
1678311225391476492,329,1677825035903688669,camera_1,332,0,0.12326975753118377,-0.3214647143884049,2.642030524228067,0.7040150401439994,0.7062880894713187,0.03411527499987081,0.0660008025230058,0.002914940705522895,0.0005333671950901183,10662.247019135393
1678311225397414272,330,1677825035909736394,camera_1,333,0,0.12311223249296147,-0.3211990265399774,2.6402313883595743,0.7038460870182937,0.7060830745359681,0.03506579556537098,0.06941014064413885,0.007141495065297931,0.001306021188167038,10666.831142752666
1678311225404577895,331,1677825035916993856,camera_1,334,0,0.12327969154098578,-0.3216330851752585,2.643862013628334,0.7044089298319637,0.7062530702561778,0.02964333549827906,0.0643112197617681,0.002699580159969628,0.0004944593384676144,10656.734640786422
1678311225413481387,332,1677825035923710823,camera_1,335,0,0.12310129591127213,-0.3212496396010735,2.6407629112088413,0.7037494769044855,0.7062177526460284,0.03593360382696725,0.06857066224168049,0.0060879873926751316,0.0011135956630039473,10663.680044727756
1678311225417749068,333,1677825035930354833,camera_1,336,0,0.12318917725210193,-0.32135226533879313,2.6412763257990597,0.7039336462300967,0.7060514000426517,0.03644449799204287,0.06812224870863079,0.004788146063219756,0.0008760834226997826,10659.992626158404
1678311225424025505,334,1677825035936368942,camera_1,337,0,0.1232222205945626,-0.32137929248048586,2.641278623118869,0.7038857726985377,0.7062985165073585,0.036155773732495525,0.06618145206847519,0.0032554548233747482,0.0005953530367213049,10665.284731708005
1678311225431792830,335,1677825035943660020,camera_1,338,0,0.12336325938653556,-0.32158255591146684,2.6428287652973257,0.7041332953006461,0.7063649355322521,0.03322822089814114,0.06434878115018958,0.002144676516763866,0.000392524782120942,10660.930973941813
1678311225439399102,336,1677825035950426340,camera_1,339,0,0.12323120365239078,-0.32134195632770546,2.6410321535281676,0.7038133439085158,0.706312400377436,0.03594567500985379,0.06691396309787452,0.004671995411626995,0.0008544279996771228,10665.693569881843
1678311225444474001,337,1677825035957033634,camera_1,340,0,0.12326282004181977,-0.3214712838729003,2.6421813184143605,0.7038795374945476,0.706200033210752,0.03642550608122816,0.06714381800524293,0.0029533259803429246,0.0005405897373118344,10655.23193576443
1678311225450812806,338,1677825035963065385,camera_1,341,0,0.12313430661216969,-0.3213288390800712,2.6412660083740174,0.7039387054703043,0.7063438160811387,0.032899999272497815,0.06683040081127918,0.005323927383869886,0.0009738345578988617,10667.824903768138
1678311225457808252,339,1677825035970426082,camera_1,342,0,0.1231080547928652,-0.3212645905531407,2.6405361924266897,0.7038838257392005,0.7062487499937868,0.03374954827845428,0.06797963655360897,0.003570692031644285,0.0006529409368762182,10669.725255998086
1678311225465608961,340,1677825035977079868,camera_1,343,0,0.12317219625481311,-0.32134647539518724,2.6412758323698533,0.7039281257425454,0.7063002587268121,0.03277828090726465,0.0674590439584634,0.004639990453142673,0.0008488563187908259,10666.25171914208
1678311225471302229,341,1677825035983690738,camera_1,344,0,0.12325207093745853,-0.3214736465848441,2.642444262077713,0.7040368758059805,0.7064334401772956,0.032922760469369365,0.06480712883396615,0.006283735565375536,0.001149879119779819,10663.346655129219
1678311225478124959,342,1677825035990382909,camera_1,345,0,0.12330003180120885,-0.3214405785455804,2.641926110593037,0.7039260717881268,0.7063398161230933,0.03440030686593061,0.06624778112255005,0.004602078755851835,0.0008420385967028389,10662.121808569878
1678311225485884462,343,1677825035996399402,camera_1,346,0,0.12327574395097647,-0.32145786470592164,2.6420742432055437,0.7040799114147518,0.7062130816250818,0.03420487712794578,0.06606502905821672,0.006265645322855562,0.001146557522038073,10661.639876999776
1678311225490855229,344,1677825036003070354,camera_1,347,0,0.12324784160550532,-0.3213741978695446,2.641379857619158,0.7038618990397904,0.7062131234766668,0.035325942632556465,0.06777557883597668,0.0035096349893137813,0.0006421505385901928,10661.476391233155
1678311225498077587,345,1677825036010373115,camera_1,348,0,0.1231828824339176,-0.32134081257427993,2.641472140744621,0.70400035825452,0.7062806785875869,0.0330606034118448,0.06676896834166204,0.005435879167634994,0.0009944069196702592,10666.13044107263
1678311225505385710,346,1677825036017042875,camera_1,349,0,0.12322565569263785,-0.32149561138244015,2.6425848122798836,0.7039790001779835,0.7064352220000295,0.03248862389669257,0.06563028069020338,0.008903518319129944,0.0016294916033478782,10660.674620400534
1678311225511771587,347,1677825036023743391,camera_1,350,0,0.12315994983664232,-0.32141749539987474,2.641962278160582,0.7040218370744603,0.7063115134178926,0.033868786908617,0.06580428716251717,0.002326337504200637,0.0004256338699900434,10663.649579282857
1678311225518379697,348,1677825036030383825,camera_1,351,0,0.12321596980543503,-0.321380993720252,2.6414349831747765,0.7038704140320271,0.7062940981838627,0.035542257558273435,0.06672207317438829,0.004558303742669523,0.0008338279920389283,10663.468583709559
1678311225525775750,349,1677825036036308288,camera_1,352,0,0.12323609952437013,-0.3213388831580517,2.64098960655875,0.7038368430862274,0.7063918546425517,0.033850298487578326,0.06692087343550784,0.0031572608277201653,0.0005773821519124622,10668.625734774629
1678311225531544515,350,1677825036043712615,camera_1,353,0,0.12323401817985306,-0.32129098854030624,2.64043517902378,0.7040782712330202,0.7060084770817909,0.035818565322341504,0.06740065759635423,0.003349372942466289,0.000612317669318804,10669.3904125765
1678311225537471679,351,1677825036050321340,camera_1,354,0,0.12326830444905144,-0.32147888672666963,2.642390126958211,0.7042472208325462,0.7062382301604793,0.03155181049184566,0.06532914712527202,0.0034092303249053657,0.0006238814357498177,10664.023412222276
1678311225544162690,352,1677825036056557416,camera_1,355,0,0.12325293986342814,-0.32148401807387794,2.64225548870485,0.7038361240439133,0.7062931715945522,0.03704583833617139,0.06627421905778942,0.0029862691299058497,0.0005465484068961264,10656.024165566314
1678311225551223158,353,1677825036063668251,camera_1,356,0,0.12317372020159882,-0.32133274060813094,2.6412030915450933,0.7039402927985638,0.7062290975300969,0.03315944263292132,0.06788944940689405,0.004780547285918146,0.0008745865564964737,10665.283644591109
1678311225558855481,354,1677825036070393562,camera_1,357,0,0.12316027483348835,-0.32129613037458804,2.6409007273705147,0.7039023485671351,0.7061265114734961,0.03465415836998558,0.06859972874297598,0.0015849251649342477,0.0002899520509293373,10664.064495115072
1678311225564569282,355,1677825036076998233,camera_1,358,0,0.12318680348348596,-0.32136063943474513,2.6413797956316096,0.7040282461460442,0.7061827480343433,0.034665091656254594,0.06669697465141726,0.0028963233926333487,0.0005297927048138465,10665.095251957424
1678311225571404165,356,1677825036083642482,camera_1,359,0,0.12324571302567308,-0.32143181514338,2.6417372922434392,0.7038600119142464,0.7061405918211452,0.03554468895149333,0.06843334931085415,0.005372326530050486,0.0009833770278487722,10656.602788484312
1678311225577004894,357,1677825036089705228,camera_1,360,0,0.12329739474852676,-0.3214880467857383,2.642236571750908,0.704185815507113,0.706101748664804,0.033906134574788055,0.06627995028124747,0.0036067666951566935,0.0006601130795051965,10660.135514691934
1678311225586554133,358,1677825036096935272,camera_1,361,0,0.12321253294143447,-0.3213717241719406,2.641304733411205,0.7038898441662935,0.7063436681282947,0.03346864720695109,0.06706384591382454,0.004490796942263842,0.0008215051112111182,10666.194501673688
1678311225590911000,359,1677825036103609561,camera_1,362,0,0.12321388322046083,-0.3213155161427624,2.641153909986321,0.7038075642631835,0.706249081469347,0.033395151986823,0.06893410791042237,0.0045493695652112365,0.0008324772881167254,10662.669552961828
1678311225598325281,360,1677825036110304355,camera_1,363,0,0.12309187414257201,-0.32114643364628426,2.6399155936468874,0.7037879699234595,0.7060078648737677,0.03613956430082083,0.07020911635639948,0.0025685623404569924,0.0004697618714804417,10665.880452428712
1678311225604937232,361,1677825036116938829,camera_1,364,0,0.12324078146742509,-0.32154562471495524,2.6428886732516514,0.7040593741118049,0.7064442170786093,0.03317713119353497,0.06431363655750995,0.0038647495093755424,0.0007072913356327124,10660.657631470824
1678311225611958869,362,1677825036123649120,camera_1,365,0,0.12320615008659903,-0.32142458242443905,2.641956078792194,0.7040224010661037,0.7062439924461126,0.03491241079783856,0.0659773105179096,0.002877959341276437,0.0005265732054682041,10661.968730902998
1678311225618012863,363,1677825036130313634,camera_1,366,0,0.1231984637163916,-0.32144967648080996,2.641959702525534,0.7039538406778851,0.706203955960799,0.035683299252047926,0.06672079836648909,0.002473518194165081,0.00045266630228960134,10659.069598164991
1678311225625212663,364,1677825036136999368,camera_1,367,0,0.1232074356277649,-0.32134599760187377,2.641217892347739,0.7038279330424052,0.7061826029365414,0.03609327762850538,0.06804151151362023,0.004785682423971593,0.0008756235667496807,10661.129265376136
1678311225631670267,365,1677825036143615245,camera_1,368,0,0.12330492142704436,-0.3215302424373643,2.6424966128922254,0.7040367802106603,0.7062015733170198,0.036969438876479556,0.06515221058667639,0.0026843667728826404,0.0004912425419982472,10656.95729327749
1678311225638214613,366,1677825036150329351,camera_1,369,0,0.12322808428313224,-0.3213467474291503,2.641104991465812,0.704017727003775,0.7061232518579033,0.03559543506296413,0.06694742902260534,0.005097661749459803,0.0009322705066598815,10665.47037166206
1678311225644935027,367,1677825036156934738,camera_1,370,0,0.12326637596645508,-0.32150100528065334,2.6424249519831817,0.7039331901529878,0.7061359209311665,0.034865062644310045,0.06807754680171368,0.007039011805318296,0.0012890111489022367,10652.867886021968
1678311225650865753,368,1677825036163053274,camera_1,371,0,0.12321925910384147,-0.3214105985760245,2.6419591048587483,0.7040625688395027,0.7062489940799329,0.0324597104589235,0.06674297503952238,0.0022627723519690335,0.00041411228148572005,10662.952075422741
1678311225657992220,369,1677825036170283317,camera_1,372,0,0.12325671562476298,-0.32159857588750634,2.6434190062939074,0.7040805406018028,0.7063716774100316,0.0329013285421882,0.06501652312274801,0.0029332751873880625,0.0005371383372804093,10655.002921185926
1678311225667595375,370,1677825036176940202,camera_1,373,0,0.12314832166300983,-0.3212707458415655,2.6408854597005695,0.7038656952271394,0.7061968852078235,0.03440660095091955,0.068375640517571,0.0009880626457743347,0.00018075253712458754,10665.103834540116
1678311225671838333,371,1677825036183572769,camera_1,374,0,0.12325068380944408,-0.32148481629536385,2.6423604810762304,0.703873006377308,0.7062873395994528,0.0338378031038838,0.06764604863552894,0.0036039474653080106,0.0006598801772209552,10655.768485673478
1678311225678329041,372,1677825036190279006,camera_1,375,0,0.12323706032671436,-0.3214213916654492,2.641709685400743,0.7039835851452995,0.706199821036923,0.03301523078088794,0.06781533123028713,0.0028441062895581126,0.0005205208914895738,10661.525287765304
1678311225684585155,373,1677825036196892023,camera_1,376,0,0.12327153371394736,-0.32142744496566866,2.6415395165113322,0.703852363110045,0.7063402710709704,0.03400690413370036,0.06722204161608603,0.002868866315111518,0.0005249010067123245,10663.211723060349
1678311225691581858,374,1677825036203581333,camera_1,377,0,0.12324688781005504,-0.32133763761271006,2.640966446748239,0.7038528771171774,0.7062101987669469,0.03710792826018154,0.06694239457666643,0.002770623308606446,0.0005067011856285258,10664.610564217897
1678311225698976094,375,1677825036210235118,camera_1,378,0,0.12330121355757552,-0.32154370544163396,2.6426931221106207,0.7040274109224949,0.7064582876573322,0.03328403909605107,0.06445358959353045,0.004089945869054645,0.0007484661350004746,10661.737166488778
1678311225705488872,376,1677825036217001914,camera_1,379,0,0.12324353181679341,-0.32149063699047853,2.6425924234957434,0.7040486024355401,0.7063305296184246,0.03230939737228401,0.06609728571551611,0.00515200209338218,0.0009431466476472292,10659.654525215272
1678311225711482385,377,1677825036223650932,camera_1,380,0,0.12314144957583134,-0.32133141163822126,2.6415089398564144,0.7039162723852784,0.706162441618303,0.03458036826583328,0.06812257811835279,0.005275007744785398,0.0009652884053988533,10660.548985363448
1678311225717221608,378,1677825036229637384,camera_1,381,0,0.12310963084062439,-0.3212960627468279,2.6409241911226555,0.7038713188306168,0.7062615626052398,0.03258747445129422,0.06854070486170492,0.003763810673262924,0.0006885554415139182,10666.516000279691
1678311225724279980,379,1677825036236335039,camera_1,382,0,0.12314903768505689,-0.3212135212155296,2.6402799085368054,0.7038886675007956,0.706056521494493,0.03522353715927377,0.06916816210540959,0.0031787937623448674,0.0005813410971716891,10666.863508815295
1678311225731930183,380,1677825036243624925,camera_1,383,0,0.1233827263192198,-0.32164424359078125,2.6435323280874954,0.7040856274615795,0.7064707991578479,0.033594285740114256,0.06351270034345118,0.005519698082935065,0.0010104572500520216,10656.878179783465
1678311225739257232,381,1677825036250280618,camera_1,384,0,0.12328225548255281,-0.32138502926663715,2.641089917577659,0.7038765410692854,0.7061503317983524,0.03698571264081764,0.06739125235419258,0.0022046976955607533,0.0004032654905860009,10662.588228484616
1678311225744879751,382,1677825036256946086,camera_1,385,0,0.12329059638314387,-0.3215177932983325,2.6422641246178764,0.7041314794952815,0.7063048894102025,0.03534610550039553,0.06389769639808986,0.0014722816413268447,0.00026934362405485625,10664.000977011867
1678311225751345387,383,1677825036263598918,camera_1,386,0,0.12318482972208351,-0.3212717603396501,2.6406577180550017,0.7037419709522567,0.7062501049039848,0.03654677936629042,0.06798794423495677,0.0035408168914727867,0.0006475867162971469,10665.194217083625
1678311225758259050,384,1677825036270290851,camera_1,387,0,0.12321674158880767,-0.3214740247021657,2.6424324687142438,0.7040136421101009,0.7062500692501503,0.034404336382277655,0.0662719627378262,0.0025325868045911193,0.0004636113499524212,10658.032572989578
1678311225763545496,385,1677825036276323795,camera_1,388,0,0.12313967663091768,-0.32145005539602634,2.6422464998134143,0.7041158989610298,0.7060825820329049,0.034715177491179035,0.06680602242165756,0.0012639646884053946,0.00023136294651375616,10657.807330790904
1678311225771421493,386,1677825036283295154,camera_1,389,0,0.1231657724842307,-0.32145800860676077,2.642237447389481,0.703770392981686,0.7062781678361255,0.034793337053416536,0.06832135315650703,0.0035443113301880658,0.0006490390928052716,10653.875057433032
1678311225778926636,387,1677825036290279865,camera_1,390,0,0.12319580040830043,-0.321396025078547,2.6418427219261873,0.7038188120158645,0.7063985833230658,0.035165814014793406,0.06635877377121908,0.0029289535013958816,0.0005359201342106855,10661.621703129615
1678311225784145477,388,1677825036296329975,camera_1,391,0,0.12325193265407497,-0.32140513973836066,2.641388761253276,0.7038681579621734,0.7062907255163284,0.03400543021139193,0.06757705211603872,0.005558551580179483,0.001016998264511904,10663.526640077233
1678311225791031622,389,1677825036303261756,camera_1,392,0,0.12330936786397605,-0.3214186784156176,2.6416173204225584,0.7040638528121461,0.7062180907441223,0.034014859752600525,0.06628038009135308,0.004517077759373933,0.0008263237088231413,10664.977644049093
1678311225798611076,390,1677825036310288190,camera_1,393,0,0.12325497903339441,-0.3213744992171432,2.6413921416940163,0.7041199762006612,0.7061928115389752,0.033118687535736345,0.06640726301970477,0.003105084877461195,0.0005679615271865688,10667.564327907754
1678311225804044746,391,1677825036316930294,camera_1,394,0,0.1232608778843457,-0.32157176363985596,2.6430130285500844,0.7041071378127834,0.7063234476197078,0.03430032921418316,0.06452761609961151,0.0036402467521838844,0.0006663228438449454,10657.782516402309
1678311225811909359,392,1677825036323622941,camera_1,395,0,0.12318265585817517,-0.32137717451428416,2.641615510093935,0.7038612717797323,0.7062432135404959,0.034589959993914864,0.06784812513423541,0.0036461014533415437,0.000667213967372315,10660.348555317267
1678311225819301989,393,1677825036330287933,camera_1,396,0,0.1231778989055508,-0.3214342815663878,2.642173238058638,0.703983036682888,0.7063604725005963,0.034494951877493886,0.0653671572461552,0.005269378190860152,0.0009641887365850759,10662.288791630297
1678311225823709561,394,1677825036336394548,camera_1,397,0,0.12314563618392466,-0.32129040114541807,2.641010155750237,0.7039370312311918,0.7061586316491871,0.034118693956798285,0.06818033243866006,0.007069380430039018,0.001293279483235355,10664.964814724164
1678311225830825203,395,1677825036343592405,camera_1,398,0,0.12329570854778948,-0.32158501622172514,2.643189451992907,0.7041327477487912,0.7062312447007498,0.03293465232409533,0.0659530987327964,0.003981919144280255,0.0007291922285524631,10654.459225792896
1678311225838406472,396,1677825036350285530,camera_1,399,0,0.1232063784140051,-0.32131393148029497,2.6407884074118444,0.7040372007763661,0.7061344551928986,0.03587197619107409,0.0664752016661442,0.004644748813007027,0.0008491991538055617,10668.869881671384
1678311225844253390,397,1677825036356914520,camera_1,400,0,0.12333558105494298,-0.32150463106647575,2.642384055202445,0.7039460420846501,0.7064397787674237,0.032836932637086445,0.06576127023847093,0.002391378744505346,0.0004376855763525854,10661.507269114372
1678311225850455865,398,1677825036362918615,camera_1,401,0,0.12322204048525742,-0.3213337047284511,2.6410900094852123,0.7039827102324339,0.7062262474855343,0.033303477180690794,0.0674070431332889,0.004519403271842748,0.0008267270209420792,10667.247678186868
1678311225857754141,399,1677825036370300769,camera_1,402,0,0.123264569362867,-0.32143307321313047,2.641797663759146,0.7039267643678401,0.7062192792661406,0.03453726274771109,0.06744343912740346,0.00461642345180735,0.000844813729258155,10659.942768985402
1678311225864995356,400,1677825036376973628,camera_1,403,0,0.12319631279223653,-0.321365355070044,2.6415433269535455,0.7038581500643192,0.7063018915475348,0.034426043133271564,0.06735124452150107,0.004249475779943168,0.0007775540551801444,10662.418578468028
1678311225870971688,401,1677825036383608818,camera_1,404,0,0.12320129780303281,-0.32146910463734674,2.642297004975692,0.7039457081864382,0.7062201560579702,0.03504821168489636,0.06697129206638495,0.00392424565507099,0.0007183794712317625,10656.54503585491
1678311225878650804,402,1677825036390296220,camera_1,405,0,0.12314267256529224,-0.3212899198672586,2.64095251381251,0.7038760791270765,0.7062114929406594,0.03557701201519489,0.06751347041361,0.002060541941318661,0.000376880195994933,10665.329034040918
1678311225885265270,403,1677825036396291017,camera_1,406,0,0.12317446378363578,-0.32135516256152896,2.6417181006237302,0.7040600352445393,0.7063605969106594,0.033340996020773395,0.06513487458971338,0.005675611726474017,0.0010380538499979708,10667.935532319127
1678311225891348528,404,1677825036403615474,camera_1,407,0,0.12316726220785901,-0.321364537350613,2.6411798643747795,0.703804421198994,0.7062124405162947,0.03648881463541151,0.0677635002584025,0.004302693239878863,0.0007871631322670182,10661.627593899148
1678311225896972374,405,1677825036409866094,camera_1,408,0,0.1232451701619178,-0.3214216379752478,2.641663851627523,0.7040368734026411,0.7060789498059324,0.034456443880716905,0.06780376837226729,0.0023162485449574888,0.00042390525405799033,10660.190916918455
1678311225903991077,406,1677825036416499376,camera_1,409,0,0.1233078522852306,-0.32147274954826,2.6421187789880856,0.703842211951636,0.7064235250781743,0.03534362059830488,0.06574779368281101,0.005368650134187191,0.000982319258320457,10660.644245778207
