%time,field.header.seq,field.header.stamp,field.header.frame_id,field.image_seq,field.transforms0.fiducial_id,field.transforms0.transform.translation.x,field.transforms0.transform.translation.y,field.transforms0.transform.translation.z,field.transforms0.transform.rotation.x,field.transforms0.transform.rotation.y,field.transforms0.transform.rotation.z,field.transforms0.transform.rotation.w,field.transforms0.image_error,field.transforms0.object_error,field.transforms0.fiducial_area
1677846774147244522,13,1677844361711115360,camera_1,14,0,0.11920991824855155,-0.35739557504968855,2.630907242078033,0.7034194489159875,0.7062412328007724,0.03711018184308756,0.07104389053498447,0.015352397691458462,0.0027991613724661145,10698.26804845408
1677846774153154657,14,1677844361717201232,camera_1,15,0,0.11921982800898051,-0.35743917875305353,2.6309714223731313,0.7034253930306541,0.7060640934983365,0.036337242420700536,0.07311509505773335,0.010823857854120433,0.0019745485211975613,10692.964288817479
1677846774158613318,15,1677844361723183631,camera_1,16,0,0.11913327851848711,-0.357320939619593,2.6303639854139758,0.7034737717090555,0.7060872073556942,0.039758886621506756,0.07060268451475961,0.012104817957151681,0.002205856078719186,10700.170171404025
1677846774166298256,16,1677844361729930639,camera_1,17,0,0.11919318188287281,-0.3574051286191179,2.6308702817347247,0.7035629730312282,0.7058906147586289,0.03996480500423316,0.07155695169665793,0.010344970331061631,0.0018861065763260433,10693.109135385603
1677846774172209883,17,1677844361736510515,camera_1,18,0,0.11920881287838482,-0.3574118496231521,2.630875016047135,0.7033098635773894,0.7061562822405038,0.03710319227228997,0.07295131232698468,0.01436464407015592,0.002620229914114433,10693.210800870555
1677846774180284228,18,1677844361744373559,camera_1,19,0,0.11911466338313137,-0.35719694167222693,2.6292318083073907,0.7032838699817057,0.7056768478887133,0.039415728709810416,0.0765400869327959,0.013534302881453186,0.0024680873819300187,10692.89103720337
1677846774185289974,19,1677844361750072479,camera_1,20,0,0.11928566478042335,-0.35754889260485173,2.631846839492098,0.7034415630175547,0.7062836784757734,0.03730753611949376,0.07029566620242524,0.01744316628901288,0.0031816827917697625,10692.378161034083
1677846774193086821,20,1677844361757093667,camera_1,21,0,0.1191787405202365,-0.3572956700923744,2.630135010441713,0.703571896769852,0.7060516488672155,0.03757650203884825,0.07117346206335448,0.006719479919411242,0.0012243524907485552,10703.53146342328
1677846774198642564,21,1677844361763093709,camera_1,22,0,0.11919380363654299,-0.35733021051297087,2.6305944919052435,0.7037111886460755,0.7061559760730239,0.03326579277432846,0.07090618775380572,0.013431523810140789,0.0024484353799302827,10706.07202270825
1677846774205562553,22,1677844361769672632,camera_1,23,0,0.11924148888812265,-0.3574846512877319,2.631437708944249,0.7034052182030772,0.7060421329589107,0.037440014118129444,0.07296472321846668,0.012924159062094986,0.002358497079340578,10688.152464800398
1677846774213020429,23,1677844361777567625,camera_1,24,0,0.11925428039067455,-0.357565710542394,2.631756710906231,0.7035128682794899,0.7060630158278111,0.03798968584802292,0.07142440489405501,0.004902265907730907,0.0008944481430596319,10689.058118827637
1677846774219150272,24,1677844361783168315,camera_1,25,0,0.11917201930969702,-0.3573447210442676,2.630555069494351,0.7035076513688283,0.706013123987102,0.03726207931452808,0.0723463244999075,0.009623144345823675,0.0017546505555141483,10697.317924017549
1677846774225319121,25,1677844361789881229,camera_1,26,0,0.11915119192539149,-0.3572676878999061,2.6299192354122396,0.7032434722131047,0.7061673176930189,0.03731584729967399,0.0733748305089049,0.01864003058290109,0.0033981786205918405,10699.505720902587
1677846774233483584,26,1677844361797217845,camera_1,27,0,0.1191887999844652,-0.35737095022517573,2.6306965873641053,0.7033440937833044,0.7060455864276126,0.03892170608450793,0.07274487213337999,0.013800344662740827,0.002516777574160501,10692.736335464746
1677846774238604625,27,1677844361803184747,camera_1,28,0,0.11927592083640313,-0.3574897254176982,2.631732268629367,0.7034120089180604,0.7060553161650535,0.03678326643496296,0.07310559168285134,0.014698026468977332,0.00268273732720447,10686.281145036224
1677846774246081935,28,1677844361809815883,camera_1,29,0,0.11920596589909391,-0.35745927040310743,2.631237307185111,0.7033645569164949,0.7060970883633411,0.03894712170721355,0.07203001866720887,0.014161499158944935,0.0025831504536114494,10690.299847250923
1677846774252440608,29,1677844361817159414,camera_1,30,0,0.11920043255775646,-0.3574294291895104,2.6312077342680475,0.7034664018592109,0.7061058784313207,0.03835428720220903,0.07126330439432771,0.011892983398865908,0.002168891570671351,10693.524772646608
1677846774260104105,30,1677844361824082136,camera_1,31,0,0.1191922626181412,-0.3573564772178792,2.6304493139431577,0.7034532096515906,0.7059734524536051,0.03624283933425849,0.07376667851139669,0.00865231204079464,0.0015780163609895254,10695.481523605642
1677846774266835584,31,1677844361830022096,camera_1,32,0,0.119256984858676,-0.3574583895923465,2.6311853817466626,0.7037259956270416,0.7060527964787129,0.0358805641656536,0.07051068556235088,0.009980814415030181,0.0018197687897841034,10699.046633028895
1677846774272980476,32,1677844361836978197,camera_1,33,0,0.11923175774710003,-0.35742469202978033,2.6310394449358685,0.7034371390605164,0.7061939869579527,0.03741100462503435,0.07118048122717824,0.01541941927280277,0.0028115000998976203,10696.3939626026
1677846774279642615,33,1677844361843964576,camera_1,34,0,0.11916926407595929,-0.357290967098087,2.6298964967553524,0.7032119778328237,0.7058809872368692,0.04126756153716687,0.0743097197863604,0.01281807286432013,0.002337177823771268,10691.267248457994
1677846774285157902,34,1677844361849842548,camera_1,35,0,0.11911162381564114,-0.3571565255685218,2.6290010968255317,0.7033249091536293,0.7057313259104198,0.03988668794777093,0.07540835442653071,0.00940013478975743,0.0017133140151745015,10697.426177939635
1677846774293178847,35,1677844361857319593,camera_1,36,0,0.11917821057704456,-0.3573123467865008,2.6303220063140014,0.7035328188782508,0.7059012290144018,0.039300146656062185,0.07211467333346075,0.009378664544783533,0.0017095334477193471,10696.997526945659
1677846774299552067,36,1677844361862999916,camera_1,37,0,0.11912234686600591,-0.35714074662207185,2.6291607290292927,0.7032405172519193,0.7059042617348115,0.03996276382821183,0.0745313737099637,0.022627390397246927,0.004123854671475303,10698.626353373167
1677846774305294698,37,1677844361869826078,camera_1,38,0,0.11921240085444253,-0.3573899203385601,2.630622395440661,0.7034393451214855,0.7060292861592685,0.038503259028558355,0.0722027275431406,0.01198271178873256,0.0021848127100379386,10695.410588375991
1677846774312340443,38,1677844361876803636,camera_1,39,0,0.11919024038341487,-0.3573536004604028,2.6303209436612036,0.70352696685803,0.7057472636602465,0.03768970193119914,0.07449894702579754,0.015673309622798115,0.0028587686011337554,10692.463212672621
1677846774319193447,39,1677844361883254528,camera_1,40,0,0.11917949692996457,-0.3573257503234619,2.6303482675021352,0.7035693225049222,0.7060386900325956,0.03649556792184394,0.07188636956394034,0.014489159802906215,0.0026409166602400372,10701.291491783344
1677846774326780994,40,1677844361890878677,camera_1,41,0,0.11918936824934448,-0.357369292227715,2.6306396784907164,0.7033074210808714,0.7061358044151413,0.038397156618351524,0.07250210713614501,0.014098923769779503,0.002570861937974971,10694.614701504122
1677846774333392087,41,1677844361897349596,camera_1,42,0,0.11917616368858577,-0.35740222975966246,2.63081508445301,0.7034505069967628,0.7060065769115358,0.03827956002770903,0.07243461084135192,0.007366105623077601,0.0013434146974349854,10693.535713011515
1677846774338514401,42,1677844361903193235,camera_1,43,0,0.11923780568360172,-0.3575115948854043,2.6318370669020354,0.7035909145658811,0.7061685203463364,0.036745727158726274,0.07025380664269813,0.010422859224490821,0.0019014412089651924,10693.371895653549
1677846774344987636,43,1677844361909960031,camera_1,44,0,0.11923148261966365,-0.35742179400859964,2.630805872566886,0.7034641050921301,0.7060857165619977,0.03743715740850192,0.07196994483275772,0.012225605780258775,0.002229318440515527,10696.038200554674
1677846774351908227,44,1677844361916459321,camera_1,45,0,0.11917234031629956,-0.35722944741174545,2.629568520589059,0.7032660773619577,0.7060452685358848,0.03574086926842654,0.07509656099950611,0.014611579186748713,0.0026641170040293156,10699.454139419833
1677846774358701571,45,1677844361923150300,camera_1,46,0,0.11920138303761633,-0.35737792118468753,2.630524522980737,0.7035523554178669,0.7060302347633122,0.035350884303071484,0.07270285940061015,0.018422496505081654,0.003359422775178589,10699.037743800902
1677846774367348074,46,1677844361930028915,camera_1,47,0,0.11909152024978534,-0.3571727851074925,2.6292527056423327,0.7033497177070802,0.7059602137031535,0.039271147883321346,0.07332890435220318,0.016514226561412215,0.003008804921900963,10702.31861883623
1677846774373185634,47,1677844361937239885,camera_1,48,0,0.11918455071741921,-0.35740240567790243,2.6309602367071867,0.7036309832659957,0.7059154724849601,0.03687859778529693,0.07229629395656431,0.008750997309107333,0.0015961136386622391,10694.683225941146
1677846774379434309,48,1677844361943388223,camera_1,49,0,0.11927174680228637,-0.3575796914883021,2.6323038854817074,0.7035159523906908,0.7062196737542937,0.03747744864911589,0.07010362313711853,0.005806701490655541,0.0010594510188237927,10688.989577365573
1677846774385093235,49,1677844361949874401,camera_1,50,0,0.11916857811894388,-0.35726322314044257,2.6296173353425654,0.7033065041434824,0.7062258023056611,0.036991611575443575,0.07236503340875633,0.011438908753916621,0.002084165053116047,10705.19050373347
1677846774392610790,50,1677844361957117080,camera_1,51,0,0.1191607738897831,-0.35724329436157426,2.629711247906914,0.7033164031739098,0.7061420228869421,0.03779629836405876,0.07266994130744087,0.01019158202689141,0.0018573013311595627,10702.513441067065
1677846774398767145,51,1677844361963241100,camera_1,52,0,0.11922458244915707,-0.3573392544627287,2.630278136813524,0.7036020295216481,0.7058602322057709,0.03885233560098802,0.07208337299115161,0.00696473935386166,0.0012695021362247067,10698.033482401515
1677846774405338774,52,1677844361969882965,camera_1,53,0,0.11924084471316118,-0.3574936043532287,2.6313491547015566,0.7034533289868649,0.7061834795830582,0.036895370904000406,0.07139354807766853,0.011589121364522725,0.0021138158811697615,10693.963110335982
1677846774413216383,53,1677844361977312564,camera_1,54,0,0.1192330623198371,-0.3574611499860291,2.631373441411583,0.703583853438284,0.7060763680710608,0.03712884372429005,0.07104486326408738,0.01060681592207402,0.0019345286346067337,10694.448063560874
1677846774418638986,54,1677844361983238220,camera_1,55,0,0.1191212306977421,-0.35724881389313595,2.6298931247971846,0.7032207357098541,0.7058707771848336,0.04001698454095362,0.07500455807762559,0.01533282402670011,0.0027961707988385883,10691.218215523983
1677846774425821457,55,1677844361990271329,camera_1,56,0,0.11915590107486144,-0.35731452546523956,2.6304924505376666,0.7032200110496236,0.7060858923424246,0.03917307767880763,0.07341524827676717,0.021561568428296596,0.003932001195239094,10692.176626335015
1677846774435327134,56,1677844361997281789,camera_1,57,0,0.11911634770365362,-0.35724728973068803,2.6295693358392067,0.7033644608671014,0.7058642401677265,0.040160437366838025,0.07362913086594453,0.010376088903285563,0.0018910555616464028,10697.547746530501
1677846774438242878,57,1677844362003179073,camera_1,58,0,0.11914399298998808,-0.35724010258434863,2.629485370912081,0.7033862883756873,0.7059290339228709,0.03765712833475255,0.07412063866007157,0.015184711432084441,0.002767686734058421,10700.387641309293
1677846774447339502,58,1677844362011493682,camera_1,59,0,0.11917154219749783,-0.3572754548590924,2.6297208724832113,0.7031876328107434,0.706010600556158,0.040539338442218346,0.07370717063504421,0.017545238020829856,0.0031980536446303406,10695.51667613234
1677846774453633873,59,1677844362017176389,camera_1,60,0,0.1191774570759328,-0.357247912319336,2.6296200760214052,0.7031337149187656,0.706109075986935,0.037907702736661504,0.0746723364214745,0.023052901844494045,0.004202906779468457,10697.366151500375
1677846774459879384,60,1677844362023876428,camera_1,61,0,0.11920734724684924,-0.35744019887263495,2.631238008231247,0.703834208227531,0.7058450850079777,0.03763786055323442,0.07059401356900465,0.009169353055767715,0.0016719980486682026,10696.090135376086
1677846774465683550,61,1677844362030201196,camera_1,62,0,0.11914848469882663,-0.35730311335214987,2.6302015217943087,0.7032606570564779,0.7060663266600619,0.037297766010312365,0.07418670530423818,0.01863481104373932,0.003398686586789125,10694.92337278079
1677846774472416111,62,1677844362036442041,camera_1,63,0,0.11913941981695175,-0.3572432469072715,2.6295785507086897,0.7033601080023971,0.7059094406348225,0.038432027683011745,0.07415793512268641,0.011168962169904262,0.0020359192396196156,10698.455394068269
1677846774480516314,63,1677844362044465780,camera_1,64,0,0.11918636419323445,-0.35730738977718385,2.629933611949892,0.7033482273828354,0.705997607174007,0.037534362922623285,0.07389060361096564,0.014204720559064299,0.0025897883546628967,10697.562653849716
1677846774486554157,64,1677844362050639152,camera_1,65,0,0.11925219225829302,-0.3574438571101857,2.630962572929694,0.7034045191560399,0.7060758809777472,0.0375516309059419,0.07258655349761735,0.018450845789629963,0.003365421040690993,10692.888088241798
1677846774491628030,65,1677844362056489944,camera_1,66,0,0.11911209705624497,-0.35708496741358825,2.628583296142427,0.7033632391047815,0.7057866757655528,0.037575308723821116,0.07571933941966287,0.01567678031278774,0.0028567074998555398,10703.207414265142
1677846774499942072,66,1677844362063879013,camera_1,67,0,0.11920961215126023,-0.3573706676478298,2.630509651804608,0.7036468789115173,0.7059359099282088,0.03384431979691586,0.07341745629887005,0.013292470946907997,0.002424178857540115,10699.0009995267
1677846774505903342,67,1677844362070457696,camera_1,68,0,0.11916461933057405,-0.35738695432837,2.630732453384921,0.703418171375428,0.7059570609037334,0.03912736153388159,0.07277742725878951,0.009890174260362983,0.0018037078961212604,10692.049437265958
1677846774513744291,68,1677844362077836036,camera_1,69,0,0.11913546928856111,-0.35730203615201944,2.630180679696058,0.7032228161265888,0.7061205030385772,0.036761519999473656,0.07429735335033895,0.012805966835003346,0.0023354240929054438,10695.489781765731
1677846774518566415,69,1677844362083228588,camera_1,70,0,0.11916878373534512,-0.35746346155902714,2.6313601568724243,0.7034153029135177,0.7062424362186867,0.03633030195802668,0.07147476527150713,0.018255657108966258,0.0033302476844667716,10694.459668855878
1677846774525836077,70,1677844362089714765,camera_1,71,0,0.11920557319398804,-0.3573964478491391,2.630883729517326,0.7035897229277569,0.7061724754149115,0.0352945297864507,0.07096642110161787,0.014630152960307896,0.002667537648402856,10701.044214447033
1677846774532112917,71,1677844362096777915,camera_1,72,0,0.11923730547044491,-0.35747937486040354,2.631253198309431,0.7036583117595708,0.7060612373779016,0.03599125517308768,0.07104321864275884,0.013137223257217556,0.0023958680642051167,10696.898710679616
1677846774540294392,72,1677844362103788852,camera_1,73,0,0.1192710528271883,-0.3574600376395342,2.631135966448059,0.7034967871115987,0.7060260643011678,0.036088738265614526,0.07291824203487902,0.010839894704986364,0.0019776484058915125,10692.500320080439
1677846774546166485,73,1677844362110673666,camera_1,74,0,0.11924994652314404,-0.35751597926655376,2.6316485169459076,0.7036728147264053,0.7060752075805798,0.03722584630424919,0.07011852410020962,0.014753441384527832,0.0026905902787362187,10694.586452741521
1677846774552390345,74,1677844362116654634,camera_1,75,0,0.119180645575424,-0.3573957027397427,2.6306754648988155,0.7032601014763135,0.7060813832359782,0.03991448490280688,0.07267147868343309,0.00791551941074431,0.0014434542730745073,10691.642002021194
1677846774559248521,75,1677844362123714923,camera_1,76,0,0.11920667375806769,-0.35741112363649874,2.6310798883989803,0.703490104514478,0.7061405356018939,0.035701185092581744,0.07205999037652187,0.010727882501669228,0.001956490384674707,10695.918407616091
1677846774566562115,76,1677844362130535364,camera_1,77,0,0.11916665639431309,-0.3574178821009501,2.6311075228788745,0.7034658487396319,0.7062227352511362,0.03737250828817516,0.0706296219420957,0.010485836130101234,0.001911875639988081,10697.432351736936
1677846774572003845,77,1677844362136536836,camera_1,78,0,0.11916702338062266,-0.3572136037296648,2.6293891141356975,0.7031643365493462,0.7060781374134242,0.038003854152717634,0.07462765399934763,0.01750811917008832,0.0031914196262044264,10699.237307587402
1677846774580065356,78,1677844362143758058,camera_1,79,0,0.11923685708796661,-0.357473142584246,2.6310685051928075,0.7032594534651723,0.7061761097338065,0.0411313956854153,0.07106089953036113,0.014372107514645904,0.002620483010774025,10691.075732096557
1677846774586533573,79,1677844362150435924,camera_1,80,0,0.11918163299387005,-0.3572791825341365,2.6299408216652367,0.7033680688561053,0.7061672602910712,0.03568116773404266,0.07299324952193062,0.019328299444168806,0.0035231072321233532,10702.554795703498
1677846774593032256,80,1677844362157047986,camera_1,81,0,0.11921611072682986,-0.3574651514807723,2.631460739296398,0.7035506407613232,0.7060592039603604,0.03764174082855219,0.07127408880224302,0.00655438395915553,0.0011955634070800068,10692.42270807049
1677846774599429460,81,1677844362164070129,camera_1,82,0,0.11907897212481773,-0.3570896227055278,2.6285630543076315,0.7032250064084824,0.7058396438476551,0.04030361585382659,0.07510396849642911,0.012891357473563403,0.002348658535207532,10701.275081074335
1677846774605842193,82,1677844362170029878,camera_1,83,0,0.11912424929262108,-0.3572237128218225,2.629463958026586,0.7033269085254197,0.705821578842392,0.038467080414032837,0.07528241699712755,0.012316829699557275,0.0022456670285593717,10696.081486134091
1677846774612821092,83,1677844362176862716,camera_1,84,0,0.11907791529362545,-0.35717354207598034,2.628833263353806,0.703084518438057,0.7058575414989976,0.04215622091112859,0.07523392904938968,0.018566666985861957,0.0033832773404603752,10695.82324267575
1677846774618755512,84,1677844362183118104,camera_1,85,0,0.11917491976480017,-0.35721699877747254,2.62957284974512,0.7031841878266152,0.7060946077505492,0.03909015185609459,0.07371813158300491,0.014566646714229135,0.0026549294372660145,10698.84970818751
1677846774626032548,85,1677844362190485477,camera_1,86,0,0.11924223040202105,-0.3574265261917609,2.6307172608524354,0.7032774274858544,0.7060749439383275,0.036563259788064156,0.0743112479039142,0.008944382483605295,0.0016318084222639163,10691.27505771758
1677846774633345433,86,1677844362196650981,camera_1,87,0,0.11915784033538511,-0.3572848914500148,2.6298907283582613,0.7033873577623596,0.7059421489725893,0.037287104351454055,0.07417263035063901,0.008557821274735034,0.0015603506874018395,10697.45804092905
1677846774639006090,87,1677844362203287601,camera_1,88,0,0.1192610340602426,-0.3575426176928105,2.6319821735227427,0.7033633375504312,0.7062766575839603,0.03753064148243116,0.07102639855620337,0.010948033072054386,0.001997443349060654,10689.01459489856
1677846774646193751,88,1677844362210380554,camera_1,89,0,0.11918307596419556,-0.3574491253057721,2.631353014319495,0.7035585468433448,0.7061148896769363,0.0361703963817633,0.07140613535120925,0.01568595098797232,0.0028610555556647585,10694.920663584024
1677846774652744140,89,1677844362217151403,camera_1,90,0,0.11920023814876762,-0.3573898583755091,2.631032491975384,0.7034493075976612,0.7060047680458095,0.037880497538448396,0.07267328975073048,0.012144522392190993,0.002215478699393967,10691.702862361097
1677846774659577789,90,1677844362223227977,camera_1,91,0,0.11919702487202298,-0.35736592099549425,2.630530145027254,0.7033322740207941,0.7061228218997445,0.037392800923851444,0.07291125531870465,0.02226605301257223,0.00406030818581138,10695.73264449276
1677846774666328783,91,1677844362229977607,camera_1,92,0,0.11924313295637808,-0.35742061152652566,2.630715645985183,0.7034991694037362,0.7060859941231457,0.03783978018918587,0.07141175384078188,0.005783897649962454,0.0010544605638062917,10697.741496335717
1677846774673175095,92,1677844362237064361,camera_1,93,0,0.11920031329327879,-0.3573160698186646,2.629999479713878,0.7035147970966007,0.7061480719486062,0.03724097463694924,0.070957315038583,0.01136110135121271,0.0020698282926662026,10705.64128814172
1677846774679525823,93,1677844362243768215,camera_1,94,0,0.1192830987622598,-0.35747731617570394,2.6311679288092913,0.70346813805319,0.7062456532845659,0.03457736906653481,0.07179179276959026,0.010124756372533739,0.0018464685574546918,10697.291091419056
1677846774686363709,94,1677844362250476598,camera_1,95,0,0.11907050233052612,-0.35715854159699284,2.6288379143694307,0.7032839907129275,0.70576759920177,0.040124881037455734,0.07532408808341907,0.007304461381863803,0.0013311282742085164,10698.627372937044
1677846774693481599,95,1677844362257110357,camera_1,96,0,0.11918386397789629,-0.35735724029730326,2.6306324280216016,0.703398111920733,0.7058594133565059,0.03828514611330123,0.07434939347056052,0.016112912562675774,0.0029393546839372366,10689.587030366532
1677846774699347911,96,1677844362263125419,camera_1,97,0,0.11912772819691936,-0.3572627723724702,2.6298527728213474,0.7033645815813534,0.7058583692096463,0.03783641691737893,0.07490416242399849,0.018424982554279268,0.003359894764842973,10694.93057465052
1677846774705342093,97,1677844362269769668,camera_1,98,0,0.1191237774962521,-0.3572519564312865,2.6298106579992098,0.7033082062606113,0.7061162491638423,0.037819004844894935,0.07298720809710466,0.010354610159993172,0.0018872617707932798,10700.795851442377
1677846774713143017,98,1677844362277140378,camera_1,99,0,0.11912900587184995,-0.3571827071559908,2.629360456726252,0.7031623385402791,0.7059533403071034,0.03913518944883357,0.07523990905505658,0.020081130671314895,0.0036611390628726133,10696.131132968585
1677846774719313078,99,1677844362283288478,camera_1,100,0,0.1192352081723618,-0.357426159388789,2.6310606147200724,0.7032612564133719,0.7061278476245113,0.037946734919609676,0.07326058521470748,0.01776241388870403,0.0032407943567899504,10689.6875835025
1677846774725871371,100,1677844362289752244,camera_1,101,0,0.11923972439323176,-0.3574347191672583,2.6310668681487264,0.7034600129198373,0.7061126643088645,0.036111527882296636,0.07242149597644,0.01804014015942812,0.0032907896493008246,10694.458887683926
1677846774732887983,101,1677844362297201395,camera_1,102,0,0.1192980437646358,-0.35761748990302117,2.6325531306387195,0.7036748254730703,0.7060910289706732,0.03671112214018071,0.07021034335330506,0.006343290500808507,0.0011576208717580926,10687.70532217529
1677846774739885817,102,1677844362303800106,camera_1,103,0,0.11917532480862894,-0.35732058351455215,2.6302917018586554,0.7033744120642403,0.7061152825441986,0.03807215370846976,0.07222295564991471,0.008406050561461598,0.001532427609672712,10698.672359041406
1677846774745995625,103,1677844362310434341,camera_1,104,0,0.11923618447591776,-0.35738677893274323,2.630847428310327,0.7034791023590915,0.7061793409175328,0.03652864959210043,0.07136910230837525,0.010646302136592565,0.0019411105771149249,10698.624557808509
1677846774753294622,104,1677844362317041397,camera_1,105,0,0.11917974055490445,-0.3572842555403702,2.6297808222756167,0.7033374021690422,0.7060763050427425,0.03575571152583589,0.07412340561909075,0.012276481196749955,0.002238172841268772,10700.502105281692
1677846774759336623,105,1677844362323730230,camera_1,106,0,0.11915401188287651,-0.35725252420709325,2.6296860534742135,0.7033858798842014,0.7059767044647648,0.037266973499661314,0.07386724185167289,0.012524951889645308,0.0022832028339399408,10700.032618431955
1677846774766732712,106,1677844362330507040,camera_1,107,0,0.11919709377203035,-0.3574220097574094,2.630914060428978,0.7034777411092412,0.7060609715439465,0.038480087085556426,0.07152800237771058,0.01347495469963178,0.002457208510734918,10694.968020967906
1677846774772105272,107,1677844362336613893,camera_1,108,0,0.11916105546548546,-0.35731428990069486,2.6303496475831536,0.7033001367183107,0.7059277005206914,0.039765507587126575,0.07384919590566118,0.014658168249297887,0.0026733600650919614,10691.211910712067
1677846774779244261,108,1677844362343042612,camera_1,109,0,0.11918012571146651,-0.3573190461440874,2.6302893397826543,0.7035176107091182,0.7062106782741827,0.03495435369524664,0.0714677722571512,0.019190266262739897,0.0034973252150739573,10704.918652017946
1677846774785564961,109,1677844362350357770,camera_1,110,0,0.11923534870585573,-0.3574302831868496,2.6310161840656754,0.7035876801472197,0.7060828377206778,0.033905318097819874,0.07253848651615558,0.006485416670329869,0.0011829017785743732,10697.300163196634
1677846774795363917,110,1677844362357106924,camera_1,111,0,0.1193094060197269,-0.3576064319045611,2.632591132590354,0.7037778670256676,0.7062025852723346,0.033150251831935505,0.06982609285182863,0.006376770150382072,0.0011637618174223765,10692.91007875768
1677846774800342712,111,1677844362363873720,camera_1,112,0,0.1192296442019564,-0.35738209276461497,2.630616126913124,0.7034072054863078,0.706047581794795,0.038507991402416314,0.07233429414749964,0.015708106278907508,0.002864196090175018,10695.093789042905
1677846774806224334,112,1677844362370377779,camera_1,113,0,0.11925973404910432,-0.35741704387843226,2.6309000944415915,0.7035580343409525,0.7062013681423883,0.03560014035834686,0.07084031306099622,0.010188606742303818,0.0018574105125368301,10700.825889157131
1677846774811183673,113,1677844362376464128,camera_1,114,0,0.11917312540622876,-0.35731117017984043,2.6303055385971965,0.7034228973577856,0.7061050874336503,0.040851216152153556,0.07030655098911655,0.011428795522078872,0.0020824038652092177,10699.815758791286
1677846774819611468,114,1677844362383771657,camera_1,115,0,0.11912702238308787,-0.35724892933892843,2.6295101387192603,0.7034982364501298,0.7060369960225895,0.03616638036230632,0.07275977247383575,0.009592687187250704,0.0017478008797843685,10706.054033952412
1677846774827168387,115,1677844362390451431,camera_1,116,0,0.11919137926157582,-0.35741772002229005,2.6310609070280746,0.7034396282601663,0.7059424896689599,0.03816855649632079,0.07321920491357883,0.011610277520958334,0.0021181605373331814,10689.506382609135
1677846774832542751,116,1677844362396672725,camera_1,117,0,0.11917051457128255,-0.35735291580334494,2.630401934778088,0.7034334750781451,0.7059064812379063,0.03841463480306894,0.07349627010093017,0.008259832742623985,0.001506207054633822,10693.686718460176
1677846774839208767,117,1677844362403744935,camera_1,118,0,0.11918205108761022,-0.35731801392824325,2.630218690787811,0.7033909654360713,0.7059651083948929,0.03764877536899807,0.07373591516427722,0.012369669100735338,0.002255558643641803,10695.565546602593
1677846774846941915,118,1677844362410455703,camera_1,119,0,0.11915587661653892,-0.35728372988659773,2.6299348669999705,0.7032559657990022,0.7060352601347424,0.04010930924820731,0.07305136087857025,0.009421273658517748,0.001717317111681228,10696.306779745031
1677846774852426556,119,1677844362417180299,camera_1,120,0,0.11925297621515056,-0.35753686054092026,2.6315652095618827,0.7036138073806554,0.7062440141370151,0.033948177292531904,0.0706719450521106,0.012597074906807393,0.0022976518021568214,10697.930475356989
1677846774859008614,120,1677844362423275470,camera_1,121,0,0.1191370524994585,-0.35726005934155813,2.629614604868545,0.7032363984167078,0.70593177463975,0.04053811423241375,0.07399701879366713,0.01167943753534928,0.002128893140660869,10695.554640598708
1677846774865285424,121,1677844362430022239,camera_1,122,0,0.11921462704614638,-0.35740799905755144,2.6310026919112457,0.7034587862872291,0.706223369140585,0.03650911455586518,0.07114333018186662,0.015840584237594157,0.002888191374857665,10698.02080927161
1677846774873093511,122,1677844362437144756,camera_1,123,0,0.11918680853588356,-0.3573121744097596,2.6302456472292364,0.7030855176837811,0.7061934520368057,0.039775242972233255,0.07334502825801395,0.011680108320433646,0.0021297235562245005,10693.456958317427
1677846774880125020,123,1677844362443854570,camera_1,124,0,0.11921716949553803,-0.35738806203327433,2.630660189716823,0.7033581856822312,0.7059840559278993,0.03719993390023828,0.07409413153017494,0.01658818923169747,0.003026262603908106,10691.558930050236
1677846774885256079,124,1677844362450032472,camera_1,125,0,0.11914614970523894,-0.35725569593040396,2.6298462053802933,0.703440210011123,0.7060680572303253,0.03877607184095044,0.07166718740879223,0.00857692549470812,0.0015627366434285406,10702.852123906021
1677846774892547814,125,1677844362456967353,camera_1,126,0,0.11919787149133296,-0.35742822490919723,2.631063281196763,0.7034989560915083,0.7060659607856998,0.04024813382064622,0.07028631105613761,0.0063260753522627056,0.0011532023583650493,10694.601783981896
1677846774899705036,126,1677844362463774919,camera_1,127,0,0.1191918505707566,-0.35738558571115653,2.630905000157942,0.7034442315178319,0.7062114902256788,0.03611614396624697,0.07160424821560744,0.00981819158187136,0.0017903282994427272,10698.072518604336
1677846774904884627,127,1677844362469872951,camera_1,128,0,0.11922877720095076,-0.3574506219746854,2.6313155400119492,0.7035827368876445,0.7060591986728708,0.03727458018597447,0.07115016510925759,0.00814575661206618,0.001485665683256236,10694.433149065357
1677846774913144618,128,1677844362477129220,camera_1,129,0,0.11914686881522428,-0.3572338705368437,2.6296865845656994,0.7031385890931983,0.7062132798509927,0.03738780399160484,0.07389912044683254,0.014075691055040807,0.002565716656250341,10699.794903301172
1677846774919780087,129,1677844362483804464,camera_1,130,0,0.11920025126729523,-0.35735230639975885,2.630443635557144,0.7033124948962582,0.706086449850656,0.03818376269001855,0.07304423404301029,0.019230917969252914,0.0035067895298642993,10694.967865273822
1677846774926097873,130,1677844362490464210,camera_1,131,0,0.11928494632367392,-0.35759376139392474,2.632453787113126,0.7033339658159974,0.7062841650210825,0.037804766872204784,0.07109718961922663,0.017676342686172575,0.0032264551662236616,10684.644588301193
1677846774932180749,131,1677844362496499300,camera_1,132,0,0.11924923768755336,-0.35744579737942855,2.63134205057894,0.703610131599975,0.706196968297001,0.03423611199348323,0.07103881554164723,0.018211443559266627,0.003321278339144619,10698.450401607437
1677846774939254066,132,1677844362503756046,camera_1,133,0,0.11921464888422947,-0.35740581693167517,2.630776786731509,0.7034889042576595,0.7061013408618187,0.03745744720463246,0.07156254375307819,0.009725461306516081,0.0017731319291561943,10697.389007057995
1677846774946280684,133,1677844362510329008,camera_1,134,0,0.11926159382747975,-0.35751505722010835,2.63178706811192,0.7034904907942541,0.7061404888411719,0.03661001921753223,0.07159920302700351,0.01227889768779278,0.0022404447370283627,10690.262806800196
1677846774952384281,134,1677844362517108440,camera_1,135,0,0.11926210952929697,-0.35755734140602125,2.631908679052139,0.7037511291262432,0.7060530439844235,0.03649244778973328,0.06994103651062798,0.01015369960805401,0.0018520609549216153,10693.925171393674
1677846774958310224,135,1677844362523184537,camera_1,136,0,0.11914709292483194,-0.35724539870321853,2.6295251976630927,0.7032813772438267,0.7060727634753432,0.039461923565431774,0.07279638513576268,0.010676807898562402,0.0019454522276462064,10701.283239297918
1677846774966136416,136,1677844362530477523,camera_1,137,0,0.11926589543427454,-0.3575309720635893,2.6317814813231717,0.7034956016917692,0.7062791688683435,0.03715457089821381,0.06987998200019219,0.00863811158342287,0.0015753161146628183,10694.240940738006
1677846774973769287,137,1677844362537181615,camera_1,138,0,0.11920117721680615,-0.35738127491307636,2.6307800621393858,0.7034999219754965,0.706100708709886,0.03830696182651827,0.07100863057043841,0.014317903493065387,0.0026100609039451934,10697.746310424289
1677846774979516046,138,1677844362543817996,camera_1,139,0,0.11930970689198497,-0.3576574993771994,2.63294466511397,0.7037901038848416,0.7062407537777645,0.035422788035416285,0.0681814744998734,0.015766114636790007,0.0028770948960185026,10691.62585366157
1677846774985922237,139,1677844362550597906,camera_1,140,0,0.11919850495419015,-0.35742985597763693,2.6310097933719963,0.7036037963668423,0.7060428171842761,0.039415925999448195,0.06994013739094357,0.007711061800364405,0.0014055382468088516,10697.182860174684
1677846774991695776,140,1677844362556466102,camera_1,141,0,0.11923284937392244,-0.3575130532777205,2.631735947823146,0.7037995958700085,0.7061300813028616,0.03577030165681037,0.0690429044276652,0.006533633975777775,0.0011913632506555377,10698.69299393101
1677846774999209054,141,1677844362563796520,camera_1,142,0,0.11923923524423567,-0.35742613145694585,2.631092075519955,0.7034295793138451,0.7061269140768288,0.035861811595714936,0.07270170996445237,0.011247406771872193,0.0020516887882437076,10693.796969359973
1677846775006124735,142,1677844362570513486,camera_1,143,0,0.1191774744853972,-0.35725641888542775,2.629367513469201,0.7031984571816513,0.7060561336365312,0.04056727187003717,0.07315027289491621,0.015400579199194908,0.0028060721595570583,10699.892804852107
1677846775013658743,143,1677844362577272415,camera_1,144,0,0.11923487037536153,-0.3574241755863867,2.6308960187894406,0.7034933008578226,0.7061811150668047,0.03537659679649509,0.07179070114066155,0.016731950279790908,0.0030509671696737446,10698.531968289753
1677846775018179161,144,1677844362583180189,camera_1,145,0,0.11923109865718519,-0.35747953830698787,2.631262461388068,0.7034844693189635,0.7060731248376484,0.04018399939941229,0.07039595159725483,0.0068017683806829154,0.0012401783005677137,10692.754297161246
1677846775025772209,145,1677844362590176582,camera_1,146,0,0.1191024802382695,-0.3572452889382069,2.629759802956971,0.7032716852972933,0.7059832093715129,0.038281731875672007,0.07437172681336839,0.006203116266988218,0.0011309665120963275,10696.610416075211
1677846775033235493,146,1677844362597091913,camera_1,147,0,0.11920810679012266,-0.3574729353490436,2.631644227067455,0.7034280429475575,0.7061437447680834,0.03690206163261897,0.07202942431492634,0.010899005515966564,0.0019886607543386976,10689.874744309695
1677846775038480115,147,1677844362603137493,camera_1,148,0,0.11907826462030247,-0.3570640796270811,2.6283783579099893,0.7031344280119582,0.7060785593663051,0.039262257020815546,0.07425307617284782,0.01489329297328368,0.002712274569998439,10706.773190605458
1677846775046219174,148,1677844362610278606,camera_1,149,0,0.11918769919549657,-0.3573716474089343,2.6304094310385273,0.703396284521678,0.7060460720819567,0.03917781125505751,0.07209514632762813,0.0063371878350153565,0.0011552554056679172,10696.466132255384
1677846775052752172,149,1677844362617069244,camera_1,150,0,0.11916410038690761,-0.35723265451278313,2.629666809772119,0.703235452557343,0.7060252626964485,0.03672695814621307,0.0750956539768212,0.01716200087685138,0.0031294880394113636,10697.383139320298
1677846775059626686,150,1677844362623149156,camera_1,151,0,0.1192550876532825,-0.3574592835407289,2.631169515965522,0.7035119466845469,0.7061665198689799,0.037024563052408255,0.07091522275951131,0.013009977468755096,0.0023724287613795464,10696.56612427847
1677846775065484233,151,1677844362630117654,camera_1,152,0,0.11920704943153211,-0.3573745477454904,2.6306043884042865,0.7034095275461975,0.7061042351397099,0.036749504729348716,0.07267268797249893,0.01635099295526743,0.0029817255742868713,10696.664571880592
1677846775073234663,152,1677844362637117624,camera_1,153,0,0.11923858068526857,-0.3575089299375999,2.6315874303061855,0.7036212598550603,0.7058821324189938,0.0366589071012476,0.07282624761536176,0.014512759749777615,0.002648660658012771,10688.378499689512
1677846775079217784,153,1677844362643394708,camera_1,154,0,0.11921422747284272,-0.3574510827742778,2.631052406200756,0.7033888624886953,0.7062030466511223,0.037271198993319966,0.0716395334513858,0.005249292065855116,0.0009571851396079497,10695.178171456791
1677846775086255063,154,1677844362649976015,camera_1,155,0,0.1191268153496149,-0.3572435750160658,2.6294473747125697,0.7033178917593026,0.7058653592104244,0.03854657005937545,0.07491461629512666,0.01384720072383061,0.0025242246578706263,10697.150867077058
1677846775092856287,155,1677844362657210826,camera_1,156,0,0.11924473661150725,-0.35746281941818836,2.6315819099477142,0.7036738191743293,0.7061541163566484,0.03585310302542862,0.07002910226914585,0.013231837830971926,0.0024131275764465083,10697.231338512851
1677846775100213604,156,1677844362663892269,camera_1,157,0,0.11917916257281706,-0.35725586159426087,2.6299129511241124,0.7032918223726737,0.7060356452485483,0.037621038526161506,0.07401984654403551,0.013891362294089049,0.002532587737411499,10697.292054219291
1677846775106628220,157,1677844362670583486,camera_1,158,0,0.11918751462383122,-0.3573735870449627,2.6307133480461244,0.7036838028693377,0.706017033369033,0.03583475485805477,0.07130865667224395,0.011587308836169541,0.0021125368229735894,10700.794301856306
1677846775113423157,158,1677844362677121162,camera_1,159,0,0.11914923449838127,-0.3572534734638769,2.6297832464192656,0.7032708525702204,0.7060772189841706,0.03655643601907406,0.07435519983375968,0.0194793819100596,0.0035516604675099608,10698.815028683282
1677846775118280224,159,1677844362683144330,camera_1,160,0,0.11917505017317062,-0.35743673994522523,2.631355391748248,0.703401659602397,0.7060980198013422,0.03656347892490251,0.07290270029378397,0.015706876176409423,0.0028661435511801695,10690.231140688064
1677846775126277086,160,1677844362690206766,camera_1,161,0,0.11923393442936799,-0.35746139184636044,2.631507901118624,0.7037125343534117,0.7060928664709398,0.03619607600164563,0.07008121713292996,0.01397421117872,0.002548237739642967,10697.236825127155
1677846775133170245,161,1677844362697204589,camera_1,162,0,0.11923460613617581,-0.35744996966135056,2.631472558511781,0.7036029388473619,0.7061969501770603,0.03626137017390508,0.07009910868966472,0.00974005542229861,0.001776145567879715,10697.394494459502
1677846775139090789,162,1677844362703202724,camera_1,163,0,0.11920775309499532,-0.35730275787944055,2.6300251149606466,0.7034777476646995,0.7058467456493922,0.03884876693224049,0.07341800531619014,0.007882434816565365,0.0014370832957381237,10696.341144915203
1677846775145821676,163,1677844362710060596,camera_1,164,0,0.11925545399808576,-0.3573689992212471,2.6304435454589283,0.7032143718221485,0.7062797502520662,0.03674374057025246,0.0728584873269133,0.011564142478164285,0.0021085883806462235,10697.418824189346
1677846775152918225,164,1677844362717164278,camera_1,165,0,0.11913937918181766,-0.3571834039542453,2.629320945636712,0.7034576063058745,0.7058919355329094,0.03506418584186696,0.07506313576756242,0.01346821605693549,0.0024552265300232913,10702.444548199182
1677846775158939287,165,1677844362723440170,camera_1,166,0,0.11919453158827657,-0.3574049112632712,2.630849377614306,0.7034010620090545,0.7061303251604347,0.039020988482727836,0.07130408341170771,0.013840746541973203,0.0025235232056610986,10695.351096334638
1677846775166563351,166,1677844362729997158,camera_1,167,0,0.1191642517921112,-0.35731459527304543,2.6304708328655466,0.7032161002672229,0.7061089752724953,0.038962448702117146,0.07334274985109689,0.014744195679668337,0.0026889255156171397,10692.852791597481
1677846775172906024,167,1677844362737159252,camera_1,168,0,0.11914674845513681,-0.3572481036686166,2.6299427605800516,0.7034673732442579,0.7061196607964234,0.03499343227665388,0.07282952090373267,0.010239037801511586,0.001866285866575155,10703.912284239079
1677846775179882889,168,1677844362743902921,camera_1,169,0,0.11917577791189628,-0.3573477922868817,2.630423173992058,0.7036628682722271,0.7058810298158543,0.03758294506325127,0.07195875069360379,0.012894257088191807,0.0023505107196643,10699.00836338382
1677846775186969200,169,1677844362750467777,camera_1,170,0,0.11921403478961848,-0.3573576415059972,2.6303563480336574,0.7033982966315638,0.7059576971102676,0.039961265790364124,0.0725097470897125,0.00817974773235619,0.00149127402424178,10694.599613927308
1677846775192664924,170,1677844362757150650,camera_1,171,0,0.11917537342739877,-0.35732928750749454,2.6300937255849224,0.7034261156026856,0.7060828081134269,0.03876391535906207,0.07166677640866916,0.011907956097275019,0.0021701674376760176,10700.817729830856
1677846775199916262,171,1677844362763905763,camera_1,172,0,0.11918014815545254,-0.35729064622389123,2.6299334957586757,0.7032640457273106,0.7060421717405494,0.03754165040047169,0.07426141795274577,0.015024387335870415,0.00273963398669768,10696.510526214726
1677846775205801590,172,1677844362770058393,camera_1,173,0,0.11919697029571998,-0.35741714188499685,2.631039923382057,0.7035864486981155,0.7061418204297774,0.03713493036824248,0.07036217446213629,0.006438087555579841,0.0011736631681239416,10699.005735428067
1677846775212552484,173,1677844362777262449,camera_1,174,0,0.1191677917951534,-0.3573681886348725,2.63049529998991,0.7033583331720163,0.7061641937317832,0.03803684911832813,0.07191929336258208,0.010192003508564085,0.0018580765797320822,10697.899596940262
1677846775218303923,174,1677844362783188343,camera_1,175,0,0.11910018385135732,-0.3571551813083199,2.6292463696305517,0.7033569385683688,0.7059864255744103,0.03706431740281595,0.0741513334193169,0.015097818162757903,0.002751250682099591,10703.110681926944
1677846775226632662,175,1677844362790553092,camera_1,176,0,0.11925845140826652,-0.3574418939815512,2.6311641948660083,0.703313811568441,0.7061426647066827,0.03745747784784388,0.07286396153995074,0.01688924484187737,0.003081219298603103,10690.630974158415
1677846775234672524,176,1677844362797205209,camera_1,177,0,0.1191790008975235,-0.35723051617235035,2.6297735821729042,0.7034465379239181,0.7059824809650251,0.03662594610110409,0.07355436714105217,0.014448740286752582,0.002633612237474096,10701.103660665567
1677846775239377227,177,1677844362803951263,camera_1,178,0,0.11926727803170967,-0.35745112730450945,2.6311392121003125,0.7036626087009994,0.7060351642812189,0.03488367990424916,0.07180813875066262,0.014517665142193435,0.0026476947625341013,10697.129056596666
1677846775245024311,178,1677844362809864759,camera_1,179,0,0.1191483249658418,-0.357274987067332,2.62994492017296,0.703185250913946,0.7061619569420406,0.03943322719864929,0.07287533229823333,0.01285782118793577,0.0023436341555689555,10697.72959158558
1677846775252918630,179,1677844362817068576,camera_1,180,0,0.11927164907516943,-0.3575592451755248,2.632326867683081,0.7037464892364057,0.7061027288452013,0.03465114340365209,0.07042097319416527,0.006850522069726139,0.001250139604887609,10691.652722746252
1677846775261960160,180,1677844362823800086,camera_1,181,0,0.11922310266043427,-0.35743338023798277,2.631273341769302,0.7033770553167134,0.7061485577184208,0.03661645878386724,0.07262346337316133,0.01003291888628155,0.001830422236153977,10691.583154030955
1677846775265758733,181,1677844362830210447,camera_1,182,0,0.11917929636683479,-0.3573251833526987,2.6303531319840894,0.7034060191442978,0.7061655145751617,0.0363241874842925,0.07232421212826852,0.015058099466841668,0.002745226453626426,10700.264915487845
1677846775272039058,182,1677844362836472511,camera_1,183,0,0.11917768741051339,-0.3573034472944751,2.6300228486141446,0.7033552890070573,0.7059149807651806,0.03917998131802522,0.07375843288067371,0.009428786754142493,0.0017191517892931295,10694.923841552576
1677846775280235682,183,1677844362843730926,camera_1,184,0,0.11926177382652194,-0.3575089609079026,2.631641925462606,0.7037817653187449,0.7059668988593285,0.03593131200355896,0.07078774849842838,0.015606579545419663,0.0028467834673691975,10694.542927771578
1677846775286038635,184,1677844362850431442,camera_1,185,0,0.1192210029188504,-0.35734217188618633,2.6303101076228192,0.70340421972383,0.7060875074485236,0.03690604787893093,0.07280713653069398,0.015764689538627863,0.0028742935360555164,10698.450239314694
1677846775292669897,185,1677844362857127666,camera_1,186,0,0.11923257326638739,-0.35753346012624493,2.6319432309232247,0.7035671056973313,0.7063111276040033,0.034238701728241075,0.07032517406595137,0.021035949408542365,0.0038378716736549457,10695.524498597835
1677846775299758832,186,1677844362863078594,camera_1,187,0,0.1191882763269929,-0.3573879051570763,2.630819316511588,0.7033741082786291,0.7058533593700459,0.03875774460537829,0.07438908590894627,0.009628032974433154,0.0017567676975017677,10687.284558209009
1677846775305509710,187,1677844362869822978,camera_1,188,0,0.11912695269159013,-0.357298987292878,2.630013860984192,0.7033801028055217,0.7059768151705509,0.03739375302182007,0.07385712324402319,0.013118157803546637,0.002391803483573986,10697.235657371933
1677846775313251273,188,1677844362877674341,camera_1,189,0,0.11917000605226391,-0.3573601887305282,2.6305344984364067,0.7033126115972778,0.7060353577192119,0.03796548358464238,0.07364825914239544,0.01182903052540496,0.0021573710506096353,10692.8225123802
1677846775319889707,189,1677844362883942127,camera_1,190,0,0.1192397728394795,-0.35748186941671,2.6314306282490803,0.703502390037955,0.7060044924443574,0.03954984699856715,0.07125905880419817,0.01118468859931454,0.0020401571976088276,10689.991218504383
1677846775326324070,190,1677844362890519857,camera_1,191,0,0.11918097713196786,-0.35729326490687896,2.6298905896577414,0.7033390045778566,0.7061485346684527,0.03721662408148416,0.07268710007287588,0.01626752916490659,0.0029648236118068605,10701.773797212169
1677846775332228674,191,1677844362896507978,camera_1,192,0,0.11922326139291214,-0.35740584700705036,2.6307402115326144,0.7034836328130768,0.7060618327364195,0.0371299152830054,0.07217226689027624,0.01090524171013385,0.001988521635942514,10696.43092111568
1677846775339186305,192,1677844362903836488,camera_1,193,0,0.11927676152940654,-0.35751095825177814,2.631467288467425,0.7034722252279921,0.7061762610011191,0.03587208862178818,0.0717990946263726,0.011260858387686312,0.002054239123371086,10693.218955718217
1677846775346715902,193,1677844362910593748,camera_1,194,0,0.11916654493715674,-0.35736747376056144,2.6306467135357816,0.7035953175817008,0.706069243560753,0.03667120436479212,0.07123956165704133,0.011000632192008197,0.0020053581836481883,10700.429223102048
1677846775352263531,194,1677844362916442632,camera_1,195,0,0.11907675526719232,-0.3570996792609254,2.628695671922466,0.7031249209285786,0.706068373956808,0.041133731755785066,0.07342215591367952,0.013326713407877833,0.0024271478274068004,10703.809715399406
1677846775359388252,195,1677844362923806428,camera_1,196,0,0.11918646651720176,-0.35732880531422023,2.630446351871542,0.7035630913047463,0.7060871645670355,0.03532578604082617,0.0720554052656107,0.008366964408196509,0.001525305576090282,10701.54983258387
1677846775366368656,196,1677844362929731845,camera_1,197,0,0.11906503607887074,-0.35707284576708564,2.6281418969347654,0.7032646981326229,0.7059566294577574,0.03619585544957673,0.0757222670906441,0.015938415308482945,0.0029033346294689306,10708.595247937481
1677846775371750093,197,1677844362936625480,camera_1,198,0,0.11928462947407592,-0.35757136590826033,2.632198580803245,0.7036570534303874,0.7062012497220649,0.03639076043145839,0.06944248414248208,0.008768635045271367,0.0015996110199461764,10693.067980805878
1677846775379687332,198,1677844362943916320,camera_1,199,0,0.119295741608789,-0.357613408479865,2.6321999925792245,0.7036269070994259,0.705981099533675,0.036866952208379676,0.07169860906450094,0.0074404842453077435,0.0013581238405059573,10686.24616227811
1677846775385924506,199,1677844362950442314,camera_1,200,0,0.11924629570874072,-0.3575385148745748,2.6320445944518704,0.703694910669234,0.7061394904995063,0.03484335857777709,0.07047292400870707,0.012880825146567076,0.002350252235454768,10693.553778151634
1677846775393330625,200,1677844362957138061,camera_1,201,0,0.11923891757685619,-0.35745849158980164,2.631411491684214,0.7033775490366307,0.7061330861025322,0.039113521070107474,0.07145782456830256,0.00501098798122257,0.0009140308706385239,10690.243651371562
1677846775399264854,201,1677844362963718414,camera_1,202,0,0.11922707060245823,-0.3575077870676566,2.631813014308629,0.7036348220359497,0.7062008209048595,0.034540904619880713,0.07060710785594111,0.013119088660459965,0.002393387499739119,10695.446144349757
1677846775406134410,202,1677844362970508337,camera_1,203,0,0.11924586119981921,-0.3574419221303654,2.6310777014084312,0.7034396642930132,0.7061176564397371,0.03859099961705365,0.07128273782580702,0.011372521345037967,0.002073709027518067,10694.146767009861
1677846775411969093,203,1677844362976680755,camera_1,204,0,0.11923310185330514,-0.357439185999779,2.631189824612031,0.7035072579023486,0.7061374319891208,0.036870522116835495,0.07133042703755682,0.009481976449023932,0.0017293549274802341,10695.495930998006
1677846775418476263,204,1677844362983116626,camera_1,205,0,0.11922397832602778,-0.357406161493703,2.6310443753096915,0.7033948409355155,0.7063061949887902,0.03552243118170668,0.07145217665473072,0.01162836147705093,0.0021205049080352235,10698.121183526004
1677846775425864456,205,1677844362990422725,camera_1,206,0,0.11924494261032773,-0.3575236346704277,2.631667560044391,0.7034306567747592,0.7060858369770696,0.03807919393469352,0.07195885573788506,0.010697595251258463,0.001951834925323133,10688.214671480588
1677846775433300980,206,1677844362997144937,camera_1,207,0,0.11914084709533712,-0.35727745830627455,2.630023803634611,0.7032625116325103,0.7060139643772122,0.03942420732007179,0.07356530237747794,0.015300998697057366,0.002789793275484677,10695.159683580743
1677846775438466986,207,1677844363003375291,camera_1,208,0,0.1192448693000585,-0.35747529207392276,2.6314273390505196,0.7035409439094038,0.7060967346852218,0.03641671608275708,0.0716335417223008,0.007634939160197973,0.00139271126668058,10693.326508794562
1677846775446609387,208,1677844363010321140,camera_1,209,0,0.11921953790994584,-0.3574568811078184,2.63122171713784,0.7034204213533345,0.706167050001147,0.03628504947522019,0.07218866601036387,0.009381404146552086,0.001711175840010096,10693.620203290599
1677846775452101282,209,1677844363016457319,camera_1,210,0,0.1191629888772811,-0.35727548087878447,2.6300883975894447,0.7034270145095025,0.7060289236488236,0.03845958051322946,0.07234953279930978,0.016794720315374434,0.0030611369662213715,10699.452569901476
1677846775459310180,210,1677844363023714542,camera_1,211,0,0.11916442364155484,-0.3572631430864804,2.629877444487025,0.703257475337229,0.7059448617914147,0.03830656647148497,0.07485574432047915,0.01556271011941135,0.0028382307661876044,10694.211983601675
1677846775467064118,211,1677844363030541658,camera_1,212,0,0.11916018477245845,-0.3572523056301159,2.629739049503414,0.7031638873331403,0.7060850944089423,0.038861506785980014,0.07412267058319622,0.014363516762387006,0.002618566950779029,10696.660140844997
1677846775473618144,212,1677844363037061452,camera_1,213,0,0.11930133755532898,-0.35753668317004045,2.631792192387667,0.7035825609286248,0.7060361869918882,0.03751678207792225,0.07125288539835621,0.010918142623268068,0.001992025073568387,10689.922037238723
1677846775478084353,213,1677844363043155908,camera_1,214,0,0.11914163647176915,-0.35723890539391895,2.629469774824321,0.7031574336247816,0.7061969815650566,0.03839496123152418,0.07335716542127173,0.015619337966199964,0.002846341972790214,10701.675176436898
1677846775485275559,214,1677844363049850225,camera_1,215,0,0.11918862471631354,-0.3573187463347965,2.630593576547959,0.7034897779413313,0.7061128901244951,0.03553581835848468,0.07241494559607091,0.01648636005120352,0.0030062752108533297,10699.123547851921
1677846775492430888,215,1677844363057086706,camera_1,216,0,0.11915944682152894,-0.3572849325610409,2.6302335677464304,0.7033864008152226,0.7058783681518028,0.03953155809234894,0.07362442827177823,0.014343442511744797,0.0026154439356749055,10693.148498324914
1677846775500165179,216,1677844363063775539,camera_1,217,0,0.11919918453802349,-0.3573865656707509,2.6306977960574285,0.7033397371637787,0.7061349907580838,0.0384833160327585,0.07215000582529761,0.012579604925122112,0.0022938336796842463,10694.995076036317
1677846775506149942,217,1677844363070433378,camera_1,218,0,0.11915068236382097,-0.35727745356711926,2.629829986354247,0.703073647556256,0.7060854869073501,0.0391222880291361,0.07483433617075388,0.011226576170884073,0.0020471707971408872,10693.477877522233
1677846775513701422,218,1677844363077199220,camera_1,219,0,0.11926350561741458,-0.35747578834907506,2.631372117316038,0.7034251546210689,0.7061523520775076,0.03485227303853287,0.0729878521795009,0.012578791531268506,0.0022951771556058037,10691.988171731236
1677846775519195539,219,1677844363083824634,camera_1,220,0,0.11923361134881294,-0.3574250085488299,2.6311826353342687,0.7036102279191,0.7061316415248686,0.03508290006826127,0.07127371274058217,0.01277145225321874,0.0023291352130170454,10698.047403573757
1677846775525307100,220,1677844363089987754,camera_1,221,0,0.1193523142836016,-0.3576769454061689,2.633106527368533,0.7036528412454485,0.7062995631887041,0.033580476010641166,0.06989962573256257,0.017269570438656956,0.0031529751650045757,10688.027999731825
1677846775533890605,221,1677844363096649646,camera_1,222,0,0.11921176720223445,-0.35732380976863337,2.630403916029539,0.7035071998502116,0.7060510971152829,0.0375557595453717,0.0718264084177259,0.01188332150923088,0.0021660472147844185,10699.58097656339
1677846775539460274,222,1677844363103696584,camera_1,223,0,0.11925046847941197,-0.35748901660771965,2.631583537415538,0.7035715739518319,0.7060925617077243,0.03796251066856202,0.07056332200020746,0.009817017533350736,0.0017904306043271241,10692.91446459945
1677846775545897833,223,1677844363110635042,camera_1,224,0,0.11918625766839955,-0.3573436486174477,2.630417335425287,0.7034421552065984,0.7061255396659591,0.03760384912745094,0.0717063946977819,0.009695588087197393,0.0017672852569122156,10699.726868549125
1677846775552887913,224,1677844363117044448,camera_1,225,0,0.1192046484484571,-0.3574122672373226,2.631002789644274,0.703480011292026,0.7062316428249762,0.035311446446137686,0.0714551757060892,0.019777770736254748,0.003606749705866437,10698.719298091131
1677846775558377022,225,1677844363123173475,camera_1,226,0,0.11929950885626715,-0.3576328121215896,2.632775073815906,0.7037938984759655,0.7061809433717614,0.03484784427112668,0.06905252664621955,0.008126489701680839,0.0014829588467888451,10691.428243613103
1677846775565898064,226,1677844363130403280,camera_1,227,0,0.1191446522220824,-0.3572281174689645,2.6295739370758877,0.7033458479231698,0.7059704649848454,0.03807775701288719,0.07389455459765752,0.011187165684532374,0.002039105032978196,10699.759598962613
1677846775572656303,227,1677844363137075424,camera_1,228,0,0.11919163930405871,-0.3573828965593016,2.630719268932309,0.7034696013698861,0.7060958750736418,0.03743222884009193,0.0718189626529416,0.01609783957246691,0.002935131932868445,10697.208529465599
1677846775578297143,228,1677844363143023729,camera_1,229,0,0.11923428236939752,-0.357420507579746,2.6311986055690144,0.7033343239933164,0.7061779922722006,0.03723388078169705,0.07243693840302275,0.013997807982377708,0.002553435901382073,10691.886220234908
1677846775585177059,229,1677844363149952173,camera_1,230,0,0.11921613310082353,-0.3574212707936385,2.6310950921623406,0.703341561173883,0.7061204452019144,0.03635637975829397,0.0733674235898066,0.01603811129461974,0.002926171220043661,10691.263243360212
1677846775592606450,230,1677844363157099962,camera_1,231,0,0.11915355101349505,-0.3572630743924803,2.6299966745840737,0.7032492252257196,0.7061626527961106,0.0387813798757787,0.07260054814059891,0.015201871341560036,0.002770633403385657,10699.037397737844
1677846775599498297,231,1677844363163846731,camera_1,232,0,0.11924749385045869,-0.3574553291311476,2.6312231098654992,0.7035814249487758,0.7060289770309278,0.03752024699437287,0.07133367455271583,0.008598910761065781,0.0015682098610017025,10694.319713981702
1677846775605407299,232,1677844363170045852,camera_1,233,0,0.11922103030558207,-0.35736897026637976,2.630686323520238,0.7033019612986484,0.706001839957119,0.04082812516067035,0.07253149251533186,0.012920691689942032,0.002356051313120426,10690.609790289891
1677846775611393366,233,1677844363176312208,camera_1,234,0,0.11923265263928123,-0.3574342270557328,2.630896925582737,0.7032011494321144,0.7061568349417561,0.038362801681076295,0.07334141633192705,0.015012467629276216,0.0027387541409545123,10690.170844017062
1677846775619334753,234,1677844363183777570,camera_1,235,0,0.11919651388831627,-0.3573348389396199,2.6301570774135454,0.7034418854675902,0.7057148410151697,0.04032773388469489,0.07422769577765928,0.00856615707743913,0.0015622032479604042,10690.788039458683
1677846775625960643,235,1677844363190593242,camera_1,236,0,0.11917799361793902,-0.3572725764670078,2.630364409450415,0.7032707705238993,0.7060484826048912,0.03738724050960717,0.074215616854733,0.022212826239410788,0.004051344010764579,10693.443836798655
1677846775632611862,236,1677844363196532726,camera_1,237,0,0.11918185037545095,-0.3573020182001787,2.6301043126260155,0.7032609640340873,0.7060366766781022,0.03821277878968152,0.0740000755969766,0.012939292355440557,0.0023595159861345585,10694.959212183374
1677846775639544655,237,1677844363203645467,camera_1,238,0,0.11918114654961576,-0.35736401284780994,2.630426446881222,0.7032113504769637,0.706105759127973,0.03807045332907666,0.07388568244249137,0.014901526912581176,0.002717857218448006,10692.857433088819
1677846775646434148,238,1677844363210505962,camera_1,239,0,0.11917972905276426,-0.35736025507113045,2.6306800603598144,0.7034125646608999,0.7060501603997058,0.03828128292297498,0.07237733246325341,0.016611223632935435,0.003029204547351245,10694.820950368881
1677846775651883261,239,1677844363216487169,camera_1,240,0,0.11916043014838272,-0.35727594316557737,2.6300638917861,0.7034005386076143,0.7060940143536709,0.03815417132522611,0.07213310190835812,0.011846121575217694,0.002159069869952539,10700.677418401698
1677846775659174344,240,1677844363223738431,camera_1,241,0,0.11924476942590279,-0.3575463812235962,2.631897906527479,0.7033986842525446,0.7062435498306558,0.03932776032431941,0.07002618497573512,0.011872618400957435,0.002165612028404621,10689.882747487161
1677846775666783211,241,1677844363230494976,camera_1,242,0,0.1191803442959248,-0.3573105971268495,2.6300265471799356,0.7033385870862481,0.7062170266730801,0.03544273693049474,0.0729119712491031,0.010098887723870575,0.0018409192524189261,10702.36923594214
1677846775672484384,242,1677844363236478090,camera_1,243,0,0.11917184016652525,-0.35733435947747466,2.630239022183733,0.7033462759016788,0.7061914227551017,0.03710007232558098,0.0722583921479118,0.016092351521365345,0.002933158476382105,10700.313778107517
1677846775679145822,243,1677844363243596076,camera_1,244,0,0.11921436016749844,-0.35739521594991874,2.630684690259732,0.703344686323529,0.7059441174006941,0.03828691204427079,0.07404908975757786,0.009785080910660326,0.0017850664559925522,10689.98290957895
1677846775686372866,244,1677844363250546455,camera_1,245,0,0.11915720979753675,-0.3573898572008265,2.6308321728162634,0.7034793475628963,0.7061339396240337,0.036827375978247694,0.07166178369312401,0.01728407124755904,0.0031518719162390517,10697.565873210897
