%time,field.header.seq,field.header.stamp,field.header.frame_id,field.image_seq,field.transforms0.fiducial_id,field.transforms0.transform.translation.x,field.transforms0.transform.translation.y,field.transforms0.transform.translation.z,field.transforms0.transform.rotation.x,field.transforms0.transform.rotation.y,field.transforms0.transform.rotation.z,field.transforms0.transform.rotation.w,field.transforms0.image_error,field.transforms0.object_error,field.transforms0.fiducial_area
1678273370432058244,25,1677814455452742338,camera_1,26,0,0.1396195276270253,-0.278090540844926,2.652208205559188,0.7045194608831531,0.7062852856939593,0.02752715196005682,0.06368422374561403,0.009482536639552563,0.0017417258638308644,10626.403568568407
1678273370438761633,26,1677814455459427118,camera_1,27,0,0.13972939716995864,-0.2782534144755423,2.653694609417911,0.7048432343312154,0.706215189344632,0.0268222952565341,0.06112843719258851,0.011956534406635909,0.002197408903842271,10621.077200622296
1678273370447783946,27,1677814455466514587,camera_1,28,0,0.1397007448559617,-0.27818659781562155,2.653382123866202,0.7049376559003324,0.7063660093293107,0.02567101700259753,0.058744881002357925,0.008745715371333063,0.0016060959917706273,10629.876863652378
1678273370453436650,28,1677814455473299741,camera_1,29,0,0.13968960942546882,-0.278155385836199,2.653144934433726,0.7048169539915126,0.7061964140530212,0.027949439179159576,0.0611433969807901,0.009625137143302709,0.0017681872839206832,10624.447280508699
1678273370459262210,29,1677814455479960203,camera_1,30,0,0.13974357131032025,-0.27830999290965774,2.654838232764443,0.7049111852960026,0.7067377554925518,0.020406951362808047,0.05661733075667815,0.01702455204213038,0.003128073902359429,10626.56015473255
1678273370466003662,30,1677814455486570596,camera_1,31,0,0.13961515870389468,-0.27822117143807,2.654117034801762,0.7048347752272083,0.7063182094899411,0.027703333922178157,0.059624255659346675,0.014176863827742636,0.0026052181039190776,10620.366268326763
1678273370472146369,31,1677814455493189096,camera_1,32,0,0.13962932372909773,-0.2782419553037785,2.6543683632134076,0.7050419895170489,0.7064636340098096,0.021195069781216814,0.05810073886332998,0.012224644713569432,0.002246297048169221,10626.739079692165
1678273370479009833,32,1677814455499615669,camera_1,33,0,0.13951573682307364,-0.2780390284958694,2.652430326822071,0.7046790987667457,0.7063290991539369,0.026700536948813747,0.061754779380385344,0.0024789299932308495,0.00045529485081851695,10629.966741272947
1678273370485270571,33,1677814455506192207,camera_1,34,0,0.13969443684082494,-0.2782956733266978,2.6547969360444834,0.7050076134843866,0.7064869424176492,0.02653492448004003,0.05600324013170769,0.009706020005978644,0.0017834136932551206,10623.6623911201
1678273370492621454,34,1677814455513197422,camera_1,35,0,0.1396417021355511,-0.278071192805177,2.6521439024375337,0.7043321444513211,0.7064585010911067,0.025528218635807325,0.06466008492101298,0.00928065541666001,0.0017049749919921915,10626.310987651108
1678273370498253415,35,1677814455519215345,camera_1,36,0,0.13967466132999104,-0.2781264181456326,2.652489948165562,0.7045593277575016,0.7066192123024823,0.02493186342644794,0.06052970065184639,0.00307498435722664,0.0005646027854118523,10633.65748223045
1678273370505912366,36,1677814455526235103,camera_1,37,0,0.13973633119534906,-0.27816986477144756,2.6529769465743898,0.7048310056043903,0.7066410483206075,0.02208352022181281,0.05817216260093463,0.0026850929716601968,0.0004929550675135119,10637.031435274755
1678273370512302309,37,1677814455533205270,camera_1,38,0,0.1397902238546402,-0.27842788781314437,2.655366977347688,0.7049344502827743,0.7064740990934048,0.021467515423789416,0.05916852115960228,0.013445254298858345,0.0024731443920749142,10616.198644211981
1678273370518358134,38,1677814455539427995,camera_1,39,0,0.13963879884258704,-0.2781306630835546,2.6528801396880515,0.7047005122693039,0.7064379150208785,0.026316599254099297,0.060416031250271514,0.010102188913151622,0.0018551036520379881,10629.677917565918
1678273370525605373,39,1677814455546554327,camera_1,40,0,0.1394220159262833,-0.2779520843967962,2.651781251949481,0.70476518278924,0.7060698529531504,0.02669995532975248,0.06370645386579879,0.009217216458637267,0.0016924876700783042,10630.620261118976
1678273370535774611,40,1677814455553272724,camera_1,41,0,0.13951310155819294,-0.27815913975610707,2.6536509421153243,0.7049293820296124,0.7060109480138843,0.027511289792107096,0.06217906858308387,0.017477875051554292,0.003212537172093453,10618.522121300224
1678273370539680877,41,1677814455559898138,camera_1,42,0,0.13961511673932067,-0.2782600570495751,2.654078285213471,0.7049844629904588,0.7063000650182737,0.021824661461823307,0.06050462171862255,0.015974178502801802,0.0029360122565740615,10623.350319511956
1678273370544764658,42,1677814455566136837,camera_1,43,0,0.13967824463407752,-0.2781040729915053,2.6529300094500785,0.704768124624536,0.706392109450537,0.021920369128462285,0.061899722426737296,0.0031015351996757094,0.0005698277535792559,10629.281286890735
1678273370552328625,43,1677814455573213100,camera_1,44,0,0.13976452580305865,-0.27816737366535904,2.6531484131026013,0.7049023995113075,0.7064700210633598,0.02577946495332098,0.05786307707560769,0.004474708111956716,0.0008215337874155373,10633.526911520985
1678273370560012439,44,1677814455579862833,camera_1,45,0,0.13975727967436147,-0.2781115626107374,2.6527560313317493,0.7047750361075727,0.7063383033257363,0.022438537616482675,0.06224838764276012,0.0024148653028532863,0.0004436599450464039,10629.467281324323
1678273370565513868,45,1677814455586539030,camera_1,46,0,0.13968894319500688,-0.27820575800869146,2.6534715132626383,0.704960139578025,0.7061572160542762,0.024741202858015086,0.061327487326196944,0.012893475242890418,0.0023691302490332195,10624.17072126758
1678273370571900389,46,1677814455592777490,camera_1,47,0,0.1396411880385396,-0.2782280799510513,2.65391354038068,0.704588250166605,0.7064845228965874,0.023491549298375405,0.06231503627781297,0.009571906994096933,0.0017599044546336795,10619.368745653654
1678273370578605524,47,1677814455599835395,camera_1,48,0,0.13949376764137597,-0.27803414039155483,2.6521126540830915,0.7046275975489269,0.7064215209550366,0.024969242514482373,0.06200903508564863,0.018667433934751898,0.0034272756060783794,10633.354004464232
1678273370586031835,48,1677814455606579303,camera_1,49,0,0.13949708989025547,-0.27806020874538434,2.6529310040537353,0.7047386750050632,0.7063597422116943,0.01980542462111251,0.06330134035164259,0.027185212704353028,0.004994783948050802,10627.410865877526
1678273370591833718,49,1677814455613167524,camera_1,50,0,0.13961966151270375,-0.2782564263261827,2.654252275050738,0.7047820405527642,0.706423760708663,0.02898791333311184,0.05837333724487284,0.007097209279891103,0.001304202503605206,10620.784605606692
1678273370598428295,50,1677814455619407415,camera_1,51,0,0.13961942747609632,-0.27821250713078677,2.6533827623966384,0.7047087657607759,0.706444956746049,0.02244026345277312,0.061786026933014736,0.012768458924256265,0.0023464329554940626,10625.556376811348
1678273370606715953,51,1677814455626282215,camera_1,52,0,0.13961687711906737,-0.2780316338820919,2.6515926827804326,0.7047508976739204,0.7064232387436294,0.02692166213528949,0.059729424060825466,0.005589482781942934,0.0010253901302589043,10640.951228679161
1678273370612570986,52,1677814455633188962,camera_1,53,0,0.13967935348092386,-0.2781304252370428,2.6527670487564046,0.7051291430421104,0.706448630255482,0.027295605214540507,0.0545726522978688,0.0027508455677889287,0.0005045964582621674,10642.061888907454
1678273370617546234,53,1677814455639063358,camera_1,54,0,0.13968267910810733,-0.2781782614913781,2.65313501165287,0.70456280539616,0.7064982743244286,0.027515618129002304,0.06078101996409724,0.005712717131245881,0.0010494275981702604,10625.737394543827
1678273370626469303,54,1677814455646042585,camera_1,55,0,0.1396166925277078,-0.27812458967220305,2.6527903550608496,0.7046598624306801,0.7061595193767543,0.026571570286315543,0.0639309246396905,0.007476086320821196,0.0013739125117466873,10622.041949680886
1678273370631751152,55,1677814455653162956,camera_1,56,0,0.13961162517822512,-0.2782635670532319,2.6544855567917893,0.704788649590088,0.7064724035922885,0.025605026663173255,0.05927971812595769,0.008340513973962516,0.0015331608592910563,10620.018490261511
1678273370638363050,56,1677814455659863233,camera_1,57,0,0.13956239168310897,-0.27819915044072546,2.6536452566449786,0.7050333898233843,0.7063229127575764,0.021950904325441677,0.059615601541009706,0.014902329072356224,0.002737786487422755,10628.723404043007
1678273370646524994,57,1677814455666559457,camera_1,58,0,0.13957440666337545,-0.27820655164191327,2.6538849934426776,0.7048644497334818,0.7061294818710857,0.024931235445440243,0.0626553735409186,0.006794965942390263,0.0012495015402057537,10617.728912471792
1678273370651642717,58,1677814455672765970,camera_1,59,0,0.13955110939540039,-0.2780605352530788,2.6521657163490175,0.7047312061778349,0.7064077553223745,0.032997287579434036,0.057036736161341375,0.00890274962875992,0.0016329156566532936,10636.037835059804
1678273370657809310,59,1677814455679400682,camera_1,60,0,0.13960477005903418,-0.27803539189849524,2.6525428883485973,0.7046185483965832,0.7064133995660973,0.025317226800965528,0.06206325963136378,0.005606462829746306,0.001029720158502275,10629.5086066369
1678273370665091679,60,1677814455686520576,camera_1,61,0,0.1397005590347637,-0.27820913580052975,2.6538739028268026,0.7051055654927777,0.7062902143752583,0.02428884461763582,0.0582265112813957,0.004905294976197183,0.0009011228246018713,10628.196641943414
1678273370671629196,61,1677814455693253517,camera_1,62,0,0.13969357542355815,-0.27828126620294136,2.6545379480126696,0.7049885365758995,0.7065367804657355,0.020697603850793306,0.058039213817215184,0.005274483992252499,0.0009693807044143985,10625.799945905455
1678273370678056015,62,1677814455699198484,camera_1,63,0,0.1397426725331275,-0.278287924492917,2.654384411484855,0.7048054091620284,0.7066605143298669,0.021196936214054236,0.05857424859211633,0.009425146388821304,0.0017321101577643177,10625.532066952437
1678273370684510701,63,1677814455706104040,camera_1,64,0,0.13966150359683097,-0.2781795480836455,2.653271752522006,0.7047547359288175,0.7064696881413649,0.023261423249771953,0.06066504851840469,0.010998249927069992,0.0020203473460930757,10628.405016211796
1678273370692967722,64,1677814455713162422,camera_1,65,0,0.1395511970987168,-0.2780198931860565,2.652028747438043,0.7048576708496074,0.706087350875671,0.02608335693446908,0.06273735146523887,0.009478867112193257,0.0017404202036894521,10631.396482846001
1678273370698680769,65,1677814455719837665,camera_1,66,0,0.13969659983730107,-0.27828524964311285,2.654684864378194,0.7047371436016368,0.7065024835895435,0.0287014494733449,0.058103579133663305,0.015405345300678164,0.0028312503762573152,10618.179209745489
1678273370705598639,66,1677814455726561307,camera_1,67,0,0.1395602131548488,-0.278117282794443,2.6530374017602014,0.704854033270617,0.7061636540950015,0.02639862554921932,0.06178023944961044,0.0046560034970752895,0.00085550071965359,10625.299213002669
1678273370711650762,67,1677814455733161211,camera_1,68,0,0.13963315056264672,-0.27824293507996095,2.654073994183129,0.7044679290420929,0.7065334155550823,0.024821224273362107,0.06260492377429953,0.012583746982272714,0.0023139839780259865,10616.399751385445
1678273370718845132,68,1677814455739842891,camera_1,69,0,0.13957818706904554,-0.2780467634864771,2.6526531806128943,0.7048197883989287,0.7063171110404892,0.027099020121464448,0.060090329015269464,0.007579224067740142,0.0013916043271583636,10631.585396142797
1678273370725434820,69,1677814455746531486,camera_1,70,0,0.13955081478671424,-0.2779712471361223,2.650932835616276,0.704507958575101,0.7064532435259151,0.029001638966189597,0.06124749752710548,0.010907692892942578,0.0020004464517593148,10640.89299654634
1678273370732166844,70,1677814455753168344,camera_1,71,0,0.13972974304306734,-0.2781982360063227,2.6533885372540045,0.7047577372956665,0.7061880232930097,0.02371656207842545,0.0636595017462762,0.0036672522546723485,0.0006742548799728225,10620.183498845086
1678273370737390516,71,1677814455759162902,camera_1,72,0,0.13963014509400343,-0.27801063651670244,2.651907254998111,0.7044619108988276,0.7062748921347404,0.03162784613091,0.06252097393637385,0.01316272106487304,0.002416489361124517,10627.475736730848
1678273370744783932,72,1677814455765867471,camera_1,73,0,0.13972164526610528,-0.27831977056586266,2.6548150603688425,0.704930458439426,0.7064518900755227,0.0181362030233341,0.060579319185665365,0.01799135032342747,0.003308431803109675,10619.454956117084
1678273370752905438,73,1677814455773157358,camera_1,74,0,0.13964073995278356,-0.27823528183396207,2.6540078231049744,0.70461913326607,0.7062591391511674,0.02637144369358627,0.06335970610995777,0.010616476705763489,0.0019524882535656794,10613.86777578923
1678273370757669488,74,1677814455779265165,camera_1,75,0,0.13966345335619615,-0.2782106361382784,2.6540794851181477,0.7048053293522902,0.7066126321734808,0.020913478599054278,0.05925084119539467,0.026307721971534193,0.0048331069531820335,10626.719546871846
1678273370764296890,75,1677814455785883426,camera_1,76,0,0.13955485012007152,-0.27814802342630474,2.6531774902375984,0.7050960540618683,0.7061366536653219,0.02489147671112814,0.059924913715945625,0.010922842775471509,0.0020060486528675247,10629.610454230455
1678273370772955471,76,1677814455793187856,camera_1,77,0,0.1396196057187542,-0.27821768074151404,2.6538512646953887,0.7045819195546121,0.7063685019787349,0.02634524201989978,0.0625602611245264,0.00935118121560663,0.0017193300659096922,10617.022603699586
1678273370777844466,77,1677814455799193859,camera_1,78,0,0.1396768158898679,-0.27824613828214806,2.654006997102968,0.7051144119603735,0.706427912429657,0.019965831643231603,0.05809161861101679,0.009806708607356995,0.001801543148461847,10630.355604594457
1678273370785205197,78,1677814455805916309,camera_1,79,0,0.1396803338652655,-0.27810763185337817,2.6524041698373058,0.7043791796931778,0.7064331184506487,0.02871770348475692,0.06306753425828104,0.007972832187078893,0.0014645125233662447,10625.168368392508
1678273370792169930,79,1677814455813148260,camera_1,80,0,0.1397640065037725,-0.2783232468804467,2.6546074289584753,0.7046330862189036,0.7066020183182355,0.023154670619991446,0.06057774131394044,0.0051057112868875265,0.0009389395601668709,10617.997225061987
1678273370799508870,80,1677814455819188594,camera_1,81,0,0.13975300671538382,-0.27823787568249153,2.653963661081771,0.7046781499003483,0.7061241777616954,0.02560281320858532,0.064512375473224,0.007523830863647163,0.0013841114600588757,10612.073376910997
1678273370804558010,81,1677814455825906038,camera_1,82,0,0.13976151820432423,-0.278300958644431,2.654874381737999,0.7047172467714721,0.7065588558896659,0.017766786244514353,0.061907403218549845,0.008884190290700644,0.001634434918647415,10616.15402084088
1678273370812033000,82,1677814455833221197,camera_1,83,0,0.1395710169032517,-0.27813455184105357,2.653358286783654,0.7049970685029912,0.7061063875380923,0.02270482618493703,0.06226872206819529,0.011619725788477808,0.002135394002430775,10624.510550172065
1678273370818708103,83,1677814455839908123,camera_1,84,0,0.1394725223236916,-0.27800352976630527,2.6518073933685966,0.7048184291622493,0.7062861204517559,0.024331608818796646,0.061634980187847174,0.014265721023548394,0.002618532679823134,10637.16347333591
1678273370825004320,84,1677814455846092224,camera_1,85,0,0.13959453259542215,-0.27818180178627666,2.6539270627913387,0.7050277026541173,0.7065190619835502,0.02151689000166995,0.05747849153203383,0.009831065020989627,0.001805694082892507,10631.393810509584
1678273370832685131,85,1677814455853222608,camera_1,86,0,0.13969018870220704,-0.27827939476945424,2.65488294322955,0.7050573585388329,0.706357533841976,0.01847432869227662,0.060098708258126486,0.0058017364935949445,0.001067028307038658,10619.854872212156
1678273370839297517,86,1677814455860069274,camera_1,87,0,0.13963989060259874,-0.2781687139988764,2.653570402853359,0.7045678274844056,0.7063441408630348,0.028392874115189433,0.06209650426429284,0.0151480624335818,0.002784024910982548,10618.490413899646
1678273370845072932,87,1677814455866618156,camera_1,88,0,0.13970081249575828,-0.27818680835943826,2.6535671775877665,0.7047246862170986,0.706561855219022,0.029665526971348583,0.05703874030146492,0.002857404644601047,0.0005247014207171196,10628.393532473598
1678273370851775063,88,1677814455872792482,camera_1,89,0,0.13968266136895843,-0.2782013164978367,2.653518902101547,0.7046804744975458,0.7064650150957454,0.02642263183253367,0.0602864481846822,0.0008786496473476291,0.000161467783148041,10624.767041111363
1678273370857365190,89,1677814455879234313,camera_1,90,0,0.13964803310610616,-0.27821842051375134,2.6536898698685163,0.7050273722401732,0.7064133909918593,0.02495326133477841,0.0573921612091502,0.015910233021713797,0.0029213587081483115,10630.914374675831
1678273370865345967,90,1677814455886385440,camera_1,91,0,0.139659497952038,-0.27825473680542645,2.654156923261366,0.704886646880269,0.7065768098057963,0.021675130074514246,0.05843128982666108,0.016856267175171524,0.0030968408909109934,10627.3733793383
1678273370874656443,91,1677814455893311977,camera_1,92,0,0.1395594307589781,-0.27809402440103337,2.6531063539417565,0.7050306635816914,0.7063651593826465,0.02251821436059398,0.05893178295197391,0.006479169358499348,0.001189719904337821,10634.164797894195
1678273370877721546,92,1677814455899242401,camera_1,93,0,0.13961597666863743,-0.2782274844427611,2.654023943787612,0.7048740853322676,0.7063259892534367,0.0266012556607975,0.05956923643477679,0.018492602568585426,0.003397826972796506,10622.203774708321
1678273370885063908,93,1677814455906444072,camera_1,94,0,0.13972164463489434,-0.27835586912477456,2.6551234535393564,0.7048044398118104,0.7066764646606395,0.017707721988333026,0.059544206252867916,0.00910107308300212,0.0016737955223548359,10619.515040309638
1678273370892199681,94,1677814455913176298,camera_1,95,0,0.1397515059494323,-0.2783482524222438,2.655056830355917,0.7049542813258219,0.7064652402250667,0.018792998958885476,0.05994287934579051,0.009135543426964432,0.0016802042972910455,10618.594930859632
1678273370898951330,95,1677814455919966936,camera_1,96,0,0.1396003345340085,-0.278142912785719,2.652984129819882,0.7046950838751906,0.70628380584919,0.026676112444774736,0.062099995025405516,0.01652326952898875,0.0030353615165152337,10624.710339210696
1678273370905152144,96,1677814455926145553,camera_1,97,0,0.13971888763181606,-0.278230953435784,2.6536870561329646,0.705111800638853,0.7063966329422375,0.024671624675075804,0.05667853653364985,0.004827751428820193,0.0008864902376251768,10632.629387431425
1678273370911702722,97,1677814455932990789,camera_1,98,0,0.13956383498881483,-0.27797697343719857,2.6515305394838573,0.7044573480698232,0.7064058390369459,0.030131273797546165,0.061828324126390354,0.002938645367976278,0.000539331891793327,10633.692036557135
1678273370920458871,98,1677814455939902544,camera_1,99,0,0.13967397967901948,-0.2782232728314023,2.6538987850285634,0.7050485938465992,0.706301926025831,0.025204163213912726,0.058385098816577545,0.004575382801704109,0.0008406092301742286,10626.933993573763
1678273370925351638,99,1677814455946620941,camera_1,100,0,0.13954936234709178,-0.2780350699550976,2.6521517602521314,0.7045470896551779,0.7064956837215007,0.0244429179818936,0.06228796915808459,0.009261895320378244,0.001700629121251445,10632.800403591362
1678273370931343907,100,1677814455952513933,camera_1,101,0,0.13961240438881603,-0.2781207215976185,2.6532641419329654,0.7044580937738341,0.7065655032784768,0.028510330931452322,0.060754791774377766,0.008846627664752305,0.0016251642568511288,10623.906625460831
1678273370938111690,101,1677814455959442853,camera_1,102,0,0.13959384304903416,-0.27808608431737714,2.652511555421079,0.7046801120707723,0.7062571167886785,0.027745811322739275,0.06210470667598104,0.00957638572435826,0.0017587243210255975,10627.521199539657
1678273370945677752,102,1677814455966540336,camera_1,103,0,0.13967489486378357,-0.2781349056132819,2.6533013876256644,0.7049583510433266,0.7064302877438909,0.01635689355417468,0.06101167007724692,0.004067646630574018,0.0007473674813794896,10631.423091060133
1678273370951990521,103,1677814455973321199,camera_1,104,0,0.13971342052796765,-0.2782305989725418,2.654904233164497,0.7053057470103951,0.706465645701334,0.020050407766903196,0.055209381687235874,0.0015699607320129871,0.0002884858196929501,10629.183573116548
1678273370958353436,104,1677814455979460954,camera_1,105,0,0.1396452633925875,-0.2781489261513138,2.653555220240358,0.7047940153153807,0.7066673427377828,0.02470540372480865,0.057239022618650416,0.015517368854489176,0.0028490106890582067,10632.544357903995
1678273370964608796,105,1677814455986070871,camera_1,106,0,0.1396958095782932,-0.27831907158983654,2.6547639708046296,0.7050288996155025,0.7062675847272605,0.027049380384231835,0.05821237403941488,0.008725915453396738,0.001604060395423791,10618.826019730186
1678273370972417975,106,1677814455993207216,camera_1,107,0,0.13966155904854935,-0.27818298588601564,2.6531525139616265,0.704633083183903,0.7064276379505748,0.030500431775905956,0.05934588514633194,0.006104997417423874,0.0011211476134604938,10625.889060588204
1678273370978674941,107,1677814455999921321,camera_1,108,0,0.13964153063651608,-0.27817809170594543,2.6537037543733897,0.7048747615897768,0.7064732900118318,0.02214206995787432,0.05963882721511451,0.007330158317927271,0.0013468061587075103,10628.06938218779
1678273370988397897,108,1677814456006622314,camera_1,109,0,0.13966672753759427,-0.27822844951055453,2.653895461489512,0.7049349515838634,0.7063105534685804,0.026087217982257282,0.059258528097734124,0.004790206789039075,0.0008802181638134167,10624.331455087755
1678273370992148068,109,1677814456012735128,camera_1,110,0,0.13970434965630324,-0.2782931050486355,2.654610634391727,0.7049837294918807,0.7066097802378873,0.021692584489799778,0.05683301331124525,0.01033933722646907,0.0018997214466201049,10627.121768674697
1678273370998471802,110,1677814456019909381,camera_1,111,0,0.13957716775950849,-0.278194827451857,2.653311652376227,0.7047091248246092,0.7063378809391369,0.028789176976004374,0.06035752337851068,0.006114640214946121,0.0011233495225270807,10624.115885159352
1678273371005282047,111,1677814456026647090,camera_1,112,0,0.1395679626249545,-0.2781888181828511,2.6536289988072586,0.704964225219012,0.7064821255526206,0.025591086362184035,0.05703984339751413,0.007560822530649602,0.001388440227890205,10631.661311740289
1678273371013848230,112,1677814456032587051,camera_1,113,0,0.13974170619891926,-0.27842726762214504,2.655952005324438,0.7050026741581017,0.7066326399381724,0.01958441106134037,0.05707882661123329,0.024129583151079714,0.004437276753352904,10617.205567681816
1678273371018136105,113,1677814456039769649,camera_1,114,0,0.13969333969245717,-0.2782939270986956,2.655133766796862,0.7048479104464562,0.706718112135528,0.020560814289028485,0.057586335485355473,0.01712171104736626,0.0031474054984296502,10622.125293006768
1678273371026100050,114,1677814456046542406,camera_1,115,0,0.139668338407746,-0.27821301600588155,2.6533290232241877,0.704421968817268,0.7063657432600621,0.02596526747751177,0.06452078332665527,0.0017740848707035184,0.00032624929731185984,10616.816478289782
1678273371033918378,115,1677814456053252935,camera_1,116,0,0.13964898857292493,-0.2781195161528389,2.6532943074095194,0.7050461777581216,0.7059434944739632,0.024095671537715208,0.06303228102884395,0.0075767108355648816,0.001392638148735003,10622.197401216716
1678273371038878680,116,1677814456059931755,camera_1,117,0,0.1396334462447275,-0.2781307562951736,2.653164724789329,0.704816980507259,0.7065572444859951,0.026025317058733077,0.0577283909786216,0.01474921772023663,0.002707400228002747,10633.53708973014
1678273371045518025,117,1677814456066536903,camera_1,118,0,0.13957776578039385,-0.27813631166589714,2.6529210249351745,0.7047138094222033,0.7061862715624129,0.02943767678060855,0.06174803520910638,0.018599517992697656,0.003416507531963791,10623.449956603228
1678273371052616713,118,1677814456073303699,camera_1,119,0,0.13959837528483587,-0.2781772943541774,2.6535918580214712,0.7047472087565799,0.7063621289737197,0.02657927591504167,0.060642036520517924,0.008348220901098102,0.0015340252457148964,10623.293168685166
1678273371058705642,119,1677814456079912662,camera_1,120,0,0.13963974553534902,-0.27821406997438336,2.653832455903528,0.7045839187863268,0.7063276515429157,0.01994153372849046,0.06530762042922843,0.012249394378159193,0.0022535027048660454,10615.238610984294
1678273371064930482,120,1677814456085932731,camera_1,121,0,0.1396009287413608,-0.2781520617565589,2.653448738643282,0.705288582079941,0.7062199270148838,0.022975465050114278,0.05738953459028409,0.005344238074030727,0.0009812795275985406,10634.38409847906
1678273371072185473,121,1677814456093222856,camera_1,122,0,0.13970432371717836,-0.27827126059088925,2.6541744814632096,0.7048276394455487,0.7064312246227585,0.02115097167352961,0.06103736518617873,0.014914321072865278,0.0027416794556268105,10621.793207121198
1678273371079021699,122,1677814456099910259,camera_1,123,0,0.1396432556655166,-0.2781434692433063,2.652827893108953,0.7045434955965331,0.7063264898306395,0.02572195231412071,0.06371603993733278,0.011559348495211452,0.0021241276673601645,10622.957669628086
1678273371085729768,123,1677814456106576442,camera_1,124,0,0.1397778635153964,-0.2783912833545243,2.6551151525267853,0.7047551017091968,0.7065100323695296,0.025080362440899357,0.05945415204928299,0.008452588401269168,0.001554576096836267,10614.959187522763
1678273371092254713,124,1677814456112704753,camera_1,125,0,0.13965836764736844,-0.27812136135480336,2.6530116661512513,0.7047223963870469,0.7062263699700554,0.02815291632610406,0.06179054694491401,0.012765380146447569,0.0023451273132250876,10623.862783053657
1678273371098635438,125,1677814456119933843,camera_1,126,0,0.13955880540595708,-0.2781024447081152,2.652648705937874,0.70493205933299,0.7060931472664828,0.02739851877258014,0.06125830781968781,0.008616757288109511,0.0015824444179759899,10628.691428436665
1678273371105963483,126,1677814456126583099,camera_1,127,0,0.1396642854158798,-0.2782887475261991,2.654848704667881,0.7047385520530645,0.7067524521396225,0.016322600883675622,0.05981736658507325,0.021110320289153606,0.0038813164344571912,10621.782176842218
1678273371112988069,127,1677814456132575035,camera_1,128,0,0.13953379606912633,-0.2781058938155796,2.6528984283807535,0.7048545432409389,0.7064180853298988,0.024565037766599754,0.059582887736102576,0.011297835793811828,0.0020744603220923135,10632.869884470942
1678273371118538876,128,1677814456139774322,camera_1,129,0,0.139589564730281,-0.2780547233119237,2.652437131871195,0.7047015750040658,0.7061890113468516,0.02483362742149491,0.063844039571722,0.012418092170264572,0.002281320970067029,10626.539724466395
1678273371125813981,129,1677814456146539926,camera_1,130,0,0.13972038140493623,-0.2782827975267273,2.654626054073622,0.7048149050978828,0.7065989840262004,0.021821978796757114,0.0589714046500325,0.0062875853618606925,0.0011558450407605785,10622.362350243258
1678273371132500538,130,1677814456153183698,camera_1,131,0,0.1397753388481401,-0.2784382774571885,2.6557565676687824,0.7051339158954885,0.7063819829200169,0.01990028953428071,0.058434864048194216,0.006380134378559887,0.0011737760597112716,10615.676963627804
1678273371138906475,131,1677814456159851789,camera_1,132,0,0.13969045634966776,-0.2782493340565396,2.6541464230464777,0.7044537301311563,0.7068199746372811,0.02411602886848688,0.05974012646176652,0.009252114279661328,0.0017003959040537734,10622.86126848566
1678273371146163632,132,1677814456166637659,camera_1,133,0,0.13972466744702214,-0.27829902747794294,2.6548501729843945,0.7049851275827593,0.7065628270504112,0.02153682755324342,0.0574552554305812,0.004568094678688794,0.0008396852316668495,10624.015456061232
1678273371151841059,133,1677814456172838926,camera_1,134,0,0.139642767536783,-0.27812411847121277,2.653189822600928,0.7047768755520835,0.706016718657247,0.025262799294333765,0.06474364552070841,0.003688405849970877,0.0006782082059036634,10618.020404340112
1678273371158114299,134,1677814456179146051,camera_1,135,0,0.1395723139788744,-0.27812895786966935,2.6525590601530364,0.7044896694141909,0.7064466673802997,0.026238326456536953,0.06276115088741302,0.007944309327285737,0.0014593017082373887,10626.938454782361
1678273371164890532,135,1677814456185795307,camera_1,136,0,0.13961980570285706,-0.27813605670983055,2.653423597058944,0.7049441107814269,0.706112121645931,0.027852974202861973,0.06069336180604978,0.004697417956776917,0.0008630940982026024,10623.385512460958
1678273371172481527,136,1677814456193270921,camera_1,137,0,0.1395900044922356,-0.27811071888368166,2.6527695161573295,0.7044513773604536,0.7064379461713963,0.029163373349334862,0.06199340931894754,0.009398017020430416,0.0017262694977363477,10624.377138595562
1678273371179000047,137,1677814456199940681,camera_1,138,0,0.13971748115852833,-0.278238607276715,2.654056852023342,0.704831455479354,0.7062727245251671,0.023997623889173543,0.06177031654708255,0.006309872434940189,0.0011601463751080546,10619.080594994011
1678273371186881790,138,1677814456205922842,camera_1,139,0,0.1396572810634514,-0.2782152771447853,2.653403197975236,0.7045790847096814,0.7062555214427869,0.025852288365286857,0.06405553065522812,0.009914839058183134,0.0018229565920285407,10617.438479225968
1678273371191966200,139,1677814456213241338,camera_1,140,0,0.13967340090437733,-0.2782091202957906,2.6533521311550055,0.7046672134245734,0.7063768808484718,0.02296812322816232,0.06283538686605328,0.02252868190407753,0.004140237089341241,10622.969637691975
1678273371198962780,140,1677814456219928503,camera_1,141,0,0.1396310657214978,-0.27815033488365853,2.653071226866005,0.7049140738359713,0.7063249281853811,0.023398120377091755,0.06044644153885676,0.011222956876736134,0.0020612270665227883,10630.409379167017
1678273371207023176,141,1677814456226596117,camera_1,142,0,0.13961768509389927,-0.278198824154988,2.653713040952401,0.7046957829789514,0.7063881618533943,0.03014156159203703,0.05925457374632704,0.007244131003972143,0.0013309098007452912,10622.023033557925
1678273371212213115,142,1677814456233255863,camera_1,143,0,0.13958351986025166,-0.278176192234632,2.653202116677017,0.7045123148864062,0.7062712247115487,0.02669050734515119,0.06427263908931001,0.006396185082849115,0.0011760201103423074,10617.840337264588
1678273371218087493,143,1677814456239895820,camera_1,144,0,0.13968020080507693,-0.27829397128674904,2.6544136163358076,0.7048067868525694,0.706589436231377,0.023242286586542236,0.058639218335605446,0.009134264488238841,0.001678692648132718,10623.778848857499
1678273371225643638,144,1677814456246620893,camera_1,145,0,0.13960382891375436,-0.2781102837741752,2.652666513791477,0.7047558541886764,0.706133295728033,0.028607279700651137,0.06226217310039959,0.014085697883274406,0.002587184801895077,10625.09743358579
1678273371233654516,145,1677814456253247499,camera_1,146,0,0.1396653187879604,-0.2781439862199967,2.6533486318510846,0.7047000973275047,0.7065997557390242,0.022614344557059865,0.060026239565804225,0.008276906854007393,0.001520469141903702,10629.71031761728
1678273371238610559,146,1677814456259907245,camera_1,147,0,0.13966676830665362,-0.2782472217391767,2.653967499850201,0.7046877281691143,0.7063969324246188,0.027877160871647818,0.06034437447415687,0.015486292657442391,0.002846013789512408,10619.757590017978
1678273371244889804,147,1677814456266582489,camera_1,148,0,0.13972508276530604,-0.2782727159517513,2.6543444426190197,0.7045378848491024,0.7066506943195298,0.02322146653974966,0.061089512371787245,0.006255682907067239,0.001150272834781979,10618.917131783439
1678273371252344261,148,1677814456273240327,camera_1,149,0,0.13966859050044209,-0.27826536310721506,2.654058491559407,0.7047759741802629,0.7065456343308035,0.02009258370528352,0.06066614299912256,0.01588551135500893,0.002919754239308696,10624.217751109507
1678273371258022178,149,1677814456279673099,camera_1,150,0,0.13973169270296107,-0.27832252997055495,2.654773601336114,0.7048925731005262,0.7065900512215545,0.025217117234439278,0.05675435578724159,0.012051241123117505,0.002214446761202193,10623.376191285439
1678273371265419784,150,1677814456286123752,camera_1,151,0,0.13977341961850137,-0.27831468603739784,2.655153966972585,0.7053431888516992,0.7063020480135594,0.017064518756778252,0.05776854777443785,0.01206790131982416,0.0022185154857396797,10623.414035597818
1678273371273158074,151,1677814456293262243,camera_1,152,0,0.13962427557084633,-0.27820485206285384,2.653452395423539,0.7044999056987408,0.7067131469805928,0.022195917385293876,0.06118620765072424,0.005878589057829231,0.0010802338947176286,10626.552077063476
1678273371278669629,152,1677814456299932479,camera_1,153,0,0.13968392318437356,-0.2782015463544938,2.6540830451079467,0.7047325325557048,0.7064176116941753,0.02241266524292709,0.06183759279458188,0.0036337306373752654,0.0006681641691075738,10619.90600874764
1678273371285277616,153,1677814456306582450,camera_1,154,0,0.1397263310740546,-0.2782997449521386,2.65481450404608,0.7050570102473412,0.7065943632870556,0.014219942120657074,0.05845349705643176,0.011321753438096493,0.0020811566664376705,10625.812267237929
1678273371292962477,154,1677814456313247442,camera_1,155,0,0.13961473433638624,-0.27808902531795493,2.6527354023542533,0.7050430531536217,0.7062229438305114,0.021657365338979963,0.0607816200323717,0.015186439792159947,0.0027884777928949673,10633.568816853338
1678273371298121267,155,1677814456319909572,camera_1,156,0,0.13966031436166487,-0.27820033815007394,2.6536296169484466,0.7048463812305519,0.7065766050776947,0.02208224052903321,0.0587661014215928,0.008543877978809178,0.0015693251535081002,10630.58572706615
1678273371306489940,156,1677814456326595306,camera_1,157,0,0.13969869773710267,-0.2783118533760586,2.655107279261479,0.704733396879936,0.7068091290105505,0.023834453349463637,0.056600470872121854,0.013012191629968584,0.002391527089109168,10622.154993073083
1678273371313903260,157,1677814456333243608,camera_1,158,0,0.13958792704241954,-0.27813119075038917,2.6527160651854444,0.704451343558082,0.7063316971955583,0.03153690684095187,0.062042417771720045,0.01457031152676791,0.0026764055873449723,10622.216616240567
1678273371318495711,158,1677814456339928150,camera_1,159,0,0.13972198896597893,-0.2783009418143096,2.6548391764919934,0.7050106567192895,0.706391417114796,0.01284987895616632,0.061692952187411186,0.009997516986913979,0.001839112194862283,10618.850459430023
1678273371325073666,159,1677814456346601486,camera_1,160,0,0.1396020349580286,-0.2781283354375331,2.652760510786784,0.7048519954984896,0.7063832327158593,0.020608215249037467,0.0614954831181825,0.01384547894122079,0.0025427902031317576,10632.402350124434
1678273371332289198,160,1677814456353240251,camera_1,161,0,0.13961595803700683,-0.27808110893779686,2.652399007695732,0.70443999240812,0.7064793966089359,0.021716589231637086,0.06464943167009281,0.006766665552277118,0.0012433993571626953,10627.160973244347
1678273371338866454,161,1677814456359909772,camera_1,162,0,0.13962954517102252,-0.2781184318853813,2.652709103946712,0.7048659269799304,0.7060454900080554,0.029343418496387674,0.06166648046511421,0.010827441874425858,0.0019885588692957787,10625.409532034537
1678273371345264848,162,1677814456366612911,camera_1,163,0,0.13965791203046965,-0.27819430475592244,2.653472331242477,0.7045871147311743,0.7064198620820014,0.02624278899240259,0.061962022535948805,0.01249829848529771,0.002296829190006958,10621.495371920637
1678273371350759572,163,1677814456372585535,camera_1,164,0,0.1396053487736737,-0.27817469304426856,2.653430037025322,0.7047247179316356,0.7061732735279868,0.02347457799653807,0.06427537536901924,0.011895976378582418,0.0021872700650219265,10618.615524344612
1678273371359357113,164,1677814456379919528,camera_1,165,0,0.13956955534921842,-0.2781336808711774,2.65279498476292,0.7047346916362933,0.7064227592931229,0.027697584251683963,0.05957133021521465,0.019839704618789256,0.0036420569407571994,10631.015810788958
1678273371366529902,165,1677814456386633634,camera_1,166,0,0.13961778748661857,-0.2781356065779503,2.6525317364112992,0.7044829384861779,0.7063734603681716,0.02820369732484677,0.06280824250513195,0.010657009377609937,0.001957604705972908,10625.25626796659
1678273371371290041,166,1677814456392795562,camera_1,167,0,0.13958339191593302,-0.2780764765313245,2.652247050024595,0.7047270077824808,0.706151093757331,0.029721726510962398,0.06186352932450528,0.015531490207649767,0.0028517331535132763,10628.270928244106
1678273371377454608,167,1677814456399255275,camera_1,168,0,0.13969120925439277,-0.2783303646115189,2.654462697327224,0.7049840561080961,0.7061863800616788,0.024582517757942866,0.06077809695473759,0.014022749790456146,0.0025784057071798847,10617.625642181145
1678273371388837749,168,1677814456406613349,camera_1,169,0,0.13965596179103115,-0.27828923513857456,2.6545121680270234,0.7049440791064321,0.7063905793393669,0.020715305360032656,0.06030813276183243,0.012357468600384891,0.002271967316268289,10621.043118127154
1678273371392330976,169,1677814456413246631,camera_1,170,0,0.139681327242981,-0.2783173492778005,2.654818879354635,0.7048383138075679,0.7065637519030102,0.023914505088470928,0.058298476240973014,0.021852987876627594,0.004016874611418505,10620.791054056841
1678273371399173906,170,1677814456419921159,camera_1,171,0,0.13959591189959172,-0.27825323079454356,2.6542738585189385,0.7047776467881002,0.70660434416395,0.02609259632932234,0.05760161293971948,0.0182848607073538,0.003359147492943017,10624.904792217534
1678273371405452174,171,1677814456426618337,camera_1,172,0,0.139621726518571,-0.2781395729593453,2.653377089212433,0.7048085924864552,0.7064830081499438,0.019911337885505916,0.06107491937184748,0.009959824325051159,0.0018298850335293645,10628.884415239329
1678273371411832549,172,1677814456432621479,camera_1,173,0,0.1396638231916995,-0.27815846642859343,2.6535965782079995,0.7048025231160655,0.706545364517054,0.022037881604310295,0.0596773245302256,0.006633193523157388,0.0012186292046312776,10628.908274424732
1678273371417652033,173,1677814456439269065,camera_1,174,0,0.13973199255427549,-0.2783054035667603,2.6546185244692873,0.7049908043253316,0.706302187174485,0.02392450148310519,0.05960540611425886,0.006479920586571097,0.001191370312180238,10619.518890835232
1678273371425651039,174,1677814456446624279,camera_1,175,0,0.1396194328746106,-0.27810156402626895,2.6524182511314183,0.7046848997085975,0.7065481076832685,0.026481249659652126,0.05922589862838496,0.009140457143075766,0.0016776173130679934,10635.853403345449
1678273371432208181,175,1677814456453231334,camera_1,176,0,0.1396666879620441,-0.278194956806842,2.653581419925035,0.7046949457986913,0.706379018351319,0.022915931164564512,0.06251860441234638,0.0037607320700772107,0.0006913608850208151,10621.953533319873
1678273371438829926,176,1677814456459921598,camera_1,177,0,0.13966651228703728,-0.2782498858739629,2.6540707041841753,0.7047682841806684,0.7066488344572094,0.0210432844132978,0.05921376997291468,0.007891533488873392,0.0014501320721806983,10626.77095278143
1678273371446687993,177,1677814456466712236,camera_1,178,0,0.139613743976936,-0.2781727971602703,2.653266263858675,0.7047254304987199,0.7062786284763084,0.02273932191812627,0.0633678925381167,0.006245773402042687,0.0011480982057021577,10622.60758116608
1678273371451912014,178,1677814456473181009,camera_1,179,0,0.13954841732897286,-0.2780946127146651,2.652663959087739,0.7050154794445459,0.7060480956663634,0.030017788766479078,0.0595667080427481,0.007724665745627135,0.0014181784415362424,10629.848110532039
1678273371457384319,179,1677814456479246377,camera_1,180,0,0.13959204657701366,-0.278104158098667,2.653122459377879,0.7048917162387073,0.7064044051532458,0.02650577259072552,0.058463054808208736,0.013693238841369748,0.002513869503984836,10631.915734676291
1678273371467483227,180,1677814456486613512,camera_1,181,0,0.13966632380596386,-0.27825021820763346,2.6538870008872903,0.7046925053329123,0.7064875357007948,0.02585530297485292,0.06012768193702551,0.011651963519398123,0.002141302286505824,10622.661324696968
1678273371471884315,181,1677814456493174314,camera_1,182,0,0.13969837005885166,-0.27819564240495726,2.6533461999568426,0.7049055845684575,0.7064098430694835,0.023535708664001297,0.05949219172657975,0.008121163700707257,0.0014916191382205316,10630.202207299293
1678273371478487971,182,1677814456499888896,camera_1,183,0,0.13968327130368552,-0.2781851095581778,2.653445977336803,0.7050673687460455,0.706262489918189,0.019027556642122856,0.060920053778038066,0.0101425985340029,0.0018635261290914679,10629.139248573683
1678273371485316514,183,1677814456506516695,camera_1,184,0,0.13963753614571964,-0.2781134310410113,2.653058363209786,0.7049566596716129,0.7062611485861097,0.02311587123342597,0.060802586125843716,0.011209689022507519,0.0020588729684007886,10629.935932550106
1678273371492013059,184,1677814456513182640,camera_1,185,0,0.1396764156387822,-0.2782838330276003,2.6543906790162395,0.7047919167327406,0.7064082053071831,0.026966572356268197,0.05940206695249376,0.023625908128451556,0.004342065027977887,10619.295361696975
1678273371498685927,185,1677814456519858837,camera_1,186,0,0.1396875975496064,-0.27829811198912435,2.65469022319385,0.7048291423367512,0.7068315086804146,0.023048260230787133,0.05544254818947884,0.017184410360641778,0.0031564243703093293,10628.416046880302
1678273371507396610,186,1677814456526514291,camera_1,187,0,0.1396008404148438,-0.2781044617886588,2.652879926541655,0.705110988518202,0.7065370525768152,0.02364870349605498,0.05535906456856554,0.011195352824870497,0.002053674679128778,10642.626240947162
1678273371511475103,187,1677814456532572984,camera_1,188,0,0.13976963553399707,-0.27842743854221774,2.6556944613574456,0.7049674162678807,0.7067930793789713,0.01715100333739237,0.05630566603016657,0.008666579087730497,0.0015935177858746727,10622.105852592498
1678273371517948995,188,1677814456539176702,camera_1,189,0,0.1397089660766229,-0.2783047816320312,2.6547177072160033,0.7048404644089281,0.7066419388349447,0.01895069671747533,0.05914356351556053,0.003048793354537338,0.0005605603747193248,10622.992938254494
1678273371525347579,189,1677814456546500682,camera_1,190,0,0.13972491202218312,-0.278297897578452,2.654471665756642,0.70476146289255,0.7066019314808271,0.02612808587173161,0.05781274926689554,0.011974236811511219,0.002200470837695215,10622.797625659965
1678273371532937317,190,1677814456553150177,camera_1,191,0,0.13973068596194538,-0.27822346840827716,2.6542339667244907,0.7049970748778601,0.7063723428497033,0.020219797335946237,0.06006993812528443,0.007740231405477971,0.0014227915622435899,10624.089501653687
1678273371538710986,191,1677814456559786319,camera_1,192,0,0.13967526549157847,-0.2782129577696177,2.653636975685549,0.7047216059770086,0.7064281406631904,0.02490036173851526,0.060882773701802506,0.010576000495348126,0.001943481508326441,10623.747760176195
1678273371546265454,192,1677814456566523075,camera_1,193,0,0.13975787431470765,-0.27835427324995027,2.6555309709884827,0.7048673311900566,0.7068309194501209,0.020029508983822473,0.05613301613285234,0.011526333517394962,0.002119018361483813,10622.278530058333
1678273371553847999,193,1677814456573122501,camera_1,194,0,0.13971354500716934,-0.27824743796495494,2.653958793671023,0.7047922157748097,0.7063430281822186,0.02586357348519982,0.06065092487492108,0.006208454549778253,0.0011411791040203411,10620.903917094924
1678273371559181670,194,1677814456579945325,camera_1,195,0,0.1397888175024025,-0.2784252845781577,2.656008639402621,0.7047090968086788,0.7068217318622307,0.02300998551735812,0.05708475110626401,0.020534403913188726,0.0037765879414078476,10614.53108884417
1678273371565540186,195,1677814456586595058,camera_1,196,0,0.13980831963447296,-0.278328388748055,2.6549856701951753,0.7049819417861851,0.7066132064780876,0.017838772301372742,0.05813790836377945,0.010460944613441825,0.0019230665637683074,10623.572275994698
1678273371572868649,196,1677814456593262910,camera_1,197,0,0.13966748502277268,-0.2781771973915062,2.6536425358768225,0.704935074600844,0.7063581637031715,0.015345541917457907,0.06236344691119788,0.005524090025573969,0.0010155306218652587,10626.020715337947
1678273371577776990,197,1677814456599196672,camera_1,198,0,0.13964896228757945,-0.27821448144168553,2.6543680099727296,0.7050580744225128,0.7064970166072327,0.023838212420923505,0.05645189850902331,0.012551915133371951,0.00230564462757895,10628.378157579104
1678273371584921913,198,1677814456606112480,camera_1,199,0,0.1396665766072426,-0.27824116745811456,2.654184508143302,0.7046535178816282,0.7065922043779388,0.027393828406178995,0.05865538862392794,0.010074707097373905,0.001851322184636771,10622.204148884168
1678273371594071336,199,1677814456612773895,camera_1,200,0,0.13971868805066334,-0.2782980238886382,2.6550589224797028,0.7050526403917216,0.706565168850634,0.02136993845574538,0.05665476303131541,0.010186749103013426,0.0018722187592781572,10624.148019635468
1678273371597708085,200,1677814456619453430,camera_1,201,0,0.1397849321727453,-0.27848023781593906,2.6559521744054617,0.7052412882975243,0.7065557834427962,0.017824677074401905,0.05564109139096662,0.020287164661567658,0.0037300468045093054,10621.06574646721
1678273371604063318,201,1677814456626128435,camera_1,202,0,0.1397087149326249,-0.27819013608873694,2.6537956751258243,0.704923136473536,0.7064271355233505,0.02194805178887356,0.05968548301940277,0.006752951419912279,0.0012407929637062323,10627.33952831139
1678273371611695589,202,1677814456632794380,camera_1,203,0,0.1396399002749879,-0.2780868895395783,2.652384970820427,0.7047723527090628,0.7063033073365799,0.02718123426860869,0.06076799656049451,0.007409160083625466,0.001360237341314259,10632.07616674876
1678273371617534349,203,1677814456639445066,camera_1,204,0,0.1397212496869988,-0.2782673827470943,2.6540074200364425,0.7046365475218671,0.7064525729908768,0.02424717868176486,0.061839892763555365,0.006264419003855437,0.0011517726139233945,10619.103806179599
1678273371628254351,204,1677814456646142721,camera_1,205,0,0.13961875950049762,-0.27816246462254535,2.653224196920919,0.7048123549429973,0.7062849293106749,0.016796494025677046,0.06417959751172149,0.017804577306378633,0.0032727995729712124,10624.451029632004
1678273371631923158,205,1677814456652785062,camera_1,206,0,0.13960579768909306,-0.27824243964092543,2.6537098861338584,0.7048719994934974,0.7061555310720384,0.02574477083614806,0.061943821653177,0.01633696653880179,0.0030027007278803064,10620.060931857095
1678273371638035833,206,1677814456659443140,camera_1,207,0,0.13958251481254624,-0.2781148778834425,2.653111834700194,0.7047341610665886,0.7063627544297285,0.02609337410509869,0.060996370449641554,0.010758487682323903,0.0019763442397923094,10626.752285146624
1678273371645028643,207,1677814456666119575,camera_1,208,0,0.13968590529181502,-0.2782079364687021,2.6539082557607223,0.7047706475086523,0.7064182145697627,0.019769178413385203,0.062296228771600154,0.005792731186375022,0.0010650716104012694,10621.903045978626
1678273371651681746,208,1677814456672787189,camera_1,209,0,0.13958049581804255,-0.27806688023787496,2.652159229028841,0.7045582607530617,0.7063111572255404,0.026792553035023613,0.06328005598294012,0.010621556488331406,0.0019506422076355293,10628.437043366366
1678273371657820682,209,1677814456679464817,camera_1,210,0,0.1396216435974121,-0.27804887898469144,2.65273273202741,0.7052030830910391,0.7061146824423222,0.024131589073506175,0.05923118475143763,0.00751038984162733,0.0013789032961030428,10635.295828565606
1678273371665534178,210,1677814456686120748,camera_1,211,0,0.1396050699648902,-0.2780458953528438,2.6525015360604765,0.7046873025483362,0.7067333310932166,0.026008723327449,0.05716074404617023,0.011317518015857786,0.002076225346537735,10640.069444785124
1678273371670863030,211,1677814456692784070,camera_1,212,0,0.13960861564339663,-0.27815067538353055,2.6529058002477703,0.7047206807170502,0.7062470048779939,0.026315496362682964,0.06238128663105623,0.01109101710608229,0.002037600771615417,10624.98474089778
1678273371678108803,212,1677814456699460744,camera_1,213,0,0.13965914558378711,-0.278305024718636,2.65466682957882,0.7050345637550706,0.7063833453420894,0.02506343199611687,0.057625148247895636,0.019539621775038537,0.0035906003810298012,10622.545266289497
1678273371685881454,213,1677814456706125974,camera_1,214,0,0.13962280918083883,-0.27810415644261,2.652942483642274,0.7046897629834082,0.7064983591235423,0.023984859431128772,0.06080405430725256,0.011015390628017485,0.0020230313448793146,10630.22038917616
1678273371691671605,214,1677814456712797403,camera_1,215,0,0.1395937275340078,-0.2781116983118169,2.6528295380981417,0.7047716076603343,0.7062155500311439,0.025560935381956723,0.06247572738653331,0.01345546031370759,0.002471798892677521,10626.032790064695
1678273371698250328,215,1677814456719890356,camera_1,216,0,0.13950861402689885,-0.27794120891204116,2.650973818167697,0.704616826771554,0.7063844751573233,0.026512073277807146,0.06191292803293392,0.010134689742699265,0.0018590366867779055,10641.368501145043
1678273371707207479,216,1677814456726610898,camera_1,217,0,0.13973812916740252,-0.27832210044911604,2.6546367510959783,0.7046738704219594,0.7064199284129504,0.022735005780857874,0.062359767460453186,0.008274322666693479,0.0015221419040665214,10614.00512943929
1678273371712066233,217,1677814456733247041,camera_1,218,0,0.13967481570226034,-0.2782852242041022,2.654161025576341,0.7048159663744564,0.7063860326524701,0.023931722405609954,0.060667116956760574,0.012297876935917884,0.002260560775330441,10620.797493163032
1678273371718629870,218,1677814456739915609,camera_1,219,0,0.13977085183025542,-0.2783223857479001,2.6548105492036105,0.7049327961833254,0.7065378380489634,0.01960584732722801,0.05907323438611216,0.009019397897645831,0.0016582237347626857,10622.011267302903
1678273371725533772,219,1677814456746636629,camera_1,220,0,0.13971761688469428,-0.27827638569309004,2.654745983589994,0.7048699761132232,0.7066944610723015,0.018524029718596624,0.05829335971496555,0.01608895545359701,0.002957006756938625,10624.844594729602
1678273371732089378,220,1677814456753241777,camera_1,221,0,0.1396085075404456,-0.27816238669436855,2.653115500799176,0.7048218973094181,0.7062480920278023,0.02303383308581286,0.06252334055067829,0.015265941328834742,0.002804985670278082,10625.575751825243
1678273371738306535,221,1677814456759962797,camera_1,222,0,0.13952485344286183,-0.2780524431633503,2.652425002559795,0.7048669705593987,0.7063345236439385,0.024756022810761162,0.060342637145714514,0.008631746866740286,0.0015845795261618708,10634.818255924622
1678273371745557266,222,1677814456766611337,camera_1,223,0,0.13971473969908693,-0.27829883964726587,2.6546279193273072,0.7050481425825271,0.7062471946516139,0.02154315165220068,0.06048065231579681,0.01589613436954096,0.0029227080528769008,10619.185252070196
1678273371751344274,223,1677814456772607803,camera_1,224,0,0.13968445977470448,-0.27816056364832564,2.653456495711882,0.7048123129643208,0.7063514341668743,0.027559434332257465,0.05956284516013672,0.01231557666324079,0.002262059510049376,10625.876070939586
1678273371758523349,224,1677814456779920816,camera_1,225,0,0.13974438458982005,-0.2782835442301853,2.654197903743473,0.7048934253943057,0.706254633092137,0.024833870620577847,0.0609338242831839,0.011467687552794814,0.002108162117077889,10619.181858541448
1678273371766965005,225,1677814456786618471,camera_1,226,0,0.13961064685335514,-0.27809963488421197,2.6525375287529345,0.7049231413545112,0.7059178316894507,0.024346767933307048,0.06458029557809533,0.0133846839889884,0.0024595050419869368,10624.319509263842
1678273371773078449,226,1677814456793278694,camera_1,227,0,0.13964507165747195,-0.2781448601272827,2.6530474215580475,0.7047133310068654,0.7063429857415164,0.02549839415419973,0.06171336557444762,0.018995230901055038,0.0034891972367734492,10626.084642802249
1678273371777180338,227,1677814456799194812,camera_1,228,0,0.13968064113766232,-0.2782548933361825,2.6543668551153243,0.7048141956281008,0.7064204996272708,0.017762983741831922,0.062381918502540844,0.01733570609940216,0.0031880324220326687,10619.123521023197
1678273371785432656,228,1677814456805954933,camera_1,229,0,0.13952487343306186,-0.2780931926731673,2.652462486568388,0.7047871977275442,0.7061163867695395,0.0305429873967129,0.06117009216741412,0.012563641357701272,0.002307122118448675,10627.318829539694
1678273371793881785,229,1677814456813240051,camera_1,230,0,0.13957927679139082,-0.27803926402893236,2.6524460633728553,0.7050014165951692,0.706256926561818,0.023165069945282436,0.06031198733825235,0.009903042926453054,0.0018179130044303105,10635.916003264136
1678273371798331202,230,1677814456819463253,camera_1,231,0,0.13967762023308702,-0.2782188995587558,2.653934322094385,0.7044459008740632,0.7064920109968816,0.02750134985961551,0.062198769241931184,0.014210200228262693,0.0026124846515637097,10616.162744309753
1678273371804398202,231,1677814456826191186,camera_1,232,0,0.13956026013412728,-0.2781274259225056,2.6528572384345783,0.704671286266419,0.7062686757517265,0.030163622166780896,0.060935144713973,0.010154995019547641,0.0018650994613786521,10625.090625112058
1678273371812505670,232,1677814456833274602,camera_1,233,0,0.139620461047898,-0.2781089334249483,2.6530607599700873,0.7046771902524566,0.706373614685776,0.027596455705553306,0.06086714751116281,0.006097022909671068,0.0011200236928634159,10626.117285091195
1678273371819391832,233,1677814456839915275,camera_1,234,0,0.13969763925321085,-0.2782167053111088,2.6536840375328365,0.7049349488762812,0.7064191173934022,0.028566221495012725,0.056769000549765955,0.005783444561529905,0.0010619675443412778,10629.08638809575
1678273371825268096,234,1677814456846620559,camera_1,235,0,0.13976454570375346,-0.2783289484522707,2.655318863669642,0.7049999873143531,0.7064821770914782,0.02345865039761842,0.05751211229271127,0.0019257968524470925,0.00035413957638266496,10618.823891676153
1678273371831971276,235,1677814456853232145,camera_1,236,0,0.13973675854313408,-0.27827841161293226,2.654601361787818,0.7047894274561975,0.7066630082598695,0.024043251836213936,0.05762966028198642,0.01803316274890676,0.0033134837954180603,10623.847425219254
1678273371838001330,236,1677814456859436750,camera_1,237,0,0.1396377913909026,-0.278191937523044,2.6537169695585163,0.7048399921858916,0.7063802545120644,0.02550404175109241,0.059808572171740175,0.008380355895496905,0.0015397250075675128,10625.052451301251
1678273371844314937,237,1677814456866074562,camera_1,238,0,0.1396166697856135,-0.2782183386946915,2.653539477320997,0.7047945568705636,0.7062357277373104,0.025800401768159197,0.06188754916442485,0.006832963495980948,0.001255891116343297,10621.50771339051
1678273371853066756,238,1677814456872729539,camera_1,239,0,0.1395436322685261,-0.2781085244511358,2.652774298485956,0.7050042575988932,0.7062792866405623,0.031217126674039294,0.05624995139685889,0.009799088293220848,0.001797820429097027,10634.792440004654
1678273371857857974,239,1677814456879404306,camera_1,240,0,0.13962401387722143,-0.2781674897188134,2.6533772546638867,0.7048228877514262,0.7063246972126397,0.02400720589724812,0.06126804284633778,0.012687061273027213,0.00233107854484535,10625.668109158174
1678273371864917621,240,1677814456886061429,camera_1,241,0,0.13957747569060527,-0.27808753299019456,2.6523625436170337,0.7048644976688987,0.7062785525015769,0.026604147143701316,0.06024006604415826,0.010917030274868011,0.0020039521220662237,10633.963602521457
1678273371871113966,241,1677814456892762899,camera_1,242,0,0.13966444876915451,-0.2782814989068053,2.6542766222093217,0.7045440363047145,0.7064324242970609,0.02527928663935214,0.06270477235621023,0.002105760620906949,0.0003873626242399343,10614.167936494461
1678273371878023804,242,1677814456899440050,camera_1,243,0,0.1395983925602587,-0.27809459047215696,2.6524289470317877,0.7045324563996161,0.706257010742099,0.024939105474430363,0.06490834827118176,0.01476005103904754,0.0027121718915178276,10623.926936058557
1678273371884845224,243,1677814456906075954,camera_1,244,0,0.13961391975811582,-0.2782182748437995,2.6537137660181775,0.7047301449943021,0.7061575694179764,0.03325578213934433,0.05992464304696808,0.00708606408443302,0.0013021209781555465,10617.136762175243
1678273371891576968,244,1677814456912741184,camera_1,245,0,0.13968211690274843,-0.27828161135750257,2.6548087976032524,0.7049386191591278,0.7065834641318112,0.021887784900768387,0.05763919070952964,0.015232175937853752,0.0027993438335291074,10623.742441230454
1678273371899262388,245,1677814456919838428,camera_1,246,0,0.13953822440929992,-0.27798605190225495,2.6513347375814784,0.7043809503571673,0.7062400396263158,0.031095202756939184,0.0640747342410308,0.020492492767516524,0.0037614636474861216,10628.947028093044
1678273371907005846,246,1677814456926558256,camera_1,247,0,0.13967312707159635,-0.278176494512166,2.6534178970212112,0.704496322924153,0.7068255361428571,0.020582908552121783,0.06048914215167289,0.01398712705122307,0.0025694193589194283,10629.441964258205
1678273371912320171,247,1677814456933272361,camera_1,248,0,0.13964834717129002,-0.27815839873555487,2.653153116871394,0.7046200600345135,0.7064734599079494,0.024397094772708,0.06173008350311121,0.008050761884078383,0.0014791871301594384,10626.087282143297
1678273371919109395,248,1677814456939826011,camera_1,249,0,0.13962102532132137,-0.27818380826300393,2.653357873313233,0.7050189967495951,0.706377575888607,0.024890266683080788,0.05796041000868593,0.023941644001752138,0.00439529331811969,10632.4142076592
1678273371926994769,249,1677814456946530818,camera_1,250,0,0.1396773472469562,-0.2781811936204375,2.6541401322939433,0.7048901825744178,0.7064876776430797,0.023518091617722076,0.05875279751086038,0.0044460498611442745,0.0008170116599123316,10625.563200609762
1678273371931866723,250,1677814456952559471,camera_1,251,0,0.13970796770784066,-0.27828249643857894,2.6547801937513946,0.7047621589155084,0.7066541626545028,0.025181458766258064,0.05758548339832194,0.014242831093724817,0.0026174717078841924,10621.641026448458
1678273371938539242,251,1677814456959807157,camera_1,252,0,0.1396374730388283,-0.2781820726843863,2.653949018624571,0.70482669371509,0.7064122679150048,0.016508548401161737,0.06267780624368513,0.01911207177909091,0.0035137794417866093,10622.383020453506
1678273371945858766,252,1677814456966552257,camera_1,253,0,0.13979327886109993,-0.27836534097075144,2.655450250345904,0.7047375538854774,0.7065298083512317,0.025181797308822744,0.059384233084068865,0.010019599634688348,0.0018431673480911528,10612.394081300354
1678273371954174290,253,1677814456973178386,camera_1,254,0,0.13981507944427965,-0.27848988192093105,2.6562268600666834,0.704935402949995,0.7066775971406049,0.022570072603634254,0.05624449475260614,0.010612854093778878,0.0019521911143601579,10614.816669301477
1678273371958969978,254,1677814456979903459,camera_1,255,0,0.13975650779126342,-0.2783378397974592,2.6546620962731096,0.7046323657026465,0.7066360167467107,0.023000315463903166,0.06024744417147705,0.01371488074073568,0.0025217615357665964,10618.405601693317
1678273371965334499,255,1677814456986688137,camera_1,256,0,0.13958393255480517,-0.27813419652383,2.6528222997892743,0.704656412013502,0.7062896549085305,0.02740388172141087,0.06215538306571294,0.004116423020604998,0.0007562534125146136,10625.231815865378
