%time,field.header.seq,field.header.stamp,field.header.frame_id,field.image_seq,field.transforms0.fiducial_id,field.transforms0.transform.translation.x,field.transforms0.transform.translation.y,field.transforms0.transform.translation.z,field.transforms0.transform.rotation.x,field.transforms0.transform.rotation.y,field.transforms0.transform.rotation.z,field.transforms0.transform.rotation.w,field.transforms0.image_error,field.transforms0.object_error,field.transforms0.fiducial_area
1678312269287811058,176,1677825034917077779,camera_1,179,0,0.10909771173610476,-0.3309389523389533,2.642221480220734,0.7040571378057943,0.7062420144181006,0.033617512057240624,0.0662995223094224,0.003503789252135903,0.0006415233708542401,10656.257913698675
1678312269294567522,177,1677825034923938274,camera_1,180,0,0.10898046943284713,-0.33071851461380436,2.6404795349629633,0.7038659805582852,0.7062918942802313,0.03471273547347626,0.06722698478077767,0.002200111746788025,0.0004024083123385196,10666.618690301546
1678312269302888209,178,1677825034930506706,camera_1,181,0,0.10900997555599846,-0.3308816044964486,2.6418252922829986,0.7040743772511442,0.7062439657046781,0.03335927655324171,0.06622605885893722,0.004086848173756152,0.000748014180802899,10659.96107619151
1678312269306558968,179,1677825034936291694,camera_1,182,0,0.10893957340057675,-0.3307573581041963,2.6407515625559665,0.7038729619391038,0.7063514196752618,0.03461466068462676,0.06657590134202923,0.0030875058146193624,0.0005647185754789325,10666.213265242288
1678312269313576846,180,1677825034943076372,camera_1,183,0,0.10904063552759703,-0.33097013802913455,2.6426587972919995,0.7041550587241161,0.7064218383754394,0.028520007855883156,0.06573012012313348,0.008080620900727808,0.001479638961502846,10659.711719778012
1678312269323057308,181,1677825034950578927,camera_1,184,0,0.10897517621574684,-0.3307743098375481,2.640987988976632,0.7039401257699003,0.706411965130101,0.033748392315733323,0.06566186768733659,0.007275325478985906,0.0013306361147557499,10667.670033357805
1678312269328102883,182,1677825034957170009,camera_1,185,0,0.10899257959388242,-0.33077793688163365,2.641030433043601,0.7039089286626279,0.706295615419116,0.03318654019423786,0.06750835014055567,0.004974343697540462,0.000910218094193955,10663.307652567048
1678312269334301458,183,1677825034963759183,camera_1,186,0,0.10893843373333255,-0.33063269231771364,2.6395230006680785,0.7038218792967393,0.7062510734593533,0.0364623316793068,0.06719138210533718,0.005382216942962259,0.0009836135573508575,10672.16040625644
1678312269340580141,184,1677825034969747304,camera_1,187,0,0.10895930844424853,-0.330694342618221,2.6401155467997413,0.7039136157174544,0.7061587966157352,0.03688836905492381,0.06696733381481473,0.0031644537230022256,0.0005785849548917037,10667.401825492965
1678312269350343947,185,1677825034976616382,camera_1,188,0,0.10898761935010286,-0.33077330677061323,2.640895039169597,0.7039449695317473,0.7063285679732151,0.032517428337286096,0.06711222534072414,0.005204763438086957,0.0009522077151750347,10666.18104686088
1678312269354274654,186,1677825034983732461,camera_1,189,0,0.1090416368659114,-0.330925896281124,2.6419960139279715,0.7039161145462088,0.706297496037236,0.03570867075164804,0.06611234080600925,0.0026865600957535207,0.0004917745596664329,10655.954070650045
1678312269360222991,187,1677825034989924907,camera_1,190,0,0.10897890674492629,-0.33079449091636903,2.641038450500467,0.7040255919215828,0.7061558260780401,0.0350352800828635,0.06681649770095144,0.0024534271215088665,0.0004488584061578276,10662.755437282263
1678312269367354010,188,1677825034996572017,camera_1,191,0,0.10903021766998132,-0.3309670269222766,2.6425447594553453,0.7041196636135596,0.7062841863287407,0.03349215026371464,0.06524127010864478,0.003772341297008097,0.0006906749088932787,10656.475874980566
1678312269373972538,189,1677825035003214836,camera_1,192,0,0.10899917750293624,-0.3308487958533315,2.641739880345952,0.7040830065934026,0.7062846915755324,0.03258680651258936,0.06608444835027914,0.003414947830606252,0.0006250112351122513,10661.928222855204
1678312269380613904,190,1677825035009919881,camera_1,193,0,0.10897763641404605,-0.33075322151864467,2.6406325695203416,0.7038079180997334,0.7062478082824676,0.03562295595260814,0.0678192651503119,0.0038665124448016286,0.000707351443443837,10662.701150066912
1678312269387220699,191,1677825035016564369,camera_1,194,0,0.10903332925920872,-0.33085302105986675,2.641550619361293,0.703960241926209,0.7061303874774985,0.035110210412625464,0.06772833079924931,0.003550402063410729,0.0006499811164095579,10656.199778720036
1678312269394282646,192,1677825035023276329,camera_1,195,0,0.10899001966354097,-0.33070384701352556,2.640197725617135,0.7039058252777501,0.7062293541366396,0.03465610938544439,0.0674955004282401,0.007626964128576217,0.0013946209947079042,10668.246959297452
1678312269400538910,193,1677825035029927730,camera_1,196,0,0.108985247129035,-0.3307498760268242,2.640462813111471,0.7039028159935147,0.7060375010072321,0.03675151104460031,0.0684192899977915,0.003252432041335851,0.0005950331883153871,10661.016982762376
1678312269408020949,194,1677825035037101984,camera_1,197,0,0.10896927118298289,-0.33073613235446775,2.640603963342356,0.7037827034214377,0.7062939822501103,0.03543293194376006,0.06769951503491446,0.0034753383370116353,0.0006357491301344851,10663.496594786524
1678312269416359585,195,1677825035043729066,camera_1,198,0,0.10896549127794626,-0.3307267027202465,2.640447680119878,0.7040170303820056,0.7060883573504811,0.03376418173826974,0.06825857145990283,0.0029610662604682148,0.0005416771778181801,10665.352040034139
1678312269419857209,196,1677825035049594640,camera_1,199,0,0.1089491639477825,-0.3307173118081919,2.6404953933706277,0.7039254194968165,0.7062557995393937,0.03205014137499419,0.06829742192092977,0.003952760132960975,0.0007231115557135955,10666.877319742227
1678312269427215770,197,1677825035056460380,camera_1,200,0,0.10898830129744301,-0.3308249496598915,2.641429554006601,0.704040480485138,0.7061752866837269,0.03466603180079127,0.06664632438926192,0.005218663194682449,0.0009549795803262243,10660.516861925953
1678312269434817237,198,1677825035063745260,camera_1,201,0,0.10901719343275047,-0.330893629093944,2.641813343362161,0.7041015020043273,0.7062086722093615,0.03356809615501552,0.06620852733650451,0.0037740725674666464,0.0006908107171448229,10659.843842025966
1678312269443302259,199,1677825035070535659,camera_1,202,0,0.10894794038248018,-0.33070043167258006,2.640345816049684,0.7040109822791529,0.7060272313496716,0.034580206958827055,0.06854410776824148,0.004111080546863377,0.0007520493309871516,10664.451538035879
1678312269447797488,200,1677825035077146768,camera_1,203,0,0.10899391992394271,-0.3308710423105263,2.6414721559792995,0.7040912431590464,0.7061331319278625,0.033237128983697795,0.06728160638256006,0.004101029073353857,0.0007506233152721337,10660.238627300012
1678312269454364474,201,1677825035083746671,camera_1,204,0,0.10896872727439699,-0.33075176423166047,2.640906421517366,0.7039113418572274,0.7059857405271173,0.035659004744624474,0.06943624671422353,0.002578220854047686,0.0004719682785564244,10656.242155512797
1678312269460378391,202,1677825035089646100,camera_1,205,0,0.10899152673319268,-0.33086671224283387,2.641631678338589,0.7039537492543053,0.7062021827746439,0.032658805613474874,0.06827150482475483,0.004452223074622452,0.000815143519281387,10657.086439613366
1678312269467254282,203,1677825035096402168,camera_1,206,0,0.108972730566445,-0.3308115106255312,2.641119624717899,0.703882991192553,0.7062639008411344,0.03487705626114281,0.06725792165273625,0.0017004915280267596,0.00031116778150664634,10661.168261038838
1678312269474891507,204,1677825035103788137,camera_1,207,0,0.10898319798513392,-0.3307863315868038,2.640919542995493,0.7039368682467276,0.7063246299502286,0.03496718623501942,0.06599771613826873,0.004336079640779644,0.0007930446258617404,10665.862996301847
1678312269481359458,205,1677825035110538482,camera_1,208,0,0.10897480027635587,-0.33067501054851123,2.639898580949442,0.7038704339262432,0.7062244840604308,0.0352162784592861,0.06762546923710382,0.0033973765675909817,0.0006211867657971013,10669.620777102886
1678312269487665868,206,1677825035117165327,camera_1,209,0,0.10903091293851369,-0.3307633070382894,2.640501552276168,0.7039924386288596,0.7062558547212029,0.0323554680711989,0.06745693227021424,0.0034345315070822835,0.000628178446151038,10668.598498041974
1678312269494372396,207,1677825035123746395,camera_1,210,0,0.10906378440833536,-0.33090554566585956,2.6416958615554775,0.704041938066714,0.7063006643985865,0.03416403758383601,0.06555257012010192,0.005954951862804592,0.0010896907604552905,10661.682295838142
1678312269503378918,208,1677825035130510568,camera_1,211,0,0.10896573730505095,-0.3307836051959212,2.6412008762958847,0.7038696132658071,0.7062585914710465,0.03299394957951614,0.06839421602387803,0.005704368639271706,0.0010441194073620072,10659.882167506497
1678312269507824910,209,1677825035137161731,camera_1,212,0,0.10894574503955613,-0.3308004657349601,2.641280880410577,0.7039576638226658,0.7062506929773184,0.03386211877395304,0.06713362143167366,0.005211102426983416,0.0009536404817215087,10661.470117542658
1678312269513032516,210,1677825035142889976,camera_1,213,0,0.10896963150238015,-0.33082668920553193,2.6415241775104175,0.7040081649590982,0.7063812697120373,0.03397253273433913,0.06514501124834812,0.002621783991344273,0.00047964939015462683,10664.375282886667
1678312269521427094,211,1677825035149996757,camera_1,214,0,0.10900148689816656,-0.3307874360474172,2.641055954722481,0.7037795892075337,0.7062923672302481,0.03705184086229654,0.06687707302119797,0.005085676850285381,0.000930427854084687,10659.853800123436
1678312269528138859,212,1677825035157121181,camera_1,215,0,0.10900706520066004,-0.3308014272847106,2.6410855466819334,0.7040324700637574,0.7060637964302449,0.036132165973023295,0.06713168438622896,0.006827477889601141,0.0012493318874477071,10660.17400442611
1678312269533456394,213,1677825035162902355,camera_1,216,0,0.10899292912005835,-0.3307367826345333,2.6403035372473136,0.7038548645492726,0.7062098943343876,0.035795403893927415,0.0676358178379538,0.0025765469763427973,0.00047121834442073306,10665.574575707202
1678312269541141809,214,1677825035169990301,camera_1,217,0,0.10900970558921998,-0.3307576415610849,2.6405085886406408,0.7039249978506261,0.7062102364928733,0.03477670597012786,0.06743352278758234,0.0034865786437876523,0.0006377105764444591,10665.733421031618
1678312269549809395,215,1677825035177170276,camera_1,218,0,0.10900473916656525,-0.3308040789036969,2.6410608010662835,0.703890195198601,0.7062330624615791,0.032753475759249355,0.06856139157793686,0.005472525139339268,0.0010016198194538663,10660.806441303339
1678312269553134513,216,1677825035182896375,camera_1,219,0,0.10899942085443022,-0.33088804594698007,2.641826152610764,0.7040238798281498,0.7063156607090358,0.03394741680554869,0.06569731319549836,0.004253904975485057,0.0007785192419573333,10660.577710372629
1678312269560641834,217,1677825035189406871,camera_1,220,0,0.10895639004354758,-0.3307712086521604,2.6408434956956057,0.7039113059247678,0.7061747443720027,0.03727202535366695,0.06661005876337461,0.004426198138389736,0.0008095973356677104,10661.94527874747
1678312269567781654,218,1677825035197112321,camera_1,221,0,0.10900555574209264,-0.33087875827516033,2.6419244052911726,0.7041027561648342,0.7063320924463425,0.031907382886799326,0.06569781471838083,0.0029265411430969834,0.0005356313381506102,10662.17096034263
1678312269574589869,219,1677825035203797817,camera_1,222,0,0.10899097630502771,-0.3307826577795437,2.6409673132680775,0.7040054778170427,0.7062941555591555,0.033331145616984,0.0664370962522916,0.004667988221626729,0.0008538698764275813,10666.365691981511
1678312269582900080,220,1677825035210479021,camera_1,223,0,0.10902661617781928,-0.3307623092638178,2.6404771637122626,0.7039022249662817,0.7061660624825524,0.03394760329640482,0.06854713791133772,0.00328591390280053,0.0006011892221240252,10664.100378496461
1678312269587819173,221,1677825035217265844,camera_1,224,0,0.10907780266382483,-0.3308981533026672,2.6417450022377746,0.703923492146852,0.7062441026439317,0.034674153508566924,0.06714676286250133,0.0022656777291558683,0.0004147824395110423,10656.643964499235
1678312269593856696,222,1677825035223191499,camera_1,225,0,0.10904328112156735,-0.3308330591897233,2.641116249731066,0.704175553294259,0.7061393061957545,0.03397507805701517,0.06595274413640859,0.00278171815443784,0.000508851440057103,10665.57621858548
1678312269600927373,223,1677825035229886770,camera_1,226,0,0.10893529102446621,-0.33064004084320686,2.639747953162322,0.7038444644738683,0.7061207103648067,0.03714515109532094,0.06794667006925352,0.0039930533384904265,0.0007300458467685279,10667.511602616873
1678312269607809131,224,1677825035236518383,camera_1,227,0,0.1089394826685464,-0.3307587650437393,2.6409441452091964,0.7039840854305344,0.7061655810409424,0.03428946382080837,0.06753378624454387,0.0026076166541315615,0.0004771259187110022,10662.633018477587
1678312269613722407,225,1677825035243291378,camera_1,228,0,0.1089372606241487,-0.33077947632572696,2.640981378012749,0.703908476231704,0.7061202156141245,0.03643502109596248,0.06767264903903016,0.0028944219811819494,0.0005296498689004099,10659.244240322263
1678312269620721846,226,1677825035249891042,camera_1,229,0,0.10889276545325675,-0.3306247894070101,2.6396665024252957,0.7037920741303386,0.7059525854465291,0.038170751449744335,0.06964665983691426,0.005911086744163185,0.001081040265563256,10662.302223189039
1678312269626988377,227,1677825035256554603,camera_1,230,0,0.1090204997888911,-0.3308596123426017,2.6413469948087673,0.7038690899672265,0.7063024832339095,0.03429088114798566,0.06729964217152885,0.0031984401284717023,0.0005853721544425263,10659.927965403076
1678312269633964420,228,1677825035263068437,camera_1,231,0,0.10892633685676366,-0.3306223627166444,2.639743162257901,0.7039770911563823,0.7059876029852595,0.03584086769262511,0.06865268939499827,0.0033984823967330158,0.0006214463974418388,10667.439664804026
1678312269640562764,229,1677825035269887208,camera_1,232,0,0.10894573355726973,-0.33066547998249896,2.6398864657693264,0.7038263222218729,0.7061292030323241,0.03578287194620764,0.06877239888100903,0.0011569199268706143,0.00021158566481702945,10666.014355747726
1678312269648184415,230,1677825035277042627,camera_1,233,0,0.1090226445566008,-0.3308725537526759,2.6415913218198908,0.7038555524584256,0.7062837455261224,0.03489563683498318,0.0673270124758052,0.002957414137199521,0.0005413617650242887,10657.161007894782
1678312269654401568,231,1677825035283699512,camera_1,234,0,0.10907481501723497,-0.3309603723851793,2.6423813695076874,0.7042615680586232,0.7061951982885835,0.0321280186029796,0.0653588256504384,0.003394783940166235,0.0006214772253109235,10659.050188281108
1678312269661012972,232,1677825035290376901,camera_1,235,0,0.10900998289762108,-0.33091483455008314,2.6421063287375453,0.7042984907655768,0.7060810458900645,0.032820819663901685,0.06584820678433945,0.0030763757531531155,0.0005631356858389484,10659.276188180893
1678312269668531817,233,1677825035297504425,camera_1,236,0,0.10896512490443441,-0.3307735363630167,2.640885701334005,0.7038335972405645,0.7061800174017306,0.03678551759952463,0.06763783048585724,0.005357570247724652,0.0009803203883368278,10659.634287575493
1678312269674827681,234,1677825035303963899,camera_1,237,0,0.10895712524700409,-0.33076707112278536,2.640861897715915,0.7038266248352301,0.706240052468481,0.03469104057282319,0.06818799136461245,0.00660499488003552,0.0012086179538944824,10661.089778879073
1678312269680686621,235,1677825035309730768,camera_1,238,0,0.10900111331698235,-0.33080277671899544,2.641070153909296,0.7041182459389475,0.7061842553654598,0.03573579155130667,0.06514788110132423,0.0037251199246384203,0.000681260373507377,10665.792699413496
1678312269687769730,236,1677825035316989421,camera_1,239,0,0.10908226926264838,-0.33097489815414405,2.6423565655898362,0.7041384421952263,0.7061610887246416,0.03368859393331666,0.06626197727886732,0.002443752659019083,0.00044746210415919557,10655.162094258587
1678312269694568796,237,1677825035323693037,camera_1,240,0,0.10899897241235636,-0.33077118774668357,2.640439856234696,0.7039286375864673,0.7061043155812436,0.036998199742251964,0.0673223730942115,0.003030322666745633,0.0005542113508500722,10663.687072675908
1678312269701643943,238,1677825035330392837,camera_1,241,0,0.10905672089295435,-0.33087312350200965,2.6415110987100925,0.7038090125717659,0.7063822809541269,0.033551955833632185,0.06746268032430232,0.007738468644674867,0.0014164424014425315,10659.079561139455
1678312269706636788,239,1677825035336114168,camera_1,242,0,0.10895153419890859,-0.3307223711216005,2.640584220360395,0.7039592956003194,0.7063586478774104,0.033662645991207475,0.06607266432927654,0.005542508792132139,0.0010134781581807297,10669.999839709373
1678312269714629293,240,1677825035343665838,camera_1,243,0,0.10893025381565559,-0.3307352326356742,2.6406049724862597,0.703924605059074,0.7060589431324156,0.03488220915696147,0.06895034952408322,0.004961714614182711,0.0009079691401215027,10660.928535807177
1678312269721453991,241,1677825035350376844,camera_1,244,0,0.10897118298430428,-0.33083054746555896,2.641371047282123,0.7040158180849214,0.7062118882991933,0.032814105258536536,0.06745169536185598,0.0030777899082750078,0.0005633241744276131,10661.13932249357
1678312269730514501,242,1677825035357006788,camera_1,245,0,0.1089605380493068,-0.3308110383902488,2.641225084452878,0.7039681045046796,0.7061771120278986,0.03432824379975559,0.06756009151599687,0.0031645121634937823,0.0005791608067837136,10660.238269468071
1678312269733422460,243,1677825035363012313,camera_1,246,0,0.1089477153561586,-0.3306756126283605,2.6401953537893297,0.7038978750316419,0.7062321791223161,0.033257211240260855,0.06824843293882009,0.0070223689544945955,0.0012843615299768646,10668.040597206687
1678312269741030073,244,1677825035369699478,camera_1,247,0,0.1089883219503925,-0.3307531623076309,2.6406717289188437,0.70403173646758,0.7060570466812998,0.03422452295272738,0.06820148757016437,0.003259588615037501,0.0005963991687142571,10663.139088599593
1678312269748054236,245,1677825035377024412,camera_1,248,0,0.10910191362061025,-0.3310162083913153,2.6427193794885895,0.7040949605279487,0.7063049020267375,0.03502017454232408,0.06447681216664208,0.004764882731251419,0.0008723631777632382,10655.052629461507
1678312269754319509,246,1677825035383746147,camera_1,249,0,0.10903872376049291,-0.3308630670005382,2.6414582812884073,0.7040544565182959,0.7061212568429408,0.03481288853023691,0.0669936988339488,0.005925067875068634,0.0010843811642686609,10659.178845447019
1678312269761357920,247,1677825035390368700,camera_1,250,0,0.10896287936220743,-0.3307908799628346,2.640910928441574,0.703970722491521,0.7062215666149372,0.0354719608717569,0.06646849415040465,0.004469730833079666,0.0008175441600077032,10664.104571399392
1678312269768589301,248,1677825035397015571,camera_1,251,0,0.10897877340417927,-0.33080435692403093,2.6413886289417796,0.7039697751858804,0.7062107731525271,0.03566558200956149,0.06648959142580255,0.0031303431605920196,0.0005728067592133831,10660.001101324222
1678312269773361100,249,1677825035402904510,camera_1,252,0,0.10895300367680641,-0.3307357134538295,2.6407976215925117,0.7038447540728129,0.7062650112321238,0.03352129063721102,0.06832729430824143,0.004018646781332791,0.0007353165228375464,10662.678675393692
1678312269781376094,250,1677825035409975528,camera_1,253,0,0.10899208062509064,-0.3307415235722787,2.6407289695583,0.704120872366702,0.7061157925463314,0.03276592023003521,0.0673845611820684,0.005161268752999604,0.0009441551761691862,10666.539086652101
1678312269788119008,251,1677825035417053222,camera_1,254,0,0.10898183248095589,-0.33065645798881727,2.639793808044903,0.7037731476290926,0.7062199289643508,0.03626248308077309,0.06813076346734503,0.0035996236256323755,0.0006581596613204711,10667.812625797347
1678312269794343285,252,1677825035423679590,camera_1,255,0,0.10897383995305111,-0.3306672591795576,2.639700330891305,0.7038779169100928,0.7060429310309915,0.036848868119420446,0.06856689103198896,0.004256104642990977,0.0007782166217650448,10666.63275023131
1678312269801243900,253,1677825035430486440,camera_1,256,0,0.10907496724075119,-0.3309454153187364,2.6421615629534974,0.7040983573829034,0.7063340966999461,0.03341884563141776,0.06496789766055244,0.0033941580913960934,0.0006212051753520624,10660.284941323573
1678312269808048693,254,1677825035437006950,camera_1,257,0,0.10896260975796844,-0.33076140571626134,2.640857521771489,0.7038841198721744,0.70623558039605,0.03389855887325532,0.06803924221172247,0.003733278950676322,0.0006831301005624529,10662.481329245958
1678312269813327676,255,1677825035443045377,camera_1,258,0,0.10893665797576806,-0.33085692368961106,2.6416460099883547,0.704036796114329,0.7064251318628175,0.035183332502822795,0.06370130221327844,0.0024595543509349227,0.00044985104192981734,10665.41748386878
1678312269821006805,256,1677825035449673652,camera_1,259,0,0.10895302389355044,-0.3308197016359032,2.641530826157027,0.7039420699800975,0.7065590473441414,0.031148108077405198,0.06534271261183788,0.005789381102658809,0.0010592073124888076,10667.084654459151
1678312269828274084,257,1677825035457026004,camera_1,260,0,0.10900658897151835,-0.33090273635544976,2.642063347333104,0.7038797443757145,0.7064095146709284,0.03219618027242966,0.06709924750567335,0.004994509858079255,0.000914489715586437,10657.184923656632
1678312269834906580,258,1677825035463811874,camera_1,261,0,0.1089297708606144,-0.3306315811395269,2.6397604087278648,0.7036775007547091,0.7061098486511218,0.035675605318804635,0.070527354655007,0.003981645742896944,0.0007284012720217713,10662.504995052004
1678312269841236038,259,1677825035470443964,camera_1,262,0,0.1090730644371009,-0.33088639732790087,2.6415720773510314,0.7039542382198575,0.7062458014638681,0.0350191329733685,0.06662551112563776,0.004825667187105864,0.0008831528345539339,10658.924992395796
1678312269846509084,260,1677825035476294517,camera_1,263,0,0.10900870819180859,-0.3307868741444079,2.640611969509407,0.7038387671237601,0.7061503550140058,0.03695711532314398,0.06779998255376554,0.007709439087193459,0.0014103047046893028,10661.134929535916
1678312269853567539,261,1677825035483033418,camera_1,264,0,0.10902255810814622,-0.3308308424636798,2.641071061139777,0.703849843196668,0.7062157338273723,0.037400143512327434,0.06675301335482142,0.0029197119874879718,0.0005341624413729889,10659.532815195736
1678312269861116485,262,1677825035490359306,camera_1,265,0,0.10900115880574211,-0.33087679165323314,2.6416798712063394,0.7039152937457589,0.7062395813973761,0.03600080244134369,0.06657969001174768,0.0021271876175887883,0.0003893335520310001,10656.957438200716
1678312269869715417,263,1677825035497017621,camera_1,266,0,0.10891340624434151,-0.3307756171001289,2.641081124196123,0.7039944170803153,0.7062800337935711,0.033113068302802924,0.06681241869497723,0.002994578506331891,0.0005479119380850833,10664.79281166487
1678312269874207015,264,1677825035503709554,camera_1,267,0,0.10898945582247505,-0.33087854997495547,2.642102925876073,0.7040531432289707,0.706357020610302,0.03180890590673068,0.0660085180030625,0.006336647435091436,0.0011600715801133282,10660.097220172644
1678312269880802845,265,1677825035510363340,camera_1,268,0,0.1089936503059589,-0.33073594534987777,2.6407197673279894,0.7041185496780128,0.7060998969697988,0.03236280645367126,0.06776910990276899,0.003976750711444765,0.0007275372099108887,10666.086283212993
1678312269888566552,266,1677825035516306400,camera_1,269,0,0.1090066619255916,-0.33078905243795453,2.640939008816833,0.7039412242953295,0.7061908078063727,0.034830288567204645,0.06743994888566303,0.0028189157019369304,0.0005157582305350073,10662.2040870632
1678312269893584051,267,1677825035523036956,camera_1,270,0,0.10900899280754288,-0.3308111221666114,2.641205654161244,0.7041041913890244,0.7060976495843568,0.03429943705720546,0.06698466643504263,0.00157724239397794,0.0002886252758777341,10661.889767186254
1678312269902847587,268,1677825035530386924,camera_1,271,0,0.1090510744839235,-0.33091451156515994,2.641769246525981,0.7038777434195715,0.7063738246290239,0.03561340358361384,0.0657558186225957,0.0053251347853802145,0.0009745030525105491,10658.780132640037
1678312269908126151,269,1677825035537023782,camera_1,272,0,0.10893398806233046,-0.3306548674677486,2.6398470052747367,0.7038341890421371,0.7060317435800552,0.037066193158089254,0.06901238089989113,0.004258357104845345,0.0007787787389616529,10664.023410668946
1678312269914718279,270,1677825035543740272,camera_1,273,0,0.10897638995537424,-0.33081566384360594,2.6412768019297275,0.703862264109926,0.7061933834848033,0.03415407648655847,0.06857344488710303,0.004152596928179264,0.0007601802315525528,10657.398333784666
1678312269921345677,271,1677825035550420522,camera_1,274,0,0.1089349238529474,-0.33082279741598364,2.641479298444129,0.7039976581432855,0.7062536049902637,0.033559888889994435,0.06683469626412424,0.007064333593007177,0.0012929685644416477,10661.006101718176
1678312269927935012,272,1677825035556342601,camera_1,275,0,0.10899253132583786,-0.33086841652455773,2.6418202580457057,0.7041970125392392,0.7061447777506173,0.03348233785052397,0.06591701933799424,0.0032310205278918147,0.0005913129244568344,10660.642872144817
1678312269934471058,273,1677825035563626527,camera_1,276,0,0.10892840115766261,-0.3306737149017235,2.6401359638551343,0.7039929916377807,0.7061507590044092,0.033440223049578936,0.06802003208451723,0.005241771345026791,0.0009585972680906511,10668.894244670862
1678312269941470148,274,1677825035570414543,camera_1,277,0,0.10893116229130953,-0.33071798362126487,2.6402596251034716,0.7039085908615641,0.7060436768975175,0.03613724331843175,0.06862304037031293,0.003352117259055376,0.0006132124474833356,10662.944993642162
1678312269947737447,275,1677825035576356649,camera_1,278,0,0.108998867631351,-0.3307985800946953,2.6409154813638236,0.7038719173852631,0.7062380257822457,0.03533724978547348,0.06740514545039178,0.004948027548380196,0.0009052996877980683,10661.842190957861
1678312269954260363,276,1677825035583664894,camera_1,279,0,0.10905425590162494,-0.3308719472475874,2.6414368222919213,0.7038097877081787,0.7065311315624881,0.03411837398967843,0.0655856647103549,0.0059061916545033455,0.001080534897226146,10663.74341859598
1678312269963091167,277,1677825035590401887,camera_1,280,0,0.10906684341260794,-0.33090496778517964,2.641619380970702,0.7038199182754293,0.7063830581210357,0.035940874395585166,0.06609653081684372,0.0022894417634233832,0.00041898730545765744,10658.699814304251
1678312269967797944,278,1677825035597009420,camera_1,281,0,0.10892324937933329,-0.33060214576174224,2.639415785281485,0.7038025542482572,0.7060932199005213,0.03577351275090557,0.06938721229163024,0.005077555717434734,0.0009284143884759058,10668.207598314617
1678312269974484567,279,1677825035603729724,camera_1,282,0,0.10894733248445689,-0.3307584075310571,2.6406887085456936,0.7039148535569918,0.7061388068128941,0.032676240451658775,0.06931181547648534,0.005746909126173705,0.0010517293645394058,10661.923925620504
1678312269983141048,280,1677825035610400676,camera_1,283,0,0.1089477633573117,-0.3307437190430255,2.6409521819517674,0.7040529266534642,0.7062375224163366,0.033797978090637365,0.06630033996074869,0.00405393575783819,0.0007415497071448622,10666.322443228799
1678312269987673852,281,1677825035617014169,camera_1,284,0,0.1089720171938599,-0.33083631745304404,2.6415638597710998,0.7039507151534721,0.7062933226598358,0.03438281924109588,0.06649026050541776,0.002465293335262686,0.0004511628572737064,10660.184813099564
1678312269994471521,282,1677825035623694896,camera_1,285,0,0.10899097431785099,-0.33081746785141214,2.6411701184163863,0.7039231425323804,0.706280532766772,0.03412226843702719,0.06704990110905629,0.002733460976742208,0.0005001733519076929,10662.219687333913
1678312270003385854,283,1677825035630375146,camera_1,286,0,0.10908601456165849,-0.3309149545574127,2.6416521909600954,0.7040391391323112,0.706132113820908,0.03397631397330372,0.0674680553257469,0.0052084276103414595,0.0009534361902331512,10657.387778538283
1678312270008233500,284,1677825035637262821,camera_1,287,0,0.10899518137703493,-0.33071519843818903,2.6400170737115882,0.7037043346949282,0.7060468569145325,0.036658844521580684,0.07038589554037634,0.0037531479028984904,0.0006867519780626451,10659.480287931628
1678312270014177716,285,1677825035643690347,camera_1,288,0,0.10896071841410568,-0.3306760984109686,2.6400019112507622,0.7036468142481631,0.7061629980160385,0.03637274907691551,0.06994286351014907,0.0056747543858364224,0.0010382219008531366,10661.21695224219
1678312270021093486,286,1677825035650347948,camera_1,289,0,0.10895072698095948,-0.3307737794840099,2.6411519043351293,0.7041577149857579,0.7061428671577344,0.03416289051819858,0.066008033599949,0.0041510434239171445,0.0007593555015984652,10665.002023314359
1678312270029353551,287,1677825035657071828,camera_1,290,0,0.10897842585280844,-0.3308840986672895,2.641739498675829,0.7039364654553495,0.7063131275054415,0.03304942115251931,0.06710405559424307,0.005847239983268082,0.0010703459582337284,10658.783612427305
1678312270034344930,288,1677825035663634061,camera_1,291,0,0.10888156716170229,-0.3306626048978705,2.64018591771667,0.7038455292509741,0.7061668680434475,0.035318928860982035,0.06842805488421842,0.002925398002844304,0.0005350989008560876,10665.154012591232
1678312270039898316,289,1677825035669648408,camera_1,292,0,0.10896558247735882,-0.33071991040454896,2.6404258859115375,0.7037583480271975,0.7061814484330193,0.033930317411199604,0.06986188539860658,0.005578316457103938,0.001020852219326252,10661.099324426152
1678312270047946415,290,1677825035676990509,camera_1,293,0,0.10899040916140612,-0.33073281384986064,2.6403366993269697,0.7038407373778165,0.7061727577906709,0.03663917067387487,0.06771871036944542,0.0066450092708691955,0.0012152724802023031,10664.002798540285
1678312270054475058,291,1677825035683659791,camera_1,294,0,0.10907565184932842,-0.3308750578491949,2.6415463800261363,0.7038644588146156,0.7063817837767123,0.036634275240703555,0.06524974362881905,0.006802050571423024,0.0012444324472302092,10660.514896178265
1678312270061542173,292,1677825035690332174,camera_1,295,0,0.10899892849317916,-0.330764445893321,2.640700620167633,0.7040010471875406,0.7061694972978492,0.03571094388784265,0.06657248028719287,0.005019504984375089,0.0009180278866607149,10665.227209834618
1678312270068709859,293,1677825035696966171,camera_1,296,0,0.10898921528341776,-0.330757861285755,2.640624413595932,0.7037705208619922,0.7064248599306123,0.03605103598818159,0.06611576243101233,0.005484132387209684,0.0010028088545214807,10666.555769691593
1678312270073367608,294,1677825035703012466,camera_1,297,0,0.10898281935481285,-0.3308504191671973,2.641613984569371,0.7041236519979234,0.7060979107123024,0.03388606288941969,0.06698774460065963,0.003225910884793848,0.0005904407397583812,10659.109149967087
1678312270080930872,295,1677825035709858894,camera_1,298,0,0.10892191028919897,-0.3307629930135052,2.6410939487555036,0.703899268896472,0.7063469375863533,0.03224476501929685,0.0675284987116048,0.006002042267937213,0.0010982983051465855,10663.867605576987
1678312270087613793,296,1677825035716956615,camera_1,299,0,0.1089826880008797,-0.33078898873210233,2.641192879574102,0.7040262713436081,0.706348419596546,0.03511874289400408,0.06469616131597775,0.00453056552214548,0.0008285340858564336,10666.731381590947
1678312270093499133,297,1677825035723027944,camera_1,300,0,0.10895955158737747,-0.33065139563950885,2.6398361374606236,0.7039083579192285,0.7060856177071405,0.03587205713792321,0.06833242008940331,0.0028343070880509913,0.000518252901191601,10667.461852222683
1678312270100924950,298,1677825035730298519,camera_1,301,0,0.10905305862984299,-0.33086999268867556,2.6414833391483876,0.7038645879733433,0.7064926162839815,0.03588873340216361,0.06445792230687326,0.003139260516036302,0.0005742012747815316,10663.941215224912
1678312270107829825,299,1677825035736937999,camera_1,302,0,0.10895838042215794,-0.33070566403386975,2.64007244832977,0.7038956875992707,0.7061948446685392,0.03566171259499043,0.06743845043830826,0.0031446065986528993,0.0005749857546595052,10668.127798734702
1678312270114097543,300,1677825035743620872,camera_1,303,0,0.10912069231236533,-0.3310467387751899,2.6431029012499376,0.7040609419555641,0.7065989494999699,0.03213866657913449,0.06311276169443027,0.003411709680221975,0.0006245928898934906,10658.692763303872
1678312270121580350,301,1677825035750428915,camera_1,304,0,0.10890071474927106,-0.33066610474340186,2.6403419303484545,0.7039202668142686,0.7062397328400106,0.03499635873312321,0.06705932151179203,0.006352858152240515,0.0011617938060690912,10667.857683152195
1678312270130603146,302,1677825035757591724,camera_1,305,0,0.10903265228858736,-0.3309773111503655,2.6426644767869005,0.7041574015885922,0.7062805895553274,0.03497620898901709,0.064083909135897,0.004738321586046368,0.0008673566612175944,10656.545753826385
1678312270133645339,303,1677825035763080120,camera_1,306,0,0.10895625348621316,-0.33082155570373695,2.64144346398914,0.7041216880470309,0.7061434235191524,0.03557860101279145,0.065637466377241,0.006092845113016665,0.001114644060982283,10661.805547222375
1678312270140684308,304,1677825035769843101,camera_1,307,0,0.10902516497376924,-0.33083742092950663,2.641297089798858,0.7040211127228965,0.7064051577947557,0.03397581351291515,0.06474310756765463,0.0015950686647556722,0.00029174025870678995,10667.141692884614
1678312270148643988,305,1677825035777068376,camera_1,308,0,0.10896376861855636,-0.3306378803597335,2.639574932887354,0.703663336953829,0.7062565416458806,0.03595518637258767,0.06904223477202365,0.008078463026322424,0.0014772099035100226,10667.58722480899
1678312270154473246,306,1677825035783717870,camera_1,309,0,0.10905162785957172,-0.3309239161922229,2.6416556428305866,0.7039225512174945,0.7062503454299466,0.036945333268983506,0.06586754752667684,0.002410203276667744,0.000441081264785367,10657.653991756382
1678312270160866887,307,1677825035790408372,camera_1,310,0,0.10903337662398548,-0.3308980806715092,2.64197652062342,0.7041578427422789,0.706180111761637,0.03478501741865755,0.06527928323783803,0.001433424069546163,0.00026234295952914016,10659.378331693359
1678312270167842510,308,1677825035797030210,camera_1,311,0,0.10896615165787027,-0.3308154465736856,2.641152058060715,0.704040169834,0.7061376670654103,0.03419819505346128,0.06728683278783135,0.0005065718432888389,9.270184479896392e-05,10661.668353686575
1678312270174797601,309,1677825035803778648,camera_1,312,0,0.1089540633137319,-0.3307549527430167,2.6409227131117454,0.7040571723358926,0.706195631199071,0.03421726473548282,0.06648614405840318,0.008530514198355377,0.0015603467133295734,10665.569711825457
1678312270181233565,310,1677825035810540437,camera_1,313,0,0.1089614515507461,-0.33083309540999245,2.641508854025742,0.7039436251808595,0.7062327325282878,0.03439367847997606,0.0671995160211259,0.00202710967278108,0.0003710457896021839,10658.811769501188
1678312270187582089,311,1677825035817027568,camera_1,314,0,0.10899315753130323,-0.3308486243323398,2.6416515349869574,0.7040530343383538,0.7062704079883416,0.034903390150916355,0.06536963358403856,0.0027794393245130777,0.0005085476122666674,10661.638028204441
1678312270194702353,312,1677825035823714494,camera_1,315,0,0.10895752948087187,-0.330674169466933,2.640285673121486,0.7039008600636136,0.706160286440475,0.03489587784861092,0.06814328114484958,0.003019448195118457,0.0005522722559980727,10665.605147857215
1678312270200955125,313,1677825035830425262,camera_1,316,0,0.1091008485318522,-0.33096585296078035,2.6424572330990843,0.7041568946128847,0.7062701133138211,0.03114669856509344,0.06614739584682494,0.0025986432447098196,0.000475845995674855,10657.552343290536
1678312270206741780,314,1677825035836252689,camera_1,317,0,0.10899755501067117,-0.33071061579789585,2.6403174850407836,0.7038966115511454,0.7063110891596224,0.03533178152307293,0.06637673381065015,0.005652749561704695,0.0010334663367820424,10669.29752234137
1678312270214533214,315,1677825035843706846,camera_1,318,0,0.10898070262216261,-0.3307093175246788,2.640499290484326,0.703892113096183,0.7063033097534226,0.03514580550867641,0.06660555613083123,0.003769758273847401,0.0006893742338230374,10667.514220969984
1678312270221910631,316,1677825035850383758,camera_1,319,0,0.10900245324505664,-0.33085526080913913,2.6416939220160573,0.7040169811682132,0.70634838710466,0.035914259932313015,0.06436002015968835,0.002199928800109774,0.0004024420623706144,10662.49631134095
1678312270227871539,317,1677825035857123613,camera_1,320,0,0.10897085427396438,-0.3308177650392774,2.6412532451233313,0.7039520743998763,0.7060800606275878,0.0343229331229274,0.06873398863802631,0.002169861865695566,0.00039723766555829906,10656.955426966078
1678312270233756669,318,1677825035862987279,camera_1,321,0,0.1088922497662809,-0.33057242116127544,2.6394440089123594,0.7038628913178578,0.7061740509345796,0.033397671039027556,0.06913635499127944,0.00544093589996919,0.0009947579318948636,10671.614358330262
1678312270240597640,319,1677825035869719266,camera_1,322,0,0.10898478666105985,-0.3308055066356053,2.641123601864963,0.704047274084754,0.7060909008753127,0.03341845154308223,0.06809025371798359,0.0036842210683971643,0.0006742906258288498,10660.763211770802
1678312270247917439,320,1677825035877058506,camera_1,323,0,0.10898096285495597,-0.3308036961594395,2.641229139798969,0.7040757322017708,0.7061576171807574,0.034589009462067964,0.06650100335008685,0.0020973573555238545,0.00038375112595881667,10662.589819129204
1678312270254267778,321,1677825035883660554,camera_1,324,0,0.10904485080512698,-0.33087995936466313,2.6415366387209542,0.7039915351940442,0.7061047608829494,0.03569203300765425,0.06736515281171923,0.002026029513217509,0.0003708710513552314,10656.47812079615
1678312270261487705,322,1677825035890463590,camera_1,325,0,0.1090531412894932,-0.33088542854514674,2.6414257730574677,0.7039611036266592,0.7062352260640142,0.03552005439188498,0.06639951643682472,0.004121195001062006,0.0007541134561476347,10660.030709577492
1678312270268027872,323,1677825035897118568,camera_1,326,0,0.10898961514930647,-0.3306881560386701,2.640116480081464,0.7038847464709411,0.7061347164015904,0.03467833619724203,0.06868361505173932,0.0026008555432781577,0.0004757196540351017,10665.785505997019
1678312270274328555,324,1677825035903688669,camera_1,327,0,0.10903724250300231,-0.33087196669744345,2.641494824540181,0.7040150401439994,0.7062880894713187,0.03411527499987081,0.0660008025230058,0.002914940705522895,0.0005333671950901183,10662.247019135393
1678312270280719332,325,1677825035909736394,camera_1,328,0,0.10888942941328901,-0.33059984180940954,2.6396958266581394,0.7038460870182937,0.7060830745359681,0.03506579556537098,0.06941014064413885,0.007141495065297931,0.001306021188167038,10666.831142752666
1678312270287695724,326,1677825035916993856,camera_1,329,0,0.10903733358008756,-0.3310468269271226,2.643325732708683,0.7044089298319637,0.7062530702561778,0.02964333549827906,0.0643112197617681,0.002699580159969628,0.0004944593384676144,10656.734640786422
1678312270294683640,327,1677825035923710823,camera_1,330,0,0.10887563576678366,-0.33065233230298047,2.6402271008937905,0.7037494769044855,0.7062177526460284,0.03593360382696725,0.06857066224168049,0.0060879873926751316,0.0011135956630039473,10663.680044727756
1678312270300813143,328,1677825035930354833,camera_1,331,0,0.10896073412081074,-0.33075681305632165,2.640740610149676,0.7039336462300967,0.7060514000426517,0.03644449799204287,0.06812224870863079,0.004788146063219756,0.0008760834226997826,10659.992626158404
1678312270307091058,329,1677825035936368942,camera_1,332,0,0.10899375374098161,-0.33078386222141687,2.640742987942514,0.7038857726985377,0.7062985165073585,0.036155773732495525,0.06618145206847519,0.0032554548233747482,0.0005953530367213049,10665.284731708005
1678312270314208528,330,1677825035943660020,camera_1,333,0,0.10912643503615034,-0.33099267425422374,2.642293130499027,0.7041332953006461,0.7063649355322521,0.03322822089814114,0.06434878115018958,0.002144676516763866,0.000392524782120942,10660.930973941813
1678312270321343319,331,1677825035950426340,camera_1,334,0,0.1090040672147319,-0.33074565724713506,2.6404967036454665,0.7038133439085158,0.706312400377436,0.03594567500985379,0.06691396309787452,0.004671995411626995,0.0008544279996771228,10665.693569881843
1678312270328074849,332,1677825035957033634,camera_1,335,0,0.10902949768012314,-0.3308790672315486,2.6416455553387554,0.7038795374945476,0.706200033210752,0.03642550608122816,0.06714381800524293,0.0029533259803429246,0.0005405897373118344,10655.23193576443
1678312270333317165,333,1677825035963065385,camera_1,336,0,0.10890592885366158,-0.3307333270606996,2.6407300831992093,0.7039387054703043,0.7063438160811387,0.032899999272497815,0.06683040081127918,0.005323927383869886,0.0009738345578988617,10667.824903768138
1678312270342698384,334,1677825035970426082,camera_1,337,0,0.10888359843087814,-0.3306664831027802,2.640000369840615,0.7038838257392005,0.7062487499937868,0.03374954827845428,0.06797963655360897,0.003570692031644285,0.0006529409368762182,10669.725255998086
1678312270347898307,335,1677825035977079868,camera_1,338,0,0.10894375835415031,-0.33075101417696773,2.6407400466491944,0.7039281257425454,0.7063002587268121,0.03277828090726465,0.0674590439584634,0.004639990453142673,0.0008488563187908259,10666.25171914208
1678312270354532409,336,1677825035983690738,camera_1,339,0,0.10901734448530527,-0.3308823565796043,2.6419084278854292,0.7040368758059805,0.7064334401772956,0.032922760469369365,0.06480712883396615,0.006283735565375536,0.001149879119779819,10663.346655129219
1678312270362634424,337,1677825035990382909,camera_1,340,0,0.10906808338955039,-0.3308474741045418,2.6413906601022736,0.7039260717881268,0.7063398161230933,0.03440030686593061,0.06624778112255005,0.004602078755851835,0.0008420385967028389,10662.121808569878
1678312270367036347,338,1677825035996399402,camera_1,341,0,0.10904299830152198,-0.3308652744380123,2.64153859883413,0.7040799114147518,0.7062130816250818,0.03420487712794578,0.06606502905821672,0.006265645322855562,0.001146557522038073,10661.639876999776
1678312270373528393,339,1677825036003070354,camera_1,342,0,0.10901883618567551,-0.3307791370698441,2.640844375117353,0.7038618990397904,0.7062131234766668,0.035325942632556465,0.06777557883597668,0.0035096349893137813,0.0006421505385901928,10661.476391233155
1678312270381051918,340,1677825036010373115,camera_1,343,0,0.10895339901950402,-0.3307460511721946,2.6409364280793843,0.70400035825452,0.7062806785875869,0.0330606034118448,0.06676896834166204,0.005435879167634994,0.0009944069196702592,10666.13044107263
1678312270388078385,341,1677825036017042875,camera_1,344,0,0.10899017059691857,-0.3309048077620143,2.6420487564321364,0.7039790001779835,0.7064352220000295,0.03248862389669257,0.06563028069020338,0.008903518319129944,0.0016294916033478782,10660.674620400534
1678312270394522731,342,1677825036023743391,camera_1,345,0,0.10892781979661853,-0.3308244595923046,2.6414261613428005,0.7040218370744603,0.7063115134178926,0.033868786908617,0.06580428716251717,0.002326337504200637,0.0004256338699900434,10663.649579282857
1678312270401075259,343,1677825036030383825,camera_1,346,0,0.10898666788375568,-0.3307861145456734,2.6408993054121956,0.7038704140320271,0.7062940981838627,0.035542257558273435,0.06672207317438829,0.004558303742669523,0.0008338279920389283,10663.468583709559
1678312270406720068,344,1677825036036308288,camera_1,347,0,0.1090091913317098,-0.3307424354984698,2.640454194560538,0.7038368430862274,0.7063918546425517,0.033850298487578326,0.06692087343550784,0.0031572608277201653,0.0005773821519124622,10668.625734774629
1678312270414337807,345,1677825036043712615,camera_1,348,0,0.10901008837147128,-0.33069257677429176,2.6398999370203264,0.7040782712330202,0.7060084770817909,0.035818565322341504,0.06740065759635423,0.003349372942466289,0.000612317669318804,10669.3904125765
1678312270422548145,346,1677825036050321340,camera_1,349,0,0.10903386454341003,-0.3308874118736155,2.641854361918027,0.7042472208325462,0.7062382301604793,0.03155181049184566,0.06532914712527202,0.0034092303249053657,0.0006238814357498177,10664.023412222276
1678312270427117686,347,1677825036056557416,camera_1,350,0,0.10901921663210938,-0.3308920598245083,2.6417196262667293,0.7038361240439133,0.7062931715945522,0.03704583833617139,0.06627421905778942,0.0029862691299058497,0.0005465484068961264,10656.024165566314
1678312270434395650,348,1677825036063668251,camera_1,351,0,0.1089456760682586,-0.3307370225113862,2.640667364120049,0.7039402927985638,0.7062290975300969,0.03315944263292132,0.06788944940689405,0.004780547285918146,0.0008745865564964737,10665.283644591109
1678312270441014807,349,1677825036070393562,camera_1,352,0,0.10893385944168692,-0.33069933595613454,2.6403650641496847,0.7039023485671351,0.7061265114734961,0.03465415836998558,0.06859972874297598,0.0015849251649342477,0.0002899520509293373,10664.064495115072
1678312270448351018,350,1677825036076998233,camera_1,353,0,0.10895780478129923,-0.33076555253123374,2.6408440355191787,0.7040282461460442,0.7061827480343433,0.034665091656254594,0.06669697465141726,0.0028963233926333487,0.0005297927048138465,10665.095251957424
1678312270455520101,351,1677825036083642482,camera_1,354,0,0.1090147766451657,-0.3308380189393617,2.6412015868715057,0.7038600119142464,0.7061405918211452,0.03554468895149333,0.06843334931085415,0.005372326530050486,0.0009833770278487722,10656.602788484312
1678312270459797218,352,1677825036089705228,camera_1,355,0,0.10906377019891014,-0.3308960404303394,2.6417009326063763,0.704185815507113,0.706101748664804,0.033906134574788055,0.06627995028124747,0.0036067666951566935,0.0006601130795051965,10660.135514691934
1678312270467646061,353,1677825036096935272,camera_1,356,0,0.10898392995770247,-0.33077638230967427,2.640769072832501,0.7038898441662935,0.7063436681282947,0.03346864720695109,0.06706384591382454,0.004490796942263842,0.0008215051112111182,10666.194501673688
1678312270474315293,354,1677825036103609561,camera_1,357,0,0.10898610798818062,-0.3307196410658768,2.64061845889315,0.7038075642631835,0.706249081469347,0.033395151986823,0.06893410791042237,0.0045493695652112365,0.0008324772881167254,10662.669552961828
1678312270480891917,355,1677825036110304355,camera_1,358,0,0.10887077807803652,-0.33054612218960033,2.639380116180646,0.7037879699234595,0.7060078648737677,0.03613956430082083,0.07020911635639948,0.0025685623404569924,0.0004697618714804417,10665.880452428712
1678312270487485023,356,1677825036116938829,camera_1,359,0,0.10900365416857058,-0.3309559033469134,2.6423525146372193,0.7040593741118049,0.7064442170786093,0.03317713119353497,0.06431363655750995,0.0038647495093755424,0.0007072913356327124,10660.657631470824
1678312270494377256,357,1677825036123649120,camera_1,360,0,0.10897404958833584,-0.3308315442738002,2.6414201834813493,0.7040224010661037,0.7062439924461126,0.03491241079783856,0.0659773105179096,0.002877959341276437,0.0005265732054682041,10661.968730902998
1678312270501431032,358,1677825036130313634,camera_1,361,0,0.10896633378634733,-0.3308566477337122,2.641423677203655,0.7039538406778851,0.706203955960799,0.035683299252047926,0.06672079836648909,0.002473518194165081,0.00045266630228960134,10659.069598164991
1678312270507981605,359,1677825036136999368,camera_1,362,0,0.10897930663225176,-0.3307503461836383,2.6406822975231052,0.7038279330424052,0.7061826029365414,0.03609327762850538,0.06804151151362023,0.004785682423971593,0.0008756235667496807,10661.129265376136
1678312270514269856,360,1677825036143615245,camera_1,363,0,0.10906989182030484,-0.33093915996127066,2.6419608590399823,0.7040367802106603,0.7062015733170198,0.036969438876479556,0.06515221058667639,0.0026843667728826404,0.0004912425419982472,10656.95729327749
1678312270521616474,361,1677825036150329351,camera_1,364,0,0.10900055721902123,-0.3307507049491106,2.6405695064676147,0.704017727003775,0.7061232518579033,0.03559543506296413,0.06694742902260534,0.005097661749459803,0.0009322705066598815,10665.47037166206
1678312270527647013,362,1677825036156934738,camera_1,365,0,0.10903174124055642,-0.33090965280046375,2.6418890975567506,0.7039331901529878,0.7061359209311665,0.034865062644310045,0.06807754680171368,0.007039011805318296,0.0012890111489022367,10652.867886021968
1678312270533744808,363,1677825036163053274,camera_1,366,0,0.10898714795373271,-0.3308175768089063,2.6414233289823748,0.7040625688395027,0.7062489940799329,0.0324597104589235,0.06674297503952238,0.0022627723519690335,0.00041411228148572005,10662.952075422741
1678312270541054061,364,1677825036170283317,camera_1,367,0,0.10901673627537511,-0.3310107391562969,2.642882734169341,0.7040805406018028,0.7063716774100316,0.0329013285421882,0.06501652312274801,0.0029332751873880625,0.0005371383372804093,10655.002921185926
1678312270548020676,365,1677825036176940202,camera_1,368,0,0.10892199824402837,-0.3306738924277449,2.64034982297519,0.7038656952271394,0.7061968852078235,0.03440660095091955,0.068375640517571,0.0009880626457743347,0.00018075253712458754,10665.103834540116
1678312270554330857,366,1677825036183572769,camera_1,369,0,0.10901639996019602,-0.3308932289153631,2.6418246016189366,0.703873006377308,0.7062873395994528,0.0338378031038838,0.06764604863552894,0.0036039474653080106,0.0006598801772209552,10655.768485673478
1678312270560924871,367,1677825036190279006,camera_1,370,0,0.10900627564092008,-0.33082749407553613,2.641173971368189,0.7039835851452995,0.706199821036923,0.03301523078088794,0.06781533123028713,0.0028441062895581126,0.0005205208914895738,10661.525287765304
1678312270567596128,368,1677825036196892023,camera_1,371,0,0.10904165423448925,-0.33083295934560686,2.641003968445467,0.703852363110045,0.7063402710709704,0.03400690413370036,0.06722204161608603,0.002868866315111518,0.0005249010067123245,10663.211723060349
1678312270574666037,369,1677825036203581333,camera_1,372,0,0.10902010356908737,-0.33074111252993527,2.640431097198268,0.7038528771171774,0.7062101987669469,0.03710792826018154,0.06694239457666643,0.002770623308606446,0.0005067011856285258,10664.610564217897
1678312270580721998,370,1677825036210235118,camera_1,373,0,0.1090651297952815,-0.3309533172469072,2.6421572967351312,0.7040274109224949,0.7064582876573322,0.03328403909605107,0.06445358959353045,0.004089945869054645,0.0007484661350004746,10661.737166488778
1678312270588273319,371,1677825036217001914,camera_1,374,0,0.1090080078677826,-0.33089986796304394,2.642056480495272,0.7040486024355401,0.7063305296184246,0.03230939737228401,0.06609728571551611,0.00515200209338218,0.0009431466476472292,10659.654525215272
1678312270594455203,372,1677825036223650932,camera_1,375,0,0.10891177418673759,-0.33073676299247723,2.6409730386922097,0.7039162723852784,0.706162441618303,0.03458036826583328,0.06812257811835279,0.005275007744785398,0.0009652884053988533,10660.548985363448
1678312270600192410,373,1677825036229637384,camera_1,376,0,0.10888309097982996,-0.33069932987851264,2.6403882574568014,0.7038713188306168,0.7062615626052398,0.03258747445129422,0.06854070486170492,0.003763810673262924,0.0006885554415139182,10666.516000279691
1678312270607273424,374,1677825036236335039,camera_1,377,0,0.10892596924140764,-0.33061452388864077,2.6397444908430563,0.7038886675007956,0.706056521494493,0.03522353715927377,0.06916816210540959,0.0031787937623448674,0.0005813410971716891,10666.863508815295
1678312270614249606,375,1677825036243624925,camera_1,378,0,0.10914212181913187,-0.33105686151745717,2.642996564114258,0.7040856274615795,0.7064707991578479,0.033594285740114256,0.06351270034345118,0.005519698082935065,0.0010104572500520216,10656.878179783465
1678312270621625487,376,1677825036250280618,camera_1,379,0,0.10905479252469291,-0.33078895620711946,2.640554586249402,0.7038765410692854,0.7061503317983524,0.03698571264081764,0.06739125235419258,0.0022046976955607533,0.0004032654905860009,10662.588228484616
1678312270627557202,377,1677825036256946086,camera_1,380,0,0.10905681279189577,-0.3309258814406145,2.6417283432221113,0.7041314794952815,0.7063048894102025,0.03534610550039553,0.06389769639808986,0.0014722816413268447,0.00026934362405485625,10664.000977011867
1678312270634323652,378,1677825036263598918,camera_1,381,0,0.10895972078456423,-0.3306741158974114,2.6401222771892328,0.7037419709522567,0.7062501049039848,0.03654677936629042,0.06798794423495677,0.0035408168914727867,0.0006475867162971469,10665.194217083625
1678312270641300952,379,1677825036270290851,camera_1,382,0,0.10898207842805786,-0.3308826778959371,2.6418964449295013,0.7040136421101009,0.7062500692501503,0.034404336382277655,0.0662719627378262,0.0025325868045911193,0.0004636113499524212,10658.032572989578
1678312270646742175,380,1677825036276323795,camera_1,383,0,0.10890601680248566,-0.3308580173369236,2.641710153616254,0.7041158989610298,0.7060825820329049,0.034715177491179035,0.06680602242165756,0.0012639646884053946,0.00023136294651375616,10657.807330790904
1678312270654359146,381,1677825036283295154,camera_1,384,0,0.10893215735960812,-0.3308659495408472,2.6417012124242514,0.703770392981686,0.7062781678361255,0.034793337053416536,0.06832135315650703,0.0035443113301880658,0.0006490390928052716,10653.875057433032
1678312270661597092,382,1677825036290279865,camera_1,385,0,0.10896431663456162,-0.3308025812484763,2.6413068749216944,0.7038188120158645,0.7063985833230658,0.035165814014793406,0.06635877377121908,0.0029289535013958816,0.0005359201342106855,10661.621703129615
1678312270666608026,383,1677825036296329975,camera_1,386,0,0.10902286707828983,-0.3308101120150251,2.6408531907455504,0.7038681579621734,0.7062907255163284,0.03400543021139193,0.06757705211603872,0.005558551580179483,0.001016998264511904,10663.526640077233
1678312270673819083,384,1677825036303261756,camera_1,387,0,0.10907907618116468,-0.33082448449444285,2.6410820036856797,0.7040638528121461,0.7062180907441223,0.034014859752600525,0.06628038009135308,0.004517077759373933,0.0008263237088231413,10664.977644049093
1678312270681446181,385,1677825036310288190,camera_1,388,0,0.10902590783087647,-0.3307794849568665,2.6408566959530044,0.7041199762006612,0.7061928115389752,0.033118687535736345,0.06640726301970477,0.003105084877461195,0.0005679615271865688,10667.564327907754
1678312270687633861,386,1677825036316930294,camera_1,389,0,0.10902307600794414,-0.33098249106503336,2.642476881976247,0.7041071378127834,0.7063234476197078,0.03430032921418316,0.06452761609961151,0.0036402467521838844,0.0006663228438449454,10657.782516402309
1678312270694143368,387,1677825036323622941,camera_1,390,0,0.1089523925262503,-0.33078292053230496,2.6410796644211287,0.7038612717797323,0.7062432135404959,0.034589959993914864,0.06784812513423541,0.0036461014533415437,0.000667213967372315,10660.348555317267
1678312270703168468,388,1677825036330287933,camera_1,391,0,0.10894463592792751,-0.33084200041126466,2.641637153192042,0.703983036682888,0.7063604725005963,0.034494951877493886,0.0653671572461552,0.005269378190860152,0.0009641887365850759,10662.288791630297
1678312270707686257,389,1677825036336394548,camera_1,392,0,0.10891863933127383,-0.3306939880795929,2.6404744324854685,0.7039370312311918,0.7061586316491871,0.034118693956798285,0.06818033243866006,0.007069380430039018,0.001293279483235355,10664.964814724164
1678312270713902502,390,1677825036343592405,camera_1,393,0,0.10905695924360563,-0.3309963831924905,2.6426534406700446,0.7041327477487912,0.7062312447007498,0.03293465232409533,0.0659530987327964,0.003981919144280255,0.0007291922285524631,10654.459225792896
1678312270720926875,391,1677825036350285530,camera_1,394,0,0.10898055455606576,-0.33071675877949824,2.6402529293908645,0.7040372007763661,0.7061344551928986,0.03587197619107409,0.0664752016661442,0.004644748813007027,0.0008491991538055617,10668.869881671384
1678312270727873654,392,1677825036356914520,camera_1,395,0,0.10910116212250079,-0.33091316317118413,2.6418485579993094,0.7039460420846501,0.7064397787674237,0.032836932637086445,0.06576127023847093,0.002391378744505346,0.0004376855763525854,10661.507269114372
1678312270733652696,393,1677825036362918615,camera_1,396,0,0.10899459876675027,-0.33073760670063085,2.6405545387687184,0.7039827102324339,0.7062262474855343,0.033303477180690794,0.0674070431332889,0.004519403271842748,0.0008267270209420792,10667.247678186868
1678312270741047434,394,1677825036370300769,camera_1,397,0,0.10903331000867184,-0.33083949883206254,2.6412620532957036,0.7039267643678401,0.7062192792661406,0.03453726274771109,0.06744343912740346,0.00461642345180735,0.000844813729258155,10659.942768985402
1678312270749885711,395,1677825036376973628,camera_1,398,0,0.10896643929885004,-0.33077085133476475,2.6410075975111296,0.7038581500643192,0.7063018915475348,0.034426043133271564,0.06735124452150107,0.004249475779943168,0.0007775540551801444,10662.418578468028
1678312270754051083,396,1677825036383608818,camera_1,399,0,0.10896735980987654,-0.3308772715415632,2.641760919007146,0.7039457081864382,0.7062201560579702,0.03504821168489636,0.06697129206638495,0.00392424565507099,0.0007183794712317625,10656.54503585491
1678312270760887584,397,1677825036390296220,camera_1,400,0,0.10891598357558847,-0.3306933014024853,2.6404167776237024,0.7038760791270765,0.7062114929406594,0.03557701201519489,0.06751347041361,0.002060541941318661,0.000376880195994933,10665.329034040918
1678312270767188755,398,1677825036396291017,camera_1,401,0,0.1089436620110914,-0.3307612685621599,2.641182287143988,0.7040600352445393,0.7063605969106594,0.033340996020773395,0.06513487458971338,0.005675611726474017,0.0010380538499979708,10667.935532319127
1678312270774298194,399,1677825036403615474,camera_1,402,0,0.10893932919850925,-0.33076873404395346,2.640643990290602,0.703804421198994,0.7062124405162947,0.03648881463541151,0.0677635002584025,0.004302693239878863,0.0007871631322670182,10661.627593899148
1678312270782796695,400,1677825036409866094,camera_1,403,0,0.10901462986655439,-0.3308275815123475,2.6411281809310663,0.7040368734026411,0.7060789498059324,0.034456443880716905,0.06780376837226729,0.0023162485449574888,0.00042390525405799033,10660.190916918455
1678312270786903820,401,1677825036416499376,camera_1,404,0,0.10907486244445189,-0.3308803305722451,2.6415832522640534,0.703842211951636,0.7064235250781743,0.03534362059830488,0.06574779368281101,0.005368650134187191,0.000982319258320457,10660.644245778207
1678312270794094902,402,1677825036423611402,camera_1,405,0,0.10903972829527944,-0.3308732956455756,2.6415783507765096,0.7041218417658438,0.7063000251939091,0.03326097583296645,0.06516451370184771,0.0047441310016438365,0.0008679744927461001,10664.690281750169
1678312270803651212,403,1677825036430307865,camera_1,406,0,0.10902075572689235,-0.33081009665060285,2.641024713198643,0.7038538039715915,0.706218624870002,0.03545213299297023,0.06773642142668033,0.003427770279813558,0.0006272324326560499,10659.955294726766
1678312270808257418,404,1677825036436974525,camera_1,407,0,0.1089275905437533,-0.3306566223335528,2.640023934894253,0.7037435510775861,0.7061218648438778,0.03524177678587526,0.06996387264215663,0.003869361709803343,0.0007079170411202856,10662.46289099241
1678312270814109654,405,1677825036443635463,camera_1,408,0,0.10896476432614512,-0.3307863974260452,2.641072669928403,0.7038874344970103,0.7061130851717646,0.0364032638673368,0.06798229833003977,0.002366933855228126,0.00043316980421051894,10657.744429220209
