field.image_seq,field.transforms0.transform.translation.x,field.transforms0.transform.translation.y,field.transforms0.transform.translation.z,%time,field.header.seq,field.header.stamp,field.header.frame_id,field.transforms0.fiducial_id,field.transforms0.transform.rotation.x,field.transforms0.transform.rotation.y,field.transforms0.transform.rotation.z,field.transforms0.transform.rotation.w,field.transforms0.image_error,field.transforms0.object_error,field.transforms0.fiducial_area
195,0.0,0.0,0.0,1678317305779487457,194,1678248324354054450,camera_1,0,0.7039999699416499,0.7062697251640424,0.030352068424754526,0.06816061605651114,0.0035622267751023173,0.0006519879667418126,10662.939653333397
196,1.4897118264495246e-05,-2.97203921290623e-05,0.000132435419379906,1678317305786444130,195,1678248324360706567,camera_1,0,0.7040834907246569,0.7061265038175983,0.030493380812701226,0.06871646398010371,0.003073522530030459,0.0005626755254587192,10660.25360554294
197,-6.390421031407523e-05,8.119091814617896e-05,-0.0008281554093407806,1678317305792901025,196,1678248324367388725,camera_1,0,0.7037573545196114,0.7063354714342954,0.031168420215574782,0.06960113026751154,0.0019009520183317363,0.00034784705459290266,10664.94049929187
198,4.851332156549648e-05,-7.779375372501951e-05,0.0005520019154605649,1678317305798612721,197,1678248324373312234,camera_1,0,0.7039163340282357,0.7062461771718458,0.03183573982000796,0.06859021496187255,0.006990323483478278,0.001280006107337557,10655.7388244191
199,6.441170175969235e-05,-7.062816907787983e-05,0.0005438475903170037,1678317305805607248,198,1678248324379970550,camera_1,0,0.7041939540031601,0.7062511811535004,0.030960780167946875,0.06604221646850683,0.0033047866309061646,0.0006048095651036613,10663.293108743963
200,0.00011035051232216597,-0.00018951450608101217,0.0012377379846797432,1678317305813093103,199,1678248324387351512,camera_1,0,0.7040600202444621,0.7061765842560312,0.03081589358533918,0.06829714814243107,0.003163230023346841,0.0005795241249620332,10652.0692792827
201,2.749094121476392e-05,-3.0370851657468556e-05,-8.786623151646467e-05,1678317305819406056,200,1678248324394069433,camera_1,0,0.7039869892546067,0.7061600050143068,0.03184539027531524,0.06874763557127901,0.0050809867680072784,0.0009300039064308568,10660.439438465517
202,6.802182594525807e-05,-0.00010850290344133207,0.0008606572765503806,1678317305826211525,201,1678248324400712728,camera_1,0,0.7041362151791137,0.7061366230788538,0.03188579165059265,0.06742815666203948,0.0036368870059959595,0.0006659598941260275,10656.21505743521
203,2.113895363917151e-05,5.5732419623366614e-05,-0.00029010846477683927,1678317305832026865,202,1678248324406766891,camera_1,0,0.7039532467443812,0.7061893946512129,0.031153881342934973,0.06910717008725108,0.003633842396084219,0.0006650983574746638,10661.941133590528
204,0.0001517527465114965,-0.0002591450804917961,0.0017113137742081896,1678317305839622160,203,1678248324414059638,camera_1,0,0.7041744938574573,0.7060808624062154,0.03131884909396608,0.06787656175527981,0.008374357887078077,0.00153451498329852,10648.77909744321
205,8.978432055495311e-06,7.237801962783896e-05,-0.0007525991766672568,1678317305846577855,204,1678248324420752286,camera_1,0,0.7039865272013833,0.7061094343188665,0.03198894739384755,0.06920363812300538,0.0035473775351420045,0.0006490648438181402,10664.452225992922
206,0.000122972130580129,-0.00015785306733406834,0.000974746795801007,1678317305853087479,205,1678248324427378654,camera_1,0,0.7040788956245414,0.7062548536744926,0.02885374640808524,0.06815021434716922,0.0030158785521052773,0.0005524011919711674,10656.581735190235
207,-1.981911828632943e-05,0.00012686417052293342,-0.0011041950409329537,1678317305858636587,206,1678248324433294773,camera_1,0,0.703859751029089,0.7060825362796551,0.034307412230311085,0.06965561218034014,0.003045838617254049,0.0005572251508210312,10663.38099046261
208,8.869510061856878e-05,-0.00014666633212290225,0.0010361375231671133,1678317305866232161,207,1678248324440706729,camera_1,0,0.7040155552387992,0.7061464457650823,0.032479676849023184,0.06829616172911912,0.004843704868108034,0.0008872305495019117,10651.868913936543
209,-6.233671444186295e-05,0.00011298946594417991,-0.0009458429345494679,1678317305872791861,208,1678248324447372436,camera_1,0,0.7037999701483105,0.7060929942179628,0.0322013423282921,0.07114322938836669,0.0022429783712141216,0.0004105566892248328,10660.600246416638
210,8.317696756729442e-05,-0.00022592353061851034,0.001609084181248388,1678317305879344298,209,1678248324454033136,camera_1,0,0.7040600492241982,0.7062704630688452,0.029952756193530224,0.06770755112503607,0.004336954210884869,0.0007946467469485656,10651.538804324926
211,-5.322420593323329e-05,5.0239083695724496e-05,-0.0007412734438032587,1678317305885268169,210,1678248324459937572,camera_1,0,0.7038667498543739,0.7061689179116355,0.031148014586806463,0.07019158790232931,0.0020315140136517584,0.00037182019796298035,10662.659749244107
212,3.607300378677403e-05,4.926796488530227e-05,-0.00027197435848735907,1678317305893355351,211,1678248324467366695,camera_1,0,0.7041578330840611,0.7062609495922805,0.02704474379031087,0.0680132268068959,0.0034236923092976213,0.0006264775050978756,10668.761514418296
213,3.1357311288837675e-05,7.025375162028613e-05,-0.0005602174418011252,1678317305899905483,212,1678248324474206209,camera_1,0,0.7040100329688185,0.7060544492909532,0.03196665713744134,0.06953503395518937,0.0026544973370619123,0.00048581450259976974,10662.061422442437
214,0.00013584376614469984,-0.00017043874844346885,0.0012638229710817406,1678317305905758816,213,1678248324480567455,camera_1,0,0.7043533374098366,0.7061136091327191,0.029820566233620206,0.06633762813589962,0.005093853629659861,0.0009327770881605664,10657.928165742664
215,0.00012855547340759332,-0.00012089234374107471,0.0006306923978711687,1678317305912666112,214,1678248324486642837,camera_1,0,0.7039832984145755,0.7061578650402262,0.031990431565166864,0.0687400718899733,0.006501750787720084,0.0011906747102169676,10654.483525684103
216,3.9486244195641174e-05,-6.875223133540054e-05,0.00012358705089487998,1678317305920185769,215,1678248324494191884,camera_1,0,0.7039886243426242,0.7062133945780528,0.03232849936447807,0.06795238217725788,0.005486254522111267,0.0010041419088816774,10660.254123914288
217,-6.494369873738526e-06,-3.056017134883682e-05,0.00022922749862752667,1678317305926692879,216,1678248324500811815,camera_1,0,0.7041375645218789,0.7061449694363802,0.031809215041273486,0.06736279542409639,0.0035308347432874147,0.0006462227575737116,10661.568052360091
218,-8.746856350830279e-05,8.513729986836527e-05,-0.0006168980120118128,1678317305933154733,217,1678248324507462978,camera_1,0,0.7038968737559417,0.7063651333711581,0.03220362519968205,0.06738260901862178,0.0022649277234449983,0.00041428802366341293,10667.92553674313
219,2.0488354084496896e-05,-0.0001086273003813032,0.0007749685226867697,1678317305940072714,218,1678248324514179468,camera_1,0,0.7037628217222807,0.7063460623805942,0.033319001888632405,0.0684322660304984,0.00508648477261886,0.0009315463845275793,10652.666829319203
220,-7.989194750424033e-06,2.4132754800620937e-06,-0.0002127277854118148,1678317305945836791,219,1678248324520343542,camera_1,0,0.7039642916293184,0.7064273027134214,0.028914029450539412,0.06751830116942764,0.00228657788829878,0.00041838570100465527,10667.765149244691
221,0.00010902090498993156,-0.00010726368956820442,0.000641933675981754,1678317305952553353,220,1678248324526990652,camera_1,0,0.7040491157430868,0.7062543722813065,0.030974397058975176,0.0675291861475328,0.002757009118795395,0.000504785105496267,10658.681588370235
222,0.0001050998057540442,-2.8554471004860194e-05,0.0002901060631144148,1678317305959431665,221,1678248324533660888,camera_1,0,0.7040928239201982,0.7061487949501374,0.03053144371182089,0.06837401289540866,0.004921748884953559,0.0009010451396535648,10659.831251481082
223,0.00021179565213078066,-0.0002726112832653338,0.0018300617570528033,1678317305965991295,222,1678248324540341854,camera_1,0,0.7040567186222727,0.7063145603119536,0.030045713986863024,0.06723937778704736,0.004371261689811945,0.0008009934777437938,10650.80795313383
224,6.216090459182366e-05,-4.143678802026596e-06,-0.000336929590885493,1678317305972481084,223,1678248324546984672,camera_1,0,0.7040259670791416,0.7059445658232829,0.033142414885001005,0.0699377437328834,0.002836013154592365,0.0005191764950861887,10657.789017913052
225,5.66663339786333e-05,-0.00010599694628715683,0.0006296017060316572,1678317305979160212,224,1678248324553680896,camera_1,0,0.7039008696838169,0.7062577560930998,0.03207722810234757,0.06851714423394903,0.0019088241970166566,0.00034957889395760685,10655.020731290682
226,-3.667735041681941e-05,4.437825474867818e-05,-0.0005157745020163418,1678317305985753784,225,1678248324560363531,camera_1,0,0.7040222064586932,0.7061391845823359,0.030067452719981087,0.06939836523549117,0.005392688966821879,0.0009868860265470627,10664.127958527071
227,-0.00012775428509700926,0.0001466924236525058,-0.0012188560559116546,1678317305993506360,226,1678248324567455768,camera_1,0,0.7039357959858993,0.7061431808201113,0.03114810259195485,0.06975671305239989,0.003087536082603037,0.0005648081310247098,10667.727977226485
228,-7.344400598574552e-05,8.146345352372242e-05,-0.0006030487677040064,1678317306000245270,227,1678248324574184417,camera_1,0,0.7037808566848098,0.7063121824670527,0.032157920496410065,0.06914820902937732,0.0014993349905125795,0.0002743768753821368,10663.262605898086
229,4.38051794553751e-05,-9.851689799822427e-05,0.0006380939474333047,1678317306005345513,228,1678248324580148220,camera_1,0,0.7039451722394571,0.7063207330379381,0.033568580997881146,0.06667358495911316,0.002752324042376131,0.0005038219782840476,10657.977025599344
230,8.23763877681738e-05,-5.910266870917669e-05,0.0002631983741201438,1678317306012756988,229,1678248324587160110,camera_1,0,0.7040227595327009,0.7062803224531845,0.02991254312670072,0.06800955770389802,0.0016229706234298644,0.0002971127862408186,10661.62299040868
231,0.00015608316225954044,-0.000148134174915715,0.0008895073389640906,1678317306019918433,230,1678248324594125747,camera_1,0,0.7042104979769722,0.7063385428956317,0.02845386792021896,0.06605917619437608,0.002483735093846917,0.00045467922459710197,10662.9844484427
232,0.00017510135441869967,-0.00018546478883640916,0.0013750404763710478,1678317306026410877,231,1678248324600734710,camera_1,0,0.7041520432483529,0.7061844812091373,0.030931600410350587,0.06720576303119936,0.003241875790990889,0.0005938352847476903,10653.653489433813
233,3.406545440290398e-05,6.297315203518394e-06,-5.8706365245519976e-05,1678317306032373929,232,1678248324606968402,camera_1,0,0.7040665706253568,0.7061354197235197,0.0306132752833688,0.06874489447343023,0.0012612462742254136,0.00023087970858017828,10661.59645029332
234,8.878854652077939e-05,-0.0001771045986910802,0.0011954968532479349,1678317306039131348,233,1678248324613677501,camera_1,0,0.7040293442737503,0.7063446561628651,0.030209670633110083,0.06713631589442562,0.008640624466352166,0.0015823601845184893,10656.052688931
235,-3.924279598221947e-07,-5.211017215195346e-05,0.00032368417900530133,1678317306045772691,234,1678248324620280981,camera_1,0,0.7037916566613783,0.706488305899369,0.030277864938371757,0.06807957502838863,0.003734673489816487,0.0006836982787134519,10660.614839000398
236,-8.200930462085032e-05,0.00013617255994285982,-0.001090002449855465,1678317306052361724,235,1678248324626942157,camera_1,0,0.7037900309496402,0.7061918312459615,0.031663912691513994,0.07049884006452838,0.004846330964937806,0.0008867709185842826,10664.11970330192
237,-8.059369503640723e-05,0.00013492820998117772,-0.001122325163255944,1678317306058847672,236,1678248324633643865,camera_1,0,0.7038879683964141,0.7062699018731867,0.030181850222440562,0.06938018140620716,0.003912256739567965,0.0007156484352246507,10668.970081127483
238,7.869860784134874e-05,-0.00013844266747720102,0.0007845910654973309,1678317306065468064,237,1678248324640319347,camera_1,0,0.7041324464102199,0.7061446757196822,0.03041127747027033,0.06806136251743558,0.007697176013607531,0.0014094861829848382,10656.7553299265
239,0.00013520565146424302,-0.00021195040568916523,0.0013278383366532864,1678317306072372287,238,1678248324646958827,camera_1,0,0.7041863040401973,0.7063583308582155,0.029680445357432018,0.06556392905239118,0.004678068333305418,0.0008565193897386099,10659.468639492989
240,6.368603340917156e-05,-9.314998323028956e-05,0.0003427248951477502,1678317306078990932,239,1678248324653629302,camera_1,0,0.7040752155539717,0.706264193550521,0.03128402427440859,0.06700962301236175,0.0017631961381994188,0.0003227223085223142,10662.076161687728
241,9.505681551019718e-05,-7.810979060102197e-05,0.0004712425808253151,1678317306085665030,240,1678248324660287857,camera_1,0,0.7041652338943083,0.7063106228358913,0.030612381915155036,0.06587495364119922,0.0015240084030665455,0.0002788967919488269,10664.648138588302
242,1.0457996823309834e-05,3.0241702944799886e-05,-0.0002936465500296137,1678317306091832017,241,1678248324666603088,camera_1,0,0.7039115851328768,0.7062473743934315,0.03246659274513695,0.06833042392394846,0.0038790476974099866,0.0007098417040475603,10662.520178925944
243,3.259767792879176e-05,-7.160968738706419e-05,0.00043739211795701394,1678317306099851174,242,1678248324674149513,camera_1,0,0.7041145355697003,0.7061931816099865,0.029885622061441318,0.06797617701099805,0.0022880936157889664,0.000418914867600674,10660.358698104508
244,6.356045383462683e-05,-0.00015536254163706076,0.001065747125728489,1678317306106542384,243,1678248324680784940,camera_1,0,0.7041263249632045,0.7063963941319175,0.02811253375442525,0.06648261650343573,0.003674969892017543,0.0006728926460718356,10660.87259458366
245,5.492789704805712e-05,-9.449962575280857e-05,0.00043088703013571816,1678317306113223815,244,1678248324687487840,camera_1,0,0.7039991212714326,0.7062465772814022,0.03155308212493905,0.06786318837022115,0.006829591817222536,0.00125026701700412,10658.883534837052
246,-8.508346975438785e-06,3.2361148103399184e-05,-0.0003833689705516896,1678317306119478033,245,1678248324694134712,camera_1,0,0.7040176981741695,0.7061339688316521,0.03191003848570903,0.06867057713055984,0.0022858554148115213,0.0004183191152398025,10662.986774946568
247,2.625985582760393e-06,1.9859861992266303e-05,-0.0001929100961710617,1678317306126563352,246,1678248324700787544,camera_1,0,0.7039411330421231,0.7062411108200705,0.032502067742916724,0.06807341765652529,0.002223851042799652,0.00040696972948716677,10662.345503705896
248,6.363875932255403e-05,-8.81751775451689e-05,0.0004048390447297656,1678317306132903544,247,1678248324707452297,camera_1,0,0.7040782087630629,0.7061298834343219,0.03160350251001032,0.06823256037353059,0.005274881317745893,0.0009657382501967248,10658.080267786514
249,6.99901339913378e-05,-7.58201186910612e-05,0.0003269970957302526,1678317306140255375,248,1678248324714152812,camera_1,0,0.7039243594154392,0.7060927877698105,0.03253872659744652,0.0697474196830084,0.0015137009904719891,0.0002772446360178792,10653.672069515558
250,3.6055335727841475e-05,-2.9954149296573807e-05,-3.782512563565987e-05,1678317306147109941,249,1678248324720876216,camera_1,0,0.7041016423007418,0.7062416431548788,0.030854241333135538,0.06716870234753508,0.002291578217409551,0.00041932229441173655,10665.221708584
251,5.650827256162283e-05,-6.141037860790677e-05,0.000501275321552086,1678317306153134593,250,1678248324727470874,camera_1,0,0.7040487507340145,0.7062622190667551,0.030502169241710564,0.06766573860031745,0.002094818919431418,0.0003835221582684732,10660.008287104898
252,3.083118693458786e-05,-7.952759800478049e-06,5.995064481867374e-05,1678317306159845707,251,1678248324734174966,camera_1,0,0.7041059197616796,0.7061970064251277,0.03030477359127385,0.06783997767046189,0.0021396151278167963,0.0003916084073024768,10663.323447870203
253,0.00011924817125424925,-0.0002216548206088187,0.0016026273159903681,1678317306166520713,252,1678248324740873813,camera_1,0,0.7040771654738512,0.7063643848034894,0.03047788657736438,0.06630082480084579,0.003626824822276831,0.0006643183123602695,10654.613709990057
254,2.878406982448345e-05,-0.00012338633838210322,0.0007123606429737528,1678317306173080343,253,1678248324747122287,camera_1,0,0.7040713036235821,0.7062055251965147,0.03179426063755465,0.06742759513890383,0.0016807820065878332,0.0003077551863555968,10657.4952885448
255,5.013731766032037e-05,-0.0001050555832152189,0.0004942107539331886,1678317306178590550,254,1678248324753471136,camera_1,0,0.7039280172655437,0.7061609519627475,0.033093534793503215,0.06875226822831224,0.0042237063171342015,0.0007734490046493204,10654.308168733727
256,-0.00011414420480249099,0.00021557639607244772,-0.0018724377262615555,1678317306186392084,255,1678248324760834932,camera_1,0,0.7037101628153368,0.7061568454360361,0.032925295571383975,0.0710664569665295,0.002855534956324845,0.0005223166638300995,10667.446573499594
257,5.405337003314137e-05,-7.959474129887179e-05,0.0006388254891813716,1678317306193130156,256,1678248324767473459,camera_1,0,0.7041287502121079,0.7062833365461063,0.029823158188202005,0.06691136583358677,0.0014243164332583547,0.0002607501491194978,10661.544319303706
258,-3.8829025818254426e-06,2.9190628213437986e-05,-0.0006539089663721853,1678317306199921238,257,1678248324774167299,camera_1,0,0.7039638925384742,0.7062023935128282,0.030920501010329626,0.06897057355207592,0.004803822201211005,0.0008789494947373133,10665.426208557332
259,9.718201570763085e-05,-0.00015397167910746745,0.0010617281006166657,1678317306205404835,258,1678248324780138492,camera_1,0,0.7040695756324925,0.7062395909955077,0.02993919962416841,0.06793612518420684,0.005527198372874409,0.0010123472095968818,10655.357278286368
260,0.00011780124005270065,-0.00019986109846470423,0.0013862329132887652,1678317306213051742,259,1678248324787448406,camera_1,0,0.7042329236043383,0.7060887097881102,0.03006695150183017,0.06775471680137778,0.003804605803452432,0.0006970025198654162,10653.075160715496
261,2.0139887602188544e-05,1.122523763580352e-05,-0.00022312143493508074,1678317306219867058,260,1678248324794135093,camera_1,0,0.7040329559311647,0.7061837149583468,0.034148919287337584,0.06690298201098517,0.0026924499543383718,0.0004925708744924713,10663.630444400362
262,4.21356495792502e-05,4.959633433765376e-05,-0.0003166978117392638,1678317306225858256,261,1678248324800335407,camera_1,0,0.704084431331338,0.7060449455423141,0.030647494534759238,0.06947214916582796,0.002554439823143184,0.00046758348387723416,10661.721703983265
263,0.00011041141867246251,-0.00012222836860420472,0.000927964429943362,1678317306232608481,262,1678248324807011365,camera_1,0,0.7041915513780627,0.7060601969172083,0.030207679808693055,0.06841603158299889,0.003228060610126704,0.0005912788060783407,10654.916007943564
264,4.031489419650813e-05,-0.00011849312153089375,0.00024861147076116197,1678317306239606430,263,1678248324814153909,camera_1,0,0.7039269260328458,0.7061972994661775,0.03340169669916752,0.06823916536889496,0.0037460251478478312,0.0006857704580257983,10657.22404179582
265,1.594842870036861e-05,-6.111188387514233e-05,5.408697700026721e-05,1678317306246291564,264,1678248324820786714,camera_1,0,0.7040137976647921,0.7060896864149181,0.029986917781330526,0.07001937016323133,0.003471368399914354,0.0006356760573163787,10657.924317144903
266,7.570881556229203e-06,-2.471259903819023e-05,0.0002702960697127388,1678317306253236085,265,1678248324827435970,camera_1,0,0.7040054481363631,0.7062149646488969,0.03224623527590584,0.06780068591693462,0.0031046993681229647,0.0005683176281228563,10659.629195688758
267,-2.8288745351628952e-05,0.00011816405620612702,-0.0007020082537718686,1678317306260228516,266,1678248324834147691,camera_1,0,0.7041501169654777,0.7061425185009099,0.029986048316259818,0.06808959721625163,0.006190158252138645,0.0011322848376081431,10669.190027603529
268,4.61675713701315e-05,-7.184721235259373e-05,0.000423904805323172,1678317306265609099,267,1678248324840467691,camera_1,0,0.7040067594653864,0.7061049948584097,0.03164571643468083,0.06920092119608505,0.004871701938100159,0.000892144653711557,10655.36659347638
269,6.10336419398505e-05,-8.969396985419875e-05,0.00047851908358254036,1678317306271627186,268,1678248324846617937,camera_1,0,0.7040720431343154,0.7062966273872848,0.029245655855850018,0.06761896059226953,0.0019482047064229848,0.00035667533303992174,10661.585499699224
270,0.00011228193770790318,-0.00014776693522594586,0.0008177584441524388,1678317306279683079,269,1678248324854151248,camera_1,0,0.7039327386402259,0.7062024556656543,0.03288649034682275,0.06837594485591554,0.0020951465703547,0.000383742279924497,10652.915912280088
271,4.204033565169407e-05,3.970455292939823e-05,-0.000628950552070684,1678317306287081214,270,1678248324860780477,camera_1,0,0.7039968000355916,0.7060879714555445,0.032102842773847035,0.06926535635712178,0.004792269843164831,0.0008769179999339147,10663.136538397515
272,9.4574893988425e-05,-0.00010017638274995022,0.0008610743853170177,1678317306292046734,271,1678248324866799831,camera_1,0,0.7040809796202859,0.7063052475445042,0.02906783197826188,0.06751246234673079,0.006313276709988713,0.0011560039177478502,10658.975203297563
273,-2.1031071495147824e-06,-1.4783908987070493e-05,-3.2164960373393114e-05,1678317306299662213,272,1678248324874127388,camera_1,0,0.7038682685862685,0.7062106819712354,0.031796415898345684,0.06946165188872751,0.009469404991250485,0.0017335079944185274,10658.18782510329
274,-8.402274968316581e-06,-8.119700505626604e-06,-0.00020888904711524603,1678317306306249221,273,1678248324880785465,camera_1,0,0.7037698100745194,0.7061757677809473,0.03291055598312863,0.07029036016087807,0.002496920584235341,0.0004571873289562416,10656.11908737268
275,-8.978872378601066e-05,0.00012110254389352537,-0.0012428790049465732,1678317306313129698,274,1678248324887456417,camera_1,0,0.7039285890456775,0.7061738702707779,0.03072758660634822,0.06970525010572318,0.001976829720661044,0.00036162941409862136,10668.473876193637
276,1.938796848732771e-06,3.6981822539083886e-05,-0.0004884021602791222,1678317306319960798,275,1678248324894250869,camera_1,0,0.7039328347263106,0.7061143660376036,0.03159498039635695,0.06987720288654682,0.002718548115808517,0.0004976062343998418,10660.975612079843
277,2.0075242937733773e-05,-3.630989059422163e-07,-4.455509590561846e-05,1678317306325385380,276,1678248324900135278,camera_1,0,0.7040232385417738,0.7061095938851011,0.03218128970168795,0.06873780335235084,0.0014176477561704814,0.00025951065834023363,10659.777018571504
278,0.00015513229413458007,-0.00018792818371637932,0.0012267713270133207,1678317306332540680,277,1678248324906804084,camera_1,0,0.7041507835321045,0.7061461680218407,0.03055938093307656,0.06778928880126163,0.003080603783018887,0.0005643158104380171,10653.730355961132
279,9.928204018530562e-05,-0.0001501311362661628,0.0007261189750868979,1678317306339705198,278,1678248324914182662,camera_1,0,0.7039526337710931,0.7062305541471573,0.03277454634163092,0.0679332238881754,0.0016898721805773675,0.0003094626945273364,10654.92499906046
280,8.301587162540258e-05,-0.00013454867073542376,0.0008407935661600696,1678317306345226789,279,1678248324919980525,camera_1,0,0.7042336834805033,0.7061925329333087,0.029190643151766987,0.06704425279698556,0.0012512389803305268,0.0002291099079602435,10660.190870519033
281,3.212765341970014e-05,-4.671868731159767e-05,0.0002906938975160145,1678317306353609885,280,1678248324927442789,camera_1,0,0.7042553404780162,0.7062548126484378,0.02914155217363514,0.06617646829519414,0.0015245909453369675,0.00027898651694561284,10666.891985168684
282,-3.847577639071176e-05,8.140187796157328e-05,-0.0009161218110014246,1678317306360261215,281,1678248324934198379,camera_1,0,0.7038672597503179,0.7060830205047299,0.031304350516514264,0.07097666127139753,0.0034954326110892,0.0006397722828862597,10661.778898131104
283,0.00011523337313432136,-0.00021827451511918783,0.0017763186226837924,1678317306365696623,282,1678248324940177917,camera_1,0,0.7042779131339733,0.7062055451903897,0.02957043879637545,0.06627169956617884,0.0017405137768946586,0.00031885813764225734,10654.260244531324
284,4.132154868416449e-05,-9.381302581296103e-05,0.0004427205906161191,1678317306373155379,283,1678248324947373867,camera_1,0,0.7039071877278986,0.7064052120167552,0.03144218592983068,0.06721410896915919,0.0007761817541904747,0.00014208966217275616,10660.596896721634
285,9.94242799169931e-05,-0.00021803445872475846,0.0012908583503610238,1678317306380362990,284,1678248324954166889,camera_1,0,0.7040929593403187,0.7062480619082798,0.032094069724138016,0.06660893593755186,0.006087053276132792,0.0011147576062358249,10654.544745194726
286,8.94679891122463e-06,3.3886039833563864e-05,-0.0005292301226935692,1678317306385668354,285,1678248324960170984,camera_1,0,0.7039782384140348,0.7063578148928382,0.030915302001898418,0.06721250837023303,0.0036674329312518243,0.0006708161022367892,10669.01041865419
287,7.414500818786474e-05,-0.00020875489182270446,0.001419854987326108,1678317306392652894,286,1678248324966847181,camera_1,0,0.7039306831090659,0.7062040202223274,0.03323179344162895,0.06821380435131291,0.0012707580463029446,0.00023285221467928398,10648.124741871723
288,3.6256229160869236e-05,-0.00011236815579118709,0.0006642936975320701,1678317306399672284,287,1678248324974185943,camera_1,0,0.7040013260519028,0.7061097402129998,0.03206726077688842,0.06901346593063834,0.0045818553189747036,0.0008391874998212661,10653.450554331068
289,8.750820188979658e-05,-0.00015846764246563172,0.0010423296759727307,1678317306406559117,288,1678248324980816364,camera_1,0,0.7042421587975309,0.7060597876060415,0.031187476335213793,0.06745294224676457,0.0041708024218678474,0.0007638283945044425,10655.430591541111
290,3.833012619833265e-05,-1.2955561159433415e-06,-1.019064884921761e-05,1678317306412908247,289,1678248324987498283,camera_1,0,0.7040655292841212,0.7061468680993779,0.03057478860175449,0.06865503222101077,0.004413598333485425,0.0008078828544701369,10661.475884008687
291,7.470331937375896e-05,-6.64619203347705e-05,0.0004497538016887681,1678317306418721003,290,1678248324993360280,camera_1,0,0.7039983911348934,0.7062880622061616,0.03168328570056731,0.06737661220158785,0.0006977668963372707,0.0001277415002817489,10659.869572262043
292,8.525954360549814e-05,-7.699482105150146e-05,0.0005250939745464756,1678317306426329917,291,1678248325000830650,camera_1,0,0.7041085994367966,0.7062450839202102,0.030793094534412962,0.06708760665489986,0.002421043231151998,0.00044319765772047156,10660.966024253514
293,0.00010029877754746952,-0.00011123848802679914,0.0006931577000481859,1678317306433038028,292,1678248325007491350,camera_1,0,0.7041083176572437,0.7062868625139979,0.029252773864303645,0.06733958766775479,0.0051995584508404144,0.0009519349173702947,10660.554856583127
294,8.598020059599754e-05,-0.00016495162240498518,0.001181099172905764,1678317306438838841,293,1678248325013436317,camera_1,0,0.7039919503561922,0.7061277337320182,0.03239327015764932,0.06877233118531158,0.0018417205428704622,0.0003374520515688152,10649.562672475466
295,3.669845579457043e-05,-0.00011639879383629204,0.0007997398706343084,1678317306445687890,294,1678248325020144701,camera_1,0,0.7039561088103029,0.7065162790362934,0.03101495282724801,0.06571618542254963,0.001236451789736748,0.00022632312918753158,10661.993199134246
296,-1.2959500778564337e-05,4.3587066883898906e-05,-0.000322664403095807,1678317306453112704,295,1678248325027478218,camera_1,0,0.7039019533815397,0.7062363023216204,0.030505581660257183,0.06943871251907709,0.004581478540785611,0.0008385794538908561,10662.02276370535
297,-3.24515158046379e-05,2.9845833225294882e-05,-0.0004510799155745815,1678317306459654036,296,1678248325034154891,camera_1,0,0.7039571770003707,0.7063117070679653,0.03026002493329262,0.06820847674183808,0.00222563260467723,0.0004072297452850258,10666.52853408316
298,3.5260683915683266e-05,-4.1830930282815704e-05,0.0002695449806342509,1678317306466232802,297,1678248325040804862,camera_1,0,0.7041365482996118,0.705984616527769,0.03023481509726065,0.06973735391368073,0.00602373422589153,0.0011031130258388768,10656.720941830075
299,5.0453676550626936e-05,-9.907241545387135e-05,0.0005265129124563117,1678317306473358140,298,1678248325047383785,camera_1,0,0.7039881601368358,0.7061050991773055,0.031256080883835816,0.0695651975541183,0.0021565513452515006,0.00039501594948329377,10653.99469331023
300,2.350139775139648e-05,1.576350776610891e-05,-0.0001332688515316427,1678317306479778718,299,1678248325054082393,camera_1,0,0.7039729860692105,0.7062041433814733,0.032240776970969616,0.06825155716866046,0.0013859417522326114,0.00025366033018742927,10661.699139324252
301,4.1495795302409766e-05,1.3561039827747479e-05,-0.00011721526693619921,1678317306486580694,300,1678248325060721635,camera_1,0,0.7039275027025924,0.7063810522930727,0.02999734418216529,0.06791199630580542,0.0018621719209477305,0.0003407914971110715,10664.883608451115
302,7.699333973368305e-05,-0.00012941806473970585,0.0007597899829221433,1678317306493254164,301,1678248325067500829,camera_1,0,0.7041098357681002,0.7062254530779654,0.031013586960744736,0.06717965483142857,0.001753896358422935,0.00032113735046150084,10658.589768243022
303,-4.9847748458314856e-05,7.652520966749954e-05,-0.0008558890957139909,1678317306500109639,302,1678248325074160814,camera_1,0,0.7037819521088429,0.7061340272972078,0.03225454865905086,0.0708896570008188,0.0003457628772594035,6.329302814189504e-05,10660.478871657746
304,-1.7858775018808615e-06,-8.451625013256026e-05,0.00040394746709671026,1678317306505425060,303,1678248325080131053,camera_1,0,0.7040269078914801,0.7063302659820683,0.03146219284697283,0.06673678703475203,0.0015499997534789145,0.0002836979695313224,10662.116359668436
305,-0.00015134113575357433,0.0002580314674113793,-0.002091418773836118,1678317306512752586,304,1678248325087142467,camera_1,0,0.7036905597553896,0.7061857273634479,0.03288761093207119,0.07099098271249102,0.001442915410734713,0.000263879954553545,10669.483443111068
306,-1.8595504085644476e-05,5.875535529942244e-06,-0.00016034799905062513,1678317306520430293,305,1678248325094166994,camera_1,0,0.7040629972690895,0.7062831185393331,0.029429250989526024,0.06777441647860855,0.005467908747959882,0.0010005163902086784,10666.172863761429
307,5.7713874702935986e-05,-7.289636831986357e-05,0.0005214294516822093,1678317306526444748,306,1678248325100776910,camera_1,0,0.7040058662660709,0.7062781658755833,0.029315412314474612,0.0684653143658421,0.00169847666984424,0.000311033845111928,10658.992390519821
308,0.00011406293733448591,-0.0001884140205806739,0.0010116415463610196,1678317306532892983,307,1678248325107421398,camera_1,0,0.7039477269306929,0.7063447750720556,0.030094286247718812,0.06803668431631843,0.00260238564806059,0.0004766785876816371,10655.299607641526
309,0.00015428057287469876,-0.0001741054843528711,0.0008702233735200515,1678317306539803561,308,1678248325114114046,camera_1,0,0.7042242957738865,0.7060952682201973,0.03218185334787923,0.0667977675818362,0.003324244869872928,0.000608634342894594,10657.327176010233
310,0.00010418262449055082,-7.915080120007856e-05,0.00047947570290940433,1678317306546533812,309,1678248325120787143,camera_1,0,0.7041044265356364,0.7062731915893651,0.03155477442691213,0.06647880553952049,0.001324135228060186,0.00024236006260855498,10662.038159048305
311,0.00014112880305050535,-0.00019271975736190328,0.0014304589011162605,1678317306552047929,310,1678248325126625537,camera_1,0,0.7043911196970765,0.7062716473104259,0.030015847310909824,0.06412924143886532,0.0013313589734025295,0.00024372476276569169,10661.844415361997
312,-0.00011506014471449055,0.00014133655410653034,-0.001367738823838227,1678317306559087503,311,1678248325133299112,camera_1,0,0.7037470357610354,0.7062157119730499,0.03264315227891722,0.07024174278340233,0.001719244581181556,0.0003145214726288846,10665.927671005604
313,-7.018245532450229e-05,3.133528590276713e-05,-0.00038049749946189593,1678317306566431791,312,1678248325140768527,camera_1,0,0.7039422495210759,0.7061045792464374,0.031768568849222634,0.06980251098414089,0.005302885372657329,0.0009706523722142895,10660.144307179378
314,-0.0001219153046724819,9.830433772273217e-05,-0.0008673746323544229,1678317306572967885,313,1678248325147519588,camera_1,0,0.7039457304784532,0.706145411807549,0.029250339308841782,0.07045199482357982,0.002045207715127617,0.00037431570027615717,10665.022681014148
315,1.81494830124862e-05,-4.8198526965193e-05,0.0005030697791963412,1678317306579713570,314,1678248325154062747,camera_1,0,0.7038888536606972,0.7063854318104076,0.02918337565202891,0.06861802972839035,0.005128324846737087,0.0009390501448283688,10658.90779299708
316,-2.292748644733278e-05,0.00014372642768084587,-0.0012838307819071915,1678317306585330284,315,1678248325159935712,camera_1,0,0.7037822099889751,0.7062022879249014,0.033248833847362755,0.06973840032908296,0.002572596888057888,0.0004705943240043512,10665.871609288268
317,0.00018046912389649283,-0.0002555294575137257,0.001630298774950134,1678317306592014928,316,1678248325166606426,camera_1,0,0.7041690012823549,0.7064166145770424,0.029900562787164294,0.0650195403515898,0.0035574798239395022,0.0006514350831484545,10658.137690638425
318,0.0001606471968175205,-0.00010646286088139556,0.0003562306526911918,1678317306599990505,317,1678248325174232721,camera_1,0,0.7041019152860669,0.7060501158424448,0.03312431622219108,0.06809189734597627,0.003868765605147928,0.0007082690593993027,10657.052401414836
319,0.00014896527800054016,-0.00021867129103153582,0.001423018491270689,1678317306606319312,318,1678248325180750370,camera_1,0,0.7041729293051333,0.7060737564342854,0.031895717366273627,0.06769785315869346,0.0015204149531200528,0.00027856168981467075,10650.930874722315
320,7.203880995240719e-05,-0.00011983417630145876,0.0006879417881440197,1678317306613265579,319,1678248325187553167,camera_1,0,0.7039016245981724,0.7062672469261022,0.031314409092544335,0.06876399196281789,0.0025023104972206056,0.00045831429974778137,10654.74526124517
321,-0.00011385854431603115,0.00014292606196036894,-0.0009717311271026929,1678317306619945195,320,1678248325194122076,camera_1,0,0.7037049033141669,0.7062796771061445,0.03244226475912404,0.07011366639777394,0.0031670000171288852,0.0005795159043477899,10663.363602226718
322,-2.8016427872812333e-05,-4.0011577437104595e-05,0.00030385374022978695,1678317306626848580,321,1678248325200738191,camera_1,0,0.7039759037105472,0.7063614424986246,0.02952685685286264,0.06782038241245185,0.005062722892034799,0.0009267160594642943,10662.236214082108
323,7.677042611009544e-06,-0.00010985231794441441,0.0006034280474445097,1678317306632036822,322,1678248325206605911,camera_1,0,0.7040642726172469,0.7061853286263804,0.03034327662979678,0.0683744632166568,0.0027623767382465303,0.0005058554990660274,10657.502686876685
324,9.458942172396734e-05,-0.00010518937985204424,0.0006735247085067897,1678317306639982157,323,1678248325214064598,camera_1,0,0.7040278270669199,0.7061011592425017,0.03264529121760189,0.06855841737631063,0.004288713796995579,0.0007854184057879318,10653.904187946811
325,7.416441011109942e-05,-5.192639450701808e-05,8.150672442175377e-05,1678317306646349097,324,1678248325220749139,camera_1,0,0.7040547004283835,0.7060971963766534,0.030419543109989438,0.06934247955408546,0.0015521581517532468,0.00028420644581272583,10659.045276765832
326,8.252334399150296e-05,-2.7865656457459753e-05,-4.055945756142876e-05,1678317306651850434,325,1678248325226618289,camera_1,0,0.7041305961838911,0.7061315984506759,0.03132671012886188,0.06780048981913016,0.001228473731316626,0.00022483263226718642,10663.092905862726
327,8.368786945406326e-05,-4.729978743389651e-05,1.5909205612452126e-05,1678317306658739921,326,1678248325233287096,camera_1,0,0.7041022681664509,0.7060153256757137,0.03141177501920188,0.06925067699321258,0.0050914472667500385,0.0009321090394103195,10658.73678081308
328,0.0001221069623413007,-0.00022192891896583022,0.001343615776944418,1678317306666965037,327,1678248325240788459,camera_1,0,0.7041565866725569,0.7062539882536858,0.03052268339897915,0.06661209589513215,0.0032905448460951447,0.0006026515817414596,10655.832958092791
329,-2.6605431173998273e-05,4.999360382140772e-05,-0.000605161893983297,1678317306673120500,328,1678248325247397899,camera_1,0,0.7038793414415686,0.7060688599449345,0.03192023443050445,0.07072295484314746,0.0012402435531839726,0.00022705429263477007,10659.286458443503
330,4.727897977810369e-05,-0.00015146363800760954,0.0013322999157741044,1678317306678431452,329,1678248325253313541,camera_1,0,0.7041543951982185,0.7062497286138117,0.0292944652401378,0.06722903288195213,0.0054061998380348095,0.0009902075959586712,10655.710351747926
331,-0.0001088759508056647,0.00018368528984835653,-0.0013885021434254519,1678317306686342077,330,1678248325260446786,camera_1,0,0.7037836108178774,0.7063230804308626,0.02977021131325335,0.07007188960754493,0.002548606600612402,0.00046622031838745566,10669.727632251801
332,8.219062571676594e-05,-0.00018600160983950342,0.0013989491759147654,1678317306693984095,331,1678248325267372608,camera_1,0,0.7040610727634434,0.7063557446301746,0.029472345443651606,0.06701454096829336,0.008128039189614356,0.001488682264880883,10655.505478509353
333,0.00012428231990610494,-0.00014313232391927055,0.000966508852347836,1678317306699814869,332,1678248325274095058,camera_1,0,0.7042266412986701,0.706173132832263,0.03057302257730592,0.06670558028792761,0.003458001476246864,0.0006331490174753063,10658.602375302697
334,0.00010640085367802365,-6.380557647706064e-05,0.00021313653020627044,1678317306704912458,333,1678248325279977560,camera_1,0,0.7041407876225056,0.706108462492533,0.03241787759700982,0.06742159605715335,0.0024267693515866995,0.00044417104262771856,10660.791723981496
335,5.561679705531897e-05,-1.1023622267791744e-05,-0.00031909789920536724,1678317306713193657,334,1678248325287459373,camera_1,0,0.7040935038843915,0.7062385840944133,0.032353203440224035,0.06657830240607088,0.0019234764622524374,0.00035185148928338305,10667.302008449451
336,-1.2391519845833532e-05,3.2524875469730485e-05,-0.00043035608161190453,1678317306719712640,335,1678248325294083833,camera_1,0,0.7041262024642916,0.7060798754487396,0.030487372185485383,0.06876060374030665,0.00304961740039289,0.0005580701060654899,10664.67507931008
337,6.012453409637297e-05,-9.362985239069754e-05,0.0005644955335886159,1678317306726010787,336,1678248325300136089,camera_1,0,0.704160530619078,0.7061327024753479,0.029963718484013687,0.06809353264247024,0.002622687490656972,0.00048023057116900164,10658.936441071794
338,1.3838370982899306e-05,-6.909218419820506e-05,0.0004036095302444309,1678317306732904464,337,1678248325307392597,camera_1,0,0.7040240948490942,0.7061239286742225,0.030396293971175492,0.06939118487540821,0.002641312661580741,0.00048373685089246317,10656.392003968354
339,3.3243467988469666e-05,-0.00010572419472526517,0.0007066417217269638,1678317306740557726,338,1678248325314284563,camera_1,0,0.7039978719564826,0.7062094640522003,0.030869082931585117,0.06857323736568757,0.00548466999316588,0.0010044430753885425,10655.601022494844
340,-3.523777646780024e-05,3.889353405650553e-05,-0.00030214051205579295,1678317306745345852,339,1678248325320106983,camera_1,0,0.7038566638737095,0.7061442181237743,0.033609387067131916,0.06940136188798686,0.0018743054242804649,0.0003430920523368749,10658.4642772415
341,6.710834911416441e-05,-0.0001225502335012174,0.000692575245172744,1678317306753329251,340,1678248325327391147,camera_1,0,0.7039945747836844,0.7061599035192693,0.03491382618865733,0.06716289211807358,0.004234767809975892,0.0007752919188541647,10654.625603235094
342,4.112657470317638e-05,9.783594739409818e-06,-0.0005577992048744207,1678317306759682921,341,1678248325334071874,camera_1,0,0.7040318684859319,0.7062099932439608,0.030849923094556895,0.06822650396753692,0.0032031970331445336,0.0005860408656441589,10666.65638734552
343,0.00013387162538666675,-0.00017173421398147815,0.0009926428473829851,1678317306765600926,342,1678248325340189218,camera_1,0,0.7040473472302754,0.7061083936114005,0.033652631067214174,0.06779210685465899,0.003823334991466254,0.000700262885618798,10652.105553249365
344,4.111961456074176e-05,-2.466892155589262e-05,2.510495589636008e-06,1678317306773014496,343,1678248325347368955,camera_1,0,0.7040553981599229,0.7061787987435307,0.029305859181205575,0.06898309317990675,0.001800301659386605,0.0003295897814699545,10661.812228219467
345,3.908373563349388e-05,-8.787585494873795e-05,0.0007125945087973484,1678317306780342721,344,1678248325354098081,camera_1,0,0.7039388706878009,0.7064542178753881,0.028247813679883382,0.06778322361147959,0.006189250969327986,0.0011332417557899672,10660.291555365551
346,-6.475970271749287e-05,9.883244214059506e-05,-0.000580813457563778,1678317306785116320,345,1678248325360057830,camera_1,0,0.7039475910592875,0.7063388321837022,0.030213425095150112,0.068046984762072,0.002426464285235852,0.00044391058202580586,10668.099471214462
347,5.458610777522854e-05,-0.00015847040251587563,0.001160708680196798,1678317306793150143,346,1678248325367367029,camera_1,0,0.7039767366336472,0.7063801437224824,0.03078446284951966,0.06705343898945279,0.004939843318425119,0.000904647259747468,10655.96304952167
348,3.464433003558254e-05,-4.961219387028537e-05,-4.22925561776033e-05,1678317306799934520,347,1678248325374134778,camera_1,0,0.7040253737418809,0.7062716682790369,0.03045536332311268,0.06783122112131107,0.002633710391819477,0.00048199877350612127,10663.96282651299
349,9.858699414294625e-05,-8.348411758030139e-05,0.00038893041426657504,1678317306805237091,348,1678248325379947185,camera_1,0,0.7039450648721626,0.7062703407263747,0.03174727853140925,0.06808569422592944,0.002236322849057615,0.00040943785714339914,10658.430216194014
350,5.2353128960458406e-05,-2.23096495016728e-06,-0.0002524234458989305,1678317306813026402,349,1678248325387367486,camera_1,0,0.7040010401131129,0.7061933295000711,0.03409260032821202,0.06716555286841494,0.0018322740797884762,0.00033523222533589554,10663.246304250788
351,5.6308087417356045e-05,-3.0316210373748653e-05,3.6045590252609117e-05,1678317306819592318,350,1678248325394230604,camera_1,0,0.7039542192191185,0.7062228355510566,0.0315129287919727,0.06859080921507209,0.003025463898666202,0.0005538237159771572,10660.231523553377
352,6.589585691463284e-05,-0.00013411173611538318,0.000748743299669119,1678317306826230169,351,1678248325400745868,camera_1,0,0.7040951111862526,0.7062315619193189,0.03312489998197358,0.06625553828777002,0.0014235018170438707,0.0002605850382496772,10658.639904006268
353,3.532967526020947e-05,-0.0001595067007280071,0.0009664183151869565,1678317306831704827,352,1678248325406631946,camera_1,0,0.7039912222517559,0.7062084390205384,0.030346573573745105,0.06888457825222277,0.0013890665140934286,0.0002544872411237061,10653.234297893474
354,2.5086316539191245e-05,-0.0001384242216982967,0.0010753876896525405,1678317306839368426,353,1678248325413844585,camera_1,0,0.7041727927916758,0.7060984660455941,0.030620919965082673,0.06802935690216991,0.0034497004235163327,0.0006318796807016475,10654.331504070897
355,-0.00013195254453263194,0.0002619649082934994,-0.002044141801852195,1678317306846692740,354,1678248325420739650,camera_1,0,0.70371235566935,0.7061604869298719,0.033706042662091304,0.0706412759321481,0.0032439802889712155,0.0005931946390946725,10669.084576275784
356,4.4872638081505656e-05,-3.530399450846211e-05,0.00024411950314018327,1678317306852097976,355,1678248325426782369,camera_1,0,0.7040479807298367,0.7060634410019178,0.03045726154721515,0.0697367430399179,0.0016587927821092308,0.0003037937604188912,10656.695953188455
357,8.10107431991891e-05,-8.121564432572725e-05,7.096623317215389e-05,1678317306859848945,356,1678248325434096336,camera_1,0,0.7040295851572392,0.7061700534064991,0.030856939171913542,0.06865892658736211,0.0023148548789322376,0.00042377155394261376,10660.43564540974
358,0.00012198030870458343,-0.00010440171195069681,0.000658141432349435,1678317306867166205,357,1678248325441342353,camera_1,0,0.7041590505950588,0.7061251849467947,0.029914715237291382,0.06820824335219647,0.003724930400494486,0.0006821077834040696,10657.913915047653
359,1.3739836650178416e-05,5.858439152783834e-05,-0.0006301661357004384,1678317306872264143,358,1678248325446951389,camera_1,0,0.7039102243517975,0.7060268338461178,0.03385850518595746,0.0699293040777701,0.0010677353711798787,0.0001954331427822061,10659.362443280868
360,2.8058407580550115e-05,-5.2613308225868405e-05,0.0004020678771823327,1678317306878991879,359,1678248325453625679,camera_1,0,0.7038940317457122,0.7063621032298021,0.03196406867495707,0.06755789744566812,0.0075686979689635345,0.0013853931733420974,10659.494391915388
361,-3.958285517743909e-05,5.980140468325734e-05,-0.00047409559772804144,1678317306886372415,360,1678248325460723638,camera_1,0,0.7039479218808219,0.7062474998731099,0.03045424985520008,0.0688791032782164,0.0023923463886603713,0.0004377957781688703,10664.781291418709
362,6.743252791019394e-05,-0.0001665520029222045,0.0010035379433701586,1678317306893941799,361,1678248325467398405,camera_1,0,0.7039682651107563,0.7062455887649915,0.02979479932130415,0.06897912728025768,0.004009950556792319,0.0007346296418259906,10653.247229807654
363,-5.05314531394907e-05,8.660246089509105e-05,-0.0008673626980142402,1678317306899414711,362,1678248325474124431,camera_1,0,0.7038145376880682,0.7060834440958291,0.0345182460190281,0.06999826572475176,0.0013864891952835026,0.0002537361174592398,10660.303577458255
364,6.848592316435753e-05,-4.575592876121526e-05,0.0005850030344856094,1678317306905106782,363,1678248325480107069,camera_1,0,0.7040161706201509,0.7063379136658909,0.030318509830939387,0.06729614539545256,0.004048487695399672,0.0007411449449353318,10660.498875835096
365,3.48263949816463e-05,-7.508734659267269e-06,-0.00010601772824569977,1678317306912658357,364,1678248325487259149,camera_1,0,0.7039783204238464,0.7062781930483198,0.031219563137838743,0.06790417715503945,0.0009810057817958298,0.00017953897601867457,10663.49577923643
366,8.860706192151402e-05,-8.530595135836094e-05,0.0005182436471069529,1678317306920176827,365,1678248325494165420,camera_1,0,0.7041308335912798,0.7063182881292605,0.030569407662215126,0.06617972767684817,0.00440684036584571,0.0008064859751534005,10663.551169964943
367,7.9773098331265e-05,-7.436614166106414e-05,0.0002739904354625011,1678317306926228507,366,1678248325500786066,camera_1,0,0.7039468210645465,0.7062633162534344,0.031928237452897135,0.06805577771925213,0.0028310254565440123,0.0005182592925016429,10659.229059644276
368,4.616539129556618e-05,-5.309961671190466e-05,0.00011234138125093551,1678317306932147420,367,1678248325506775140,camera_1,0,0.7039402358341448,0.7060710928880161,0.03227961716151145,0.06992697961157425,0.0024790630559436977,0.00045398952657539084,10655.21178114845
369,6.495492359878674e-05,-0.00014663911763329596,0.0010045677334042935,1678317306939090684,368,1678248325513711214,camera_1,0,0.7039981155151421,0.7061718461573642,0.03262112644139098,0.06814572000884124,0.005267815024126321,0.0009648585680520481,10652.351435098326
370,-5.0688336969695325e-06,1.8530742477040896e-05,-0.00022153471386454626,1678317306946786130,369,1678248325520748615,camera_1,0,0.7038607873024509,0.7062063268608277,0.030340757122178118,0.07022858717762005,0.002635058655869216,0.00048246914723434735,10659.262570267194
371,2.0864532922326706e-05,-5.3756413815553294e-05,0.00047015897422042485,1678317306952894451,370,1678248325527386188,camera_1,0,0.7040380946553331,0.7061702736273509,0.03066877891967022,0.06865371016002685,0.0034423357574269176,0.0006303398934705728,10657.530442104908
372,2.8603637270363524e-05,-3.7542966012216183e-05,6.672041214406121e-05,1678317306959886464,371,1678248325534065485,camera_1,0,0.7040338566574957,0.7061377331784753,0.02915288960667897,0.06968457138504906,0.0023962685954757035,0.0004387818698757138,10659.5882629077
373,4.559120950689555e-05,-6.094135412249013e-05,0.00019610948488324453,1678317306967185844,372,1678248325540715217,camera_1,0,0.7040209030183673,0.7061796252530983,0.03252714986588034,0.06787407098590104,0.01039949682308361,0.0019033362431715637,10659.652106568916
374,6.696558829982768e-05,-4.523072277246021e-05,0.00018591398308220874,1678317306973594689,373,1678248325547388315,camera_1,0,0.7040477761205532,0.7062883621176437,0.030336950941451318,0.06747701745376633,0.0040928926900960505,0.0007490813700762768,10663.180327693233
375,0.00014268062241409862,-0.00017558358132946372,0.0013310042032803615,1678317306979527710,374,1678248325554076910,camera_1,0,0.7040615467062051,0.7063326934390032,0.030144359959362186,0.06695358236502033,0.0019405483035370708,0.0003554427618339897,10655.500739919724
376,2.293299256050929e-05,-9.256038653759902e-06,-0.0003022469564819552,1678317306985040360,375,1678248325560108900,camera_1,0,0.7039738662820131,0.7061819583433887,0.031242258003652938,0.06893300092904707,0.002592060423921794,0.0004744114960405672,10662.343949767532
377,0.00010874974301158802,-0.00023249485887683052,0.0014661764118377718,1678317306993115041,376,1678248325567483186,camera_1,0,0.7041505174361551,0.7061301335732048,0.030672386457979664,0.0679079374098175,0.0025998527416959405,0.0004763534853741906,10651.385150481945
378,-7.437594981896112e-06,-8.112043166697003e-06,4.0812095345010846e-05,1678317307000283750,377,1678248325574104309,camera_1,0,0.7040167944464366,0.7060574737812778,0.03178857318302803,0.06951750477362942,0.002731961547397077,0.0005002156053992019,10657.482254627164
379,7.993635790737308e-05,-0.00010410743935229672,0.0008747265693682671,1678317307006239399,378,1678248325580713987,camera_1,0,0.7041185513847352,0.7063630238220735,0.02946427955919965,0.06633400638327518,0.0036697123432531953,0.0006718129176533087,10661.467552510674
380,1.0307419811422802e-05,-3.697304401611978e-05,0.00034674160114978037,1678317307011914639,379,1678248325586724758,camera_1,0,0.7039438657122522,0.7064833356537713,0.03110055054675588,0.06615955052220532,0.002449462539516389,0.00044823005631216395,10664.46238091495
381,7.136742008997943e-05,-0.00012825054319182128,0.0005582916589816911,1678317307019503648,380,1678248325594083309,camera_1,0,0.7040763706571437,0.7061764138579516,0.03239716175637264,0.06739258641066545,0.004617105470970273,0.0008452422251416235,10658.104224511071
382,7.246799591020814e-05,-0.00010049089636310349,0.00032433401358922254,1678317307026140731,381,1678248325600697994,camera_1,0,0.7040502688467963,0.7060872972144683,0.032149385331657,0.06870491010049916,0.0026193855446763337,0.0004796200121887876,10656.86240154831
383,8.43391799318638e-05,-0.0001587790123794286,0.0010187942627193358,1678317307032627587,382,1678248325606938123,camera_1,0,0.7039540714075561,0.7061924709709078,0.033015038066329425,0.06819726207266805,0.0034681825782172378,0.0006352704270030794,10651.634357816893
384,2.371653063751311e-05,-8.206726635706652e-06,0.00022028461644074682,1678317307038506691,383,1678248325613459110,camera_1,0,0.7039014024778282,0.7062681039356123,0.032022953303378905,0.06843033986961759,0.001159887237008661,0.00021235405664365932,10658.654068293868
385,-5.299418499665753e-06,-3.226349139168194e-05,9.484102346934975e-05,1678317307046455729,384,1678248325620787620,camera_1,0,0.7040407454615025,0.7062216918658795,0.03250287331377423,0.0672392288359667,0.00309680710779503,0.0005667181344853488,10662.165858881435
386,-1.1403277593496908e-05,4.13352608193418e-05,-0.0005918099319015546,1678317307052940839,385,1678248325627439022,camera_1,0,0.7040318085922169,0.706085870085353,0.03171461026858654,0.06910962343765101,0.003726643568370491,0.0006819288987587571,10663.708273855273
387,-1.8509258388421657e-05,4.777293530427995e-05,-0.0005795961277743622,1678317307060360485,386,1678248325634153127,camera_1,0,0.7038639445190319,0.7062360426783787,0.03087473479116647,0.06966312065697047,0.0017953527276404204,0.00032859287108684003,10663.077751727777
388,9.464486475999068e-05,-0.00012094451147987018,0.0006804630358225872,1678317307065357503,387,1678248325640147924,camera_1,0,0.7040954264065952,0.7061484331059557,0.031562327127405566,0.06788107572528188,0.002709408930968493,0.0004961280868090358,10656.817065148378
389,3.097735258497658e-05,7.804214897100259e-07,-0.00015895578140012745,1678317307072545488,388,1678248325647106885,camera_1,0,0.7041420488483334,0.7060578353715986,0.03182358524486508,0.06821706220738917,0.002801858121529221,0.0005127707380725285,10662.441207536376
390,5.3504251269792524e-05,-6.577117761097373e-05,0.0001710410869990575,1678317307079622637,389,1678248325654133319,camera_1,0,0.7040306699484083,0.7060170642519108,0.03246538681373524,0.06947459547304405,0.0016922791255638006,0.0003098959751193455,10655.725638081434
391,-1.807017630650609e-05,2.16858079071236e-05,-0.000585746473367621,1678317307085866937,390,1678248325660146713,camera_1,0,0.7039388005803722,0.7061618140804949,0.03148854662666277,0.06938392323407476,0.0025465067010372877,0.0004660264597555343,10663.172452082514
392,-4.451401483224204e-06,2.002966868130951e-05,-0.0003830721619442201,1678317307092760823,391,1678248325667070150,camera_1,0,0.7038184001627945,0.7060794824315455,0.03271357836504615,0.07086074986929768,0.0025351684889756143,0.0004641961587004552,10656.211857641578
393,5.910491202396062e-05,-0.0001344452334334223,0.0009668451855229243,1678317307099799978,392,1678248325674193143,camera_1,0,0.7041117539091554,0.7063311391420017,0.03073816924260324,0.06616740010721585,0.00328397419070825,0.0006012101328851814,10659.809550891749
394,6.602603964106502e-05,-0.00011400707160796886,0.0006340114680685183,1678317307105521313,393,1678248325680150270,camera_1,0,0.7039605404695086,0.7061861684156465,0.03375710913434815,0.06783148666509636,0.002300125488545745,0.0004211678991336034,10654.80028711911
395,1.518602759278953e-05,2.798671086423621e-05,-0.00042648364033404107,1678317307113641529,394,1678248325687493801,camera_1,0,0.7039881227928011,0.7061232653434223,0.03121215838398855,0.06940070803978851,0.0008070070762187243,0.00014771406338682375,10662.163649588361
396,5.823939902502295e-05,-6.211229995900514e-05,4.884143312988698e-05,1678317307119614638,395,1678248325694150686,camera_1,0,0.7040499530676455,0.7061950373615625,0.03201792617011024,0.06765415874218572,0.0039105158066377035,0.0007156692478912807,10661.970767725257
397,3.437327882704899e-05,-3.9323225757781355e-05,-4.208867594890364e-05,1678317307125521679,396,1678248325700144290,camera_1,0,0.7041149296867808,0.7061092742114718,0.03315479331497951,0.06732472313325374,0.0027298154891468585,0.0004995253519549761,10662.259197152343
398,0.0001399497379157566,-0.00026091708382802725,0.0020132851631182724,1678317307133061380,397,1678248325707462549,camera_1,0,0.7042514078635679,0.7063573511938008,0.028080177782187642,0.06558010790156467,0.005553553462959826,0.0010173241499989727,10655.532193977851
399,-8.231073077119566e-05,9.18187969626838e-05,-0.0005514513111308794,1678317307139957083,398,1678248325714152812,camera_1,0,0.7037821840020646,0.7061408808917464,0.033424633072930074,0.07027437455184128,0.0030919109703972936,0.0005659717930621067,10658.392143976876
400,-3.194702972003638e-05,-9.211802182829132e-06,-3.481039586095136e-05,1678317307145393189,399,1678248325719978094,camera_1,0,0.7039743221108283,0.7062008159798702,0.031202082080673564,0.06875311914230685,0.0016945638926699758,0.00031020241887086983,10660.758534460329
401,1.5133584351983975e-05,-8.238791034426152e-05,0.0006105103576210524,1678317307153282722,400,1678248325727437496,camera_1,0,0.7040725045832585,0.7062375772518446,0.030114659675579695,0.06784909756161966,0.002401294419541955,0.00043968238944210687,10659.071730443971
402,9.333766191371717e-05,-8.059440573637833e-05,0.0005848739493630184,1678317307160528605,401,1678248325734547615,camera_1,0,0.7041139386323234,0.7063251875716181,0.028923511444899,0.06702030521634465,0.0021153910784050822,0.0003872528414402801,10662.592519440457
403,0.00015358128289930106,-0.0001882897321976995,0.001287337594272131,1678317307165860648,402,1678248325740427255,camera_1,0,0.7041341450312212,0.7063015466232246,0.028887978691538793,0.06707246622802014,0.002057147270534188,0.00037679778626353036,10656.80641072127
404,6.065963806098362e-05,2.0343657029187057e-05,-0.0002909523789371704,1678317307173578792,403,1678248325747425556,camera_1,0,0.7041610067772821,0.7059514307113549,0.03141846519292627,0.06930176084282784,0.003021912300027907,0.0005531416069315125,10661.095134238369
405,9.738260736044668e-05,-0.00010046654075357431,0.00046038769505640786,1678317307179891397,404,1678248325754158258,camera_1,0,0.7041412536943659,0.7061217577399975,0.031250991407590266,0.06782723367457548,0.003911300154868513,0.0007160639193627517,10659.05831516394
406,1.571308757605805e-05,-9.396648606385671e-05,0.0003524188773287307,1678317307185454193,405,1678248325760173797,camera_1,0,0.7038865200593871,0.7062156461941003,0.032995531441156016,0.06866238310932052,0.0027485016034916048,0.0005032581114082529,10655.808275086338
407,3.3644000532823126e-05,-0.00012927550250990683,0.0006993357569333725,1678317307193524334,406,1678248325767449617,camera_1,0,0.7039557716500732,0.7063934042532208,0.029431945137553987,0.06773766008296865,0.003460804582573473,0.0006336913959554414,10659.310925544705
408,-7.130429249377346e-05,6.015340928866575e-05,-0.0005117276666632975,1678317307200696116,407,1678248325774556159,camera_1,0,0.7038462344455835,0.7063467565082999,0.03200986646310163,0.06819168773385717,0.0034574686433188613,0.0006325759952901963,10665.191085459428
409,1.8131448657532356e-05,-3.186643134295286e-05,0.00036599063259412645,1678317307205299024,408,1678248325780336856,camera_1,0,0.7040377786241626,0.7062719084678843,0.028638524165287726,0.06848819250587154,0.003150481497868895,0.0005768327014868154,10660.88765987917
410,-2.9828244252433356e-05,5.014267842645692e-05,-0.0006390791135673091,1678317307213418682,409,1678248325787628889,camera_1,0,0.7038881741212464,0.7064106201583907,0.029802562093190724,0.06809758697910777,0.0030659291660413146,0.0005608829818163273,10668.80593077792
411,8.898985504468548e-05,-0.0001114174077038732,0.0006701109009177308,1678317307219658163,410,1678248325794190883,camera_1,0,0.7040551358959836,0.7062089998719948,0.0297081711900481,0.0685028370421837,0.0028920279000885785,0.000529641149533341,10657.27013549558
412,0.0001529242278121845,-0.00017080031060412448,0.0011395285166475588,1678317307226051991,411,1678248325800491571,camera_1,0,0.7039864785050449,0.7062705886477305,0.03258790474525989,0.06725267398080298,0.0035304994089528923,0.000646594264768709,10653.576910873528
413,0.00010030319034370905,-0.00012579443051569106,0.0005589951275419835,1678317307233228662,412,1678248325807434082,camera_1,0,0.7040405283302342,0.7061290280144921,0.03372362292317231,0.06761248051010411,0.003036242676898837,0.0005558903907796488,10655.975147798536
414,4.0751870437394366e-05,-5.630131388573156e-05,7.386168526535286e-05,1678317307239974278,413,1678248325814256906,camera_1,0,0.7040812225792071,0.7060673264271957,0.031739557270713245,0.0687834505355755,0.002458246191963553,0.00045003573643506034,10659.15330435231
415,2.865129860771254e-05,-2.5586848878489388e-05,2.3659900754591234e-05,1678317307245631289,414,1678248325820315122,camera_1,0,0.7038758197887194,0.7060817742339451,0.034166680986431934,0.06957008208830863,0.004510909435339272,0.0008259116214023683,10654.678884799358
416,-2.7129576759266083e-05,4.817036747883918e-05,-0.0006438209000556583,1678317307253544358,415,1678248325827416896,camera_1,0,0.7038816590436371,0.7061712114825561,0.031688273977102534,0.06977595164229809,0.0033086440525949,0.0006055241427937222,10662.396367254201
