%time,field.header.seq,field.header.stamp,field.header.frame_id,field.image_seq,field.transforms0.fiducial_id,field.transforms0.transform.translation.x,field.transforms0.transform.translation.y,field.transforms0.transform.translation.z,field.transforms0.transform.rotation.x,field.transforms0.transform.rotation.y,field.transforms0.transform.rotation.z,field.transforms0.transform.rotation.w,field.transforms0.image_error,field.transforms0.object_error,field.transforms0.fiducial_area
1678251877038731704,18,1677825033850475072,camera_1,19,0,0.10898433988685811,-0.33093812061037464,2.642414610633774,0.7040826893494397,0.7064169616254364,0.03228452681039115,0.06481012432464685,0.0027386886649765074,0.0005013554691862781,10660.009299889673
1678251877046376528,19,1677825033857209920,camera_1,20,0,0.10898691135438043,-0.3307640410568477,2.640830586933394,0.7039782387169755,0.7061857101977279,0.033383585218649536,0.06783744071989135,0.003961450303904712,0.0007247852622688429,10663.819544402766
1678251877053684510,20,1677825033863773345,camera_1,21,0,0.10894573805038042,-0.33073519195020895,2.6407316303937836,0.7040083297559513,0.7063502737628059,0.03340063660396546,0.06577202949502796,0.005754239798989147,0.001052302481783488,10669.886337280852
1678251877058956289,21,1677825033870569467,camera_1,22,0,0.10899641554415453,-0.3308062114606751,2.641128999265838,0.7039191707953977,0.7062541442481761,0.03534444628916974,0.06673570884847418,0.005552066839300096,0.0010158224178651695,10661.844638275681
1678251877065856751,22,1677825033877135515,camera_1,23,0,0.10904394774504036,-0.33081066399798115,2.6407340744902186,0.7038507836599619,0.7062797212854565,0.03583238928109975,0.06692585091430131,0.005081237992271781,0.0009294040369511242,10663.85427897377
1678251877072457877,23,1677825033883231401,camera_1,24,0,0.10907986744041832,-0.3308874346224159,2.641750145355483,0.7040074675694047,0.7062631751291446,0.03217000893587449,0.06731198695684774,0.003072044753935188,0.0005623928141041232,10659.147110862308
1678251877078968698,24,1677825033890347957,camera_1,25,0,0.10903905770056578,-0.3308974989557375,2.6419533712618235,0.7040312399402338,0.7063002331342322,0.03345748640771395,0.06603476710055052,0.0060108694597147405,0.0011002175294044195,10659.29153867927
1678251877085805884,25,1677825033897116422,camera_1,26,0,0.10894390159291144,-0.3306974958736168,2.640307983906552,0.7039652970953212,0.7061374436420261,0.03340871297709908,0.06845895901497791,0.003022938035428524,0.0005529754428903546,10666.394841579258
1678251877093396651,26,1677825033903104543,camera_1,27,0,0.10899464109793384,-0.33083960792494477,2.641677191346034,0.7039772253747155,0.7065423097395839,0.031509011293906444,0.06497086199867905,0.0035352437989786267,0.0006468111310517845,10666.417546814544
1678251877098602361,27,1677825033909878969,camera_1,28,0,0.10888675688918581,-0.3306193012421177,2.6397259544529814,0.7036903759843846,0.7062938249581014,0.03433452986328577,0.06921002551709844,0.005236443830654025,0.0009576434872748573,10668.014358281154
1678251877105622740,28,1677825033917156457,camera_1,29,0,0.10902604172955983,-0.3309164602189763,2.6421159262518485,0.7040669045678283,0.7063165103460154,0.03363813325611145,0.06538545018540241,0.005069909442681819,0.0009279201042779458,10659.38953249378
1678251877111800002,29,1677825033923043251,camera_1,30,0,0.10901056123265507,-0.33082913617434173,2.641226295308488,0.703902760914507,0.706384231001162,0.033937733776634796,0.06626048291355703,0.003224735031835735,0.0005899784932071842,10663.986727275656
1678251877119364299,30,1677825033930368423,camera_1,31,0,0.10903964189230543,-0.330871546427142,2.641485511512038,0.7041292128874601,0.7060646936428304,0.03409883768075638,0.06717119336712296,0.0018891054787673056,0.0003457669723661032,10659.372646239237
1678251877126080871,31,1677825033937487125,camera_1,32,0,0.10905301977053745,-0.33085320788577394,2.6416728941603727,0.7041782691371942,0.7063128870879511,0.03170675698102259,0.06519012479029909,0.0037498000310733914,0.0006860925080908936,10665.664234956728
1678251877131043536,32,1677825033943117618,camera_1,33,0,0.10901104869271214,-0.3308606650890983,2.6415489927260647,0.7040642286470347,0.7062474978476041,0.03587826067550815,0.06496756217186286,0.008018031308893114,0.0014667144259337876,10662.200369171102
1678251877139191561,33,1677825033950519800,camera_1,34,0,0.10895706916557871,-0.3307713712568145,2.6409223835899214,0.7039216167612009,0.7064410971684234,0.03253573107739308,0.06615708496473356,0.002043704327661544,0.0003738247122968926,10668.373217387127
1678251877147180489,34,1677825033957077980,camera_1,35,0,0.10897027107211128,-0.3307852872376427,2.6409973482072395,0.7038623767435779,0.7062684306223649,0.034142182910887366,0.06780095764207958,0.005821327620651573,0.0010651989711989763,10661.670349701073
1678251877153244959,35,1677825033964057922,camera_1,36,0,0.1089606789192338,-0.3307383631114378,2.6407625153723666,0.7039649851526371,0.7062519238696258,0.032221676240815796,0.06784750024674435,0.006023832713253796,0.0011021631389370751,10665.716525075724
1678251877157857303,36,1677825033969794988,camera_1,37,0,0.10897495852979443,-0.3307317396769791,2.640358987456969,0.7038824818831242,0.7060614716030283,0.03535099047146945,0.06911553724384747,0.0051847719005309045,0.0009485929290031473,10661.844344874617
1678251877167548736,37,1677825033977142333,camera_1,38,0,0.10902104396488557,-0.3308319686071306,2.6411730713092787,0.7038520228615731,0.7062046508507883,0.037134947565429136,0.06699490054997191,0.005574782262556255,0.0010200036905412206,10658.465566229534
1678251877173819236,38,1677825033983763217,camera_1,39,0,0.10903081477734528,-0.33087542751170035,2.641741230098072,0.7040698208922839,0.7062477273677432,0.03426052353101087,0.0657727255325975,0.0022197096841409802,0.000406220009993586,10660.685027006548
1678251877178926540,39,1677825033990514516,camera_1,40,0,0.1089942181980086,-0.33084415480257046,2.641506011196833,0.7040185446375967,0.7061593774534524,0.03545069089922595,0.06663385742759176,0.003340088645927608,0.0006112774385064088,10658.94026524527
1678251877185750596,40,1677825033997159719,camera_1,41,0,0.10894752720090867,-0.33072170203129037,2.640449501790153,0.7038878822950614,0.7062567170206295,0.03472511436058909,0.0673607100174894,0.002885681635234505,0.0005277978180113129,10666.50323540706
1678251877192655389,41,1677825034003138542,camera_1,42,0,0.10896513178292264,-0.33075665752286154,2.640817173363935,0.7038221014289697,0.7062198012986608,0.033460928075288235,0.06905366091764922,0.004871508048381656,0.00089162161315074,10660.673282781847
1678251877199248482,42,1677825034010431051,camera_1,43,0,0.10899088981839748,-0.33067753431661556,2.6402277100947975,0.7039232618439999,0.706268588503234,0.032896213169073756,0.06778319472913541,0.0067703238455578685,0.0012381056623408824,10669.39955178625
1678251877206459107,43,1677825034017211198,camera_1,44,0,0.10903215108481813,-0.33083801687130326,2.641185835076776,0.7039647953370108,0.7062757011983425,0.0343976076357646,0.06652071415616537,0.0014499611570499837,0.0002652860953358414,10663.074273444134
1678251877212208945,44,1677825034023793935,camera_1,45,0,0.10902947498979237,-0.33079831364906753,2.6407615712008528,0.7039918478995453,0.7060504414323884,0.035573198478551504,0.06799117438402151,0.004747820436023176,0.0008686815931659133,10661.240448893284
1678251877217872530,45,1677825034029684543,camera_1,46,0,0.10897686609633238,-0.3307629767045303,2.6407129480565703,0.7038803979493916,0.7062682742022585,0.036815279693219106,0.06619777503118718,0.004049007955472916,0.0007404692166311284,10664.639502321024
1678251877225851610,46,1677825034037153244,camera_1,47,0,0.10901509462505105,-0.3308552667313243,2.6418098882238175,0.7041264927578037,0.706354260433258,0.03177699086441419,0.06526686614188422,0.0018281111842952669,0.00033453823779720294,10664.31529276015
1678251877234392419,47,1677825034043816566,camera_1,48,0,0.10897219780212639,-0.330848003198875,2.641404758628989,0.7039943159100124,0.7061275346121768,0.03573335976239552,0.06707484647029847,0.0016280008130706847,0.0002979573610128748,10658.25864146033
1678251877238255443,48,1677825034050487995,camera_1,49,0,0.10894352180002437,-0.33079211867316627,2.6411065825282827,0.7040587234598851,0.7063022674014261,0.035405043054430686,0.06469083327609425,0.002880675601772964,0.0005267828450671925,10667.071861382916
1678251877244966078,49,1677825034056594133,camera_1,50,0,0.10899338141104524,-0.3308397637226103,2.64158580382591,0.7038599079956376,0.7063543275184058,0.03458408793293822,0.06669883637845657,0.004646824498195201,0.0008504353136500757,10659.229941405123
1678251877252060837,50,1677825034063726425,camera_1,51,0,0.10891730699252003,-0.33057783951512676,2.6392679090961444,0.7037372242467204,0.7061761817131099,0.0349754898883777,0.06961202983452035,0.005383182957302779,0.0009841979744730838,10669.817733592821
1678251877259561929,51,1677825034070610523,camera_1,52,0,0.10895074701379447,-0.33058239784436816,2.6389335685837447,0.7037858149330575,0.7061651492887979,0.03569129568120612,0.06886537621721409,0.0036261951318010688,0.0006627221148888783,10673.538005528044
1678251877265658455,52,1677825034077141046,camera_1,53,0,0.10903784616512707,-0.3307594070691293,2.64042315925798,0.7038517268425794,0.7062055451101108,0.035501265596425656,0.06786851123682058,0.004033135075587779,0.0007377114727542514,10664.370263681865
1678251877271957730,53,1677825034083103179,camera_1,54,0,0.10900946072143873,-0.33072367656450075,2.640179370689141,0.7038503297018517,0.7061369625723796,0.036943087720092534,0.06782707230416089,0.0014265793142840266,0.00026090001533425654,10664.569007329175
1678251877277925470,54,1677825034090017080,camera_1,55,0,0.10903178019351735,-0.33099436888194333,2.642914467205193,0.7042459283885675,0.7063719495926549,0.03285182725970686,0.06322261163931064,0.004143601574469358,0.0007585273130783616,10659.17794068344
1678251877285910278,55,1677825034097182035,camera_1,56,0,0.10891380641924017,-0.330744357339816,2.640791678069681,0.7039684322917631,0.7062784279440913,0.0350363969323814,0.06611867699445537,0.004170318890828639,0.0007627336231401542,10666.544296659064
1678251877293069360,56,1677825034103095531,camera_1,57,0,0.10893576617367975,-0.330808484274761,2.6413089068214526,0.704065241722545,0.7062576246421678,0.03342323829039315,0.0661452203500825,0.0023275206913240254,0.00042585502971927863,10664.270173769912
1678251877298767725,57,1677825034110036134,camera_1,58,0,0.10895167277162696,-0.330743527555434,2.640737319691703,0.7039893720139946,0.7062167131452409,0.034239722993218605,0.06696685400271954,0.005058225593529642,0.0009252220333401936,10665.80183984432
1678251877305858154,58,1677825034117119789,camera_1,59,0,0.10908314045114091,-0.3310250345096877,2.6428467814164485,0.7040175375074312,0.7063804418923745,0.03352893537231803,0.06528237653996083,0.0023092946503311396,0.00042293181375199594,10653.874412462812
1678251877311458673,59,1677825034123072862,camera_1,60,0,0.10904243567751142,-0.3308096206557399,2.6410431244556856,0.7040694790219332,0.7062837453818303,0.033318404996335704,0.0658735425470482,0.00273261487018317,0.0004998318975573457,10667.160859632073
1678251877317970193,60,1677825034129691600,camera_1,61,0,0.10903761059416722,-0.3307460150100139,2.640314332014234,0.7037706258265173,0.706192323749239,0.035904040774434716,0.06863095480517203,0.006831681006588042,0.0012496775141515918,10662.741644585041
1678251877326758447,61,1677825034137170791,camera_1,62,0,0.10904666521980257,-0.3308437851120861,2.6411214891452452,0.7039683145032556,0.7061252272080172,0.03534669266791902,0.06757504712030458,0.0025403067120350897,0.0004648785384061903,10659.702829728838
1678251877332006480,62,1677825034143091917,camera_1,63,0,0.1090317369237794,-0.3308847251208741,2.6416567348870883,0.703971335115649,0.7063072438613228,0.0344260425605465,0.06610056125428944,0.005137094180099666,0.0009401119807337035,10660.32643942826
1678251877338813146,63,1677825034150054931,camera_1,64,0,0.10897758603717278,-0.33079092170414515,2.6411062514888863,0.7039277261195821,0.7063406037932692,0.03496568121707696,0.06592502537049404,0.0029633381636813283,0.0005420527193633942,10664.56083330256
1678251877346076849,64,1677825034157584905,camera_1,65,0,0.10899633257348458,-0.33097420236613295,2.642788188850518,0.7041036931584199,0.7063835655089985,0.033091818039781534,0.06453819983769493,0.0012770824832841754,0.00023383008282661287,10656.743805462029
1678251877352083701,65,1677825034163049936,camera_1,66,0,0.10891120425212435,-0.3306991379440375,2.6406384270828362,0.7038607037147613,0.7062324279808989,0.03325744137934741,0.06862805568617678,0.00499052694067359,0.0009131972049826477,10663.518512545392
1678251877358692928,66,1677825034170034408,camera_1,67,0,0.10897475593144296,-0.33078715897965466,2.640947782831517,0.703881544101488,0.7061976500530939,0.03436785703051854,0.0682239058975869,0.004759632924105972,0.0008710010414545055,10660.686981940526
1678251877366323434,67,1677825034177115201,camera_1,68,0,0.10899184510969429,-0.3307723608470056,2.6406409847801258,0.7040179971860687,0.7060149866284039,0.035852544008310665,0.0679418382320012,0.0030756709165871148,0.0005627046979448795,10661.999567545718
1678251877371900905,68,1677825034183148860,camera_1,69,0,0.10900632541207116,-0.33068597153727225,2.6398015631851965,0.7038287226369919,0.7061362945261002,0.03650137145123056,0.06829577312182879,0.0029558120877481997,0.0005404535731959084,10666.970308478805
1678251877378779228,69,1677825034190001010,camera_1,70,0,0.10902446491528574,-0.3308092778812759,2.6409046887148016,0.7039757034302632,0.7062809246603164,0.03566565062779025,0.06567667627195303,0.003184642060659826,0.0005824005053116363,10665.868634363875
1678251877386141616,70,1677825034197170734,camera_1,71,0,0.10904686380066075,-0.3308785390327968,2.641547548978439,0.7039921388329361,0.706288681104055,0.03461908427914967,0.06597640797585025,0.002571674238424748,0.00047060929476917606,10661.269143795591
1678251877391514943,71,1677825034203007936,camera_1,72,0,0.10894531864232421,-0.3307825700886481,2.6408316223478674,0.7039382188089679,0.7060807574521429,0.03610229015344797,0.06795272401855683,0.0025392838870175183,0.0004646228802100477,10660.133822262174
1678251877398130036,72,1677825034209976911,camera_1,73,0,0.1088977262929937,-0.33070141069323683,2.640592214294872,0.7039085688191934,0.7062124051169258,0.0335902658921183,0.06817961307589647,0.0022908030659891665,0.0004191022502024234,10664.657276356127
1678251877406819745,73,1677825034217144489,camera_1,74,0,0.10897897930192266,-0.3309197999100864,2.642384700591129,0.7041493416764218,0.7064230723718247,0.03314568839503393,0.06357287769350232,0.0026420907815918326,0.0004834796133717191,10662.271537948285
1678251877411593491,74,1677825034223011255,camera_1,75,0,0.10890453562957643,-0.3307491750007798,2.6407963390887095,0.7039389228952817,0.7061044297713813,0.035150620655481614,0.06819795420536762,0.0027813947526738048,0.0005089298839010906,10661.032106488245
1678251877418569940,75,1677825034229845762,camera_1,76,0,0.10903652206081248,-0.3309108148692701,2.6419825564597845,0.7040456788122487,0.7062406097218963,0.034896668657554586,0.06577313921388662,0.001523322134744376,0.0002788342342442413,10657.952533649976
1678251877425598070,76,1677825034237154960,camera_1,77,0,0.10900062122208826,-0.3306809096584875,2.6397628085743103,0.7038373886062095,0.7061535065995378,0.03517244398188247,0.06872448400322627,0.0024668933474458754,0.00045110955110405567,10667.87476205977
1678251877433026458,77,1677825034243002176,camera_1,78,0,0.10910104868563694,-0.33093577179387224,2.6419027139955045,0.7041884864449817,0.7061886307184047,0.035048984269622226,0.06471292068867328,0.00216742668999359,0.0003965948757851551,10660.982823406699
1678251877437677982,78,1677825034249767541,camera_1,79,0,0.10904048993241677,-0.33092644861135256,2.642174305536798,0.7040658246581296,0.7064264679433202,0.03226938985087711,0.06489719883204062,0.003649342921562493,0.0006679590843163433,10661.718174782696
1678251877445788014,79,1677825034257068634,camera_1,80,0,0.10903188450824146,-0.33089626862265803,2.6420314720347124,0.7040756167986654,0.706282510888386,0.03442005010771447,0.06525182597719704,0.0020856551127508283,0.00038171783169149535,10659.463008012393
1678251877451283563,80,1677825034262992858,camera_1,81,0,0.10897085773733553,-0.3308027823381532,2.641485352372019,0.7040411487292456,0.7062822855177786,0.031147336169608006,0.06724014804657073,0.003180811065249145,0.0005822067686005986,10662.670264713812
1678251877458274608,81,1677825034269761323,camera_1,82,0,0.10899140104408299,-0.330823657745293,2.6414395107982305,0.7040460532144529,0.7062378647046518,0.033401936897302226,0.06656984318799551,0.0041976458742283285,0.0007681244619896608,10662.15890838881
1678251877466043399,82,1677825034277123689,camera_1,83,0,0.10893359632568236,-0.33067566448667873,2.6402351523494754,0.7038248214399118,0.7061931399523425,0.035413535375384365,0.06832094350595569,0.003957062435802072,0.0007237552775683521,10664.895796198278
1678251877472853487,83,1677825034283054351,camera_1,84,0,0.1089849432873283,-0.33085225205342106,2.641641892607399,0.7041605937977943,0.7062097323828296,0.03410917442593056,0.06528580435356054,0.00532513129292056,0.0009742968091671024,10662.900973162494
1678251877477822786,84,1677825034289658546,camera_1,85,0,0.1091051274182041,-0.331041976305641,2.6428989662836795,0.7043224062907887,0.7062197643401398,0.03338425755966158,0.06378937058241771,0.0010945883695967495,0.0002004123399769984,10657.258521369547
1678251877484729744,85,1677825034296248674,camera_1,86,0,0.10903219227444337,-0.3308160548132265,2.640929246744145,0.7039791778680617,0.7063280071106355,0.034124646202052175,0.06595128521045651,0.006694901618175209,0.0012244902741552189,10666.907047406421
1678251877492765116,86,1677825034303730964,camera_1,87,0,0.10901842937757195,-0.3308064036946865,2.641027671249043,0.7039704869669674,0.7062589497992368,0.03361002126989949,0.06703891241814162,0.006272474303841591,0.001147595296097935,10664.00093165343
1678251877498381349,87,1677825034309628248,camera_1,88,0,0.10895784279554963,-0.33074559699169914,2.6407711389880677,0.7039211670951223,0.7062677380628576,0.032725760776609866,0.06789622425884816,0.00425210950197652,0.0007779690826525378,10664.93530091806
1678251877505546088,88,1677825034317071199,camera_1,89,0,0.10908027127523628,-0.3310609741841822,2.643282754482426,0.7041953831319092,0.7063468851938066,0.032132360580089274,0.0644239982945968,0.004481256066355854,0.0008207411180258405,10654.108195086012
1678251877511887895,89,1677825034323159456,camera_1,90,0,0.10896853565620261,-0.33075849729817425,2.640794697976262,0.7038674625966107,0.7061711931371248,0.03505195256010521,0.0682949610353714,0.002622727944981307,0.000479921184808879,10660.895342372245
1678251877518704269,90,1677825034329962730,camera_1,91,0,0.10907219053528708,-0.3309709793396002,2.6425468872127817,0.7042309819191996,0.7062626712974,0.030950173715609226,0.06552747503112172,0.004546944692265242,0.0008325375953041599,10658.608676828791
1678251877526776587,91,1677825034337194442,camera_1,92,0,0.10895479186477271,-0.33065310756393307,2.639856203428177,0.7038823150869553,0.7060402598867938,0.03460085768510096,0.06971096451973956,0.005802837025839835,0.0010614008527532906,10665.266411008313
1678251877532488501,92,1677825034343731880,camera_1,93,0,0.10900150273291029,-0.3307888355397245,2.6407502607801985,0.7037145506566472,0.7063025434897792,0.036016475175067654,0.06801001227720709,0.00503578910138458,0.0009213673885250568,10660.728829558939
1678251877538893933,93,1677825034350475549,camera_1,94,0,0.10901899530274468,-0.3308634619854229,2.641505847914095,0.7039501631583882,0.70621253101584,0.03631080321854374,0.0663291368487804,0.005013148591388017,0.0009173627416800784,10658.581630562552
1678251877544529093,94,1677825034356411457,camera_1,95,0,0.10902203989704462,-0.3309254696268503,2.642190174843113,0.7038652292209213,0.7063595799129357,0.03483089998704583,0.0664581926107929,0.0015047251945361495,0.0002755191441340012,10654.65765258891
1678251877553632677,95,1677825034363768100,camera_1,96,0,0.10897281472381139,-0.33079626162132914,2.641110163500508,0.7038147054511975,0.7063661512453192,0.035052578601760254,0.06680596903635454,0.0043628280982375145,0.0007982213677603004,10662.195391838086
1678251877558785518,96,1677825034370229959,camera_1,97,0,0.1089318200864724,-0.3306572895526896,2.640111717081116,0.7038928636147976,0.7060785130535334,0.03706125624858344,0.06792961976596062,0.0060190699296072125,0.0011007599132140976,10664.767315416713
1678251877564785176,97,1677825034376286506,camera_1,98,0,0.10901593171230363,-0.3308389309714363,2.6414241412800052,0.7041579763805926,0.7062680908820632,0.031668880881052096,0.06590910472109392,0.0026685677585192025,0.0004882660220665376,10665.912311292603
1678251877572178084,98,1677825034383088588,camera_1,99,0,0.10901557594533753,-0.3308494158606888,2.6411832109584146,0.7039230256631224,0.7061051574109363,0.03601860661881718,0.0679009616735354,0.0044811301631852984,0.0008201164780669777,10657.512156625977
1678251877579927529,99,1677825034390415668,camera_1,100,0,0.10900342596697883,-0.330790590329644,2.6409288306531753,0.7039479527995218,0.7061417722736948,0.035893057206049565,0.06732581706842404,0.002709988970309496,0.0004958223956526367,10661.232494204536
1678251877585464632,100,1677825034397077798,camera_1,101,0,0.10902634283305657,-0.3309504365780167,2.642108474911971,0.703982321860814,0.7063464092620267,0.03377669458881629,0.06589973848774057,0.001168367569334805,0.0002138927193721502,10657.973208751293
1678251877592210886,101,1677825034403739690,camera_1,102,0,0.10895993138644593,-0.3308000194263222,2.6411875543601218,0.7040847913214703,0.7062177661808425,0.03369481918570141,0.06622486330967746,0.007087604200933129,0.0012965574122264557,10664.711523597245
1678251877598864532,102,1677825034410407066,camera_1,103,0,0.10889578022573569,-0.33065662794957773,2.6400376732676776,0.7039356982723539,0.7060999963880823,0.035699314773973825,0.06799181364864704,0.00570475438144058,0.001043226804087756,10666.987501333708
1678251877605913824,103,1677825034417332172,camera_1,104,0,0.10897352562057987,-0.3308566971876514,2.6414452807916526,0.7039259782736249,0.7063019921763475,0.0355417023395981,0.06604922674828403,0.0010977167985402048,0.00020086001692381792,10660.77131951577
1678251877612064059,104,1677825034423786640,camera_1,105,0,0.10893178274540569,-0.33066350251845844,2.6400653896531963,0.7039209933332401,0.70616555264876,0.03336879080862887,0.06864379940668978,0.00860112305963412,0.0015730706435212027,10667.920878941775
1678251877618533674,105,1677825034429735660,camera_1,106,0,0.1090777312118962,-0.330910910237589,2.641976255926076,0.7040511315941959,0.706363009836031,0.034067557869397344,0.06482826495542768,0.001927953737322241,0.0003528078413090783,10661.352798598818
1678251877625336080,106,1677825034436579465,camera_1,107,0,0.1089425301346581,-0.3305988789441055,2.6393051599798327,0.7036741216347538,0.7061997485239153,0.03721760426735511,0.0688439950824692,0.003900723473634571,0.0007130946787921791,10668.621467501864
1678251877632748753,107,1677825034443759202,camera_1,108,0,0.1090160300472708,-0.33079884131310294,2.640595573488088,0.7039358243031834,0.7062184989983322,0.03585861047837718,0.06666293565168319,0.0017629456124268472,0.0003224291911894683,10665.60505024308
1678251877638653288,108,1677825034450463533,camera_1,109,0,0.10897307075420942,-0.33084529461575546,2.6414587947957617,0.7039499485617222,0.7061915851675687,0.03551473360536802,0.06698222641421385,0.0036832326441071928,0.0006741841131491048,10658.354726938065
1678251877645862376,109,1677825034457068681,camera_1,110,0,0.10907217565378237,-0.33104878214884004,2.643002909920986,0.7041739798490994,0.7062444567178967,0.03457365244451075,0.06451694363009698,0.0021901337313465774,0.00040105639223771025,10653.2314238511
1678251877651337112,110,1677825034463032484,camera_1,111,0,0.10890320006223707,-0.33066097457224014,2.6401556646809237,0.7036956086862307,0.7063512692885529,0.03531467550466505,0.06806796885588522,0.0022079976042732596,0.00040382546910772436,10666.334672973724
1678251877658886533,111,1677825034470342159,camera_1,112,0,0.10890690462305247,-0.3307372494408994,2.640777931963121,0.7038440356798615,0.7063270064384662,0.03273457002068414,0.06807482162386917,0.007207274320535362,0.0013186772796923262,10664.429403508315
1678251877666600429,112,1677825034477042436,camera_1,113,0,0.10899068446067042,-0.3309276200201457,2.6420777241126503,0.7039637873622647,0.7062730515537451,0.034066068360665024,0.06672979632805347,0.0046505521750077605,0.0008514904600324161,10655.807304644255
1678251877671497862,113,1677825034483061075,camera_1,114,0,0.1089559256233161,-0.33074875407126936,2.640541862521358,0.7037657078205672,0.7062200569510514,0.035312696332807904,0.06870278839738964,0.00596672942629084,0.0010917234972519614,10661.52233642666
1678251877678493727,114,1677825034490124702,camera_1,115,0,0.10907406378394341,-0.3308770858755692,2.6414718885260973,0.7041769582916536,0.7059337459013617,0.03440428269087559,0.06788742992125228,0.003334501583594829,0.0006104002181969518,10657.250162675862
1678251877687884705,115,1677825034497081279,camera_1,116,0,0.10898995210776122,-0.330677632796017,2.6398505786164503,0.7038601418043909,0.7061827716190545,0.03621126327674667,0.06764272510355555,0.003167484770528973,0.0005790922562819394,10668.670782511124
1678251877691750034,116,1677825034503030061,camera_1,117,0,0.10902202151525951,-0.3307801250993439,2.6406813518502075,0.7038184480955617,0.7062085954562163,0.03496245652340364,0.06845902758557602,0.0032823275541886687,0.0006006002363547854,10661.448225923119
1678251877698539519,117,1677825034509833574,camera_1,118,0,0.10890517726824396,-0.3306235956534056,2.639876262416367,0.7039136898714462,0.706175077778059,0.03353180958783884,0.0685411882190766,0.0077245006104931235,0.0014126598557405426,10669.546930945246
1678251877708044408,118,1677825034517115116,camera_1,119,0,0.10891435502155569,-0.33073955661873267,2.640705726704586,0.7038970954655043,0.7061612618800738,0.03532385967198594,0.06795127778815162,0.0066375661990605295,0.0012143065555534343,10662.18307735666
1678251877711588959,119,1677825034523051738,camera_1,120,0,0.108995420785492,-0.3309645106773188,2.642510327410805,0.7040480208337511,0.7064245646516418,0.03246319752813982,0.06501430321910394,0.002753887150902301,0.0005041663564502179,10658.51544414321
1678251877717943896,120,1677825034529814243,camera_1,121,0,0.10908264206314598,-0.3310486264910388,2.6432131353516866,0.704026863891753,0.7063852132696454,0.031458578936658696,0.06615484263473817,0.004825920448638499,0.0008841724724157079,10651.135033966857
1678251877727605577,121,1677825034537174463,camera_1,122,0,0.10896764201909215,-0.3306997897954816,2.6401769107728685,0.7038280233556204,0.7060843610716083,0.036241329865922906,0.06897502880730146,0.0040665456326678395,0.0007438888033379777,10662.546693844371
1678251877732087109,122,1677825034543120384,camera_1,123,0,0.10907461278806542,-0.33098823856681264,2.6424405215475035,0.7040185643424071,0.7062971057696054,0.03232676691464304,0.0667625612419228,0.0028249314054846764,0.0005173905763174947,10654.813023436816
1678251877738424027,123,1677825034550159692,camera_1,124,0,0.10907623114274982,-0.33088345762826654,2.64170365771287,0.7040546971567851,0.7062958301035731,0.03209892817986768,0.06650445548589963,0.0071134340250864625,0.001301987784743251,10661.665019186335
1678251877746400035,124,1677825034557044029,camera_1,125,0,0.10910793511341704,-0.3309106065509554,2.6417937229232966,0.7040415709716799,0.7062548382698344,0.033184571056320326,0.06654587897073214,0.004706335777882487,0.0008614192075780624,10659.559130890531
1678251877754401045,125,1677825034563056707,camera_1,126,0,0.10896075830275415,-0.33074297732062935,2.640445549220721,0.7039087708926107,0.7062437055453263,0.035615616826480054,0.06681166422212516,0.009113929059822112,0.0016666266453085762,10666.799138952865
1678251877758147156,126,1677825034570006132,camera_1,127,0,0.10894594219185907,-0.33086952408064946,2.641693877957127,0.7040130831856084,0.7061805222765319,0.03503156323862181,0.06668911633690011,0.002293266588822007,0.0004197843759141916,10657.826772656523
1678251877765424758,127,1677825034577031373,camera_1,128,0,0.10901768319236974,-0.33096831743346095,2.642749086490279,0.7040383501809728,0.7063232190118907,0.031154019466404795,0.06683516163084763,0.0054552770452573895,0.0009993043994722245,10653.513440168583
1678251877771025556,128,1677825034583051204,camera_1,129,0,0.10900149213210104,-0.3309578838557196,2.642358967790031,0.7042147577725055,0.7061602700167242,0.03179623176161067,0.06639463555951296,0.0025473665446043015,0.00046645022708561207,10657.025266475974
1678251877778781426,129,1677825034590268850,camera_1,130,0,0.10900184120993786,-0.33084851568351237,2.641362631196135,0.7039893506571078,0.7061573614174667,0.03542815126422986,0.06697478014375212,0.0009896563133224845,0.0001811194693318397,10659.230064245174
1678251877786696114,130,1677825034597010374,camera_1,131,0,0.1089600061117828,-0.3306823867202557,2.640011600519149,0.7038902018542362,0.706117949799634,0.03567165640192409,0.06829024552531007,0.005747462739236653,0.0010510624561697157,10666.413263492519
1678251877791160605,131,1677825034603046894,camera_1,132,0,0.10897913958638626,-0.33066650093095756,2.639739704862295,0.7036940606735146,0.7060177212111635,0.03861456963357937,0.06973206809373408,0.0050123879336752,0.0009167696178593288,10660.814562505344
1678251877798622586,132,1677825034610363960,camera_1,133,0,0.10898785878672135,-0.3307273741568598,2.6404980539374057,0.703759952124856,0.70639451834034,0.034371393286921036,0.06743383103053942,0.00470082787796855,0.000859852875478483,10666.3554181871
1678251877806712853,133,1677825034617165088,camera_1,134,0,0.10901101478249635,-0.3307556407608219,2.640459277276523,0.703736586946648,0.7061418894635513,0.03602508323455018,0.06943083980100159,0.007047011924441904,0.0012894089821680994,10659.314027415006
1678251877812008447,134,1677825034623680114,camera_1,135,0,0.1089859057774174,-0.33083205439932867,2.6414063349493877,0.7039535738884629,0.7062454491911102,0.033638582197518564,0.06734372349557406,0.0035108599113300443,0.000642587513365984,10660.164162817175
1678251877818635693,135,1677825034630381584,camera_1,136,0,0.10900604505444411,-0.33088574896931033,2.6419672893085435,0.7040500229548713,0.7064583629733299,0.03398217196560509,0.06383853499876121,0.004195649526081979,0.0007675975320801376,10663.980240729288
1678251877824253323,136,1677825034636361360,camera_1,137,0,0.10892296479996752,-0.3306897841239884,2.640186285498535,0.7038058159299632,0.706217259084437,0.034376221316632954,0.06879558010812856,0.005038923991378397,0.0009217639671947841,10665.32910559536
1678251877832213965,137,1677825034643390655,camera_1,138,0,0.10902115737536885,-0.3308657837845001,2.641671859977755,0.7039887229244233,0.7061656494400109,0.03490281421980318,0.06716954001439482,0.002708313171751797,0.0004957590063081204,10656.919494638223
1678251877839396444,138,1677825034650415897,camera_1,139,0,0.10898018361796738,-0.3307994800521854,2.640957345826744,0.7040804555989433,0.7060842133533068,0.033431903512675415,0.06780931738592806,0.002104525512550026,0.0003851315188498554,10662.803535501243
1678251877845610303,139,1677825034657039165,camera_1,140,0,0.10907279435519934,-0.3309814382273242,2.642529202404106,0.7040177195246482,0.7064777675778261,0.03246301221735803,0.06476393557637261,0.005918096692766994,0.0010834148670264678,10658.954238404174
1678251877850967427,140,1677825034662962675,camera_1,141,0,0.10893205132133656,-0.33065944899345934,2.6397272452784613,0.7038329026479344,0.7061656970783687,0.03577235884997672,0.06833441126045879,0.005694349063560367,0.0010411409596893066,10668.45492254442
1678251877861247197,141,1677825034670062303,camera_1,142,0,0.10892001227671379,-0.33062922069318756,2.6397868198770795,0.7039384628003079,0.7060204789922534,0.03539987847155993,0.0689389036617737,0.002930624526925385,0.000535955138189562,10666.89872735238
1678251877865365908,142,1677825034677198886,camera_1,143,0,0.10897351732412111,-0.33071024137950605,2.640523916818671,0.7040152169774123,0.7061525655922918,0.03326948630636887,0.06785476882711891,0.005754063022322954,0.0010526087952222969,10666.40352244
1678251877871372480,143,1677825034682945966,camera_1,144,0,0.10899325459417032,-0.33078720041908316,2.6409798412684657,0.7038361639019315,0.7061971137110399,0.03583061020626375,0.06794452400493348,0.0018105777562595904,0.00033134159433708977,10659.318189587793
1678251877878001542,144,1677825034689829826,camera_1,145,0,0.10903209849271277,-0.3309494885215208,2.6422748525832427,0.7039523779661128,0.706504266513852,0.031938990319145495,0.06544212596617392,0.0028280552942305803,0.0005177237496615089,10659.925291693997
1678251877886973267,145,1677825034697255849,camera_1,146,0,0.10902993201978345,-0.33089421848348105,2.6418473042646102,0.7040596859825735,0.7061163343385503,0.03497659700961347,0.06690529587436245,0.005079426278825849,0.0009298416560756761,10656.085673083551
1678251877891787660,146,1677825034702968358,camera_1,147,0,0.1089288942272479,-0.33063408576059894,2.6398025492821566,0.7038000046255725,0.7062383141394777,0.03706142646805374,0.06722683838040855,0.009023373306263238,0.0016496089645199094,10669.063014825453
1678251877899269615,147,1677825034709883451,camera_1,148,0,0.10897343167328072,-0.3307604123160465,2.640801146777826,0.7039714187222055,0.7062504530763365,0.032768881875402056,0.0675332476070175,0.003753800818230957,0.000686756224790498,10665.567557051316
1678251877905798804,148,1677825034717326164,camera_1,149,0,0.10907107307040655,-0.3310306021095082,2.6430812756750113,0.704180799037968,0.7063482901433257,0.030934513068622566,0.06515022009983136,0.00037991051794961095,6.959138743709794e-05,10655.271152551173
1678251877911487392,149,1677825034722973108,camera_1,150,0,0.109004164330806,-0.33085442121685227,2.641651514400898,0.7038630576839896,0.706294441442867,0.03501517284539204,0.0670738077438618,0.0076769840670749545,0.001405196806899242,10657.206328007627
1678251877918744460,150,1677825034729870796,camera_1,151,0,0.10902433161132004,-0.33087234818637784,2.6415488425653244,0.7040043079723924,0.7062502702872089,0.03449752321084298,0.06632051694517162,0.002464061079081148,0.00045092239057912013,10660.549163564574
1678251877926270555,151,1677825034737209320,camera_1,152,0,0.10895661021272247,-0.33062620008541593,2.6397829294386597,0.7038412917180533,0.706177716657099,0.03366397947113674,0.06918963112920219,0.005902727076318115,0.00107949740353406,10668.401086486643
1678251877932527855,152,1677825034743916273,camera_1,153,0,0.10907103294617801,-0.3309310539971795,2.6422759213192633,0.704095630977506,0.7061727543216682,0.033804622682301916,0.06653293152600312,0.0038323746412061155,0.0007017403916346151,10655.025238722677
1678251877939551376,153,1677825034750496864,camera_1,154,0,0.1089981407612213,-0.3307018110404886,2.6401612999394204,0.7038439689832464,0.7063315682702105,0.03260440395011518,0.06809064424657497,0.0028987927944399416,0.0005301647562114131,10669.443936202904
1678251877945807279,154,1677825034757134675,camera_1,155,0,0.108969240578172,-0.33074213508104194,2.640407531817831,0.7038840837098704,0.7061188738027174,0.03509046442780503,0.06864395141408544,0.003421868197619915,0.0006260095494144357,10663.020202244048
1678251877952438995,155,1677825034763806819,camera_1,156,0,0.10893862228167871,-0.3306827373261478,2.6401639030384536,0.7040740896889144,0.7061697917081308,0.03426645482949836,0.06655607846800898,0.0034827551571652293,0.0006367511986170256,10671.42777803982
1678251877958948908,156,1677825034770545005,camera_1,157,0,0.1089437208813546,-0.33075820384428384,2.640982916475705,0.7038093425930093,0.7062736356411355,0.03390680595485867,0.06841264054973975,0.0015356981311924756,0.00028106063999981066,10660.50733399484
1678251877965869624,157,1677825034777125358,camera_1,158,0,0.10899602208407348,-0.3308716325409578,2.6419001109495253,0.7041289383228756,0.7061511666395078,0.03247411488568531,0.06707011206456692,0.003310047439299524,0.0006060232430805273,10658.268209366126
1678251877972912352,158,1677825034783750057,camera_1,159,0,0.10905072614753587,-0.33111283217494153,2.6439424188976863,0.7043614617127044,0.7063493972777842,0.030512634341990065,0.06335960357171942,0.003166327194776386,0.0005800685869298889,10653.177287101513
1678251877978969279,159,1677825034790502548,camera_1,160,0,0.10900347388564237,-0.3307691974901555,2.6407213424221814,0.7041701452443353,0.706090904198865,0.034779855696394135,0.06610902504150996,0.005565377359744161,0.0010177072040884595,10667.398171124856
1678251877985330641,160,1677825034797252416,camera_1,161,0,0.10904768259921838,-0.3307462153001335,2.640513418880987,0.7040454794942497,0.7062446385630294,0.03255553349211887,0.06692242183104079,0.004211605119053274,0.0007702386292881104,10669.660389925237
1678251877992636668,161,1677825034803693056,camera_1,162,0,0.10908296184297805,-0.330829533423447,2.6409621724361165,0.7039397669884285,0.7061748094206971,0.03499065259404603,0.06753959744447666,0.004277343978174031,0.0007826366336302259,10661.512412707089
1678251877999307774,162,1677825034810343265,camera_1,163,0,0.10897615708390865,-0.33070591882333655,2.64007583662129,0.7037766221524316,0.7061359163456931,0.0355148401933027,0.06934861126501436,0.007122525072190911,0.0013029573965065836,10663.294148788322
1678251878005854982,163,1677825034817142486,camera_1,164,0,0.10904878752846073,-0.33089453418165476,2.6418053166937825,0.7039215534662857,0.7063590694398495,0.03563649675092435,0.0654320386737445,0.005521907820366323,0.0010104135152781057,10659.285598137998
1678251878012189037,164,1677825034823866367,camera_1,165,0,0.10892942644452645,-0.33077064613229695,2.6408932791193145,0.704027413627186,0.7061021755871432,0.03398669010115952,0.06789715302195054,0.0018652311409823596,0.00034132675520213144,10662.458306749348
1678251878018543694,165,1677825034829753398,camera_1,166,0,0.10892562431817923,-0.3308608099965654,2.6417668639277685,0.7039643892419252,0.7062436262966547,0.03339037928996958,0.0673733000933327,0.004008125222753733,0.000733768781424281,10657.508224002198
1678251878025539768,166,1677825034837048768,camera_1,167,0,0.10894576639138932,-0.33077662712889033,2.641121536445592,0.7041172169384596,0.7062061554626036,0.03269698858052972,0.06650351671401987,0.00556400022469461,0.0010179191559338157,10665.729518700857
1678251878032536890,167,1677825034843797206,camera_1,168,0,0.10905560313019691,-0.33095021072616476,2.642397567760771,0.7039911415963893,0.7063719195581202,0.03338744768767093,0.06573022250450992,0.00600951787782833,0.0011002258782956294,10656.561050061253
1678251878037831437,168,1677825034849773168,camera_1,169,0,0.10903952867449163,-0.3307703296562487,2.64029558299593,0.7038270427327836,0.7061468005736037,0.036146917342845,0.06839291136000378,0.00582843495067209,0.001066166418746637,10663.180345010833
1678251878045664411,169,1677825034856790065,camera_1,170,0,0.10907592872169322,-0.3308772246787907,2.641279412960858,0.7039328991821661,0.7062809898621286,0.03592889050844681,0.06599054201318963,0.0025998298660852015,0.00047565211246846387,10661.701291244244
1678251878052232292,170,1677825034863768100,camera_1,171,0,0.10903439831673414,-0.3306940759984242,2.6401017937643076,0.7039979111213012,0.7061894502899112,0.034803734128945336,0.06687377308601127,0.004394082468934357,0.0008033077350638525,10670.414616959399
1678251878059668502,171,1677825034870501995,camera_1,172,0,0.10893080180945772,-0.3307760157805143,2.6407439308882816,0.7039368175833797,0.7062321640627842,0.03610733321999155,0.06637279398609794,0.0034804932656697925,0.0006365725141357541,10664.881819907223
1678251878064612379,172,1677825034876345157,camera_1,173,0,0.10890849940922318,-0.33070776191404433,2.64057124984056,0.7038883257641458,0.7060985761673628,0.03470415085683816,0.06900469187436811,0.0032960835960693657,0.0006031488054263505,10661.301590561512
1678251878072702925,173,1677825034883761644,camera_1,174,0,0.10899638671418282,-0.33096194740684387,2.6424074191619282,0.7041914960707545,0.7062712097280425,0.03411580865169273,0.06427617576490574,0.006686621985863894,0.0012236999467177942,10659.189551701307
1678251878079991422,174,1677825034890496969,camera_1,175,0,0.10896121203022698,-0.3307896519441049,2.641201699890766,0.7038434353224087,0.706314970042345,0.03367814421880785,0.06774484666458855,0.004547352727968246,0.0008322283595223015,10660.752089198912
1678251878085309924,175,1677825034896349191,camera_1,176,0,0.10897922694540359,-0.33083114176886813,2.641141698057239,0.7038727592947067,0.7062128272688961,0.03490520058178181,0.06788378522205238,0.003396115789655596,0.0006215551872633809,10659.328924388861
1678251878091425448,176,1677825034903126478,camera_1,177,0,0.10900859353292618,-0.330742747558607,2.640374823552662,0.7038681379459806,0.7061183077799704,0.034351459976479225,0.06918494778413307,0.003169419476762414,0.0005799047906137551,10662.761355633262
1678251878099361716,177,1677825034910499572,camera_1,178,0,0.1090282590350816,-0.330779495547369,2.6407097765042193,0.7040540005899686,0.7062455480088639,0.03474185184032232,0.0657129660084319,0.00415496074128896,0.0007598384181122079,10668.52353097382
1678251878107406657,178,1677825034917077779,camera_1,179,0,0.10909771173610476,-0.3309389523389533,2.642221480220734,0.7040571378057943,0.7062420144181006,0.033617512057240624,0.0662995223094224,0.003503789252135903,0.0006415233708542401,10656.257913698675
1678251878112804777,179,1677825034923938274,camera_1,180,0,0.10898046943284713,-0.33071851461380436,2.6404795349629633,0.7038659805582852,0.7062918942802313,0.03471273547347626,0.06722698478077767,0.002200111746788025,0.0004024083123385196,10666.618690301546
1678251878118701420,180,1677825034930506706,camera_1,181,0,0.10900997555599846,-0.3308816044964486,2.6418252922829986,0.7040743772511442,0.7062439657046781,0.03335927655324171,0.06622605885893722,0.004086848173756152,0.000748014180802899,10659.96107619151
1678251878124796690,181,1677825034936291694,camera_1,182,0,0.10893957340057675,-0.3307573581041963,2.6407515625559665,0.7038729619391038,0.7063514196752618,0.03461466068462676,0.06657590134202923,0.0030875058146193624,0.0005647185754789325,10666.213265242288
1678251878131757844,182,1677825034943076372,camera_1,183,0,0.10904063552759703,-0.33097013802913455,2.6426587972919995,0.7041550587241161,0.7064218383754394,0.028520007855883156,0.06573012012313348,0.008080620900727808,0.001479638961502846,10659.711719778012
1678251878140498187,183,1677825034950578927,camera_1,184,0,0.10897517621574684,-0.3307743098375481,2.640987988976632,0.7039401257699003,0.706411965130101,0.033748392315733323,0.06566186768733659,0.007275325478985906,0.0013306361147557499,10667.670033357805
1678251878146897124,184,1677825034957170009,camera_1,185,0,0.10899257959388242,-0.33077793688163365,2.641030433043601,0.7039089286626279,0.706295615419116,0.03318654019423786,0.06750835014055567,0.004974343697540462,0.000910218094193955,10663.307652567048
1678251878152722529,185,1677825034963759183,camera_1,186,0,0.10893843373333255,-0.33063269231771364,2.6395230006680785,0.7038218792967393,0.7062510734593533,0.0364623316793068,0.06719138210533718,0.005382216942962259,0.0009836135573508575,10672.16040625644
1678251878158176592,186,1677825034969747304,camera_1,187,0,0.10895930844424853,-0.330694342618221,2.6401155467997413,0.7039136157174544,0.7061587966157352,0.03688836905492381,0.06696733381481473,0.0031644537230022256,0.0005785849548917037,10667.401825492965
1678251878166289697,187,1677825034976616382,camera_1,188,0,0.10898761935010286,-0.33077330677061323,2.640895039169597,0.7039449695317473,0.7063285679732151,0.032517428337286096,0.06711222534072414,0.005204763438086957,0.0009522077151750347,10666.18104686088
1678251878172348859,188,1677825034983732461,camera_1,189,0,0.1090416368659114,-0.330925896281124,2.6419960139279715,0.7039161145462088,0.706297496037236,0.03570867075164804,0.06611234080600925,0.0026865600957535207,0.0004917745596664329,10655.954070650045
1678251878178424155,189,1677825034989924907,camera_1,190,0,0.10897890674492629,-0.33079449091636903,2.641038450500467,0.7040255919215828,0.7061558260780401,0.0350352800828635,0.06681649770095144,0.0024534271215088665,0.0004488584061578276,10662.755437282263
1678251878185156510,190,1677825034996572017,camera_1,191,0,0.10903021766998132,-0.3309670269222766,2.6425447594553453,0.7041196636135596,0.7062841863287407,0.03349215026371464,0.06524127010864478,0.003772341297008097,0.0006906749088932787,10656.475874980566
1678251878192271732,191,1677825035003214836,camera_1,192,0,0.10899917750293624,-0.3308487958533315,2.641739880345952,0.7040830065934026,0.7062846915755324,0.03258680651258936,0.06608444835027914,0.003414947830606252,0.0006250112351122513,10661.928222855204
1678251878199217870,192,1677825035009919881,camera_1,193,0,0.10897763641404605,-0.33075322151864467,2.6406325695203416,0.7038079180997334,0.7062478082824676,0.03562295595260814,0.0678192651503119,0.0038665124448016286,0.000707351443443837,10662.701150066912
1678251878205003048,193,1677825035016564369,camera_1,194,0,0.10903332925920872,-0.33085302105986675,2.641550619361293,0.703960241926209,0.7061303874774985,0.035110210412625464,0.06772833079924931,0.003550402063410729,0.0006499811164095579,10656.199778720036
1678251878211802171,194,1677825035023276329,camera_1,195,0,0.10899001966354097,-0.33070384701352556,2.640197725617135,0.7039058252777501,0.7062293541366396,0.03465610938544439,0.0674955004282401,0.007626964128576217,0.0013946209947079042,10668.246959297452
1678251878218447296,195,1677825035029927730,camera_1,196,0,0.108985247129035,-0.3307498760268242,2.640462813111471,0.7039028159935147,0.7060375010072321,0.03675151104460031,0.0684192899977915,0.003252432041335851,0.0005950331883153871,10661.016982762376
1678251878226137446,196,1677825035037101984,camera_1,197,0,0.10896927118298289,-0.33073613235446775,2.640603963342356,0.7037827034214377,0.7062939822501103,0.03543293194376006,0.06769951503491446,0.0034753383370116353,0.0006357491301344851,10663.496594786524
1678251878232367927,197,1677825035043729066,camera_1,198,0,0.10896549127794626,-0.3307267027202465,2.640447680119878,0.7040170303820056,0.7060883573504811,0.03376418173826974,0.06825857145990283,0.0029610662604682148,0.0005416771778181801,10665.352040034139
1678251878237748867,198,1677825035049594640,camera_1,199,0,0.1089491639477825,-0.3307173118081919,2.6404953933706277,0.7039254194968165,0.7062557995393937,0.03205014137499419,0.06829742192092977,0.003952760132960975,0.0007231115557135955,10666.877319742227
1678251878245114468,199,1677825035056460380,camera_1,200,0,0.10898830129744301,-0.3308249496598915,2.641429554006601,0.704040480485138,0.7061752866837269,0.03466603180079127,0.06664632438926192,0.005218663194682449,0.0009549795803262243,10660.516861925953
1678251878252417352,200,1677825035063745260,camera_1,201,0,0.10901719343275047,-0.330893629093944,2.641813343362161,0.7041015020043273,0.7062086722093615,0.03356809615501552,0.06620852733650451,0.0037740725674666464,0.0006908107171448229,10659.843842025966
1678251878259142863,201,1677825035070535659,camera_1,202,0,0.10894794038248018,-0.33070043167258006,2.640345816049684,0.7040109822791529,0.7060272313496716,0.034580206958827055,0.06854410776824148,0.004111080546863377,0.0007520493309871516,10664.451538035879
1678251878265893866,202,1677825035077146768,camera_1,203,0,0.10899391992394271,-0.3308710423105263,2.6414721559792995,0.7040912431590464,0.7061331319278625,0.033237128983697795,0.06728160638256006,0.004101029073353857,0.0007506233152721337,10660.238627300012
1678251878272161503,203,1677825035083746671,camera_1,204,0,0.10896872727439699,-0.33075176423166047,2.640906421517366,0.7039113418572274,0.7059857405271173,0.035659004744624474,0.06943624671422353,0.002578220854047686,0.0004719682785564244,10656.242155512797
1678251878277621013,204,1677825035089646100,camera_1,205,0,0.10899152673319268,-0.33086671224283387,2.641631678338589,0.7039537492543053,0.7062021827746439,0.032658805613474874,0.06827150482475483,0.004452223074622452,0.000815143519281387,10657.086439613366
1678251878285625167,205,1677825035096402168,camera_1,206,0,0.108972730566445,-0.3308115106255312,2.641119624717899,0.703882991192553,0.7062639008411344,0.03487705626114281,0.06725792165273625,0.0017004915280267596,0.00031116778150664634,10661.168261038838
1678251878292507261,206,1677825035103788137,camera_1,207,0,0.10898319798513392,-0.3307863315868038,2.640919542995493,0.7039368682467276,0.7063246299502286,0.03496718623501942,0.06599771613826873,0.004336079640779644,0.0007930446258617404,10665.862996301847
1678251878299149802,207,1677825035110538482,camera_1,208,0,0.10897480027635587,-0.33067501054851123,2.639898580949442,0.7038704339262432,0.7062244840604308,0.0352162784592861,0.06762546923710382,0.0033973765675909817,0.0006211867657971013,10669.620777102886
1678251878305264138,208,1677825035117165327,camera_1,209,0,0.10903091293851369,-0.3307633070382894,2.640501552276168,0.7039924386288596,0.7062558547212029,0.0323554680711989,0.06745693227021424,0.0034345315070822835,0.000628178446151038,10668.598498041974
1678251878314495042,209,1677825035123746395,camera_1,210,0,0.10906378440833536,-0.33090554566585956,2.6416958615554775,0.704041938066714,0.7063006643985865,0.03416403758383601,0.06555257012010192,0.005954951862804592,0.0010896907604552905,10661.682295838142
1678251878318868531,210,1677825035130510568,camera_1,211,0,0.10896573730505095,-0.3307836051959212,2.6412008762958847,0.7038696132658071,0.7062585914710465,0.03299394957951614,0.06839421602387803,0.005704368639271706,0.0010441194073620072,10659.882167506497
1678251878325737076,211,1677825035137161731,camera_1,212,0,0.10894574503955613,-0.3308004657349601,2.641280880410577,0.7039576638226658,0.7062506929773184,0.03386211877395304,0.06713362143167366,0.005211102426983416,0.0009536404817215087,10661.470117542658
1678251878330705258,212,1677825035142889976,camera_1,213,0,0.10896963150238015,-0.33082668920553193,2.6415241775104175,0.7040081649590982,0.7063812697120373,0.03397253273433913,0.06514501124834812,0.002621783991344273,0.00047964939015462683,10664.375282886667
1678251878339578857,213,1677825035149996757,camera_1,214,0,0.10900148689816656,-0.3307874360474172,2.641055954722481,0.7037795892075337,0.7062923672302481,0.03705184086229654,0.06687707302119797,0.005085676850285381,0.000930427854084687,10659.853800123436
1678251878345506928,214,1677825035157121181,camera_1,215,0,0.10900706520066004,-0.3308014272847106,2.6410855466819334,0.7040324700637574,0.7060637964302449,0.036132165973023295,0.06713168438622896,0.006827477889601141,0.0012493318874477071,10660.17400442611
1678251878351365578,215,1677825035162902355,camera_1,216,0,0.10899292912005835,-0.3307367826345333,2.6403035372473136,0.7038548645492726,0.7062098943343876,0.035795403893927415,0.0676358178379538,0.0025765469763427973,0.00047121834442073306,10665.574575707202
1678251878358644297,216,1677825035169990301,camera_1,217,0,0.10900970558921998,-0.3307576415610849,2.6405085886406408,0.7039249978506261,0.7062102364928733,0.03477670597012786,0.06743352278758234,0.0034865786437876523,0.0006377105764444591,10665.733421031618
1678251878372573588,217,1677825035182896375,camera_1,219,0,0.10899942085443022,-0.33088804594698007,2.641826152610764,0.7040238798281498,0.7063156607090358,0.03394741680554869,0.06569731319549836,0.004253904975485057,0.0007785192419573333,10660.577710372629
1678251878377726638,218,1677825035189406871,camera_1,220,0,0.10895639004354758,-0.3307712086521604,2.6408434956956057,0.7039113059247678,0.7061747443720027,0.03727202535366695,0.06661005876337461,0.004426198138389736,0.0008095973356677104,10661.94527874747
1678251878385437251,219,1677825035197112321,camera_1,221,0,0.10900555574209264,-0.33087875827516033,2.6419244052911726,0.7041027561648342,0.7063320924463425,0.031907382886799326,0.06569781471838083,0.0029265411430969834,0.0005356313381506102,10662.17096034263
1678251878394784160,220,1677825035203797817,camera_1,222,0,0.10899097630502771,-0.3307826577795437,2.6409673132680775,0.7040054778170427,0.7062941555591555,0.033331145616984,0.0664370962522916,0.004667988221626729,0.0008538698764275813,10666.365691981511
1678251878398799996,221,1677825035210479021,camera_1,223,0,0.10902661617781928,-0.3307623092638178,2.6404771637122626,0.7039022249662817,0.7061660624825524,0.03394760329640482,0.06854713791133772,0.00328591390280053,0.0006011892221240252,10664.100378496461
1678251878405905161,222,1677825035217265844,camera_1,224,0,0.10907780266382483,-0.3308981533026672,2.6417450022377746,0.703923492146852,0.7062441026439317,0.034674153508566924,0.06714676286250133,0.0022656777291558683,0.0004147824395110423,10656.643964499235
1678251878411260679,223,1677825035223191499,camera_1,225,0,0.10904328112156735,-0.3308330591897233,2.641116249731066,0.704175553294259,0.7061393061957545,0.03397507805701517,0.06595274413640859,0.00278171815443784,0.000508851440057103,10665.57621858548
1678251878418628863,224,1677825035229886770,camera_1,226,0,0.10893529102446621,-0.33064004084320686,2.639747953162322,0.7038444644738683,0.7061207103648067,0.03714515109532094,0.06794667006925352,0.0039930533384904265,0.0007300458467685279,10667.511602616873
1678251878424602331,225,1677825035236518383,camera_1,227,0,0.1089394826685464,-0.3307587650437393,2.6409441452091964,0.7039840854305344,0.7061655810409424,0.03428946382080837,0.06753378624454387,0.0026076166541315615,0.0004771259187110022,10662.633018477587
1678251878431692480,226,1677825035243291378,camera_1,228,0,0.1089372606241487,-0.33077947632572696,2.640981378012749,0.703908476231704,0.7061202156141245,0.03643502109596248,0.06767264903903016,0.0028944219811819494,0.0005296498689004099,10659.244240322263
1678251878438051678,227,1677825035249891042,camera_1,229,0,0.10889276545325675,-0.3306247894070101,2.6396665024252957,0.7037920741303386,0.7059525854465291,0.038170751449744335,0.06964665983691426,0.005911086744163185,0.001081040265563256,10662.302223189039
1678251878445361546,228,1677825035256554603,camera_1,230,0,0.1090204997888911,-0.3308596123426017,2.6413469948087673,0.7038690899672265,0.7063024832339095,0.03429088114798566,0.06729964217152885,0.0031984401284717023,0.0005853721544425263,10659.927965403076
1678251878451164812,229,1677825035263068437,camera_1,231,0,0.10892633685676366,-0.3306223627166444,2.639743162257901,0.7039770911563823,0.7059876029852595,0.03584086769262511,0.06865268939499827,0.0033984823967330158,0.0006214463974418388,10667.439664804026
1678251878458459245,230,1677825035269887208,camera_1,232,0,0.10894573355726973,-0.33066547998249896,2.6398864657693264,0.7038263222218729,0.7061292030323241,0.03578287194620764,0.06877239888100903,0.0011569199268706143,0.00021158566481702945,10666.014355747726
1678251878465978285,231,1677825035277042627,camera_1,233,0,0.1090226445566008,-0.3308725537526759,2.6415913218198908,0.7038555524584256,0.7062837455261224,0.03489563683498318,0.0673270124758052,0.002957414137199521,0.0005413617650242887,10657.161007894782
1678251878473047273,232,1677825035283699512,camera_1,234,0,0.10907481501723497,-0.3309603723851793,2.6423813695076874,0.7042615680586232,0.7061951982885835,0.0321280186029796,0.0653588256504384,0.003394783940166235,0.0006214772253109235,10659.050188281108
1678251878478799835,233,1677825035290376901,camera_1,235,0,0.10900998289762108,-0.33091483455008314,2.6421063287375453,0.7042984907655768,0.7060810458900645,0.032820819663901685,0.06584820678433945,0.0030763757531531155,0.0005631356858389484,10659.276188180893
1678251878485589739,234,1677825035297504425,camera_1,236,0,0.10896512490443441,-0.3307735363630167,2.640885701334005,0.7038335972405645,0.7061800174017306,0.03678551759952463,0.06763783048585724,0.005357570247724652,0.0009803203883368278,10659.634287575493
1678251878492956946,235,1677825035303963899,camera_1,237,0,0.10895712524700409,-0.33076707112278536,2.640861897715915,0.7038266248352301,0.706240052468481,0.03469104057282319,0.06818799136461245,0.00660499488003552,0.0012086179538944824,10661.089778879073
1678251878498483993,236,1677825035309730768,camera_1,238,0,0.10900111331698235,-0.33080277671899544,2.641070153909296,0.7041182459389475,0.7061842553654598,0.03573579155130667,0.06514788110132423,0.0037251199246384203,0.000681260373507377,10665.792699413496
1678251878505511565,237,1677825035316989421,camera_1,239,0,0.10908226926264838,-0.33097489815414405,2.6423565655898362,0.7041384421952263,0.7061610887246416,0.03368859393331666,0.06626197727886732,0.002443752659019083,0.00044746210415919557,10655.162094258587
1678251878512029929,238,1677825035323693037,camera_1,240,0,0.10899897241235636,-0.33077118774668357,2.640439856234696,0.7039286375864673,0.7061043155812436,0.036998199742251964,0.0673223730942115,0.003030322666745633,0.0005542113508500722,10663.687072675908
1678251878518669816,239,1677825035330392837,camera_1,241,0,0.10905672089295435,-0.33087312350200965,2.6415110987100925,0.7038090125717659,0.7063822809541269,0.033551955833632185,0.06746268032430232,0.007738468644674867,0.0014164424014425315,10659.079561139455
1678251878524769276,240,1677825035336114168,camera_1,242,0,0.10895153419890859,-0.3307223711216005,2.640584220360395,0.7039592956003194,0.7063586478774104,0.033662645991207475,0.06607266432927654,0.005542508792132139,0.0010134781581807297,10669.999839709373
1678251878532308570,241,1677825035343665838,camera_1,243,0,0.10893025381565559,-0.3307352326356742,2.6406049724862597,0.703924605059074,0.7060589431324156,0.03488220915696147,0.06895034952408322,0.004961714614182711,0.0009079691401215027,10660.928535807177
1678251878539057478,242,1677825035350376844,camera_1,244,0,0.10897118298430428,-0.33083054746555896,2.641371047282123,0.7040158180849214,0.7062118882991933,0.032814105258536536,0.06745169536185598,0.0030777899082750078,0.0005633241744276131,10661.13932249357
1678251878545394187,243,1677825035357006788,camera_1,245,0,0.1089605380493068,-0.3308110383902488,2.641225084452878,0.7039681045046796,0.7061771120278986,0.03432824379975559,0.06756009151599687,0.0031645121634937823,0.0005791608067837136,10660.238269468071
1678251878551218196,244,1677825035363012313,camera_1,246,0,0.1089477153561586,-0.3306756126283605,2.6401953537893297,0.7038978750316419,0.7062321791223161,0.033257211240260855,0.06824843293882009,0.0070223689544945955,0.0012843615299768646,10668.040597206687
1678251878558398230,245,1677825035369699478,camera_1,247,0,0.1089883219503925,-0.3307531623076309,2.6406717289188437,0.70403173646758,0.7060570466812998,0.03422452295272738,0.06820148757016437,0.003259588615037501,0.0005963991687142571,10663.139088599593
1678251878565780173,246,1677825035377024412,camera_1,248,0,0.10910191362061025,-0.3310162083913153,2.6427193794885895,0.7040949605279487,0.7063049020267375,0.03502017454232408,0.06447681216664208,0.004764882731251419,0.0008723631777632382,10655.052629461507
1678251878572056051,247,1677825035383746147,camera_1,249,0,0.10903872376049291,-0.3308630670005382,2.6414582812884073,0.7040544565182959,0.7061212568429408,0.03481288853023691,0.0669936988339488,0.005925067875068634,0.0010843811642686609,10659.178845447019
1678251878578799372,248,1677825035390368700,camera_1,250,0,0.10896287936220743,-0.3307908799628346,2.640910928441574,0.703970722491521,0.7062215666149372,0.0354719608717569,0.06646849415040465,0.004469730833079666,0.0008175441600077032,10664.104571399392
