%time,field.header.seq,field.header.stamp,field.header.frame_id,field.image_seq,field.transforms0.fiducial_id,field.transforms0.transform.translation.x,field.transforms0.transform.translation.y,field.transforms0.transform.translation.z,field.transforms0.transform.rotation.x,field.transforms0.transform.rotation.y,field.transforms0.transform.rotation.z,field.transforms0.transform.rotation.w,field.transforms0.image_error,field.transforms0.object_error,field.transforms0.fiducial_area
1678263106824427113,28,1678261478675691604,camera_1,29,0,0.1405738483807625,-0.2964114323219607,2.6399664335849997,0.7043409051953525,0.7061637114310015,0.030416599292524226,0.06566226019612001,0.004991537833120674,0.0009104361948042247,10700.012710307725
1678263106829795690,29,1678261478682458400,camera_1,30,0,0.14062785255619298,-0.2963980057003932,2.639715988113562,0.7041560669440962,0.7061954247902126,0.027816598130456806,0.06839950482014774,0.0017712163971737027,0.0003232495976180595,10697.611208805934
1678263106835447401,30,1678261478688379287,camera_1,31,0,0.14055338619122337,-0.2962202958952606,2.6381546124766495,0.7041641673558305,0.7061429462793628,0.028593086769798923,0.06853758254378307,0.00852329534245655,0.0015536007511984516,10709.142729869462
1678263106842426084,31,1678261478695530891,camera_1,32,0,0.14053286149354707,-0.2962348270949171,2.6380778080428633,0.7039179526403921,0.7060757905563317,0.03399673284837325,0.06928720009097003,0.004328257578890771,0.0007890437945918497,10701.846598987471
1678263106849804045,32,1678261478702488899,camera_1,33,0,0.14059399686963173,-0.29637289287874535,2.639316992832266,0.7041213120935913,0.7061053145876248,0.03042871435190832,0.06857518435703028,0.010702235857024789,0.0019523492575684643,10697.748750065919
1678263106855299313,33,1678261478708548784,camera_1,34,0,0.14049721584014518,-0.2963150703709792,2.6388402095645085,0.7037094341710677,0.7064269455572814,0.031349816047405006,0.06907381474219712,0.006712201400659978,0.00122427440297398,10699.334169124959
1678263106863241307,34,1678261478715744733,camera_1,35,0,0.14056324997930006,-0.2964153913463964,2.6399413610578244,0.704223301212536,0.7061563295810857,0.02797441937630407,0.06804566174596158,0.003495606011711061,0.0006379397517737774,10696.589886336584
1678263106869819383,35,1678261478722485780,camera_1,36,0,0.14040856867345153,-0.29618847888527977,2.638115038389626,0.7038652961039497,0.7061472061576897,0.027543973296366445,0.07191034495284962,0.005494880140759051,0.001002411153479781,10701.442196134707
1678263106875542122,36,1678261478728434801,camera_1,37,0,0.1405132999447816,-0.2962926900026728,2.6390146200673894,0.704095052756575,0.706279167526929,0.02586234052917453,0.06892774146551563,0.007372047461103648,0.0013445968413772107,10703.703939234721
1678263106882428825,37,1678261478735482692,camera_1,38,0,0.14061045109455567,-0.29646957033474125,2.640305890491399,0.7043677319584724,0.7062746904188609,0.0262086796459919,0.0659944312850221,0.0030182386399246752,0.0005506899873980062,10700.475292959596
1678263106890085380,38,1678261478742403507,camera_1,39,0,0.14058828222745204,-0.296340301479584,2.639156019448383,0.7041569444125024,0.7061365760055109,0.032108985714990816,0.06710548933742842,0.007381739851552993,0.0013460295163746942,10701.03695075808
1678263106897598064,39,1678261478749104976,camera_1,40,0,0.1406822591543279,-0.2963885942854064,2.639115119062983,0.7041344311043524,0.7061879968148134,0.031716741785626223,0.06698704634879259,0.00960749655496329,0.001751664554270617,10702.033959981867
1678263106903285044,40,1678261478755757331,camera_1,41,0,0.14072601649843705,-0.296470090803556,2.6403865465432883,0.7042126333499231,0.7064055715401908,0.02719946400205287,0.06584773865019286,0.008560919552110136,0.0015620715886157151,10699.277430558925
1678263106908245054,41,1678261478761564254,camera_1,42,0,0.1405787349842464,-0.2962415763106278,2.6380183340056864,0.7041058591340685,0.7060363614559266,0.03344952657631165,0.06803473088777477,0.011056035349611193,0.0020147024842564,10706.256315771723
1678263106915712132,42,1678261478768556356,camera_1,43,0,0.14053490669979,-0.2963892043671877,2.6396764763635154,0.7039253067133858,0.7064240045074025,0.030455384150553672,0.06728118608075516,0.0036225361400283873,0.0006608486996085513,10698.218376689354
1678263106922016573,43,1678261478775214910,camera_1,44,0,0.1404596588858259,-0.29634248460697143,2.639599289072874,0.7040359355702986,0.7064208599945914,0.026623373644491025,0.06778027711615099,0.0032369855325669046,0.0005905751261417722,10701.356067774006
1678263106930145600,44,1678261478782483100,camera_1,45,0,0.14040657645410828,-0.29624941594803195,2.638742393123401,0.7040291523229907,0.7062670490049298,0.028511418750721152,0.06867974352063722,0.005856126896105707,0.0010678575810700373,10704.17348629993
1678263106935483098,45,1678261478788399219,camera_1,46,0,0.14062385714181502,-0.2964886932654915,2.6405328959246916,0.7044173385288919,0.7062958752414996,0.02726942890827773,0.06479759288533044,0.0035232860245741904,0.0006427614430011839,10700.664944823948
1678263106943095514,46,1678261478795675039,camera_1,47,0,0.14065825833717072,-0.29645383620211263,2.6400709471631942,0.7040516158374353,0.7063531122679503,0.028361622702254296,0.06761820305045066,0.008393055060878396,0.0015316581507034553,10696.231713715826
1678263106949511910,47,1678261478802376985,camera_1,48,0,0.14058627573681054,-0.29625165089176536,2.6379981434678,0.7043034066700348,0.7059477650529387,0.02980048851750473,0.0686031723308973,0.003657370514702052,0.000666590023036375,10708.965797231998
1678263106955563529,48,1678261478808401823,camera_1,49,0,0.1406805884112838,-0.29636466560010455,2.639570103708366,0.7043464082780158,0.7060853705326009,0.027815242624723055,0.06757143585440815,0.005530022666789591,0.001008810495167194,10700.931272841406
1678263106961721235,49,1678261478815066099,camera_1,50,0,0.14056173032470293,-0.29632257264127726,2.6391454510236816,0.7040635200153348,0.7062131019065874,0.02749677623789315,0.06929315821649054,0.0023913829354569316,0.0004362999925514974,10700.189320896985
1678263106969701571,50,1678261478822389364,camera_1,51,0,0.14056855943037544,-0.2964027102977793,2.639793218715776,0.7041514101787828,0.7062347386211967,0.029693810196417453,0.0672425694326204,0.001498074212577194,0.00027333312874560484,10698.158007948665
1678263106976064120,51,1678261478829005479,camera_1,52,0,0.14053767159071356,-0.2963864038313079,2.6397051454153186,0.7040223221329552,0.7063651036723426,0.02786846306183105,0.06800190452519309,0.0021328115253709257,0.0003891851358555445,10698.727021939354
1678263106982538134,52,1678261478835119962,camera_1,53,0,0.1405418489589061,-0.2963285961830699,2.6391062334296356,0.7039665862651726,0.7062829089879614,0.03214868735910965,0.06754228153348621,0.005486188572831452,0.0010004637205112998,10700.29167047935
1678263106989560048,53,1678261478842375516,camera_1,54,0,0.14054842106595905,-0.29636017522015784,2.639153566858131,0.703877099936093,0.7062800539489643,0.028607066371849867,0.07005104805068987,0.005358424561563879,0.0009778438972726593,10697.019771572552
1678263106996585174,54,1678261478849032163,camera_1,55,0,0.14064567460172736,-0.29648240489890815,2.6403490543465473,0.7041900187672141,0.7062068529176728,0.03160745863372827,0.06625154277044909,0.004920638166368008,0.0008978881499132718,10694.11159147683
1678263107001882165,55,1678261478855040073,camera_1,56,0,0.14060751759353682,-0.2963925286877209,2.63951226048617,0.7042347931181434,0.7061310749072035,0.032035041426176095,0.06637783766489011,0.0025294151855632663,0.0004612835612593979,10700.075269960213
1678263107010240688,56,1678261478861971139,camera_1,57,0,0.14063924686247067,-0.29652215158870293,2.640599677904255,0.7040935976667672,0.7063516940625951,0.03039418985247745,0.06629994904057113,0.003046963829547167,0.0005561091947993654,10693.272366218156
1678263107016534304,57,1678261478869083881,camera_1,58,0,0.14056507707275825,-0.29635104073128904,2.639231321238724,0.7042981211210836,0.7061505011942473,0.030701476083767654,0.06612900736214522,0.005310256325174123,0.000968092689140513,10704.457687666865
1678263107022931284,58,1678261478875699758,camera_1,59,0,0.14053949016620543,-0.2963685850299054,2.6392671643997074,0.7040123539718843,0.7064310430897506,0.03142134960993651,0.06583681039345173,0.0027574083069339395,0.0005027087374320691,10704.124037880563
1678263107029255211,59,1678261478882366180,camera_1,60,0,0.14072132123039424,-0.29660481988589354,2.641816859348427,0.7046219055812111,0.7062132746218858,0.02523807366724055,0.0642947941944202,0.001825805753469467,0.00033339807464604216,10693.309213305592
1678263107036835082,60,1678261478889109611,camera_1,61,0,0.1405752937890196,-0.2963882903526987,2.639368818560973,0.7040235749511524,0.7062307910416816,0.029246349035066656,0.06880063056221886,0.0030665727681480344,0.0005595552694848238,10697.962214921132
1678263107042206173,61,1678261478895010232,camera_1,62,0,0.14066336201513294,-0.29660230901265133,2.6413989248467247,0.704155770258676,0.7067751265787725,0.027937531809604958,0.06207306966276264,0.0017315101576969028,0.0003159383858317004,10699.574123222963
1678263107048877138,62,1678261478901747703,camera_1,63,0,0.14056165218879946,-0.2962916263132998,2.6387251850451494,0.7039154118199694,0.7063596400826296,0.03145786927558843,0.06759847872031424,0.01141313964035362,0.0020806245069770407,10703.987089266764
1678263107055953667,63,1678261478909023523,camera_1,64,0,0.1405384768795154,-0.29637249877960875,2.6396892795571625,0.703929939315089,0.7063193724590235,0.02924624097453712,0.06884941549356559,0.0013559748767875135,0.00024748367531591934,10695.299397543775
1678263107069726792,64,1678261478922264814,camera_1,66,0,0.1406074859153971,-0.2965067265839208,2.640870695275774,0.7041159271834668,0.7066457435587989,0.02936461447301875,0.06332672116610687,0.001471058581955731,0.00026839138041311446,10699.51434142014
1678263107075354129,65,1678261478928373336,camera_1,67,0,0.14056376033693654,-0.29630043576593706,2.6385820842679837,0.7042097735655779,0.7059031474838547,0.032632925456518566,0.06873451362491703,0.003523915889672935,0.0006425519417911045,10700.82507882221
1678263107082978767,66,1678261478935670375,camera_1,68,0,0.14060072579964647,-0.2963376261114624,2.6392185211807346,0.7041729115199351,0.7061827784726226,0.02903972245424008,0.06784606539811601,0.0055270116426981986,0.00100805039832376,10701.889933859346
1678263107091353214,67,1678261478942100286,camera_1,69,0,0.14067591430168366,-0.2964151106011289,2.639837965171965,0.7040747592669714,0.7064056213564069,0.02881458787828442,0.06662995576037567,0.008123942010570318,0.0014819413105406653,10700.204371164084
1678263107095112105,68,1678261478948427915,camera_1,70,0,0.14059309370985787,-0.29637541626553926,2.6396016612908473,0.7040551224113503,0.7062154036423745,0.0314253071587276,0.06766563629019182,0.0041635227389633656,0.0007595532365000397,10696.766187383328
1678263107101846416,69,1678261478955000638,camera_1,71,0,0.14061153573280497,-0.2964732542323654,2.6403911830305558,0.7040216559321817,0.7062978382446732,0.033343534316626906,0.06621993950983537,0.0021672024158760905,0.00039547846316396594,10691.883744137005
1678263107110591926,70,1678261478961723327,camera_1,72,0,0.14059488471943066,-0.29640396936922503,2.6398048024077387,0.7041020122907617,0.7062863290526497,0.030155466412423833,0.06701212969964171,0.005955854139756411,0.0010865363367132445,10698.167512004846
1678263107116616935,71,1678261478969022035,camera_1,73,0,0.14067128558462866,-0.29659374156778584,2.6418892676459556,0.7042472607801883,0.7065707414792802,0.029186150832093635,0.06278337015984277,0.004557055828627199,0.0008318438453288503,10692.769061418716
1678263107122105847,72,1678261478975198507,camera_1,74,0,0.14053005074656177,-0.2963024749197767,2.639237104151157,0.704151201027545,0.7062390628842102,0.027051855125045675,0.06830570460944134,0.0049105953657999635,0.0008958329783025432,10702.50281998422
1678263107129576906,73,1678261478982347726,camera_1,75,0,0.14069359608750961,-0.2965790703399937,2.6416695566298047,0.7044045611361157,0.7064306744528122,0.028109359338597612,0.0630855003971176,0.004026017733849585,0.0007348830083285094,10694.863285291824
1678263107136873922,74,1678261478988971233,camera_1,76,0,0.14052624659882137,-0.2962271611341137,2.6383306487733136,0.7042163590722743,0.7059027994972077,0.03220058782772752,0.0688743741934799,0.008767455874476582,0.0015983936148431604,10703.03678423713
1678263107143132897,75,1678261478995620489,camera_1,77,0,0.14067697299002038,-0.296511829272615,2.6408726176343142,0.7044443502089158,0.7060377325437508,0.02956525338937549,0.06629308768823151,0.003607368271332234,0.0006585481107743138,10691.96766369918
1678263107148571594,76,1678261479001839876,camera_1,78,0,0.14066731889020792,-0.2964579285424542,2.6398412637143447,0.70417501597892,0.7061861737401972,0.03385088313479851,0.06551910103368379,0.0018922944436781108,0.0003451241967952223,10697.419408937914
1678263107156553257,77,1678261479008974552,camera_1,79,0,0.1406307481911307,-0.29636447010058353,2.6394497801190493,0.7040194865456977,0.7062102412983704,0.030564154871698883,0.06847985168068366,0.010122527193743736,0.001846912034210527,10696.795909908371
1678263107162575752,78,1678261479015646934,camera_1,80,0,0.14062643284147253,-0.2964503210916358,2.6400253789685246,0.7042562357450274,0.7063371001982452,0.02878610375785743,0.06544016754425704,0.004008797637652606,0.0007312319736544462,10701.717868252772
1678263107169044249,79,1678261479022180080,camera_1,81,0,0.14069457749118225,-0.2966354184753594,2.641657724076162,0.7043459357848232,0.7062311493508534,0.028132868126446154,0.06590074476782817,0.0027099943254143,0.0004949724663944851,10688.008188771084
1678263107175070026,80,1678261479028406858,camera_1,82,0,0.1404907004948092,-0.29624324867526036,2.6386562020265205,0.7039164055063771,0.7062828203610547,0.03189010898635776,0.06818572189728675,0.0028864641208201647,0.0005262981843585052,10702.592854971997
1678263107183071245,81,1678261479035702228,camera_1,83,0,0.1406357079877229,-0.2966124362515392,2.641935394561326,0.7041945087218944,0.7066105869254378,0.025428850758007267,0.0645363919036782,0.0015241741202771664,0.00027836114000885404,10691.643410439723
1678263107189507825,82,1678261479042321205,camera_1,84,0,0.14043286045712378,-0.2962491134196649,2.6383110125211293,0.7040033498102435,0.70611230996097,0.03096458314933648,0.06946858115671507,0.005021759425289929,0.0009156074320637486,10702.99682938086
1678263107195909624,83,1678261479048471689,camera_1,85,0,0.14065774717330715,-0.29663975869421816,2.641416828841248,0.704522314094597,0.7063407302690103,0.028866841557243693,0.062432260605751216,0.002395969000644982,0.00043721066283403717,10697.657254336988
1678263107203004801,84,1678261479055746555,camera_1,86,0,0.14053223743627472,-0.29627748957066335,2.6382670002631943,0.7039401104088227,0.7061489275353929,0.032195827037448665,0.06917688790053843,0.007173086982220411,0.0013078271542347607,10702.71200801618
1678263107209558294,85,1678261479062361001,camera_1,87,0,0.14069596268559134,-0.29647996062239007,2.640199457962996,0.7043825665662513,0.7061418288818306,0.029646164749502116,0.06580290522924613,0.007752818637527525,0.0014144659457331365,10698.51243753347
1678263107215237033,86,1678261479068321466,camera_1,88,0,0.1405937556251643,-0.2963839875775666,2.639636383483524,0.7042192462592629,0.7063307660840261,0.026893212799770114,0.06669975402124616,0.003621966345235706,0.0006606526577886208,10703.507515193543
1678263107223148856,87,1678261479075624227,camera_1,89,0,0.14048430322844807,-0.2962728828266622,2.6386998817705822,0.7041462688796079,0.7060433824163478,0.03164129240241036,0.06840762226620153,0.004356864141300321,0.000794412482102766,10701.91358396085
1678263107230547350,88,1678261479082571744,camera_1,90,0,0.14058373849539216,-0.2964166174890158,2.640171361107413,0.7041702556013811,0.706258576384922,0.029290461456786255,0.06697121229810064,0.006293533835560083,0.0011484507197295024,10696.228195381462
1678263107236593311,89,1678261479089036703,camera_1,91,0,0.14048554087379922,-0.2962432402808463,2.638476803414786,0.7039427415911794,0.7062968343810309,0.030551570519416378,0.06838128284279184,0.006140023993793875,0.001119393652436937,10704.981136428194
1678263107241615409,90,1678261479095029354,camera_1,92,0,0.14055549003116308,-0.29631616949956996,2.6385376856840366,0.7039067746289406,0.7061176222402026,0.03511153765910739,0.06841298207604667,0.006212303938809782,0.0011325566568296532,10699.02156991791
1678263107249894384,91,1678261479102501630,camera_1,93,0,0.140634195805453,-0.2964085902619493,2.639856428598595,0.7043831777006871,0.7060073164996876,0.028501581786648345,0.06771755944252016,0.013870778901036829,0.002530922000716077,10697.593871308489
1678263107256255326,92,1678261479108527898,camera_1,94,0,0.14076328056113888,-0.29666959817829924,2.6420438160987256,0.7042819224738645,0.7065529589394093,0.026390147566728653,0.06382358499715539,0.0012683825916610658,0.0002316310958700548,10691.595378481086
1678263107263090905,93,1678261479115937471,camera_1,95,0,0.1405183923391259,-0.2962932372521979,2.638694948505288,0.7039963598831627,0.7062381748134337,0.030525182917799494,0.06844690581232367,0.0034325538435950875,0.0006259366859953379,10703.043195710514
1678263107268702319,94,1678261479121889829,camera_1,96,0,0.14052593176620137,-0.29632572834991255,2.6386194412467057,0.703847139687179,0.7060228735810641,0.030300738003565322,0.07219952361998555,0.009516072925180197,0.0017365322517814874,10693.702019598451
1678263107276746699,95,1678261479128292798,camera_1,97,0,0.1405416518273731,-0.2963137056533624,2.639136683306679,0.7040964240092246,0.706137692614442,0.031748462030535066,0.06789565468621467,0.009439066867344081,0.0017213720053987733,10699.592280186827
1678263107282475584,96,1678261479135635614,camera_1,98,0,0.14066473438449195,-0.29653996010205463,2.641464439242078,0.7043587272259276,0.7063993626420645,0.02662610545017277,0.0645737899469495,0.004813993757124991,0.0008788695220150192,10694.314898927696
1678263107290390479,97,1678261479142316341,camera_1,99,0,0.14052697032842607,-0.29627237309556037,2.638536594612543,0.7039185795314363,0.7061814670667764,0.03106980969897295,0.06957755304068985,0.005774589721113443,0.001053106179083627,10700.743027612101
1678263107296460117,98,1678261479148948907,camera_1,100,0,0.140656200872312,-0.2964458163679399,2.6400894146384606,0.7040397142284128,0.7064795485637615,0.03147220105565016,0.06499406750643924,0.0051513547077775,0.0009395584694468143,10699.501742117576
1678263107303028066,99,1678261479155603647,camera_1,101,0,0.1406627345435221,-0.29642905499972705,2.6399204180850004,0.7043223827948983,0.7062605570651382,0.028329653821968916,0.06575285045140307,0.011909002612810582,0.002171988977000263,10702.222645630125
1678263107309036663,100,1678261479162304878,camera_1,102,0,0.14073739641307886,-0.29655242728668485,2.6413133896390635,0.7043643251763828,0.706350170235647,0.02722065001363232,0.06480255118224076,0.010439297766424716,0.001905572226347842,10694.384764263876
1678263107316970695,101,1678261479169013738,camera_1,103,0,0.14057314440278917,-0.2964563367005967,2.6402313167920712,0.7042000428303761,0.7061350626397891,0.02885432539981054,0.06813956922464186,0.003571897221263498,0.0006520091233100431,10693.140280402491
1678263107323109055,102,1678261479175760984,camera_1,104,0,0.14051031131391425,-0.29634297053957803,2.639368359353967,0.7041101867711964,0.7062630876205868,0.027369569797999354,0.06835351197077306,0.00342100637499243,0.0006241102359831279,10701.007904772068
1678263107329801880,103,1678261479182357549,camera_1,105,0,0.14056830819780444,-0.2964135067418271,2.6399793432251655,0.7041197214777819,0.7060172327457066,0.03414589831148532,0.06774321014424606,0.003053848457057029,0.0005573278348705176,10690.379690815811
1678263107335294983,104,1678261479188390731,camera_1,106,0,0.14055040931075638,-0.2963057540831788,2.6387891480750207,0.7040123518106951,0.7062034155976371,0.03190722008547809,0.06800936408041187,0.009362764947582036,0.0017071581671938888,10701.903565723096
1678263107343106026,105,1678261479195043802,camera_1,107,0,0.14070659436281333,-0.29649700459136197,2.640864621060949,0.7045070462830456,0.7061594380204572,0.025056984063646457,0.06618774344094981,0.002244985254947096,0.00040981590788326114,10696.453274003467
1678263107349375477,106,1678261479202376842,camera_1,108,0,0.14072934083473934,-0.29654277658746936,2.6408095816362267,0.7042268509999415,0.7063451636911493,0.029007956895491148,0.06557126274198975,0.0049132570857182145,0.0008966878844419733,10694.799869667386
1678263107356518634,107,1678261479209016561,camera_1,109,0,0.1406397482867389,-0.2964035188643657,2.639554858898913,0.7042358790953406,0.7062309092394228,0.030162916670916542,0.0661810236213877,0.010302151902578771,0.001878595780972347,10702.24957015551
1678263107362862326,108,1678261479215675354,camera_1,110,0,0.14053147083289946,-0.2962932071245738,2.638527534131593,0.7041587786109154,0.7058907373264874,0.030940875636173357,0.07015228917660903,0.0064313310431316495,0.0011730656588436876,10699.395362301497
1678263107368491409,109,1678261479221696853,camera_1,111,0,0.1405400886341747,-0.29635936591142487,2.639181004783234,0.7040290297177639,0.7060064946498384,0.03351611925994694,0.06909865828411184,0.004088905057869852,0.0007459717298350575,10694.008393205002
1678263107375702381,110,1678261479228904008,camera_1,112,0,0.14054997247197373,-0.2963693484273809,2.6398405256747806,0.7041041598564973,0.7062486001741769,0.028713329387146626,0.0680131718147088,0.002229829377029091,0.00040692320701773076,10696.807507863621
1678263107383479900,111,1678261479235659360,camera_1,113,0,0.14062025384002613,-0.29663691827973854,2.6418911303240633,0.7041642395256521,0.7064297859201405,0.02960560017136339,0.06506296778181946,0.003594759909901768,0.0006565206041360269,10686.796484485265
1678263107389817237,112,1678261479242368221,camera_1,114,0,0.14054543005498493,-0.2963913468821315,2.6396666728814835,0.7040040919593652,0.7063282320592751,0.030463896294938557,0.06745826949321887,0.0032156796660274267,0.0005866590870634906,10697.827079883895
1678263107395276607,113,1678261479248405218,camera_1,115,0,0.14066954098250137,-0.29653795620933465,2.640746292759409,0.7042112832325886,0.7063671868855311,0.028049803826522297,0.06591717806934495,0.006529723119456321,0.0011917547421636792,10695.40099034214
1678263107402950203,114,1678261479255504608,camera_1,116,0,0.14060399569986087,-0.29632744287890317,2.6388246689055466,0.7041980851777814,0.7061747972532357,0.03168449328967699,0.06647033504710294,0.004759985895361751,0.0008675841659152134,10705.777557258494
1678263107410415465,115,1678261479262415885,camera_1,117,0,0.1407245118857833,-0.29652547382588446,2.6405015593689365,0.7039553901406173,0.7063414634948545,0.03366004202350259,0.06629892315033951,0.003615852794609964,0.0006599198475424598,10690.355229814188
1678263107418136274,116,1678261479269009351,camera_1,118,0,0.14068624395760673,-0.2965996531747022,2.6414453618026346,0.7043914364820288,0.7065521960421084,0.02732058346281812,0.062211608226353715,0.0028321999707259238,0.0005167584072793732,10699.445551080284
1678263107421656589,117,1678261479274885654,camera_1,119,0,0.14053185516375616,-0.29618870493562877,2.6379851864114454,0.7038304804556291,0.7061389442914112,0.031022304398701628,0.07090883419154434,0.014262871933169663,0.002600866222676419,10701.677533341222
1678263107429327811,118,1678261479282357931,camera_1,120,0,0.14051179032868122,-0.2963516023680205,2.6395827448754576,0.7042070533539415,0.7064495882025574,0.02711365726816153,0.06546949613782567,0.0037480267928913236,0.0006834744662662342,10706.889264871248
1678263107439335271,119,1678261479289036035,camera_1,121,0,0.14043751534349416,-0.29621137268612674,2.638426259251345,0.7040464902490383,0.7061417565865548,0.030467638372149816,0.06894985268214662,0.006121754122432321,0.00111626194052321,10704.024229911738
1678263107443726220,120,1678261479295688629,camera_1,122,0,0.14052340767387142,-0.2963754827121682,2.6398828280773725,0.704170769431386,0.7063175179498506,0.02674255528096786,0.06740865710438605,0.010187747364398092,0.0018588243327079161,10699.8941440403
1678263107448430124,121,1678261479301541566,camera_1,123,0,0.14059377944813028,-0.2963593568019625,2.6395510148090575,0.7042831643962459,0.7062688307362581,0.0230700637238709,0.06809798262963178,0.006157908705063164,0.0011234781488966544,10703.754931835927
1678263107456155193,122,1678261479308994054,camera_1,124,0,0.14071297426391347,-0.2965157121823474,2.640605403770916,0.704284845025326,0.7063115033583869,0.029117432484016215,0.0652617224474412,0.008631363336462528,0.0015749634114094876,10697.121370267592
1678263107464283661,123,1678261479315705299,camera_1,125,0,0.14059608869850054,-0.2963330328312414,2.6385758179321583,0.7042719522030588,0.7062182841814401,0.03133699436126755,0.06538153571396907,0.004558365966659038,0.0008304917211381371,10710.888107112256
1678263107469413942,124,1678261479322367906,camera_1,126,0,0.14068220693680006,-0.2964232569638182,2.639923697418124,0.7042496086085708,0.7062182540522842,0.02707284691892667,0.06749316541489558,0.007110463338904083,0.001297432588872626,10698.954855264748
1678263107475267493,125,1678261479328380584,camera_1,127,0,0.14059799659261712,-0.29644310052366785,2.6403519215978313,0.7041917958866957,0.7063646899533346,0.024609713649251144,0.06750704694401857,0.006624179077334702,0.0012091189587968346,10697.635317307315
1678263107482949749,126,1678261479335647821,camera_1,128,0,0.14063591035979417,-0.2965763813829593,2.641543424646495,0.7041211456224858,0.7065284015817421,0.026864738991994676,0.06564537946054337,0.0032106757862493396,0.0005863271092928728,10690.805386905908
1678263107489829538,127,1678261479342412233,camera_1,129,0,0.1405673724715242,-0.29648614574336757,2.6408438237995973,0.704349506278475,0.7063314578425877,0.024710553385929028,0.06615915067920974,0.001984687172807753,0.0003622872068681043,10697.034843389993
1678263107495137144,128,1678261479348376512,camera_1,130,0,0.14050535762647579,-0.2963434823973573,2.6391961539916973,0.7040632522833987,0.706113226336277,0.031278770801026264,0.06870725488821218,0.008897156512830406,0.0016229656375346619,10697.504803843802
1678263107503166369,129,1678261479355685234,camera_1,131,0,0.14057225308714033,-0.296342791288449,2.6392158760114075,0.7039632243825009,0.7063551908293865,0.031051805208204154,0.06733430402614725,0.0038525540148839355,0.0007025953128189042,10701.146530459635
1678263107509180273,130,1678261479362366437,camera_1,132,0,0.1407040032982773,-0.29645948028973695,2.640324669675191,0.7040714733134597,0.706290965156613,0.029278091793246384,0.06766998112383893,0.007219378428999334,0.0013177809342028077,10693.148421047728
1678263107515802489,131,1678261479368379116,camera_1,133,0,0.1406518577192465,-0.2964630849023422,2.6400944961658595,0.7040556428803648,0.7061686703502101,0.03397319905033896,0.06691249876083437,0.0013295190292410555,0.00024261958588999075,10691.738548108495
1678263107522768391,132,1678261479375679016,camera_1,134,0,0.14066653963316386,-0.296484505375849,2.6404064060816252,0.7043258616015552,0.706386640107946,0.025960622246892124,0.06533790208438146,0.0024444711161777377,0.00044601835028953296,10701.504040863136
1678263107531573265,133,1678261479382473468,camera_1,135,0,0.1405598583386505,-0.29635778838421023,2.6392999560802717,0.7040631982475632,0.7061569384610334,0.029155235507125413,0.0691907752469692,0.004439818381797522,0.00081009515603874,10697.597010439733
1678263107535480707,134,1678261479388521671,camera_1,136,0,0.14039907861180279,-0.29617982927490233,2.638023953775376,0.7038613663596074,0.7062295155689194,0.029625242847042762,0.07029504443365665,0.0046742159174755216,0.0008523929619665349,10704.566292243078
1678263107542232827,135,1678261479395250320,camera_1,137,0,0.1405354140585626,-0.2962816189761124,2.6391248914840406,0.7042067187882735,0.7060537991782729,0.03180261134771559,0.06759825286830083,0.006780107680242509,0.0012365286471877131,10700.429268044652
1678263107550552938,136,1678261479402389526,camera_1,138,0,0.1405351142862225,-0.2963240937558377,2.639273630708176,0.7038315183953872,0.7064257197141605,0.031736434498011744,0.06765127467333762,0.0035217179683968425,0.0006423629229461193,10699.145421456313
1678263107556967099,137,1678261479409054279,camera_1,139,0,0.14063273657196906,-0.29643024613319285,2.6393876004674914,0.7041495638615494,0.7062971264183422,0.029547626561303907,0.06666857349138505,0.006202670629136264,0.001131196522932477,10702.974047054302
1678263107561492002,138,1678261479414886236,camera_1,140,0,0.14063072881357275,-0.2964651399951698,2.639921669240874,0.7041384662183475,0.7063559665741442,0.029074814282772712,0.06636960186110738,0.005097359011415392,0.0009298742453929857,10699.913679870195
1678263107570483560,139,1678261479421559572,camera_1,141,0,0.14063094276988858,-0.2964752429681274,2.6403098835051546,0.7041061479809085,0.7064299037435454,0.031066998409743165,0.0650089615528609,0.004242754483129829,0.0007739250733780987,10698.127226862358
1678263107576506544,140,1678261479429061412,camera_1,142,0,0.14047875997137668,-0.2962647858113958,2.638604821525819,0.7037352010445034,0.706400906164425,0.031535757449818215,0.06899291690454916,0.009410405880771577,0.001715963794042702,10701.267065338907
1678263107583723452,141,1678261479435734987,camera_1,143,0,0.14052193033245075,-0.2963577786992301,2.639455442414589,0.7039955041781123,0.7062813437191356,0.030753327665315067,0.06790601187529412,0.00568045221734792,0.001036195529553881,10698.07824339706
1678263107589944853,142,1678261479442429542,camera_1,144,0,0.14057290490874397,-0.2964759753153607,2.64064613649455,0.7041889433010927,0.7063103110797204,0.0288040564334785,0.06643796300261011,0.0016357903368771074,0.00029860805533546376,10694.239840609956
1678263107596620986,143,1678261479448416948,camera_1,145,0,0.1407550956824711,-0.2965521530229442,2.641247217705139,0.7041535070127003,0.7064888229598586,0.02638425867777865,0.06591852917452572,0.009876924043055626,0.001803273849116172,10692.888978415289
1678263107603427791,144,1678261479455903053,camera_1,146,0,0.14063381751354412,-0.29642039513390833,2.6400663016244836,0.7039773122660765,0.7063571655679863,0.032231365214874616,0.06660808931186096,0.007062571705318987,0.0012886245876365264,10694.825078636408
1678263107609283786,145,1678261479461770772,camera_1,147,0,0.14068060951736763,-0.2965116128293795,2.6407132910198157,0.7041840964341812,0.7064557142499192,0.02870767020535476,0.06496885256946656,0.0034979983465746045,0.0006383072521821642,10697.403818189632
1678263107615413765,146,1678261479468539476,camera_1,148,0,0.14066556331989535,-0.2965711896403807,2.6410562864274016,0.7042643762065101,0.7061985997575035,0.028611082513782617,0.06690763831122924,0.008195969625376165,0.0014964642879674935,10689.851460296662
1678263107623196662,147,1678261479475659370,camera_1,149,0,0.1406117648241029,-0.29638592283832604,2.6398962130416415,0.7044511093500756,0.7059516106941661,0.028843721485795466,0.06744625730617232,0.007724257069639862,0.0014093402262160618,10697.661678440407
1678263107629625699,148,1678261479482342481,camera_1,150,0,0.1405061538357385,-0.2963011388615326,2.638874939215331,0.703976896081774,0.7062170831531958,0.030833798712727678,0.06872581831165356,0.007789508439600468,0.0014206623528924727,10700.541840497875
1678263107636690356,149,1678261479489019155,camera_1,151,0,0.1404511209277845,-0.29629226590448376,2.639067145568081,0.7041486601394079,0.7061279367308027,0.03165327438123229,0.06749867860278826,0.008156144409440458,0.0014873308105164285,10701.333486784131
1678263107642632045,150,1678261479495618820,camera_1,152,0,0.14060112835842153,-0.29640061709112486,2.639951535861351,0.7040972967878,0.7064357530805357,0.03024947824891322,0.06542547280163614,0.008701484359335154,0.0015868999516605521,10700.898119544261
1678263107648972733,151,1678261479501540422,camera_1,153,0,0.14058568324607912,-0.2964095157377109,2.6399524802108005,0.7043861524634658,0.7061214292549223,0.026754778061059716,0.06720756814232003,0.0033959252177737653,0.0006196209129170159,10699.788952582287
1678263107656559239,152,1678261479508936166,camera_1,154,0,0.14069183014239853,-0.29647501046246316,2.640261726050915,0.7041480302212053,0.7064463410342985,0.027392096939696613,0.06602114661299469,0.012523927842266856,0.00228493813022081,10699.669260441671
1678263107663228876,153,1678261479515649795,camera_1,155,0,0.14058648830988796,-0.2962529182425753,2.638243879037016,0.7043428030906644,0.7058875978922722,0.03234349235894291,0.06765954018680798,0.005634862172883004,0.0010268835948437005,10706.694998096908
1678263107668796360,154,1678261479522171497,camera_1,156,0,0.1405784324221283,-0.2963096449662245,2.6387684253459143,0.7045135563804928,0.7056904272176395,0.030961796782257158,0.06857869165790424,0.00579532200936228,0.0010567942518606927,10701.59920676483
1678263107675299009,155,1678261479528154611,camera_1,157,0,0.14064505740162384,-0.29644584039632604,2.6400961803166862,0.7041095416194135,0.7065839435473319,0.026808084206543476,0.06519364035529318,0.0044955702614970505,0.0008199975480056252,10703.629567763535
1678263107682874549,156,1678261479535617828,camera_1,158,0,0.14064013083497737,-0.296467841852741,2.6403997506296673,0.7042463738860415,0.7063380580359596,0.029284328396395484,0.06531478200777886,0.005167084920685738,0.0009426473720041801,10698.519058865963
1678263107690144816,157,1678261479542328119,camera_1,159,0,0.1405335373256428,-0.29641261442978806,2.639851839976357,0.7042086425578513,0.7063139816652569,0.03013975322234821,0.06559224288508196,0.004287826246581972,0.0007820215234213665,10701.40837008157
1678263107694817012,158,1678261479548183441,camera_1,160,0,0.14057459709082334,-0.29639738003124444,2.640185183151481,0.7041534359029206,0.7063240752805511,0.027076465154398138,0.06738771712952306,0.008023898699320853,0.0014643718275191373,10697.196457666923
1678263107701945363,159,1678261479554836034,camera_1,161,0,0.14058304252338105,-0.2964649063927075,2.6407106283302757,0.7043851041647377,0.7062526414134614,0.02596906924965027,0.06613954164981393,0.002181868883781135,0.0003982392858650858,10697.102334559433
1678263107709701581,160,1678261479562251329,camera_1,162,0,0.14049997878342382,-0.2962866493189947,2.6387414721857136,0.7041371282924526,0.7063188631014091,0.02597271882436911,0.06804400094101969,0.008235641405917704,0.0015015637598641504,10708.124281039578
1678263107716928407,161,1678261479569034337,camera_1,163,0,0.14069296149073435,-0.2966178619282035,2.641206457194031,0.704229457586067,0.7063067938455615,0.03178918395009792,0.06466089869019682,0.002415376831777394,0.0004408734689939057,10690.903650939465
1678263107722548481,162,1678261479575035572,camera_1,164,0,0.14069913759413374,-0.2965176859669705,2.6404736709059344,0.7041213540264488,0.706397031690659,0.029879060691092658,0.06575404287801975,0.0042356239864602685,0.0007728844615334915,10696.173194122499
1678263107729527373,163,1678261479582253456,camera_1,165,0,0.1407026991056546,-0.2964800593318612,2.6404919130738462,0.7042543826897825,0.7064226943893406,0.028657377620638146,0.06458711962803311,0.011246595648117363,0.0020516051543599386,10700.177331742598
1678263107736548867,164,1678261479589059114,camera_1,166,0,0.14063260974246475,-0.2964784725687269,2.6403886187612495,0.704202823567088,0.7064258304080745,0.026373918836234158,0.06607076371303039,0.003092832281254232,0.0005643681221357484,10699.467952001723
1678263107742097494,165,1678261479594889163,camera_1,167,0,0.14046622047083282,-0.296169306221493,2.637960289261053,0.7040491081435671,0.7062068171270117,0.0308242346329621,0.06809296090548118,0.00477719894843176,0.0008705689057717046,10709.637279821327
1678263107749248822,166,1678261479601749420,camera_1,168,0,0.14050417175627847,-0.2962980055140553,2.638988200122556,0.703906589682221,0.7062088864281103,0.03144432599666838,0.06925154218159456,0.005310522974468768,0.0009687426570069464,10697.583554137964
1678263107757119439,167,1678261479609073162,camera_1,169,0,0.14063199906324986,-0.2964894896873059,2.640764647397354,0.7043664762159825,0.7063190390336863,0.027892111448886984,0.06483295767225826,0.011304952087812126,0.0020625948084676384,10698.14343817846
1678263107762010656,168,1678261479615044593,camera_1,170,0,0.14052856308977218,-0.2962906492468601,2.6387828313911306,0.7039861163490365,0.7061649911367326,0.03207465528863245,0.0685986134610231,0.0053532528108917185,0.000976262899752233,10700.243872214924
1678263107769860111,169,1678261479622174263,camera_1,171,0,0.1405317098831091,-0.2962161163931432,2.63842995266042,0.7044260862935589,0.7059792802862065,0.0261710636667133,0.06849978235193703,0.007135583204217255,0.0013009032294442465,10709.292798901912
1678263107776843193,170,1678261479629181861,camera_1,172,0,0.1405991582097762,-0.2963205198161135,2.6388627941059464,0.7040388480292932,0.7060591474051638,0.030686301376820265,0.06977199824349287,0.0081845527747646,0.0014930495097498543,10697.96856879129
1678263107782407534,171,1678261479635093212,camera_1,173,0,0.14068079149102097,-0.2965143937104472,2.640305825854937,0.7039600235629775,0.7060436224566212,0.03327555069474088,0.06953722844280043,0.004331994510721415,0.0007910904602806854,10683.987868940692
1678263107789953950,172,1678261479642136335,camera_1,174,0,0.14062094867240257,-0.29642695085979587,2.63977800021211,0.7042184025554823,0.7062543919362718,0.03013276783997503,0.06613011171345291,0.0029280639719218016,0.0005340450212304927,10700.6109603761
1678263107796647334,173,1678261479649054050,camera_1,175,0,0.14060463581186103,-0.2964142947293773,2.640181816934593,0.7044457923328905,0.7061844663682963,0.02719341752228791,0.06572779600799858,0.005703443777747452,0.0010404858415466575,10701.299058510693
1678263107801758688,174,1678261479654916524,camera_1,176,0,0.14051006819513126,-0.2963065779417838,2.6391749504597724,0.7043316102249678,0.706167977524545,0.025129378516478132,0.0679138033994092,0.00558409362565726,0.0010184046278631403,10705.689041323492
1678263107809931855,175,1678261479662366867,camera_1,177,0,0.14057215692245784,-0.29642751806368234,2.6399040540589347,0.70429527977947,0.7062103316419388,0.03154869500843493,0.06511379428205577,0.002704345446545631,0.0004931913514061598,10700.637972897039
1678263107815510443,176,1678261479668370008,camera_1,178,0,0.14066993479506135,-0.29644291795309724,2.6400084209893873,0.7040164475429596,0.7062276002446487,0.02942282749863933,0.06883106467040319,0.00534790096571669,0.0009761737392998647,10692.514343847055
1678263107823201988,177,1678261479675040483,camera_1,179,0,0.14061492838933146,-0.29645157723080534,2.6399733951889357,0.704313302674616,0.706182443516317,0.0311285623269105,0.06542278465762652,0.0037486294168047607,0.0006837047118190126,10699.745125852642
1678263107830953038,178,1678261479682454586,camera_1,180,0,0.14063839971073583,-0.29644657723400486,2.6401200611180764,0.7043002589539009,0.7063333158579297,0.025851311774480728,0.06622765152222318,0.0013749443460255861,0.000250873816179432,10701.696935220625
1678263107835323244,179,1678261479688392400,camera_1,181,0,0.14052185824616023,-0.2963148777664787,2.6391042004443643,0.703746288374707,0.7064387979838163,0.030176318015842342,0.06909975494176171,0.006876044790260494,0.0012544941741450706,10698.411655765492
1678263107842359824,180,1678261479695595741,camera_1,182,0,0.14060120295378797,-0.2964358746394735,2.6399453156451407,0.7042002804441999,0.7061959840929568,0.028521182573177532,0.06764421052771519,0.007179997279308736,0.0013101663074405097,10697.04393040913
1678263107850721700,181,1678261479702434778,camera_1,183,0,0.14052438161639072,-0.2962892000101034,2.6387603362722607,0.7038831143166288,0.7061333517919319,0.031395846010654205,0.07027482992004347,0.006643808097578585,0.0012120526752740978,10696.717330664396
1678263107854966122,182,1678261479708361625,camera_1,184,0,0.14070153196004895,-0.2965647096295274,2.6412753211148243,0.704294789239931,0.7062562753441745,0.02811475703901343,0.06618522360083161,0.004110374138690531,0.0007505566079610042,10690.411472197968
1678263107862861812,183,1678261479715601921,camera_1,185,0,0.14059328314607927,-0.29632499232874565,2.639129673641464,0.7041613478100008,0.7062255730862178,0.02905033011771274,0.06751529078289013,0.005255349213257432,0.0009584387390388893,10703.46231782611
1678263107869184901,184,1678261479722363233,camera_1,186,0,0.14070964682957818,-0.2965112195572556,2.6410087559684015,0.7042701595306539,0.706236483503981,0.02855917697643952,0.06646762499914431,0.010585499345324934,0.0019326679908551378,10691.437937072358
1678263107875259427,185,1678261479728229045,camera_1,187,0,0.14058243132329562,-0.29645339045843583,2.640246454189391,0.7042204865592038,0.7064300579979015,0.027284361601993913,0.065464823221112,0.004681994556449354,0.0008541489379024184,10701.336218988985
1678263107882337912,186,1678261479735505104,camera_1,188,0,0.14054222370865463,-0.2963678229184719,2.639553308495552,0.7040601484236295,0.7063807415611987,0.030825198804852953,0.06614652274903968,0.002365104854106903,0.0004313262713127773,10701.709185716927
1678263107890263283,187,1678261479742347240,camera_1,189,0,0.1404879937607324,-0.2962513681509591,2.638687512498544,0.7040086840987412,0.7062495130947738,0.03121048477334766,0.06789185228852225,0.00493359484244138,0.0008995537622300716,10703.8584027756
1678263107895804716,188,1678261479748312234,camera_1,190,0,0.14064202224144598,-0.29642743953302625,2.640356128316275,0.7040411214352592,0.7064519326585762,0.027770027191149835,0.0669372225368518,0.010254703869577497,0.001871405898671016,10696.29360863252
1678263107903240435,189,1678261479755462884,camera_1,191,0,0.14066703260265867,-0.29643239942321215,2.640006704701602,0.7041086556487375,0.7061317267172599,0.03255460623392407,0.06744763284788313,0.0066697002039290965,0.0012170083572190888,10692.754518503323
1678263107909056551,190,1678261479762385845,camera_1,192,0,0.14067909525634878,-0.2964506006570689,2.6398836824621164,0.7039302837479624,0.7063357178434243,0.032389275531906216,0.06725283749884309,0.0074663517298176885,0.0013621972572296836,10694.411765188794
1678263107915701186,191,1678261479768373250,camera_1,193,0,0.1406185261825588,-0.2963873853438527,2.6398549585374385,0.7040864049608087,0.7062691375122718,0.032375900685491184,0.0663177261510021,0.011427556397393346,0.002084467009061439,10697.113570730085
1678263107923667275,192,1678261479775537014,camera_1,194,0,0.14058064164598838,-0.2963576457163117,2.6393986418288393,0.7043509791242165,0.7062184436854708,0.030594236270082537,0.0648783531871705,0.0013461328344419599,0.0002453972746899622,10706.34522849065
1678263107930069214,193,1678261479782380819,camera_1,195,0,0.14052298584423273,-0.2963903502603871,2.639741269746599,0.7042732344164653,0.7061085305961241,0.032887265208736916,0.06579044072692447,0.005740511347539723,0.0010468610823144008,10698.778448539086
1678263107935824638,194,1678261479788389921,camera_1,196,0,0.14052024540952204,-0.2963084007709859,2.6390583101949785,0.7040783648776525,0.7062817728981252,0.028310973910859235,0.06810434743326724,0.007787934096995741,0.0014203119972323792,10703.267877843693
1678263107942612586,195,1678261479795467376,camera_1,197,0,0.14059517549265688,-0.2964582564216204,2.6401806989141186,0.7040809668341395,0.7063126809015479,0.03002919236825489,0.06701221191157726,0.0003508903319016099,6.403933885310865e-05,10695.255649528464
1678263107949491396,196,1678261479802393674,camera_1,198,0,0.1405752557191785,-0.2963810473292596,2.6398238181016827,0.7041535366788617,0.7063147614884234,0.02737328550615262,0.0673643654078418,0.0068728558835573494,0.00125402822349546,10699.883744058436
1678263107955501948,197,1678261479808380842,camera_1,199,0,0.14068327991619037,-0.29655936415591,2.641328618281938,0.7043751353190574,0.7062178380915247,0.027093373161197403,0.06616632856930305,0.0011386954574845731,0.00020794949136612885,10690.999811429067
1678263107963049483,198,1678261479815414428,camera_1,200,0,0.14063020417054473,-0.2963380688850412,2.6392622625341238,0.7041582451988646,0.7061036314420205,0.031151663843974556,0.06788520621312934,0.008206572383642197,0.0014968578515905408,10699.228646938342
1678263107971544055,199,1678261479822420597,camera_1,201,0,0.1406786863993784,-0.29646506490425634,2.6401388756658424,0.7042556109504488,0.7060757690814015,0.025834443770008916,0.06938028737337476,0.005822247359901667,0.0010630767539083815,10693.363897619416
1678263107974867141,200,1678261479828376531,camera_1,202,0,0.1405712751440613,-0.2964132150707368,2.639638924641091,0.7039757986633577,0.7062372477930301,0.03286252758941661,0.06758016725673822,0.0032173062791116536,0.0005869418762322509,10695.038807542995
1678263107983047012,201,1678261479835667610,camera_1,203,0,0.14058347470880297,-0.2964406610835956,2.6402795615153005,0.7039832980416622,0.7063717035829293,0.033858376385502584,0.0655754741063471,0.001811761118005961,0.0003305516639711418,10693.81303870771
1678263107991081056,202,1678261479842407941,camera_1,204,0,0.14049648513987786,-0.29633758109935737,2.639298117598983,0.7041698975238557,0.7063595316354299,0.02730648907129811,0.06674820704421848,0.002883731562178582,0.0005258731437516062,10705.779748957604
1678263107995101500,203,1678261479848371982,camera_1,205,0,0.14059194384433277,-0.296513203046079,2.6406974222012285,0.7041847633189153,0.7063560585239956,0.032186705058349266,0.0644123723628928,0.0028935796581208706,0.0005279266560735278,10695.241646871786
1678263108002576749,204,1678261479855658292,camera_1,206,0,0.1405361699190679,-0.29630976637027145,2.63891113693768,0.704015548333365,0.7062276595621009,0.031121069462712533,0.06808876272782177,0.005305069091264159,0.0009674730442660917,10701.593628472177
1678263108011774756,205,1678261479862389087,camera_1,207,0,0.14063877816307752,-0.2965210391258019,2.640937513562918,0.7041575443154887,0.7064488222929264,0.027148547506822315,0.06599371661596123,0.00898823031457141,0.0016408257576837342,10694.554139825981
1678263108016186867,206,1678261479868389129,camera_1,208,0,0.14067068916077,-0.29651677278193844,2.6403972031399934,0.7044712768064516,0.7062447735301138,0.03050506924881873,0.06330861526056951,0.0042955378303304315,0.0007834366264108509,10702.130315487277
1678263108023141245,207,1678261479875675201,camera_1,209,0,0.14073054182545028,-0.2964850009749066,2.640411989449715,0.7041075159479039,0.7062996736987549,0.029488844440092008,0.067110244913075,0.00798608030891046,0.0014575979865139542,10693.648210084186
1678263108031490130,208,1678261479882359504,camera_1,210,0,0.14061865638130336,-0.2962981592969048,2.638610475542274,0.7037737367221361,0.706293786024923,0.0339947117993625,0.0685271836019858,0.018776451470330358,0.003423498015932053,10699.531872519527
1678263108035620363,209,1678261479888405799,camera_1,211,0,0.14053747297865987,-0.2963265273912413,2.639126898993895,0.7041710948895085,0.7063189830326901,0.02544270353626626,0.0678913261510105,0.002142536861356348,0.00039077661204832236,10705.851162321867
1678263108042528786,210,1678261479895646810,camera_1,212,0,0.14042768168713876,-0.29617751683822047,2.6373717567862704,0.703879063225996,0.7061804544571799,0.031193464734006682,0.06993137959910048,0.0037371369544416666,0.0006810115530773056,10709.07997610583
1678263108051361946,211,1678261479902380228,camera_1,213,0,0.14046606240630027,-0.2963078470284111,2.6392871760858387,0.7040445022170845,0.7061984271906628,0.0305933143530839,0.06833132113624889,0.004880447988398373,0.0008903148820453363,10698.549099419608
1678263108054809837,212,1678261479908387660,camera_1,214,0,0.1404442661419991,-0.29618945332357843,2.6382436198558015,0.7040366545443155,0.7063008696625618,0.0327878105560005,0.06630558084279924,0.005488776485435665,0.0010000332888366699,10709.75709727034
1678263108063145942,213,1678261479915686845,camera_1,215,0,0.14058655718376373,-0.2963583422286579,2.639410452578059,0.7041846048900092,0.7061582987700137,0.029767390929357748,0.06766388808958991,0.011828560964204371,0.002157463778144242,10700.080685392022
1678263108070808084,214,1678261479922392368,camera_1,216,0,0.14062543930519608,-0.29646104707690146,2.639887150997454,0.7042171757678684,0.7060465538266613,0.030399714485833226,0.06820770148746028,0.007728729513473809,0.0014103597904746262,10694.103953711696
1678263108076072808,215,1678261479928381443,camera_1,217,0,0.14079765195567387,-0.2966414431696771,2.641876378104384,0.7041843117518423,0.7067624140798235,0.02365135040407776,0.06365499784547855,0.003681147354654968,0.0006720721347636864,10695.599768954911
1678263108082778903,216,1678261479935667753,camera_1,218,0,0.1407449165112902,-0.2965075735642803,2.6406124586779716,0.7042506271075445,0.7061892087316238,0.026488589316522117,0.06801625045277203,0.008097851532511413,0.0014785303800696839,10692.541008040655
1678263108090108325,217,1678261479942414760,camera_1,219,0,0.1406045820714353,-0.29645528139735045,2.6404438620777264,0.7041274646202774,0.7062000571852044,0.031407078995527075,0.06707896978936664,0.006136963260360062,0.0011201378484506,10691.510844349044
1678263108096350329,218,1678261479949030399,camera_1,220,0,0.14042040637227624,-0.29620841652552926,2.6383763490680914,0.7039764491097715,0.7062379948241645,0.029623772289598768,0.06904698314100997,0.004293742007575929,0.0007829384295356646,10705.054533842716
1678263108104190495,219,1678261479955707788,camera_1,221,0,0.14048680714920542,-0.29625695263732754,2.638638587965055,0.7040849175699556,0.7062659837481223,0.030164344090755656,0.06740104892640973,0.006221724499482661,0.0011341541688663556,10706.62982913142
1678263108109439226,220,1678261479962431669,camera_1,222,0,0.1406430910394535,-0.2965251747516689,2.6411572431473913,0.7039617177919053,0.7066497888054785,0.031108334208506158,0.06415798786912416,0.004750750202219933,0.0008670803259978687,10693.370409389143
1678263108116872710,221,1678261479969028949,camera_1,223,0,0.14071356806948732,-0.29654437061776595,2.640978848394016,0.7042232966844094,0.7063490019382835,0.029855866888687754,0.06518637188905549,0.0033145834458991885,0.0006049900029833883,10693.55342605698
1678263108123935621,222,1678261479975706100,camera_1,224,0,0.14071032124408084,-0.2964949450703858,2.640267774025778,0.704037357825977,0.7064751279908473,0.030672135490955182,0.06544854788425515,0.009962029347661883,0.0018174165638583574,10697.766268361007
1678263108130081454,223,1678261479982409238,camera_1,225,0,0.14075311833127152,-0.29651575541062836,2.640546526336038,0.7042140798287823,0.7064084854420145,0.02685851394340786,0.06594089546838355,0.010152459028176963,0.001852836512213308,10698.03571398824
1678263108136188316,224,1678261479989028930,camera_1,226,0,0.1405940577127198,-0.2964205570611065,2.640211126938517,0.7042115444214407,0.7064470323136253,0.027203767765273924,0.06541136184344454,0.004769188235513866,0.000870110396265475,10701.850493687434
1678263108143205830,225,1678261479995751142,camera_1,227,0,0.1403565763919651,-0.29608232114101457,2.6370530457472374,0.7040790746920306,0.7058768329266537,0.03293400773901163,0.07018478789950049,0.004846279101911931,0.0008829354753247656,10709.075255818318
1678263108151134485,226,1678261480002395868,camera_1,228,0,0.14046590826112876,-0.2963269066262972,2.639478851506668,0.7040472329623116,0.7063060715048303,0.03129872514859159,0.0668551936471577,0.004076941637322307,0.0007435736690417692,10700.051204930529
1678263108156779840,227,1678261480009101867,camera_1,229,0,0.14042229092423308,-0.29629568087258973,2.6385214339621506,0.7037487314041312,0.7060992251034848,0.03275979778665385,0.0713330428645229,0.004085375461727381,0.0007453643803371747,10694.2274094217
1678263108162855833,228,1678261480015677928,camera_1,230,0,0.14053336688006138,-0.29634130434782574,2.639093598542581,0.7039162826743378,0.7063469171739125,0.03070539736579099,0.06806671842729664,0.008666872105095536,0.0015807110292676515,10700.619844318015
1678263108169007463,229,1678261480021731853,camera_1,231,0,0.1405515214738511,-0.2962724306958823,2.6382380378815267,0.7039559647115391,0.7059578673419913,0.03486942815165842,0.0696678711126611,0.00724954524775967,0.001321814605581768,10698.438850705397
1678263108176327456,230,1678261480028959274,camera_1,232,0,0.1406040491129999,-0.29626692414813166,2.63837844428637,0.7039797118790355,0.7060792715924308,0.03032871839196808,0.07031924580734164,0.002897369966376573,0.0005284730315684815,10700.786749055847
1678263108182014088,231,1678261480035024166,camera_1,233,0,0.14061940393311273,-0.2962775858189866,2.638603247337378,0.7041735266943427,0.7061213642085685,0.029580337777495556,0.06824417138519019,0.00757712556514889,0.001381428354959766,10705.2641455048
1678263108188759503,232,1678261480041657447,camera_1,234,0,0.1406183194527982,-0.2963758381784644,2.639375401939051,0.7040099991480748,0.7063470499466163,0.031643866698459144,0.06665157036117107,0.00669493101304397,0.001220877230846663,10700.927679302176
1678263108196380719,233,1678261480048937320,camera_1,235,0,0.14057998318581916,-0.296450475390572,2.640224902995905,0.7041209614998932,0.7064588658203541,0.03015259427155182,0.064964325125259,0.007843957224395126,0.0014306684329857824,10699.92755935958
1678263108203220907,234,1678261480055670022,camera_1,236,0,0.14052254508548143,-0.2964257482452622,2.640082135562798,0.7041559472568614,0.7064263519599624,0.029637129110189918,0.06517554585454202,0.005577160103712231,0.0010172369365309924,10701.119254020396
1678263108209332169,235,1678261480062045335,camera_1,237,0,0.14041882560906893,-0.29620213491021596,2.6381581026909657,0.7040382626742333,0.7059555182685501,0.03251549465670294,0.06999766799015718,0.0013020620099268854,0.00023743479815580443,10701.11839636834
1678263108215622433,236,1678261480068231582,camera_1,238,0,0.14051856981255195,-0.29637286902428545,2.6395065939470665,0.7040441567558373,0.7062785926249706,0.031321369173434886,0.06716655991454602,0.002564234076999128,0.00046771704602897667,10698.951485957841
1678263108222364216,237,1678261480075225830,camera_1,239,0,0.14072429658476177,-0.29655092187861953,2.641257424223578,0.7044295799471622,0.7064516354415458,0.02699805639566906,0.06305678891512327,0.0020105051225982606,0.000366861563597592,10699.265882319301
1678263108229714171,238,1678261480082302808,camera_1,240,0,0.14058041385205558,-0.2962664101309832,2.6384333137209124,0.7042174164532331,0.706245563977131,0.028693322965855417,0.06687097235523781,0.0024553672992624342,0.00044750581999663315,10711.085513876395
1678263108236293016,239,1678261480088951826,camera_1,241,0,0.14064846847395807,-0.2963914862662836,2.6395119009618626,0.704204952430871,0.7060948261924189,0.03093296997861124,0.06759166194461344,0.0030032365466468036,0.0005479014656238747,10698.184368529823
1678263108241954156,240,1678261480094998836,camera_1,242,0,0.14070914563022469,-0.29649312602466105,2.640572740624676,0.7041637919884548,0.706257220757746,0.03054998685438688,0.0664890252837366,0.006283817521762103,0.0011469097633171146,10692.846661084324
1678263108250442373,241,1678261480102331161,camera_1,243,0,0.1406415293572786,-0.2965257578903907,2.6407187692856837,0.7042904100775709,0.706324928620329,0.029795509169343072,0.06474829044533484,0.0021627956302836537,0.0003946360185651105,10696.806727668505
1678263108256698555,242,1678261480109009981,camera_1,244,0,0.14053442805328803,-0.29644782715977813,2.6401017740056476,0.7040121332732441,0.7063481568530756,0.02964298143660532,0.06753140873599685,0.0025884716887958348,0.0004724019433647891,10694.980442310916
1678263108261864594,243,1678261480114888191,camera_1,245,0,0.14052851182391693,-0.2963748925937706,2.6397192778215346,0.7041148632396941,0.706431608691125,0.027821533658612632,0.06635212032707581,0.0051814515027217576,0.0009450375268820781,10702.896671498891
1678263108269279431,244,1678261480121898651,camera_1,246,0,0.14056148235377136,-0.2964423031843235,2.640070194715492,0.7041749386683912,0.7061859832859324,0.02879808942582198,0.06789464490864382,0.0024062732118181884,0.00043917893769681985,10695.136080605445
1678263108276482162,245,1678261480128993988,camera_1,247,0,0.14057153125128657,-0.29634897549909933,2.6392791538880647,0.704133777038613,0.7063701656432939,0.028274731220210167,0.06661345732528308,0.005054109438788146,0.0009216376056963256,10705.327349944386
1678263108282864686,246,1678261480135631799,camera_1,248,0,0.1406864224556019,-0.2964489775781476,2.64022325794685,0.7042417741688316,0.7061772896615932,0.0305622473331573,0.0665064517147755,0.00452380336355418,0.0008254566018950063,10695.61753056652
1678263108290025442,247,1678261480142327308,camera_1,249,0,0.1406362901321416,-0.29635713414687975,2.6391213134994724,0.7041028401147995,0.7061670653642425,0.03021852007852886,0.06822101861882726,0.008955811674240978,0.0016334448148855676,10700.459707091442
1678263108295539358,248,1678261480148292303,camera_1,250,0,0.1406265445968256,-0.29640020570482534,2.639568804917818,0.7039922718650006,0.7063753406678216,0.028016350192784468,0.06814575095080724,0.012921019922941923,0.002357497985562937,10699.262395636297
1678263108302983319,249,1678261480155656814,camera_1,251,0,0.14060551495200646,-0.29640978470560053,2.6399387410414485,0.7042236586086759,0.7060754724330034,0.030957520794053617,0.06758770443363149,0.007195861951913685,0.001313022614386147,10694.756204977872
1678263108309656448,250,1678261480162310361,camera_1,252,0,0.14056494637267797,-0.29635097142765554,2.6400160535385,0.7042504747552086,0.7062603942619652,0.031045956375633996,0.0652968061754851,0.0030038413824513555,0.000547902781688244,10699.905080998316
1678263108315299080,251,1678261480168308496,camera_1,253,0,0.14058817711079905,-0.2965076427144996,2.6408538396174754,0.7039359489680008,0.7064885810303316,0.028212615150155627,0.06746934837878711,0.002163249591831118,0.00039500809778653676,10690.49397207168
1678263108322756171,252,1678261480175572633,camera_1,254,0,0.140481397601158,-0.29621425541009805,2.638205563869421,0.7040634743412146,0.7061126524680976,0.02885547872141751,0.06976322434351388,0.006781030853744596,0.0012364175208917337,10705.255098720545
1678263108329748402,253,1678261480182341575,camera_1,255,0,0.1406096044730241,-0.29646506757249885,2.640084773716395,0.7040664272437944,0.7066265029558052,0.025036903368226546,0.06589844321634918,0.004246236407198012,0.0007745753493330961,10703.48593388312
1678263108336028050,254,1678261480188937187,camera_1,256,0,0.14066606314750957,-0.296438657149734,2.6400205318394443,0.7042842386749181,0.7060767633556368,0.030776981316461272,0.06702307680467454,0.01130585715873167,0.002062838359091833,10695.708685174934
1678263108341959263,255,1678261480195006370,camera_1,257,0,0.14055706128218864,-0.2962776317516908,2.638326061366668,0.7039767529803531,0.7060773262583614,0.03307734727383098,0.06911895329364183,0.005213611584622413,0.0009505785511775699,10701.364315834475
1678263108351636517,256,1678261480202164649,camera_1,258,0,0.14064386067964896,-0.2964506140945765,2.640118803364261,0.7041719690621452,0.7063153413029332,0.029676714722500865,0.06617982495097488,0.00449455069610849,0.0008199755423428361,10698.213769202473
1678263108356959488,257,1678261480208948135,camera_1,259,0,0.14061933076846422,-0.2964845222763337,2.640386030950206,0.7042203362809797,0.7062959341613843,0.030499786688034693,0.06549453692779081,0.005100221314933151,0.0009305042172714372,10696.921181420097
1678263108361620790,258,1678261480215020895,camera_1,260,0,0.1405288597454606,-0.29637791140362263,2.639651288604379,0.7040708308302206,0.7061981575026306,0.028292670881210878,0.06905036052288334,0.0017090386245399714,0.0003119260061510258,10696.010874768834
