%time,field.header.seq,field.header.stamp,field.header.frame_id,field.image_seq,field.transforms0.fiducial_id,field.transforms0.transform.translation.x,field.transforms0.transform.translation.y,field.transforms0.transform.translation.z,field.transforms0.transform.rotation.x,field.transforms0.transform.rotation.y,field.transforms0.transform.rotation.z,field.transforms0.transform.rotation.w,field.transforms0.image_error,field.transforms0.object_error,field.transforms0.fiducial_area
1678250164511438990,21,1678248696317977190,camera_1,23,0,0.12967918585729643,-0.32035709828406955,2.641824555493179,0.7039709566747392,0.7062667196395829,0.030639918425219573,0.06836233090592442,0.0019418558804318309,0.0003555022174129462,10660.354320234619
1678250164516811971,22,1678248696323873996,camera_1,24,0,0.12966945768291424,-0.3203967018363676,2.641880437177292,0.7040178788577813,0.7061660365792921,0.03134784517872765,0.06859786901307428,0.0014952688943594694,0.0002737813008908297,10658.495783223301
1678250164524372779,23,1678248696331133604,camera_1,25,0,0.12973193452548176,-0.3205418753938887,2.6430818250706416,0.704220599638931,0.7061849977181108,0.029447153559511916,0.06714879886713555,0.003158423292916268,0.0005785883360824297,10654.573595039077
1678250164530917685,24,1678248696338127374,camera_1,26,0,0.1295394229004503,-0.3201669821250769,2.6400917895797065,0.7036286882021392,0.7063127498312703,0.03259656635837067,0.07047291980875103,0.001223828294314444,0.0002238933366065288,10666.557798593887
1678250164538985397,25,1678248696344203710,camera_1,27,0,0.12958825555413314,-0.3203013685349314,2.6413293377132234,0.7038109681836363,0.7062900389838825,0.03342776638479518,0.068462298610855,0.0009772161138243973,0.00017884746858207688,10660.962505352913
1678250164544351742,26,1678248696351309061,camera_1,28,0,0.1296005934119798,-0.32027489147612054,2.641141880355476,0.7039773332954778,0.7062272121055657,0.031489947647617346,0.06831853544199229,0.0014929847093299031,0.0002731860663730539,10665.061625968665
1678250164551862405,27,1678248696358266115,camera_1,29,0,0.1296792070119316,-0.3204413941254373,2.6421992945241226,0.7040523631236683,0.7062213068861068,0.031429448490593835,0.06763080250621656,0.0021608140668831766,0.00039563007025467925,10658.345479348787
1678250164556971039,28,1678248696363953351,camera_1,30,0,0.12967748902920206,-0.32033268256745473,2.6413106987162167,0.704052809659928,0.7061289217734017,0.03174748334936892,0.06843744841879887,0.0011603377060964704,0.00021235633130766874,10663.052637292074
1678250164564337201,29,1678248696371289968,camera_1,31,0,0.12975033340238923,-0.32046283366736933,2.6425714393145827,0.7042771957455395,0.7062180141073533,0.02912295573155834,0.06634456686513866,0.003041022748220712,0.000556764276302261,10661.049316050714
1678250164571239482,30,1678248696378029108,camera_1,32,0,0.12963821347592178,-0.3202794556411124,2.6409573964183766,0.7040155650808768,0.7062006935630879,0.029221913317606374,0.06920075373090828,0.0016305853496305645,0.00029838624001526893,10666.58571412263
1678250164576916549,31,1678248696383830785,camera_1,33,0,0.12966604506765605,-0.32042821290177353,2.6423401941291584,0.703994348133429,0.7062106634655235,0.03208965779802113,0.0680346269643589,0.0017531889607198536,0.00032106342763432656,10655.466539684097
1678250164584794922,32,1678248696391530275,camera_1,34,0,0.12960940387012757,-0.3204695367111076,2.6426266113184687,0.7040506333376344,0.7062088324522064,0.03190377308359599,0.0675569384030813,0.001884185301605612,0.00034508530684826475,10654.618446530309
1678250164590351095,33,1678248696397596359,camera_1,35,0,0.12964536555839273,-0.3203926366886844,2.6422895052032973,0.704159774020911,0.7063271411932744,0.027249561998616122,0.06721936949599752,0.005170266958884895,0.000946541882323628,10662.957167475139
1678250164597692254,34,1678248696404249668,camera_1,36,0,0.12952356284933464,-0.32022935695414656,2.640555188204885,0.7039600548708994,0.7061530439001026,0.028959793663309794,0.07035232823267831,0.001891553052701056,0.00034613639138455886,10667.051388869531
1678250164604747766,35,1678248696411340236,camera_1,37,0,0.12974989962696765,-0.32048747865450145,2.642844156156552,0.7042024860004269,0.7062466562528913,0.030524156380966685,0.06620268211831992,0.0021138747688382864,0.0003870925363014504,10657.77950793039
1678250164610717395,36,1678248696418030738,camera_1,38,0,0.12973946619989324,-0.3204038972580803,2.6420741923836055,0.7040561559509354,0.7062729162894371,0.03173487424278994,0.06690586476834656,0.0020586407044902444,0.000376821231739011,10660.87378995306
1678250164616626961,37,1678248696423851013,camera_1,39,0,0.12977210110117868,-0.3205017323782553,2.642432981603031,0.7040579391409216,0.7062168091537048,0.03277013355974532,0.06698025938942687,0.0028370084473863244,0.0005194509506138918,10656.56301999278
1678250164624369983,38,1678248696430963993,camera_1,40,0,0.12968776929349327,-0.3204102343882749,2.6419452343189667,0.7040225109240911,0.7061138121535937,0.03085270400733622,0.06930872278070788,0.007342091645114124,0.0013444372481547394,10656.629334576664
1678250164631159960,39,1678248696437952756,camera_1,41,0,0.12954891094298907,-0.320225502829133,2.64079354159653,0.7038473079789187,0.7063101101519865,0.02943237788182276,0.06970459439763951,0.0035078207729384303,0.0006418817182319959,10666.414006604813
1678250164637794123,40,1678248696444860696,camera_1,42,0,0.12951914465374187,-0.3201960402891202,2.640758399612973,0.7039675896764931,0.7062344694542303,0.030893625971083104,0.06861552822888917,0.000865684007294476,0.00015837095293158086,10668.075112685325
1678250164644365918,41,1678248696450523614,camera_1,43,0,0.12948977484054003,-0.3201284306996812,2.6398887923881706,0.7037391076451288,0.7062176840837138,0.03136556924536954,0.07088054827798446,0.0016232054913416505,0.00029692065209138365,10668.492595052461
1678250164650924234,42,1678248696458008289,camera_1,44,0,0.129651456324482,-0.32037292883740104,2.6416949297052335,0.7039158017888912,0.7061668126263891,0.03267118633511141,0.06901862299731185,0.003421969653572887,0.0006264920244939728,10657.402085290523
1678250164657702967,43,1678248696464643478,camera_1,45,0,0.12970137458837,-0.3204188957955257,2.6419366845514602,0.7041777142073178,0.7060723746343822,0.03179399824053061,0.06771034092221977,0.0027646621456369758,0.0005060906992095829,10659.83136868431
1678250164663337011,44,1678248696470893383,camera_1,46,0,0.1297656955029102,-0.32053476699366945,2.64286457160526,0.7041140889096904,0.7061077352763754,0.03269737368937765,0.067572906815989,0.0018438874976709485,0.0003377709928499224,10651.684150161807
1678250164670353761,45,1678248696477388381,camera_1,47,0,0.12963747932346426,-0.32030689068160806,2.6411165351505352,0.7040814906301012,0.7062561623813883,0.029759176890848973,0.06771911872719692,0.002633208699990064,0.0004817285337281951,10668.62275421503
1678250164678192884,46,1678248696484632968,camera_1,48,0,0.12966310749204107,-0.3204103041499965,2.6422127350340947,0.7040810568623683,0.706172841670534,0.031549500785128484,0.06778209243408563,0.004505590070039033,0.000824927212358274,10657.746313267853
1678250164684776902,47,1678248696491371870,camera_1,49,0,0.1295794961796695,-0.3203469483695256,2.6415815230577286,0.7039905241110272,0.7061599052045181,0.03225318468301463,0.06852198421842924,0.00027648097602650523,5.061288437199516e-05,10660.128965903541
1678250164691092312,48,1678248696498053789,camera_1,50,0,0.12961376719678774,-0.32036115774063556,2.641516146063406,0.7038505853352182,0.7063212011565374,0.03108523488223673,0.06883620044986082,0.004096220654901117,0.0007497868794972526,10661.09537405521
1678250164696955364,49,1678248696504006147,camera_1,51,0,0.1295499422409239,-0.3202273119332424,2.6406482902644663,0.7038255435423774,0.7061384688925573,0.031494567392732285,0.0707542170622835,0.001700187160167843,0.00031117057990403965,10662.554670798712
1678250164704308536,50,1678248696511368036,camera_1,52,0,0.12969476025155663,-0.3204027151511679,2.64200018790653,0.7041182341930423,0.7061526226069204,0.030402322374555233,0.06812991014579624,0.0043749368051066995,0.0008009481893865786,10659.769406786074
1678250164710103563,51,1678248696517367124,camera_1,53,0,0.12970829898886832,-0.32044166495014736,2.642373767470037,0.7040393451853412,0.7062072175508571,0.03065729850781595,0.06826489843452045,0.0023230951046571136,0.00042546217169557284,10656.15168718644
1678250164717409174,52,1678248696524651765,camera_1,54,0,0.12971933628637,-0.32052241935079184,2.642753245957716,0.704060354834099,0.7061429825596173,0.031679259817593376,0.06824609461427183,0.0027028186013922095,0.0004951480042190177,10652.000328114838
1678250164725509990,53,1678248696531303405,camera_1,55,0,0.1296544917753242,-0.32040536556314275,2.6421625183510864,0.70404040235605,0.7063742529720123,0.03000323827642415,0.06680069072615184,0.003802710911259055,0.0006960563539771406,10662.326154190116
1678250164730947852,54,1678248696537977933,camera_1,56,0,0.12961797043893028,-0.32029419197486975,2.6413098432488256,0.7039736671562967,0.7061608817926129,0.02992894845750072,0.06972906869178112,0.0034261754481121898,0.0006271850969071949,10661.654203742979
1678250164736908821,55,1678248696543980598,camera_1,57,0,0.1296156219753649,-0.32033440080007547,2.641653511341537,0.7040839395250085,0.7062551482117387,0.02960779359050783,0.0677705709438904,0.003517660195939243,0.0006437843896574689,10664.361188289015
1678250164744775322,56,1678248696551518440,camera_1,58,0,0.1296105340299474,-0.32030374413104956,2.6412522351234125,0.7040008886173639,0.7060979751170222,0.031056072728581022,0.06959826656088748,0.0019114682218059897,0.0003498985367824158,10661.257083162434
1678250164750743554,57,1678248696557946681,camera_1,59,0,0.12966640526220502,-0.3203991043945011,2.6418345059321466,0.7039464074577767,0.7062014863276646,0.03199316728532917,0.06866843075926742,0.005122366012074053,0.0009377849424851395,10657.954991919109
1678250164756890159,58,1678248696564186573,camera_1,60,0,0.1296773782309867,-0.32037342219766013,2.6416878920654128,0.7040626139335894,0.7062062476254519,0.031079213746456908,0.06784286217932238,0.0012388715986162424,0.00022676163032177494,10662.299232239951
1678250164767460960,59,1678248696571233272,camera_1,61,0,0.1297325676685962,-0.32049074166182756,2.6430090997471405,0.7042538895663036,0.7063264189789538,0.029279802147773152,0.0653616253568371,0.004375295189674944,0.0008010953746747326,10659.855485616834
1678250164771212170,60,1678248696577974796,camera_1,62,0,0.12961266387002712,-0.3202775300965496,2.6410515669752077,0.7040302015271349,0.7061460729448467,0.030727571090198486,0.06895661953090428,0.003326226316858083,0.0006086559576949507,10664.92735425511
1678250164778003195,61,1678248696584635734,camera_1,63,0,0.12964893875066613,-0.3203668352555495,2.6418741278822613,0.7039870093600232,0.7062020799572252,0.031584442359029644,0.06843490277108998,0.0032386156963184476,0.0005929222687681587,10658.74135299772
1678250164783376664,62,1678248696590695142,camera_1,64,0,0.12956539607262418,-0.32023014983491604,2.640537654482607,0.7039120663318739,0.7061751589814336,0.031021349968340023,0.06972892911898557,0.00242965470533818,0.00044451839894087277,10666.702090486997
1678250164791254549,63,1678248696597909212,camera_1,65,0,0.12967968509774438,-0.3204586697767458,2.6426125045136213,0.704180335957482,0.7063038917469929,0.02980340775028847,0.0661560567169042,0.003830284171272069,0.0007012318552291156,10660.53306580265
1678250164797403040,64,1678248696604602575,camera_1,66,0,0.1295319470888686,-0.32019069059805944,2.64031757802187,0.7038523118035688,0.706249822512028,0.030898714993152984,0.06963031510967682,0.001864312740508467,0.00034102519024400654,10668.891372651091
1678250164804737774,65,1678248696611344099,camera_1,67,0,0.12965026877174407,-0.3203464131338456,2.641869955665764,0.7039608071238986,0.7062380008645067,0.031844904043300704,0.0682126839733453,0.0029539938550442457,0.0005407907116937772,10659.088421958148
1678250164810665918,66,1678248696618015050,camera_1,68,0,0.12968517362592405,-0.3204139959748501,2.642199200927611,0.7041024949122708,0.7060099843848806,0.031146812822589163,0.06942229222786331,0.001953897182829678,0.00035791649887205495,10653.992972379783
1678250164817888139,67,1678248696623946666,camera_1,69,0,0.12971141198385733,-0.32043320781884743,2.6421132514326433,0.7041562617769651,0.7060017616303492,0.03267416777413448,0.0682485921862245,0.002624755084980279,0.000480617329572457,10656.020259126202
1678250164824116108,68,1678248696631276845,camera_1,70,0,0.1297667310817199,-0.32056194341637334,2.6433708939583656,0.7042029115811004,0.7062827470559921,0.02935688231202771,0.06634089231130424,0.0010428809328004718,0.0001910615420476488,10654.39702047058
1678250164831117214,69,1678248696638034343,camera_1,71,0,0.1297162677372018,-0.3204607219010976,2.6428380200549495,0.704310477091017,0.7062796244361376,0.02798665629919634,0.06582242046114094,0.004511289240326732,0.0008259667725336315,10661.365590850128
1678250164836825359,70,1678248696643874883,camera_1,72,0,0.12959675059471695,-0.32021980987613446,2.640722922148388,0.7039751162769572,0.7059705249404598,0.03220526981997625,0.0706220516125026,0.0035893150488846004,0.0006569039985092296,10661.512614939595
1678250164844614756,71,1678248696651230812,camera_1,73,0,0.12948415815149422,-0.3201241913363185,2.639797037183504,0.703839536462524,0.7061803515577515,0.02974701456082688,0.07095303454192783,0.0009298743680119514,0.00017009209506893279,10670.756822702471
1678250164849871661,72,1678248696657167196,camera_1,74,0,0.12963371598148254,-0.3204448524072317,2.642451163057617,0.7040815942466438,0.706352682856035,0.029538339665239464,0.0668018155068191,0.0032498036161996424,0.000594986736296368,10660.481513553998
1678250164857549104,73,1678248696663920164,camera_1,75,0,0.1295949741054854,-0.3202965921187177,2.6411602162568504,0.7040347052911538,0.7061933056288348,0.030171381070028414,0.06867194911275207,0.0016234038048423827,0.00029707850909728065,10665.392321141906
1678250164864884327,74,1678248696671375989,camera_1,76,0,0.12980696388340793,-0.3206090275137345,2.6437269813740762,0.7042362306802198,0.7062417302316853,0.031535892339419086,0.06541740877647433,0.0072070162277668715,0.0013202368005929093,10651.521243546507
1678250164871871953,75,1678248696677563667,camera_1,77,0,0.1297404781887737,-0.320457202009554,2.6425449584746454,0.7040983519000273,0.7062151474424508,0.029263100267982244,0.06818612276122477,0.0011117176618427038,0.00020363631622997462,10656.418361047046
1678250164877984127,76,1678248696684098482,camera_1,78,0,0.12977888828296028,-0.32056567736568925,2.6432177837381983,0.7040910223560204,0.7064051186306646,0.029764670422388437,0.06604320559071612,0.0015413403743878007,0.0002823229035361027,10655.93788159848
1678250164884538601,77,1678248696690821170,camera_1,79,0,0.1295635200635413,-0.32024479106492637,2.640723191492255,0.7038597514765822,0.7062275831366284,0.029877563719375104,0.07022380119671082,0.0005463362322188914,9.998878351083819e-05,10665.106897918622
1678250164891627077,78,1678248696697524070,camera_1,80,0,0.12968853032944416,-0.3204760968649908,2.6428921327279156,0.7041378466539656,0.7062934173063499,0.028885197376002023,0.06712039147520195,0.004833473765756935,0.0008852644334645754,10656.782514324175
1678250164898307405,79,1678248696704152822,camera_1,81,0,0.12953184305240895,-0.32020186404331896,2.6406973336201567,0.7038463646191734,0.7062205615849207,0.03326438673545444,0.06889335223493477,0.0012329733581282198,0.00022556995413054446,10665.147221823103
1678250164904196088,80,1678248696710835695,camera_1,82,0,0.12959019988427448,-0.32026947364230207,2.6410042303337353,0.703829815292363,0.7062940899509293,0.03046857641837921,0.06959824320300102,0.0017101701232604682,0.00031299672436388014,10663.900373044187
1678250164910983551,81,1678248696717442750,camera_1,83,0,0.12964307433740838,-0.3203292183476994,2.6414136310260368,0.7039877782728137,0.7061595785388977,0.0304971108826295,0.0693526056330035,0.002802759234327823,0.0005130656897327962,10661.198216516059
1678250164917330948,82,1678248696724203348,camera_1,84,0,0.12976871754573796,-0.32061794014944495,2.6435992201309295,0.70402675173492,0.7064597996733184,0.031451027999862956,0.06535837455800207,0.0027159316232427955,0.0004975262067564441,10652.780426815616
1678250164924521461,83,1678248696730999231,camera_1,85,0,0.12969977320597822,-0.32046481042187525,2.6424369606250644,0.7041421045232327,0.7061686577990548,0.03098694898780279,0.06745022143997487,0.00396676838863641,0.0007263746438520857,10657.376248415558
1678250164930861735,84,1678248696737589597,camera_1,86,0,0.12963084451806098,-0.3202336937570601,2.6410568425658214,0.7040863714067951,0.7060774380195061,0.03024966011523341,0.0692964009306117,0.0032306307111866772,0.0005912171543498486,10664.527275048082
1678250164938372188,85,1678248696744233846,camera_1,87,0,0.12961633231676456,-0.3202691315021747,2.6411018278845675,0.7039503817960167,0.7060166546962023,0.03290547594471589,0.07008261491752067,0.0031569990096613765,0.000577878523940511,10659.108175954312
1678250164944215964,86,1678248696750736951,camera_1,88,0,0.12962888028873004,-0.32033487594000165,2.6415543072414067,0.7041384793980227,0.70615615628564,0.028935587691004457,0.06852165012539668,0.0022626732825301588,0.0004141623578311819,10663.872436245903
1678250164950639627,87,1678248696757533550,camera_1,89,0,0.1296876458198509,-0.3204352819831559,2.6422478437445136,0.7041341070175606,0.7062211434345018,0.02812028590721638,0.06823566091966685,0.0037211953895166516,0.0006814167363951445,10659.802876369562
1678250164956885476,88,1678248696764259815,camera_1,90,0,0.1297134741101862,-0.32041742493992936,2.642273592847642,0.7040617045384798,0.7063080099020511,0.031827261897713004,0.066431443990544,0.0024876375100575387,0.00045535611511097145,10660.38384778845
1678250164964695336,89,1678248696770849466,camera_1,91,0,0.1296857753282853,-0.32040572222698627,2.642229430590938,0.7041222954295334,0.7062070000802815,0.028887697798215175,0.0681833339795963,0.0018013903754763305,0.00032987830531500676,10659.363082084688
1678250164971090155,90,1678248696777655363,camera_1,92,0,0.1296425950891308,-0.3202903134663879,2.6412564336348705,0.7041066948194348,0.7061997627349398,0.03098547597188857,0.06749487167453332,0.0034923842176795006,0.0006389272325760656,10666.806459422223
1678250164977257153,91,1678248696784198760,camera_1,93,0,0.12971797049717623,-0.320572075627048,2.64331087079735,0.7042399046683934,0.7061505851368104,0.030405689041605215,0.06688050431551675,0.004596663289703429,0.0008421309644033617,10652.425048399717
1678250164983944604,92,1678248696790880203,camera_1,94,0,0.12962743097420865,-0.3203552222899402,2.64170064657545,0.704002373656659,0.7063741395844753,0.02831016937146294,0.06793207727017689,0.0027758132782764733,0.0005080633192894201,10664.840902243737
1678250164992294822,93,1678248696797516822,camera_1,95,0,0.12965601424185028,-0.32046773108428556,2.6427582776538645,0.7038616509988488,0.7065233174652775,0.031052841413903524,0.06662806594188833,0.002417676674667746,0.00044273286726630656,10656.871332971612
1678250164997644894,94,1678248696804237127,camera_1,96,0,0.12958230442303942,-0.32020875470847043,2.640632728597735,0.7039445730844178,0.7061922055509425,0.03182439674967953,0.06886083513588306,0.0011318136239424346,0.000207051050328989,10667.378489785831
1678250165004168360,95,1678248696810862779,camera_1,97,0,0.12965472935144368,-0.32037934391998185,2.64149707651087,0.7041116629100539,0.706278096899088,0.030193810494108297,0.06698021948670473,0.0004967121058143675,9.088825375271417e-05,10666.977282759733
1678250165010635813,96,1678248696817557334,camera_1,98,0,0.12962447965476917,-0.32028391359945396,2.6409916551939556,0.7040374593542603,0.7062145563501591,0.03208366307606489,0.06754920272488875,0.0005379813374020159,9.841480454184971e-05,10667.570942429593
1678250165017929131,97,1678248696824206113,camera_1,99,0,0.12967001551651444,-0.32045979399269237,2.6423690161629945,0.7040881543513112,0.7061447130245708,0.0303334503047635,0.0685521477578873,0.0022611785680055623,0.000414147791765333,10655.776741595477
1678250165024538082,98,1678248696830909252,camera_1,100,0,0.129674622696217,-0.32042794749965176,2.6426276722812094,0.7041699666152751,0.706238024617026,0.03005072194447753,0.06685405606766986,0.004023387911729515,0.0007367098409051021,10658.4210226523
1678250165030455120,99,1678248696837462902,camera_1,101,0,0.12965788622594243,-0.3204173389616855,2.642398635651586,0.7040050800903198,0.7063768561271668,0.032719889037506875,0.06586344355023856,0.004502856056205928,0.0008241631574840007,10659.821047700245
1678250165038009783,100,1678248696844694614,camera_1,102,0,0.1295711066251506,-0.3202019356473437,2.6405481994746283,0.703893197490206,0.7060515292989704,0.0306222244923524,0.07132940395614695,0.0005254085990600288,9.617245431903282e-05,10662.74720883928
1678250165044644225,101,1678248696851372241,camera_1,103,0,0.12967282274285793,-0.320367755115674,2.6418047556620654,0.7039680203928057,0.7063166301509207,0.031241633977697122,0.0676003294584093,0.003392896556761116,0.0006210066508290595,10661.830264743185
1678250165050604775,102,1678248696858082532,camera_1,104,0,0.12975854163241365,-0.32047975278549135,2.6425734048113285,0.7041016753492518,0.7061738166065107,0.03231092770949686,0.06719654351469798,0.002198650676291436,0.0004026269606643547,10655.451495398065
1678250165058015426,103,1678248696863996267,camera_1,105,0,0.12967808213308324,-0.3203368493418509,2.6413151512225608,0.7039522688076778,0.7060617408216416,0.03406905564458887,0.06904578796654888,0.0007655174704268575,0.00014012492795097877,10658.710070237395
1678250165063823583,104,1678248696871080160,camera_1,106,0,0.12972770272289758,-0.3204963415639353,2.642824125177934,0.7039484392322808,0.7063528808621435,0.032041339739353226,0.06704890116842938,0.00740739144384861,0.0013565729874602953,10654.13246487686
1678250165071875511,105,1678248696878084897,camera_1,107,0,0.12956362459349402,-0.32023595584369685,2.6405941236195885,0.7039314889574755,0.7062051606887662,0.029454050870433023,0.0699084312367806,0.0026922592660412192,0.0004926038602995668,10667.416282378723
1678250165077262878,106,1678248696884728908,camera_1,108,0,0.1296517947538222,-0.32039464389513606,2.6420381314859713,0.7039603682082475,0.7062693718254357,0.032399575809127085,0.06762870618902758,0.002762893680483103,0.0005057923809500288,10658.592935189374
1678250165083947047,107,1678248696890692710,camera_1,109,0,0.129567855377471,-0.3202715099029856,2.640984688030913,0.7038327291261468,0.706192856564041,0.0334575142065121,0.06922234821126032,0.0026587829925119877,0.00048653900737666934,10661.693735441306
1678250165090467649,108,1678248696897653818,camera_1,110,0,0.1296877714034271,-0.32051020391884316,2.6429683780921427,0.7041078327927712,0.7061560951929458,0.03196383550662485,0.06748364425121006,0.00378353096311912,0.0006930973905024748,10651.965446305225
1678250165098004362,109,1678248696904679536,camera_1,111,0,0.12958847050597277,-0.32026872534024353,2.64103259387114,0.704053091919382,0.706083164379395,0.03192339902331284,0.0688237265304408,0.0025613721227273345,0.00046868451330145725,10664.132113552067
1678250165102856680,110,1678248696910559177,camera_1,112,0,0.1296508572486954,-0.3203050125358429,2.6411752283011087,0.7040376356099479,0.706025552477602,0.030996109868543665,0.06998691353723385,0.002051946008577943,0.0003756246047571385,10660.882052150555
1678250165110791066,111,1678248696917587518,camera_1,113,0,0.12962202934759992,-0.3202876335140372,2.640875696146626,0.7039674891539252,0.7060246934312082,0.03231889626802041,0.0701027490452692,0.0009146130760200322,0.00016740066098737362,10661.50781551283
1678250165117823949,112,1678248696924770355,camera_1,114,0,0.12974731768543363,-0.3205372287577596,2.6430160649070795,0.704203548631231,0.7062403748064219,0.02994695246494787,0.06652123816142017,0.003820348880253732,0.0006996954529311686,10656.175388147938
1678250165124710027,113,1678248696931358814,camera_1,115,0,0.12969765615731824,-0.32047817367886633,2.6426203438813745,0.7042878024814949,0.7061397335614509,0.028050117951816,0.06751710038530538,0.002623704494908452,0.0004805237962631307,10658.730211648624
1678250165129602713,114,1678248696937402486,camera_1,116,0,0.1296361992220599,-0.3203322219125574,2.641547416038526,0.7039620499477562,0.706193524975139,0.030872234394962287,0.06910168348168562,0.001970084325876087,0.0003606643532980551,10660.396975030657
1678250165138300737,115,1678248696944690465,camera_1,117,0,0.12959875009271216,-0.3202944993526268,2.6412955555477806,0.7040181742035283,0.7062600040364808,0.0308371345409993,0.06785490566510904,0.0030239702318795025,0.000553301613929468,10665.735686523605
1678250165144093320,116,1678248696951383590,camera_1,118,0,0.12951952489849305,-0.32014366672047045,2.6398971210453848,0.7038467660268742,0.7062759484545463,0.031697650583396214,0.0690599271331402,0.004485099867451936,0.0008200228786943127,10672.918130968697
1678250165151160145,117,1678248696958044052,camera_1,119,0,0.12963613993892348,-0.3203571301314243,2.6417059938006093,0.7040486046109039,0.7061255050004615,0.03205598559200706,0.06837212385912472,0.002825448871590197,0.0005172361725112464,10659.722737748416
1678250165157718601,118,1678248696964749574,camera_1,120,0,0.12969531751757757,-0.320423956988826,2.642156183451207,0.7041035120529076,0.7061851267644963,0.03090005324242482,0.06771999528196156,0.004151922999881208,0.0007601422062632397,10659.041617156701
1678250165165181143,119,1678248696970525741,camera_1,121,0,0.12978220496423123,-0.32054537589874804,2.6433952177373987,0.7042436826803438,0.7063684080105591,0.02983480434957868,0.06476412601802059,0.0021659209160134196,0.00039665186363777147,10657.640694617061
1678250165169816118,120,1678248696977221488,camera_1,122,0,0.1296091152221612,-0.3202389533579278,2.640662889680154,0.704031310076765,0.7061368746026935,0.031148157206230084,0.06885071575945863,0.0011823027161881328,0.00021629020519569575,10667.875352127012
1678250165178151110,121,1678248696984696865,camera_1,123,0,0.12975418937556019,-0.3205769692277049,2.6433956458053216,0.7042764632456968,0.706113258165207,0.02891106518227051,0.0675490952676272,0.0037921941257081926,0.0006949131640195781,10651.559876556974
1678250165186281329,122,1678248696991472959,camera_1,124,0,0.1295923999992346,-0.3203060249896344,2.641348192553624,0.7040096622517781,0.7062817576922982,0.030761434298186004,0.06775107650165975,0.0012110581155866385,0.00022160464152225275,10665.662294788639
1678250165190056076,123,1678248696997211217,camera_1,125,0,0.12964759176649224,-0.3204042387949583,2.642025219698525,0.7040174423085195,0.7061890719602393,0.029958419769189438,0.06898498861520344,0.004179283103439957,0.0007653090640645722,10657.811928622428
1678250165196652036,124,1678248697004036426,camera_1,126,0,0.12954329755138763,-0.32023749843872956,2.6407792930414113,0.7037986347323855,0.7062954003083214,0.03150653786273563,0.06943793865058623,0.0032012220472097397,0.000585731377150544,10665.025818926402
1678250165204071137,125,1678248697010871410,camera_1,127,0,0.1296027070775434,-0.32031276521153074,2.641229803100687,0.7039533607237481,0.7061861451588181,0.031734583890501315,0.06887459979387348,0.0017338733305223284,0.00031732584499337294,10662.60169167945
1678250165211017138,126,1678248697018068552,camera_1,128,0,0.129683934201852,-0.320448646854987,2.642051740941738,0.7040856852779471,0.7061362771978771,0.031118944605526406,0.06831191037033772,0.002915974473580718,0.000533913457397594,10658.082721670042
1678250165216395776,127,1678248697023862600,camera_1,129,0,0.1297046172605849,-0.3204164055470214,2.642121150197065,0.7039798391047698,0.7062238605599382,0.03174218876977937,0.06821054436040595,0.0025427252403460443,0.0004655865899106011,10657.133717270335
1678250165226528187,128,1678248697031365394,camera_1,130,0,0.12976008296808172,-0.3205403775404273,2.6432624715039177,0.7040868050343221,0.7063374779331469,0.032296186774290955,0.06562083939909555,0.004844315233640373,0.00088718534050146,10653.922290576507
1678250165231098139,129,1678248697038067817,camera_1,131,0,0.12965775962986778,-0.3203919466423887,2.6421329544190835,0.7041579758617226,0.7062458902697117,0.030147829999662795,0.06685354032342405,0.0020206616609357297,0.0003698811843618492,10662.287563681595
1678250165236319356,130,1678248697044064044,camera_1,132,0,0.1296645381741281,-0.3204262572219993,2.642210411640729,0.7041131633601414,0.7063238073428654,0.0291435330342356,0.06694764257191037,0.005993998551275581,0.0010971915431002767,10662.423084556132
1678250165244057769,131,1678248697051320075,camera_1,133,0,0.1296374540350231,-0.3203724717651036,2.6418592246170958,0.7039217386031199,0.7063837724720511,0.030389656102877208,0.06776887716395455,0.0018592812702991068,0.000340345836276052,10661.885365256687
1678250165251589733,132,1678248697058060884,camera_1,134,0,0.12966927839519699,-0.3204047486343766,2.6422314674217455,0.704087401136354,0.7061053476444065,0.033019830671865064,0.06771898088001663,0.0009592595743015409,0.00017564915859167416,10656.09430980834
1678250165257505096,133,1678248697064022302,camera_1,135,0,0.12971141372548262,-0.32047448332044565,2.6428786881367823,0.7041943254438837,0.7064111127044931,0.03079493320784166,0.06438450084421155,0.004484660399612039,0.0008208519934365842,10661.734679369489
1678250165263811008,134,1678248697071367979,camera_1,136,0,0.12971705670277983,-0.3204361003874814,2.642282662304166,0.7042860373309259,0.7059974219746465,0.03176269198934468,0.06737914501865269,0.005168661591596901,0.0009462848572680358,10657.956119249924
1678250165271300648,135,1678248697078033208,camera_1,137,0,0.1296038656736788,-0.3202908521929734,2.6409905440153216,0.7039669383351974,0.7060600329310558,0.03208425712067187,0.06985971710062552,0.0008829105063341558,0.00016160218322762803,10661.51619368454
1678250165277137021,136,1678248697084282875,camera_1,138,0,0.12965945745270593,-0.320386499174627,2.641954773163774,0.7038598570752129,0.7064825990713368,0.02864509167272406,0.06814027832736651,0.004066683060955256,0.0007444960600338162,10661.922023582967
1678250165285541155,137,1678248697091620445,camera_1,139,0,0.12957852974857095,-0.3202810301052623,2.6413611278040996,0.7040674659744318,0.7062227217485385,0.029361029818741585,0.06838421287411178,0.003256710129790008,0.0005959863907934483,10665.398935419511
1678250165292405653,138,1678248697098095178,camera_1,140,0,0.12966473378142127,-0.3204471496301978,2.642642870584271,0.7039784683940662,0.7063886590752444,0.03019099712817222,0.06721519218026238,0.002792795014102012,0.000511446522599812,10657.224503862319
1678250165298029710,139,1678248697105007886,camera_1,141,0,0.12960727514866816,-0.3202254940651074,2.6410363619693857,0.7040636703494125,0.7061639828135845,0.0286646602465579,0.0693189348152346,0.0014642743044532835,0.0002679759117638092,10666.255238646409
1678250165304941000,140,1678248697111403226,camera_1,142,0,0.12963946406939905,-0.3202954185123947,2.640915768325677,0.7040452670689858,0.7059436120063345,0.03236935219391426,0.07011493153214096,0.002132297493517399,0.00039028934997477934,10661.080089534753
1678250165310583915,141,1678248697117354869,camera_1,143,0,0.12964777034728595,-0.3203038182068487,2.6409002100277448,0.7039524131944954,0.7062498864439108,0.032397438986332315,0.06791541653215799,0.0027505054022185504,0.000503131878605585,10666.965711104214
1678250165317494716,142,1678248697124655723,camera_1,144,0,0.12970728804510617,-0.32047913201985384,2.6425215163101967,0.7040305006579685,0.7062197339115782,0.03162541240920884,0.06778329342173939,0.0028804618632420897,0.0005275311831767747,10655.138403617195
1678250165324158352,143,1678248697131268024,camera_1,145,0,0.12960367205701911,-0.3203295530141218,2.6414383275735807,0.7038848149900796,0.7062108910476956,0.031700553978667265,0.06933555703567107,0.0014631125377491117,0.00026785172873049467,10659.750770664308
1678250165330768559,144,1678248697138072490,camera_1,146,0,0.12961658619956262,-0.3203168743005257,2.641553667685578,0.7040589266849184,0.7061831512266948,0.031175208548704786,0.06807709637433523,0.003228469635359943,0.0005908624154868277,10662.72071554989
1678250165337629564,145,1678248697144586801,camera_1,147,0,0.12959293187333765,-0.32032245788862324,2.6415229748828986,0.7039153668929131,0.7062350572088888,0.029161945430993017,0.06989120946051076,0.0018685554969124496,0.0003421380739383546,10660.300604177639
1678250165344384900,146,1678248697151309967,camera_1,148,0,0.12963388098305373,-0.32037101201759216,2.64179937921529,0.7040296417106872,0.7061545278102205,0.03072030736602968,0.06887894570318774,0.0017886088462546468,0.0003274834462216513,10659.116790830045
1678250165353609662,147,1678248697157967805,camera_1,149,0,0.1296743762829594,-0.32042506530736836,2.6421023845970404,0.7040275201074043,0.7062127404198523,0.030284035404293298,0.06849593710383407,0.007681239047087729,0.0014064171901712282,10658.112949637689
1678250165358166974,148,1678248697163965702,camera_1,150,0,0.12965051944592149,-0.3202793003249581,2.6412302537277106,0.7040463306962721,0.7061565922304117,0.032549513065685,0.0678392267190175,0.005078041809611023,0.0009290564739975834,10664.38439930091
1678250165365332484,149,1678248697171258926,camera_1,151,0,0.12966328678878533,-0.32038680958069826,2.641757543993375,0.704058516704733,0.7060303767681504,0.032423253445899136,0.06907564528933506,0.0005645831697620451,0.00010337897124371367,10657.02475669258
1678250165371456042,150,1678248697178028345,camera_1,152,0,0.12962251649098663,-0.32032886070942623,2.641256789570078,0.7038649162105844,0.7062303328996223,0.03179613977278765,0.06929575828219785,0.0013618477387353778,0.00024927536204626664,10661.186468012282
1678250165377567727,151,1678248697183974742,camera_1,153,0,0.12964546736855567,-0.3203364526688549,2.641444152517842,0.7038495095013696,0.7063391748436589,0.03140286547499542,0.06851786698241452,0.00368042808258906,0.0006735936955245729,10662.166803884902
1678250165384526509,152,1678248697191290378,camera_1,154,0,0.12965940603771225,-0.32035890457443267,2.641832550262428,0.7040019075046029,0.7062506138216149,0.030129511486335334,0.06843681205365658,0.006034478486981243,0.0011046784267059087,10660.636220991375
1678250165391106894,153,1678248697197975635,camera_1,155,0,0.12963878204382467,-0.32035409331723586,2.6418529576936107,0.7039899158602634,0.7061258594331855,0.031213087289243244,0.06935569326795353,0.0011188089265488088,0.00020488615912946144,10656.917341407856
1678250165397104669,154,1678248697204018354,camera_1,156,0,0.1296014661897968,-0.3202995998980931,2.6411111416584725,0.7038838058119471,0.706209133687495,0.03161983849753163,0.06940052755877842,0.003616045811213553,0.0006617920979835143,10662.289486671685
1678250165404159342,155,1678248697210632562,camera_1,157,0,0.12963974073669166,-0.3203301174571645,2.6414567282815726,0.7040423183200419,0.7062034435088037,0.03199348918138339,0.06765742413696729,0.002740507770795375,0.0005014772809734977,10663.651637814819
1678250165411010430,156,1678248697217985391,camera_1,158,0,0.12967216533492668,-0.3204260307757678,2.6422725096370505,0.7040759037011225,0.7062080711138617,0.030545471329726636,0.06792831738186465,0.0013936745235696435,0.00025521036512258274,10657.968709636247
1678250165418509359,157,1678248697224574089,camera_1,159,0,0.1296661325339024,-0.32040148209122626,2.6420862756854477,0.7039653886249253,0.7062965332747316,0.03235343579017721,0.06731414334911193,0.002723335172049701,0.0004985329774502275,10659.059222727894
1678250165424275682,158,1678248697231326580,camera_1,160,0,0.12964566095494978,-0.3203584990342817,2.641717464033199,0.7040560934391641,0.7062084354249342,0.031788611351583236,0.0675584725566498,0.0025963384541682903,0.0004751810780279763,10662.041365531972
1678250165431836490,159,1678248697237983465,camera_1,161,0,0.1296550240791031,-0.3203025634710771,2.641174205277478,0.7040735636128698,0.7062322910923498,0.029690420955117012,0.06807971021848337,0.005476361024193466,0.001001933459598364,10667.297007631974
1678250165436889391,160,1678248697243989467,camera_1,162,0,0.12967709450476833,-0.3203967465925378,2.6418689239880515,0.7041225023943648,0.7062335385722531,0.029419206593458456,0.06767718153870793,0.002815370913594961,0.0005153528361361153,10663.009943900637
1678250165444745416,161,1678248697250616550,camera_1,163,0,0.12958717994362803,-0.3201864633768927,2.6401465967355566,0.7037936857306408,0.7061736432985567,0.03205758151817924,0.07046662261899625,0.0025796134723350406,0.00047191789658877087,10666.718406495522
1678250165451722706,162,1678248697258012771,camera_1,164,0,0.1297053423577676,-0.3204989476000703,2.6428092406447505,0.7041030782311579,0.706320765598652,0.03057158352974182,0.066447043501017,0.005934686749242247,0.0010866934697526512,10657.392631388971
1678250165459534801,163,1678248697263992547,camera_1,165,0,0.12967566101200428,-0.32043799857335636,2.642594814012532,0.7041592762302106,0.7063339692283773,0.028667105617047335,0.06656000802713745,0.0006606531678698957,0.00012097134646575662,10660.821443285557
1678250165464432166,164,1678248697271172523,camera_1,166,0,0.1296690179851812,-0.3204811764929026,2.6426350640763494,0.7039714093106907,0.7063752945536375,0.031067387559011356,0.06702996007487988,0.003885501646436751,0.0007115029700744047,10656.792933917604
1678250165471746507,165,1678248697277987957,camera_1,167,0,0.12959063175685662,-0.32034254260643646,2.641532537924854,0.7039813510771327,0.7061691086882148,0.03232918291411693,0.06848555469741718,0.0015890012728050351,0.00029085184361249427,10660.52489943022
1678250165476747376,166,1678248697283984661,camera_1,168,0,0.12968295706081837,-0.32048563811082503,2.6428233528652085,0.7040380069106854,0.7064695726878887,0.031196183120027754,0.06525355047936629,0.007380386348813772,0.0013510152310871144,10659.606539387256
1678250165485373813,167,1678248697291091203,camera_1,169,0,0.12964523205597614,-0.32031484659862147,2.64154815452424,0.7041414787404522,0.7062132534733327,0.029232836957410156,0.06777211653210405,0.0050101286033168435,0.0009168267870128405,10665.580167758628
1678250165491208510,168,1678248697298026084,camera_1,170,0,0.12975658674031634,-0.3205140304730151,2.6431398275469196,0.7042025125735559,0.7061902963544573,0.029909664675467726,0.06707830184863044,0.003945199074223638,0.00072273424912422,10653.834062458247
1678250165498072448,169,1678248697304608106,camera_1,171,0,0.12960005519326606,-0.3201852372078692,2.6402227475029307,0.7039238854004403,0.7061147656116258,0.03114080466126988,0.07016659912690114,0.0007695941021665931,0.00014079597684103044,10667.935586504871
1678250165505228600,170,1678248697310505151,camera_1,172,0,0.12966700372476783,-0.3203385222939953,2.641406037137966,0.7039777387891696,0.7061946469015294,0.03306616194892914,0.06790502861260973,0.0013644426362589004,0.0002497018934843309,10662.166236923196
1678250165511794040,171,1678248697317928791,camera_1,173,0,0.1296402416332901,-0.3203454513427272,2.641521506723444,0.7039444098353804,0.7064091199738366,0.029323996233125135,0.06773866196071102,0.0009548272355459632,0.00017474445663583828,10665.767042141291
1678250165517575658,172,1678248697324631690,camera_1,174,0,0.12967866210771634,-0.3204677969497113,2.642539862844448,0.7041598903476126,0.7060969513833741,0.030305785558705608,0.06831912934466483,0.0017803892260417342,0.0003261218452982224,10655.047210246903
1678250165525000207,173,1678248697331343889,camera_1,175,0,0.12967604093166885,-0.3204713472500342,2.6427450038161657,0.7040316439619669,0.7063046669743844,0.02917717208860457,0.06798422125262683,0.0027071294025518,0.0004958904056185549,10655.450494556686
1678250165532617586,174,1678248697338843584,camera_1,176,0,0.12962348646951372,-0.32041598974128094,2.6421059842375234,0.7039257672649821,0.7061831741256335,0.03216423779972272,0.06898768418358853,0.004334203142207116,0.000793731510774187,10654.767867836166
1678250165536886945,175,1678248697344079732,camera_1,177,0,0.12955356619920586,-0.320236441573697,2.640755954330612,0.7038494064298895,0.7060973724908268,0.0337299621626456,0.06989136772412916,0.0015488744829781353,0.0002834400800176126,10661.437322732872
1678250165544138988,176,1678248697350780725,camera_1,178,0,0.12957478652278304,-0.32018790760767596,2.6404865635690076,0.7040201354716858,0.7060816431325112,0.02973114707081036,0.07014571245326456,0.002334195771254599,0.0004270817509191655,10667.387938572218
1678250165551764329,177,1678248697357449054,camera_1,179,0,0.12971249624809428,-0.3204476477461821,2.6423936063036115,0.7040420863372152,0.7062285149471214,0.031098683731292168,0.06781516948077239,0.006088868482038379,0.0011149454930282916,10656.671260674022
1678250165557484976,178,1678248697364135742,camera_1,180,0,0.12968361606145043,-0.32034823181362415,2.6414082637778926,0.7041177283292026,0.7061672094603495,0.03143455307609482,0.06751270849560205,0.002710800734348595,0.0004960098987341458,10665.000285838612
1678250165564513109,179,1678248697370799064,camera_1,181,0,0.1297441785891507,-0.32053215582824657,2.6428026215892277,0.7041728237053441,0.7060092407185581,0.03278482799156831,0.06794660718837238,0.0006983996136114001,0.0001279476526652189,10651.11903773982
1678250165572869263,180,1678248697377514123,camera_1,182,0,0.12968646484645024,-0.3204096835966659,2.641840192012906,0.7040609392188741,0.7061370081291903,0.031082599967100933,0.06857544455472309,0.0010846619843505323,0.00019859243614353338,10659.148903218222
1678250165577744908,181,1678248697384442567,camera_1,183,0,0.12971132997696028,-0.320502612032556,2.642960471590315,0.7042007347129661,0.706327936719917,0.03042903027172815,0.065393005401387,0.0038439887575805187,0.0007038004156094317,10658.978225688916
1678250165584485648,182,1678248697390927314,camera_1,184,0,0.12950153184258142,-0.3201350459145324,2.6401412739728998,0.703871551563589,0.7061697529166834,0.03122573288957449,0.07010044629362462,0.0016792620299383998,0.000307176466147203,10668.740710717391
1678250165594023295,183,1678248697397444248,camera_1,185,0,0.12953514851024375,-0.3202127235426826,2.6406659684317795,0.7038582978460851,0.7061066554335114,0.032360661662427154,0.07035392869259043,0.00339483906282112,0.0006212495405072747,10662.542033712842
1678250165597778697,184,1678248697404014825,camera_1,186,0,0.12947033349602086,-0.32005008736677265,2.639191183090145,0.7037026770009736,0.7061404901565916,0.033691247969991595,0.07094399448365286,0.0017068966408260167,0.00031208331223067925,10671.27138838754
1678250165603868521,185,1678248697410631656,camera_1,187,0,0.1297112633565146,-0.32052442374009366,2.6429132627113847,0.7041971114689438,0.706341171664684,0.028232424355141467,0.06626845120559638,0.0023046383284963667,0.0004220499037114352,10659.365421053248
1678250165610366076,186,1678248697417196035,camera_1,188,0,0.12969496942877073,-0.32040277320606453,2.6422016269471467,0.7041382906679898,0.706323859327332,0.028247526479256622,0.06706676231866761,0.0021343178232200444,0.0003907222785945059,10663.086150466816
1678250165617207595,187,1678248697423845529,camera_1,189,0,0.12975708207199313,-0.32053367276496186,2.643008548393397,0.7041800615366365,0.7060559924793399,0.0321191018674841,0.06770332128854151,0.005173298413865268,0.0009477443851372473,10650.864322738837
1678250165623959090,188,1678248697430531263,camera_1,190,0,0.1296937141058664,-0.3203474168444232,2.6416525242085,0.7040869729500594,0.706092261631295,0.03140236004758266,0.06862320576792602,0.002834594459272921,0.0005188925190357685,10660.213794648182
1678250165630249148,189,1678248697437223434,camera_1,191,0,0.12959923590754388,-0.32026035351249393,2.6407744280470724,0.7037716535943824,0.7062400682696488,0.03410161676625705,0.06904712377382254,0.003437961859162897,0.0006289979089325006,10663.045794055797
1678250165636966212,190,1678248697444304704,camera_1,192,0,0.12957798538216733,-0.320272412181289,2.6410066169192636,0.7039284016040251,0.7061034038280337,0.031046819754999438,0.07027719047292465,0.0008754024165682494,0.00016024704446238982,10661.440222620498
1678250165644198210,191,1678248697450890541,camera_1,193,0,0.1296542443245647,-0.3204116566775526,2.642322683972083,0.7041423383347811,0.706207845797572,0.030211374768278846,0.06738930726005496,0.005206756410188973,0.0009532749188238178,10659.32611797424
1678250165650878608,192,1678248697457625150,camera_1,194,0,0.12971080662799578,-0.32048894059909055,2.643082699782411,0.7040892403755646,0.7063595300245677,0.029496512641602277,0.06666717087754673,0.003108976990915835,0.000569459005664309,10655.796532835577
1678250165657077593,193,1678248697464019060,camera_1,195,0,0.12962788920438806,-0.3203430757368111,2.6414724592681487,0.7040007238083718,0.7061822800587172,0.030637360740085693,0.06892692025066892,0.0027374642668291926,0.0005010843974395962,10661.700333821242
1678250165665227996,194,1678248697471522808,camera_1,196,0,0.12961691396503855,-0.3203390225936199,2.6414286557480158,0.7039822206747964,0.7061715983134979,0.03036159948467449,0.06934608846845342,0.0017465060809627175,0.00031972426925587033,10661.241603363887
1678250165671827169,195,1678248697478079319,camera_1,197,0,0.1295870943040758,-0.3203153752275845,2.6410920515749527,0.7038254172640809,0.7062474216215598,0.030700930239473484,0.0700129584317959,0.0013068962143734097,0.0002392294366236598,10661.805372075414
1678250165676652529,196,1678248697484071254,camera_1,198,0,0.12968557850182993,-0.32038354854229945,2.642082463583427,0.7040922141620641,0.7061282899042731,0.032242914699605836,0.06780403088978457,0.0021105451160110533,0.000386405005872873,10657.96532931714
1678250165683561514,197,1678248697490626096,camera_1,199,0,0.1296279566073372,-0.3202581936310705,2.641206989633993,0.7038237932979515,0.7062270534723598,0.033393711278765545,0.06899476051456133,0.002685700892470777,0.0004915175262350669,10660.597328634467
1678250165689809249,198,1678248697497395753,camera_1,200,0,0.1296627821309946,-0.3204363607168689,2.6422144121954485,0.7039064390481667,0.7062980644907663,0.03156009527390314,0.06828418227839508,0.0008897684165276587,0.00016294615125687955,10656.40193683782
1678250165697362654,199,1678248697503989934,camera_1,201,0,0.1296814181783112,-0.32039865001496404,2.6418044995921615,0.7040859337055396,0.7061364638688893,0.030984336246352794,0.06836858386797469,0.001635430147871375,0.0002994090524766803,10660.087323726619
1678250165703341223,200,1678248697510638236,camera_1,202,0,0.12973688547247245,-0.3205184603572651,2.6429640198319246,0.7041887983811239,0.7063252506408729,0.028476577411894428,0.06642184189377322,0.0032405975507572293,0.0005934786237585382,10658.337142341774
1678250165710489412,201,1678248697517376661,camera_1,203,0,0.12966447258215108,-0.320400816184863,2.6423268358299294,0.7041692405606798,0.706244834518074,0.030109162936074123,0.0667634081816003,0.0007037800969555974,0.00012884921055127772,10661.00647104741
1678250165718815814,202,1678248697524029493,camera_1,204,0,0.129700256061928,-0.3204892272232625,2.6429117131238207,0.7039424747857724,0.7063924266803521,0.030530146050928304,0.0673991239055421,0.005948664213065058,0.0010895848895243292,10654.216276114694
1678250165723552476,203,1678248697530639410,camera_1,205,0,0.12953989116216355,-0.32022353221624356,2.6408025428605186,0.7039764525842731,0.7060871662458628,0.03248805861609135,0.06930074975862456,0.0025303172296844423,0.0004629761272693537,10664.114110679015
1678250165730012456,204,1678248697537379026,camera_1,206,0,0.12959186243542928,-0.3202879965018533,2.641134580846951,0.7039557568926419,0.7060460454189197,0.03158551830058506,0.07033938526669001,0.0033566480269655585,0.000614479769851327,10659.649847683497
1678250165737579899,205,1678248697544003486,camera_1,207,0,0.1295960568974307,-0.3202643399730011,2.640651818913462,0.7039757352192302,0.7059858095816254,0.03144647991408821,0.07080480063480378,0.001820683479309082,0.0003332299501211595,10662.3926390761
1678250165743196693,206,1678248697550670385,camera_1,208,0,0.1296971154070316,-0.3203444291497249,2.641780497064236,0.7040515784547264,0.7061766678693172,0.030766655119279483,0.06840542058322306,0.005164598114788532,0.0009454686940176951,10660.46668410266
1678250165750373518,207,1678248697557369709,camera_1,209,0,0.1297813918547529,-0.3205693911544934,2.643329641990947,0.7042492857244664,0.7062562991657152,0.029901549430908322,0.06588536094579485,0.007777253689710051,0.0014244416562489044,10655.291189497799
1678250165757246466,208,1678248697564052820,camera_1,210,0,0.12967694234116972,-0.32037926825252333,2.641840006850054,0.7039622720363665,0.706192873476023,0.032348305452223135,0.06842756853377452,0.002404909930191934,0.0004402846276663572,10658.15954400809
1678250165764737084,209,1678248697570819377,camera_1,211,0,0.12968426523149698,-0.32042337987539715,2.642051047152769,0.7040339730077626,0.706214502270198,0.0318386587960586,0.06770185699247562,0.002888659597374499,0.0005288298321197758,10658.900120565784
1678250165770360513,210,1678248697577558517,camera_1,212,0,0.12961229931900997,-0.3202309918979973,2.6409809084286273,0.7039885285137156,0.7060031138186088,0.03359183092123169,0.06950786930183647,0.003957021457608789,0.0007241383194064474,10660.828364694491
1678250165777422799,211,1678248697583970308,camera_1,213,0,0.12966886435657984,-0.32040483442752987,2.6423222648969173,0.7042580874371954,0.7060811790592659,0.028502273373050186,0.06824613740094206,0.003081189177464694,0.0005642590764745652,10658.846783599234
1678250165783550896,212,1678248697590842008,camera_1,214,0,0.12962288260054194,-0.3203289399964706,2.6416521327517666,0.703914832079354,0.7061769766012447,0.03236335005541651,0.06906953358906069,0.0025107606197707355,0.00045966578184705893,10658.006020379951
1678250165790806082,213,1678248697597529649,camera_1,215,0,0.12968421328691088,-0.3205126592369268,2.6428295447864762,0.7042020051712669,0.7063510131868049,0.0293075126371957,0.06564184477726005,0.0020464039989747107,0.00037468075403994876,10660.556784012584
1678250165798629491,214,1678248697604179382,camera_1,216,0,0.1295924952319183,-0.32024211286898674,2.640704962029069,0.7038699601729415,0.7063303828444334,0.02966497151424353,0.0691697831573676,0.0015569759416393936,0.00028486019361357646,10668.27074144175
1678250165803583707,215,1678248697610849380,camera_1,217,0,0.1296607513015214,-0.32039787853236446,2.6419587725753044,0.7040089816590797,0.7062022944231742,0.031065227533753608,0.06844431848638748,0.0010101563530042768,0.00018496160136883652,10658.588461868469
1678250165810171077,216,1678248697617542505,camera_1,218,0,0.12960379427267804,-0.3202711370324009,2.6411089609909126,0.7038929481705357,0.7063023485936841,0.03122575134299243,0.06853219929276484,0.0009318217635154724,0.0001705131756869471,10665.056749264597
1678250165818882091,217,1678248697624138832,camera_1,219,0,0.12973188212087508,-0.3205121989755309,2.6428495629371374,0.7040616076725079,0.7062649729648496,0.031958754560432956,0.06682573285426809,0.004085458291228861,0.0007482089547149511,10654.5798764861
1678250165823215144,218,1678248697630836963,camera_1,220,0,0.12962540590173563,-0.32027509126640613,2.6407773613746826,0.7039900246778813,0.7060829694211067,0.032227030823599886,0.06932751208433437,0.0020208704518154263,0.00036976401826791227,10664.46936193202
1678250165830610011,219,1678248697637499094,camera_1,221,0,0.12967980693133133,-0.320393822323221,2.641931359439675,0.7039537086184631,0.7063076104571071,0.032308007361915504,0.06734187547867922,0.004130195011384785,0.0007559629032030933,10660.272695141375
1678250165837703376,220,1678248697644626140,camera_1,222,0,0.12966344091804996,-0.3204221384055703,2.642283229773116,0.7039570185010645,0.7063293240156274,0.03087682023065932,0.0677497166869515,0.0018922961899079382,0.00034649842241271146,10657.99992468534
1678250165845148039,221,1678248697651265621,camera_1,223,0,0.1296978173729677,-0.3204460891641922,2.6426856009088135,0.7042433705422251,0.7060667701301068,0.03208718453045539,0.0669432875968429,0.0026215516845695674,0.00048007757792878965,10655.50304237939
1678250165850844242,222,1678248697658120155,camera_1,224,0,0.1296471328989158,-0.3203734170943603,2.642047767152246,0.7040134750107959,0.7062908848531112,0.02891403357360264,0.06842654192005793,0.002664195140823722,0.0004878216625534995,10660.187222401612
1678250165857907156,223,1678248697664565563,camera_1,225,0,0.12963306804872943,-0.32037556507623444,2.6419282999160285,0.7040885833429463,0.7062347206578193,0.02855622643833467,0.06838368281320852,0.002226996759418398,0.00040773305706360153,10661.601314641772
1678250165863289076,224,1678248697670664548,camera_1,226,0,0.12961054691095844,-0.32036512087564784,2.6415173284624394,0.7040121204553079,0.7061521991796844,0.031876419977020176,0.0685558144519123,0.0013751868391409516,0.0002517191628526509,10660.948023961972
1678250165871270465,225,1678248697677925586,camera_1,227,0,0.1295502903336353,-0.3201344747196519,2.6398838358185617,0.7037997686635282,0.7060635620124661,0.034029354077651765,0.07058424107752738,0.003574763482902199,0.0006538414372304702,10666.233961425607
1678250165877253992,226,1678248697684599399,camera_1,228,0,0.12968072754722637,-0.32040153924530873,2.6421716994344435,0.7041259006247628,0.7061716917421557,0.03193627863625035,0.067144113355203,0.0035826897365041077,0.0006558445763490262,10659.284040079216
1678250165884384233,227,1678248697691241979,camera_1,229,0,0.12964679855383976,-0.32033771096127717,2.641510326766837,0.7039195160984709,0.7061746408966937,0.032077332775949825,0.06917901511369802,0.0009278458310291171,0.00016986423472833975,10659.153826730675
1678250165890783801,228,1678248697698071479,camera_1,230,0,0.1297129557265348,-0.3204967319926104,2.6426157496589093,0.7039916535825692,0.7062283337671966,0.030554631777649957,0.06858357490989513,0.003700618981383741,0.0006779192184233376,10653.455223843921
1678250165897974244,229,1678248697703991889,camera_1,231,0,0.1296723536633319,-0.3203690828931126,2.64157500006349,0.7039604760395911,0.7062194057702893,0.03186811452429373,0.06839753185779669,0.0010636980878189206,0.00019470787791318013,10660.891477988098
1678250165904047238,230,1678248697710711240,camera_1,232,0,0.12968753455449772,-0.32036735743068184,2.6416320303019636,0.7040852678041267,0.7059983364045228,0.03222306451782375,0.06922397538654874,0.00280771468533203,0.0005140448423044098,10657.864942674989
1678250165911305706,231,1678248697718017101,camera_1,233,0,0.12957872829991246,-0.3202483862710076,2.6408484195026727,0.7038631340124509,0.7061531223798452,0.03204149105070903,0.06998427811025473,0.0027735932962968946,0.0005075922050647472,10662.40409212734
1678250165916567151,232,1678248697723989486,camera_1,234,0,0.12964502058249827,-0.32040952664174044,2.6419901564196775,0.7039806451373432,0.706179560567416,0.0324700209914877,0.06831820581392349,0.0035049846046604216,0.0006417243547002648,10657.091691896556
1678250165924717344,233,1678248697731272220,camera_1,235,0,0.12949603117305195,-0.3201854651327604,2.640180319275023,0.7037402739636256,0.7062255666027757,0.03339468638401633,0.0698560720303037,0.002055237127933651,0.00037593365694533625,10666.569442882668
1678250165934389295,234,1678248697738015174,camera_1,236,0,0.12956033188365124,-0.3201958813123529,2.6404500432204543,0.703954886474925,0.7060400357707695,0.03094479763131255,0.07069232770565233,0.002447962877340615,0.0004479557804720334,10664.924467878762
1678250165938503817,235,1678248697744592189,camera_1,237,0,0.1296289544117371,-0.3203672250651945,2.6417151924323843,0.704117135625267,0.7060932047993332,0.029848297228793185,0.06899655504166778,0.001964684168342501,0.0003597078970175458,10660.394871763536
1678250165944206096,236,1678248697751391410,camera_1,238,0,0.12973742794325738,-0.3204604993511082,2.6427023372936396,0.7042473283504616,0.7061131202167489,0.029900634649949756,0.06742339368894722,0.0018908255733549595,0.0003463114428584734,10656.48482503858
1678250165951953728,237,1678248697758043766,camera_1,239,0,0.12977256745942628,-0.3205147554506086,2.6426363113553557,0.7042605869427472,0.706196746930407,0.032765508804349405,0.06503538834173185,0.000754469889216125,0.0001381056489109955,10659.821062658913
1678250165958764727,238,1678248697764655351,camera_1,240,0,0.1296440508511903,-0.32032612999527016,2.6410010270480075,0.7039258627626948,0.7060861146880592,0.03302622763386489,0.06957044391688959,0.00028776272665709257,5.266878411593705e-05,10661.079156729622
1678250165965009598,239,1678248697771297693,camera_1,241,0,0.129699925685065,-0.3204868294300395,2.642432494561009,0.7042222672210248,0.7061509029951262,0.031547822066541845,0.06653296530371429,0.005461336288135499,0.0009997904093957165,10659.11486560048
1678250165971474398,240,1678248697778013467,camera_1,242,0,0.12948103526819524,-0.32013968072380616,2.6400827032618617,0.7036534145180473,0.7064596610173444,0.02865055032639193,0.07046818827206312,0.00195691070985049,0.0003579806930093506,10670.894673692292
1678250165978464189,241,1678248697784605264,camera_1,243,0,0.12957677706556356,-0.3204097737896323,2.642394749367686,0.7039961442187629,0.7064316745190979,0.02906601158818857,0.06707372907192115,0.001457083853892982,0.0002667883351598041,10660.76585606578
1678250165985240407,242,1678248697791356086,camera_1,244,0,0.1295627573642036,-0.32025293241400976,2.6411852872359884,0.7039770175824113,0.7061227431101895,0.030862962646275548,0.06967429881247023,0.0043171539437025785,0.0007901826802134429,10661.854813348738
1678250165992303182,243,1678248697798820257,camera_1,245,0,0.12971027847186675,-0.32045374222688483,2.642637522264819,0.7041145434979971,0.7062322281049921,0.029562377520039214,0.06771126535391708,0.0016372007667087018,0.0002998671659418101,10656.622144544734
1678250165999751268,244,1678248697805437803,camera_1,246,0,0.12969329842221594,-0.32038764456342467,2.6417615903832097,0.7039885697036246,0.7063339886251274,0.03238055740059455,0.06666250626844411,0.0014538305113092065,0.0002660424133543668,10663.271076114841
1678250166003831777,245,1678248697810681581,camera_1,247,0,0.12976564033276963,-0.3204615965155104,2.64226576326877,0.7040600144652832,0.706131440541398,0.032396899087291646,0.06803179873855521,0.0023277680156752467,0.0004262671658786663,10655.660589826293
1678250166010258373,246,1678248697817378520,camera_1,248,0,0.1297322024418386,-0.3204449210316044,2.642232314822888,0.7043012086420143,0.706068475888144,0.03021064294161475,0.06718952236357727,0.0010376776917837562,0.00018998243002841573,10660.50614266808
1678250166018115166,247,1678248697824615478,camera_1,249,0,0.12976732915539363,-0.32059355732812206,2.6434164222069634,0.7042641186573256,0.7061762511852973,0.03147011335924984,0.06585427396043665,0.0023449015570804477,0.000429561306816947,10652.99443485343
1678250166024606924,248,1678248697831316232,camera_1,250,0,0.12953161587106635,-0.3202490485251008,2.6405056762671637,0.7038186794502865,0.7061641018448483,0.031778491822088084,0.07043901745500775,0.0019749917555600405,0.00036139817590853364,10664.213248019223
1678250166031296051,249,1678248697837932825,camera_1,251,0,0.12951289634055688,-0.3202769107431166,2.6410990026578633,0.7038191661313213,0.7062282614826826,0.031578585660633283,0.06987858754320508,0.0020935097709298134,0.00038319878636799845,10661.21165696159
1678250166037051828,250,1678248697844019889,camera_1,252,0,0.12953683038686936,-0.32024782736318774,2.6411364556058166,0.7038781368126544,0.7062557366619979,0.03123823406270526,0.06915616879070546,0.0018031569197773933,0.0003300058310150403,10663.227670089806
1678250166046449725,251,1678248697851145982,camera_1,253,0,0.1295738914033724,-0.3202452212779571,2.6412649506554406,0.7039330176228941,0.7061867967881836,0.02983178334628321,0.06991837701742823,0.0014268499216996133,0.0002612117203267551,10661.663191208147
