%time,field.header.seq,field.header.stamp,field.header.frame_id,field.image_seq,field.transforms0.fiducial_id,field.transforms0.transform.translation.x,field.transforms0.transform.translation.y,field.transforms0.transform.translation.z,field.transforms0.transform.rotation.x,field.transforms0.transform.rotation.y,field.transforms0.transform.rotation.z,field.transforms0.transform.rotation.w,field.transforms0.image_error,field.transforms0.object_error,field.transforms0.fiducial_area
1678273147530182996,15,1678263226633770704,camera_1,16,0,0.1446418545361985,-0.32380052448666397,2.6357411340442134,0.7041353450388707,0.7062594007191033,0.025218523030847362,0.06895723935183477,0.0047052266309037805,0.0008584035574726219,10702.725771640431
1678273147536320888,16,1678263226639568567,camera_1,17,0,0.1446029545513169,-0.32387532333388774,2.636094666445029,0.7042048054619535,0.7064695294746872,0.02922006914157939,0.06436290428086396,0.006254392385017127,0.0011400572551932434,10707.857798965186
1678273147542115583,17,1678263226646205663,camera_1,18,0,0.1445003930866266,-0.3236520634688602,2.634520564576343,0.7040492346051286,0.7064216948857338,0.027439153988991664,0.06730644155701963,0.004875841608736664,0.0008883098814649887,10714.999585774143
1678273147550273551,18,1678263226653369665,camera_1,19,0,0.1444442287356368,-0.3236208303377839,2.6342012450247467,0.7038583159218962,0.7061523803760216,0.03318228034805802,0.0695070001350479,0.0038951968890614808,0.0007098671539886218,10705.774368045506
1678273147557863784,19,1678263226660089254,camera_1,20,0,0.14466797757216254,-0.32405540401700916,2.637841420342247,0.7043347681877489,0.7064394614308088,0.023672891815555142,0.06553942209348533,0.0026745476061478257,0.0004883434325724927,10695.75904344965
1678273147562320118,20,1678263226666080951,camera_1,21,0,0.1445836625245522,-0.32389967703706685,2.636269581285754,0.704125235708127,0.706263795009859,0.03200042446333355,0.06614436583272289,0.013070686953142285,0.0023836954975248003,10699.065512131434
1678273147569769272,21,1678263226672846794,camera_1,22,0,0.14457407802186006,-0.323847607235619,2.6356870176153437,0.7040291954222734,0.7062622619841332,0.03164824978969688,0.06734164814860838,0.006089214060921222,0.0011103831194331877,10701.10532739514
1678273147576935781,22,1678263226679968357,camera_1,23,0,0.14469767412432738,-0.3239717971921888,2.6368191319352827,0.7041741022828625,0.7063301356069067,0.031026577533821216,0.06537526056690947,0.006811969506088644,0.0012426332767060625,10697.57886394067
1678273147583550616,23,1678263226686753273,camera_1,24,0,0.14467850313823205,-0.3238815730131418,2.6361836196323334,0.7041590536364648,0.706229366075845,0.033407725100009486,0.06545252919139731,0.01340355008142069,0.0024439266863512873,10699.845153285656
1678273147588700470,24,1678263226692544698,camera_1,25,0,0.14470574139800568,-0.3239206618768018,2.636531904531734,0.7041289797686058,0.7065376018462719,0.02715532309673284,0.0653420649723709,0.00674821378197521,0.0012308292474469344,10703.867335846184
1678273147596409642,25,1678263226700007438,camera_1,26,0,0.14444408562990937,-0.3235935220591683,2.633680150432489,0.7038136752595151,0.7061786657414117,0.03219193898979297,0.07015469787156761,0.010690144263207912,0.0019477875119643113,10709.378982952096
1678273147603798802,26,1678263226706630468,camera_1,27,0,0.14459205557548854,-0.3239755189544786,2.637089965406404,0.7042217567078157,0.7064217259936795,0.030188904502397893,0.06425490229090668,0.0047340234741568565,0.0008636798037399576,10699.10673036101
1678273147608261632,27,1678263226712646245,camera_1,28,0,0.14454681989017182,-0.3239782127991304,2.6369714976474903,0.704189436614188,0.7063891065287469,0.028673496431104492,0.06564676793968352,0.0023763641947880387,0.0004335955079442838,10698.162635882622
1678273147616997324,28,1678263226720234870,camera_1,29,0,0.14446718099150124,-0.32380505673903615,2.635863540514305,0.7042402566723253,0.7060501637059722,0.02872050561147207,0.06865828260515153,0.0052285477868281305,0.0009538814146985147,10699.414543988416
1678273147623431691,29,1678263226726736068,camera_1,30,0,0.14456308552026392,-0.3239123189698694,2.636621941309142,0.703706903753771,0.7064135260826385,0.033481316979723355,0.06823140911689964,0.010748481610789895,0.0019616838954986254,10689.18742127949
1678273147629841264,30,1678263226733428478,camera_1,31,0,0.14461699747398413,-0.32388109791570985,2.6360466479228886,0.7040786934422237,0.7063206609402339,0.028643516203252416,0.06755639384363327,0.006102140177972615,0.0011130690453626246,10700.778376565082
1678273147635005436,31,1678263226739339113,camera_1,32,0,0.14473161830564557,-0.323949311551293,2.636414678537085,0.7041401095791889,0.7061338279933417,0.034645273402964714,0.06604110898608068,0.01514908263925463,0.002762935701479513,10694.950998614888
1678273147643339892,32,1678263226746768951,camera_1,33,0,0.1445938394877648,-0.3237683625139022,2.634966238627308,0.7040498751210843,0.7063087826814047,0.03395068785959517,0.06549066836548785,0.0028348580235615373,0.0005164675275547854,10708.93952955748
1678273147649314566,33,1678263226753373146,camera_1,34,0,0.14455676953773716,-0.32365323045726757,2.634269474738275,0.7041165472278621,0.7060096488784251,0.031028783668066055,0.0693359805191872,0.0024650933919474483,0.00044926713270175946,10708.053707041314
1678273147655510985,34,1678263226759334802,camera_1,35,0,0.14445676046885444,-0.3236867431903419,2.6344564936956023,0.7040749219304648,0.7060630399170444,0.03354638097914055,0.06803034833744778,0.005538579949643463,0.0010091529441907667,10707.132106891135
1678273147663083618,35,1678263226766412019,camera_1,36,0,0.1444753464346668,-0.32372447168999563,2.6353015380368605,0.7041843205809292,0.7062625960546238,0.02768319206345934,0.06746279670556317,0.012452610535547137,0.002270259268079905,10708.08312375133
1678273147671702466,36,1678263226773328304,camera_1,37,0,0.14441355626566293,-0.32368240890355027,2.634809506313188,0.7038661249368378,0.7064515184112024,0.030842201450826227,0.06743507181410323,0.006368681963067502,0.0011606244728693572,10708.955292044902
1678273147674750251,37,1678263226779088020,camera_1,38,0,0.14452607984670887,-0.32375196588765737,2.63539851807824,0.703789289509343,0.706427835192472,0.028664467417417416,0.06941684193974575,0.0046362398425117135,0.0008457205860250704,10701.203976358054
1678273147682820150,38,1678263226786480188,camera_1,39,0,0.14468055125008564,-0.3240306647128479,2.6373778892747066,0.7040526116228236,0.7065777939046501,0.026419723509272987,0.06602832299561268,0.0063954677316360176,0.001167480036069272,10695.986008659818
1678273147689554623,39,1678263226793348073,camera_1,40,0,0.14465074485496135,-0.32392666594052266,2.6363601084713757,0.7040175325281528,0.7060890352488092,0.03340162480056908,0.06842455447468547,0.0066786486422643065,0.0012188009625592412,10690.818614526652
1678273147696495755,40,1678263226800068855,camera_1,41,0,0.14470425368183662,-0.32385773049723365,2.636013585490193,0.7041715805289551,0.706275288162027,0.026861094333203876,0.06779442542143015,0.013901104335673153,0.0025356015866020197,10702.09328912909
1678273147703455534,41,1678263226806034803,camera_1,42,0,0.14462090571699665,-0.32390310472542355,2.6362897372446716,0.70413810209186,0.706127475049616,0.03096484654054707,0.06793158647674641,0.009955316316336393,0.0018164748129001688,10695.46011508338
1678273147709873768,42,1678263226813339948,camera_1,43,0,0.14467612623699078,-0.3239476721010333,2.6369529421396694,0.7043054303235681,0.706291796138455,0.027379340898574207,0.0660009940546989,0.006635293655563146,0.0012108183863955943,10698.641925506294
1678273147715135158,43,1678263226819339990,camera_1,44,0,0.1444757123249765,-0.32373864059138735,2.635069313960732,0.7041420808131602,0.7062706153059445,0.029789127673477796,0.06692051894545423,0.01068449841113761,0.001947193195071932,10709.237959910182
1678273147722462928,44,1678263226826053142,camera_1,45,0,0.14455721358913848,-0.3238933001683395,2.63648835172754,0.7042388300687827,0.7061128374633676,0.027256296714555105,0.06862525251095533,0.006922100263182074,0.001263457131733978,10695.806945861434
1678273147731193243,45,1678263226833467960,camera_1,46,0,0.14438165388007548,-0.32350983737803674,2.633217236742713,0.7040706709335709,0.7058769809459984,0.030392498118805795,0.07140360046813087,0.004421539139002562,0.0008056413225009832,10711.742253687233
1678273147735669342,46,1678263226839325904,camera_1,47,0,0.14457635695577142,-0.3238092475747908,2.6356999172866615,0.7042355597515652,0.7061936802462154,0.03047493047359514,0.06643824933225873,0.003978813183493912,0.0007253961566405241,10704.610990617424
1678273147742576601,47,1678263226846330881,camera_1,48,0,0.14460109194922569,-0.32384096296825476,2.6356982008992573,0.7040221703756089,0.7064132037402963,0.028985628444900408,0.0670298630808844,0.009187261224724352,0.0016751181730812305,10704.615904223529
1678273147750888499,48,1678263226853327274,camera_1,49,0,0.14469595303603142,-0.32400910214662965,2.6371326728175424,0.70445356817426,0.7062502473369167,0.02753954900689882,0.06478681705095804,0.003603276389185339,0.00065745128569009,10700.017292506061
1678273147755265006,49,1678263226859419822,camera_1,50,0,0.14465775063029682,-0.3239263473013534,2.636263470696433,0.7039677742943165,0.705973800074354,0.03212240232556015,0.07070019542064464,0.009709305362775922,0.0017727637897130405,10687.000314117526
1678273147762330105,50,1678263226866054773,camera_1,51,0,0.14465592223633578,-0.3239415983358756,2.6364836116943766,0.7042218718966434,0.7061961795730418,0.029260555386636786,0.06709941130362472,0.005232237919699401,0.0009546460632134372,10697.789878787935
1678273147771125651,51,1678263226873333692,camera_1,52,0,0.14459931550964544,-0.3238326847008425,2.6359530154083037,0.7041244643588592,0.7063287370886793,0.028421149740690505,0.06708719774650125,0.007183485373388976,0.0013101341027787281,10703.000967860451
1678273147775654620,52,1678263226879349470,camera_1,53,0,0.1445529318578362,-0.32379248230117647,2.6356818795410653,0.7042535925478728,0.7062331772368468,0.026991568200256437,0.06732779514772778,0.005793530843220651,0.001056537115008001,10705.944768983172
1678273147782254928,53,1678263226886061429,camera_1,54,0,0.14457577206719685,-0.3238581444793981,2.6361315080826286,0.7041785098208814,0.7064146604486472,0.028631831449276668,0.06550703807626856,0.0057116427342407405,0.0010414527465032624,10705.349097588336
1678273147792452319,54,1678263226892854928,camera_1,55,0,0.1445647317076392,-0.323815650757211,2.63606931687038,0.7041248385510627,0.7061978943238696,0.029448905391068918,0.06801108556140328,0.007800802937708794,0.0014231253187455856,10698.69367998198
1678273147795383469,55,1678263226899547815,camera_1,56,0,0.14458970275404923,-0.3238310533750484,2.635939476269178,0.7043059619955628,0.7062202242365598,0.02794170324529826,0.0665234394519668,0.010190383007284254,0.0018582282394383467,10705.010287259242
1678273147803509172,56,1678263226906624555,camera_1,57,0,0.14448648868193126,-0.32369345555798723,2.6347797832985447,0.704006040891419,0.706263612949916,0.03145805569712431,0.06765792003215648,0.005214064905885607,0.0009502266038110208,10707.90703666513
1678273147808557896,57,1678263226912621974,camera_1,58,0,0.14459304496421915,-0.32394012322910426,2.6366731860610875,0.704276559618892,0.7063384963944503,0.03039509740356634,0.06447165374357969,0.0012101621832698584,0.0002207188436188892,10701.710614713378
1678273147818522228,58,1678263226919166803,camera_1,59,0,0.14459749604655944,-0.3238265747035266,2.6356815731846446,0.7040953925008472,0.7061370122741741,0.028879042716241473,0.06918236081093437,0.011852452473249286,0.0021621366972627665,10699.257990129756
1678273147822692704,59,1678263226926641941,camera_1,60,0,0.14460676223179705,-0.32395074854524164,2.6365445117584896,0.7041066079461045,0.7062853873563926,0.03127608340431932,0.0664578276830319,0.0027833752683363855,0.0005077785426163969,10696.8252550381
1678273147828973351,60,1678263226932678222,camera_1,61,0,0.1445992904976009,-0.323786195672148,2.635391729859711,0.7040359757863152,0.7062871571356996,0.03209849669641038,0.0667943333944822,0.006275192310567945,0.0011439332185750038,10704.406830633987
1678273147836664504,61,1678263226939816713,camera_1,62,0,0.14467855789525502,-0.3239027294925028,2.636500975816461,0.7044585592838021,0.7062881798494804,0.026395411293680875,0.0647952738965974,0.006208276725374162,0.0011320495323259433,10706.165070273215
1678273147843482995,62,1678263226946726560,camera_1,63,0,0.14454804058008147,-0.32368910323656824,2.634920292894926,0.704068035262383,0.706118687324917,0.031356547520726044,0.06856652288022498,0.008346338756382465,0.001521536246053974,10704.511050864126
1678273147848368711,63,1678263226952543020,camera_1,64,0,0.14452438589041117,-0.3236536034321927,2.6344573185715827,0.704204960185813,0.7059599504400251,0.029336293710761248,0.06968001360311832,0.00671184790553525,0.0012235166272171322,10707.425604997556
1678273147856417309,64,1678263226959958314,camera_1,65,0,0.1445121343394652,-0.323786123355627,2.6355898399762903,0.7040763982556315,0.7061860822885465,0.02889200915173529,0.06886867508895357,0.008631551812868565,0.001574542576630894,10700.881018253625
1678273147863323102,65,1678263226966375350,camera_1,66,0,0.14451508289995377,-0.32382646555356553,2.635784977952856,0.7041781978498399,0.706194203558787,0.02828147137787122,0.06799243273795054,0.004928015463519841,0.0008988707900004537,10702.175837460323
1678273147868689951,66,1678263226972707271,camera_1,67,0,0.14441874945717664,-0.323572408054152,2.633840028587592,0.7039722330013114,0.7061867151758228,0.02855973251312924,0.07005540772208409,0.006712642672937363,0.0012232774256173008,10712.239195381637
1678273147875714263,67,1678263226979348421,camera_1,68,0,0.14458711612872435,-0.3238406635505368,2.636166321258392,0.7042331948616685,0.7062427572451379,0.027958612023813664,0.06704544061615605,0.005529930582270026,0.0010087195399347158,10701.846412805726
1678273147883823064,68,1678263226986645221,camera_1,69,0,0.14464508186220343,-0.3239005102643101,2.636490840758763,0.704414349647996,0.7061823116278537,0.025793177187887314,0.06664592083905782,0.00699038413586095,0.0012752716331495936,10702.159095049372
1678273147890167685,69,1678263226993354082,camera_1,70,0,0.14455684002525504,-0.3238452328252045,2.635408354355198,0.7039434476465855,0.7062633431822057,0.028857260399023792,0.06944761417641092,0.001779964251909405,0.0003247035253455021,10700.756637685234
1678273147897194512,70,1678263227000041484,camera_1,71,0,0.14468054627398405,-0.3238894612256397,2.6360079082469423,0.704010347087586,0.7064169082125028,0.0325109710535513,0.06547991864885185,0.004381691280286759,0.0007988378095665299,10702.208971306798
1678273147902298131,71,1678263227006195306,camera_1,72,0,0.14458872950834847,-0.3237914439513696,2.635359445602597,0.7040928012264046,0.7061017331691458,0.027401513176727163,0.07016285878090153,0.005367049830965698,0.0009791703624816885,10700.661477245158
1678273147908957455,72,1678263227012661695,camera_1,73,0,0.14463238053319702,-0.32391466483984005,2.6366654585365445,0.7043603361572538,0.7061009982683235,0.024479005296130573,0.06854688463110035,0.006990141584537923,0.0012760683582780101,10696.945377425287
1678273147916161887,73,1678263227019958972,camera_1,74,0,0.1444721744573826,-0.3237605127188957,2.635289730048795,0.7043387728556977,0.7060496371925314,0.031344552209193105,0.06647045899668497,0.0028007985092699528,0.000510489599929184,10706.944019254297
1678273147923221678,74,1678263227026434659,camera_1,75,0,0.14453101828847023,-0.32383368978023186,2.636008413202888,0.704192087814845,0.7062522918752178,0.028443970322890467,0.06717249609953788,0.0072251540259458125,0.0013177535873383273,10702.338420774675
1678273147928847707,75,1678263227032689332,camera_1,76,0,0.14453625857743924,-0.3238493084909574,2.6362763625902135,0.7042237328058927,0.7063409153458208,0.029877598427804603,0.06525928725897759,0.005717247026041151,0.0010425778749462136,10703.577267444227
1678273147935713062,76,1678263227039302587,camera_1,77,0,0.14463757618050646,-0.32388841688593445,2.6360826767328933,0.7041484942527951,0.7062821018880543,0.029075131596381146,0.06704571065151685,0.013493883656337857,0.002461093705587267,10701.365959729188
1678273147942236615,77,1678263227046098947,camera_1,78,0,0.14466036484196357,-0.3237787327141799,2.6352880443335565,0.7041405572429978,0.7060705762011332,0.02858916382452596,0.06952033357467821,0.012190191249828786,0.002223332102197464,10701.803295880787
1678273147950547954,78,1678263227053447484,camera_1,79,0,0.1445935173725744,-0.3237316290991797,2.634533451460876,0.7040131401912525,0.7059633907358353,0.03023416163565374,0.0711834590969235,0.002722347271628678,0.0004965054412334729,10701.72592823813
1678273147955520762,79,1678263227059389591,camera_1,80,0,0.14451635097887502,-0.3236894824379877,2.6344189812240044,0.70404065761238,0.70602703190895,0.034798396315845505,0.06812968704178458,0.00418331369291991,0.0007623266208642855,10705.632259742353
1678273147962035795,80,1678263227066062927,camera_1,81,0,0.14458188096804953,-0.3237550883135608,2.6355709684183544,0.704378904800337,0.706050159400122,0.030316208048062423,0.06651660253596041,0.004136154486332089,0.0007541317792157724,10705.660626803525
1678273147969847982,81,1678263227073376417,camera_1,82,0,0.14450380341485183,-0.32382196684818476,2.636202407957037,0.7041179485888641,0.706389184182587,0.026217409421064135,0.06741574288040994,0.0039898521499708295,0.0007278848457172432,10702.24743686337
1678273147975178234,82,1678263227079346179,camera_1,83,0,0.14444209057290983,-0.32377799375793903,2.6354275699578475,0.7038874553316087,0.7063221248138603,0.03009524818383387,0.06888963827731927,0.0018590469262562692,0.0003390822951700808,10700.923193772906
1678273147982872250,83,1678263227086662054,camera_1,84,0,0.14457667311923472,-0.32390582482308505,2.6364179336016322,0.704128865126932,0.7062603571931655,0.028473682720956003,0.06773550431455742,0.004170660569798201,0.0007610450788989379,10697.515792712453
1678273147989938886,84,1678263227093353986,camera_1,85,0,0.14447971190994144,-0.3236928947005609,2.6345345146602512,0.7039932159344522,0.7061786117556085,0.028372168438324734,0.07000243049564014,0.012589565361849964,0.0022950737471737516,10706.880755766295
1678273147996614413,85,1678263227099946737,camera_1,86,0,0.14461626548534648,-0.32383967574673767,2.63586604125873,0.7041725269568305,0.7062149390780235,0.03174073272615947,0.06628754021882169,0.004442964564077556,0.0008101098415220567,10702.253081944305
1678273148002970419,86,1678263227106759071,camera_1,87,0,0.1445887218911711,-0.32371802686964574,2.634551462973476,0.7039446030662406,0.7060524841003395,0.030698924709548034,0.07077754962790253,0.012399527477100492,0.0022609538930107526,10702.211541058026
1678273148009744142,87,1678263227113315582,camera_1,88,0,0.14458863141588824,-0.3237954884424048,2.6354650063836704,0.7041963601371344,0.7062359718006311,0.029412885480796343,0.0668813925701538,0.0034871813259087503,0.0006357594929053536,10706.472672551055
1678273148016444951,88,1678263227119292736,camera_1,89,0,0.14466001958142902,-0.3240069502483322,2.637171026263964,0.7040492286757546,0.706201720608881,0.03169043343370224,0.0677460688078311,0.002515188534744084,0.00045924158645333125,10688.016812063172
1678273148022722805,89,1678263227126680612,camera_1,90,0,0.1444402545934489,-0.3236083136863085,2.6341395991813847,0.7040008409424594,0.7060522988882983,0.03276725482960831,0.06927679407846736,0.006323279289063066,0.0011522599190445881,10707.382256497629
1678273148030094296,90,1678263227133369922,camera_1,91,0,0.14455014452767492,-0.3239193922438159,2.636552860931612,0.7041153998692935,0.7063665783674371,0.029765649832099565,0.06619491462685681,0.001943508512340486,0.000354562058920422,10699.07895970111
1678273148035957225,91,1678263227139984369,camera_1,92,0,0.1444846976907822,-0.32367309372161523,2.6346604621626666,0.7042077100194994,0.7060688356861131,0.027239682449453975,0.06939956860097993,0.00760032597463578,0.0013856286047280741,10708.579040271929
1678273148042311205,92,1678263227146216869,camera_1,93,0,0.14452065514747248,-0.3237173716503186,2.6348571283923143,0.7041582144136479,0.706196753666871,0.027197384737253517,0.06861236366435434,0.006034199788700789,0.0011000457955060293,10709.077582805536
1678273148049010617,93,1678263227152584075,camera_1,94,0,0.14466506078417954,-0.323921274390074,2.6365205322145875,0.7045585856068443,0.7060922802027431,0.028165726664878408,0.0650967213246057,0.011356751492712647,0.0020710744505109007,10703.626667131088
1678273148056858493,94,1678263227159896135,camera_1,95,0,0.14469139165467612,-0.3239698597259355,2.6369614395930343,0.7043625369892674,0.7062542751692891,0.028120526536433106,0.06547939583150303,0.005768189264927059,0.0010525231178596143,10699.157911127084
1678273148063039058,95,1678263227166604280,camera_1,96,0,0.14448677716042205,-0.3236298300123387,2.6342982740518237,0.7039855767940145,0.7060508014677165,0.029190108997558493,0.07102472069290144,0.004580907872878015,0.0008352786175622467,10705.243765071038
1678273148069188404,96,1678263227172800779,camera_1,97,0,0.1446011766669131,-0.3238482564545748,2.6363178812246066,0.7042485840456952,0.7062687311655034,0.029080955438196585,0.06612646428098765,0.01010947156464681,0.0018438433839677486,10701.865469658747
1678273148075945854,97,1678263227179689407,camera_1,98,0,0.14453916388037036,-0.3238534217053103,2.635714061178538,0.7039780583886375,0.7062838950950368,0.031872987314797235,0.0675430641618988,0.007369961298536509,0.0013440215236567288,10700.12846362823
1678273148084027627,98,1678263227186570405,camera_1,99,0,0.14464631923994267,-0.32393428682252534,2.636944339727782,0.7042821849806469,0.7062880945970658,0.027265623636868318,0.06633488612355434,0.008646589994896203,0.0015779777819093551,10697.998208531291
1678273148088513993,99,1678263227192676544,camera_1,100,0,0.1445715276091647,-0.32391542286508296,2.636493037673329,0.7039226313222406,0.7064974223610473,0.02985391042571164,0.06680617742291764,0.001618808077182621,0.0002953752393416753,10697.916455494005
1678273148096319684,100,1678263227199903964,camera_1,101,0,0.1446021522593986,-0.3238520827673217,2.6357024163454037,0.7041429810748174,0.7060492775708108,0.03281270551305761,0.06782629432394703,0.008013293263502419,0.0014613409224417213,10698.38928981463
1678273148102464281,101,1678263227206569433,camera_1,102,0,0.14456990545921047,-0.32374929121230395,2.635142652485892,0.7037768044807917,0.7061921917214471,0.034388880960609894,0.06934120486941052,0.009475439379457384,0.0017280185751653865,10697.103718440863
1678273148110261313,102,1678263227213276624,camera_1,103,0,0.14461627093554208,-0.32381499458858953,2.6357709670799623,0.7043540748182247,0.7060090481631112,0.030831298565529373,0.0669775501757395,0.01155650441069156,0.002107178287084129,10702.273291408896
1678273148117390107,103,1678263227219995021,camera_1,104,0,0.14461848784144435,-0.32389000384740874,2.636309759382421,0.7042494597103685,0.7062931261660499,0.028110045349362105,0.06627626859366274,0.0029351188568398356,0.0005353726916129601,10702.458555398744
1678273148122601560,104,1678263227226554632,camera_1,105,0,0.1446030163977816,-0.3238954950012134,2.63652087814632,0.7042538357968898,0.7061147454857396,0.03094656233940495,0.06686412530161542,0.005257466982584447,0.0009592391797534223,10696.394374126452
1678273148128393182,105,1678263227232563257,camera_1,106,0,0.14457836259500198,-0.32394001048403914,2.6366715664216755,0.7041249774298357,0.7063798117060395,0.028843924819483644,0.06635966978957607,0.0034680523094721143,0.0006327594241572736,10698.61981562758
1678273148135930265,106,1678263227239546060,camera_1,107,0,0.14454929815745504,-0.32384353532047055,2.6358269202104556,0.7041128688061457,0.706320563015548,0.03362325891417194,0.06485219119636097,0.0050816338625736535,0.0009262060944456516,10703.992515287482
1678273148142670814,107,1678263227246775865,camera_1,108,0,0.1446088242823498,-0.3239228961983094,2.636440904434777,0.7043251642214704,0.7062998625516821,0.027700603274487295,0.06556861888207982,0.0021881457651033998,0.0003990989251075955,10703.551465115506
1678273148149418627,108,1678263227253324031,camera_1,109,0,0.1447434796540565,-0.32415800724693034,2.638207253783614,0.7041815858981865,0.7064423160613552,0.024948663982643962,0.06667167558464807,0.007839859870728105,0.0014321413756139948,10688.870956258845
1678273148156036465,109,1678263227259934663,camera_1,110,0,0.14459558748609994,-0.32379212839527943,2.635685242227356,0.7042206060485795,0.706379678821568,0.02712745291345107,0.06606957441166476,0.002883141511119902,0.0005256747573073648,10708.982090483883
1678273148163134879,110,1678263227266594648,camera_1,111,0,0.14466638831325515,-0.32386243678807564,2.6361473587045117,0.7040505337768403,0.7063989954389527,0.02831682794742649,0.06716742057263304,0.005919586110394448,0.0010797622887372506,10701.292890292476
1678273148168465760,111,1678263227272607803,camera_1,112,0,0.14459291792951634,-0.3238834018628116,2.6362429235229685,0.7041225047090246,0.7063647391472863,0.031025717549816423,0.065557291754577,0.009409877588041127,0.001715936172890612,10701.839562978828
1678273148176945136,112,1678263227279978990,camera_1,113,0,0.1444639601647591,-0.3236705579068813,2.634719174603011,0.7038087937094559,0.7064086804841834,0.029743605745753743,0.0689585089098993,0.003318671020679176,0.0006050034494507627,10706.849561118986
1678273148183215726,113,1678263227286609411,camera_1,114,0,0.14458966628890213,-0.3239531736349538,2.637071601620766,0.7041048416320635,0.7065062744670003,0.024422233963393845,0.06699858668124103,0.005173386656679213,0.0009443444608809971,10697.746641644859
1678273148188799571,114,1678263227292625665,camera_1,115,0,0.1446067676810088,-0.32394016047513113,2.637077890106251,0.7041158705582032,0.7064491029759966,0.029076228900907133,0.06561309812358652,0.0023895183694548905,0.0004360216976312497,10697.009955598625
1678273148196116726,115,1678263227299973726,camera_1,116,0,0.14472907614926783,-0.3241064913962709,2.6383641902690926,0.7043266358224327,0.7063932581827694,0.02956397642054216,0.06370656295226773,0.00620648602489382,0.0011330509846738323,10690.758562258441
1678273148206605493,116,1678263227306670188,camera_1,117,0,0.14468393290493065,-0.3239150670042808,2.63626615568703,0.7038460283283194,0.7064088709992125,0.029913814240013346,0.06850138026114973,0.00882815889781341,0.0016109831861807241,10695.240669012765
1678273148209504237,117,1678263227313418149,camera_1,118,0,0.14453459297686425,-0.3237705774661291,2.6347763661070123,0.7040100749239688,0.7061023115978794,0.03667145818822266,0.06666741419935568,0.0059938892954960465,0.0010921394046700702,10704.057750773154
1678273148217107740,118,1678263227320073843,camera_1,119,0,0.14460590172047108,-0.3238431097577001,2.6359959712554923,0.7041327181956046,0.7062271493213212,0.02862421147497135,0.06797781436163945,0.00943556852871552,0.0017213170102507785,10700.152514255838
1678273148222665673,119,1678263227326693296,camera_1,120,0,0.1446598952314285,-0.32400157117041234,2.6374696934651634,0.7042043120735552,0.7062862579249982,0.02689396505365503,0.06732550309508743,0.004613703291397542,0.0008424453966952983,10691.557597541836
1678273148228799306,120,1678263227332546472,camera_1,121,0,0.1444696405783303,-0.32366198569124316,2.6348520748887045,0.7039481722841453,0.7062110709186191,0.03237838632118176,0.06837056493129691,0.003618425806052983,0.0006596104380635537,10704.476233701222
1678273148237139140,121,1678263227340006113,camera_1,122,0,0.1445618480970504,-0.32385898534200835,2.6363513862694923,0.7043198283651521,0.7062652583146591,0.030611497782535076,0.0646985353228349,0.002725761500187218,0.0004970118680334325,10703.570645755975
1678273148242623252,122,1678263227346355676,camera_1,123,0,0.1445165242481246,-0.3237080522055489,2.634842063785667,0.7041596961439726,0.706034614601063,0.030567379738939457,0.06884679082900128,0.008393159077968448,0.0015300750708111572,10705.244259292733
1678273148248268208,123,1678263227352664470,camera_1,124,0,0.1445486408968281,-0.3237521535776396,2.6349634932133665,0.7041558757960316,0.7061598876381986,0.029451729589825858,0.0680831204991258,0.004950624308548868,0.0009024143211021716,10707.385316632572
1678273148256393072,124,1678263227359974622,camera_1,125,0,0.1446489438908401,-0.323873337567831,2.635969599817736,0.7039553011031947,0.7062633080169144,0.030601757038399742,0.06857555150254374,0.012096401187591255,0.0022067387621688785,10696.731223932002
1678273148263138929,125,1678263227366699695,camera_1,126,0,0.14465720196405354,-0.32400171581714277,2.6369793676307833,0.7041355326435756,0.7064795870535899,0.02789780774737638,0.06558549434309124,0.004319317522458732,0.000788122202103688,10698.946517646897
1678273148270193622,126,1678263227373380661,camera_1,127,0,0.1446145828822904,-0.323876590186084,2.636379680728344,0.7041853096171272,0.7061648378603346,0.03177329992272667,0.06666880005773794,0.006746875878889114,0.0012307758570121573,10697.123601044294
1678273148276485094,127,1678263227380041122,camera_1,128,0,0.1445765319779269,-0.3238924049260454,2.6364903137154974,0.7042336683286645,0.7062478775937122,0.030348734581005742,0.06593807774011172,0.0022975302999839187,0.0004190832988973418,10699.626272280937
1678273148283285357,128,1678263227386677503,camera_1,129,0,0.14462990391814756,-0.3240598521821527,2.637528146493144,0.704111350032358,0.7065206957894428,0.0283329215960652,0.06521471253209009,0.0022475774167105556,0.0004102425794560546,10695.02766936726
1678273148288290431,129,1678263227392709970,camera_1,130,0,0.14446996743890517,-0.32364884593942944,2.6347223517732896,0.7041430246968521,0.7060538691473984,0.031379658348544226,0.06845328096362739,0.00613716064253822,0.0011186614551113997,10706.427180995466
1678273148296994834,130,1678263227399969339,camera_1,131,0,0.14463511962919928,-0.3239389119430375,2.636488301855757,0.7040208817539545,0.7062255570700252,0.030056310848555017,0.06853231919096421,0.012411678850185126,0.0022652286911196205,10693.236118995115
1678273148302763827,131,1678263227406683683,camera_1,132,0,0.1445968414847626,-0.32381324951637375,2.6355249672656726,0.7042287655453638,0.7061090877003725,0.02840885102008535,0.06829889625110439,0.004090087837539613,0.0007459477401398727,10703.308409592948
1678273148309117947,132,1678263227412678003,camera_1,133,0,0.14460633270644666,-0.32383542336755755,2.63556572854784,0.7041933286440615,0.7061325465662514,0.028981182709283487,0.06818118231469057,0.004974941664841026,0.0009072992299437931,10702.703717984956
1678273148316368264,133,1678263227420022487,camera_1,134,0,0.14457336814592625,-0.32379866171019717,2.6356602176728905,0.7041080301088086,0.7061837151196764,0.02893386630571193,0.06855124956314296,0.00945549353491515,0.0017247291308590213,10701.077322264318
1678273148323446004,134,1678263227426676750,camera_1,135,0,0.14464830639319964,-0.3240015401392802,2.637531255560558,0.7044542586577094,0.706336678295244,0.027633037359464423,0.06378957281679125,0.0037302899290807545,0.0006806084547884087,10699.20000816905
1678273148328685185,135,1678263227432693004,camera_1,136,0,0.14447568314861856,-0.32374822205937837,2.6352180807738104,0.7039237792163021,0.7063259572532465,0.035136727753394964,0.06603306389156306,0.0050814595888368785,0.0009260182028849066,10704.160928103027
1678273148336533479,136,1678263227439983606,camera_1,137,0,0.14451692368327645,-0.32378577487833715,2.635445378007679,0.7040224021379943,0.7060730642745177,0.035507057911930616,0.06747246869857351,0.005890482221730053,0.0010740308596007707,10698.165246412627
1678273148343775346,137,1678263227446679115,camera_1,138,0,0.14468899308867592,-0.3240731854271197,2.637623331460164,0.7044097860987423,0.7063490682735784,0.024802524283988134,0.06528921646423697,0.003509286034386605,0.0006405411911731138,10697.197170190277
1678273148348974717,138,1678263227452627897,camera_1,139,0,0.1446725241677039,-0.3239698142325416,2.637035828996849,0.7043229226233619,0.7064037902529751,0.030059956468454916,0.06339798735473534,0.00693914748262614,0.0012655233909970626,10701.719584390288
1678273148356537362,139,1678263227459906101,camera_1,140,0,0.1445491100407441,-0.32363736893035716,2.634367772183408,0.7040782216237764,0.7059071326851879,0.03192118493346581,0.07035634876626383,0.005351353145670146,0.0009756240041982573,10703.56742749689
1678273148363427999,140,1678263227466638088,camera_1,141,0,0.14462723845951117,-0.32387037847767375,2.6358768229771012,0.7041181815050425,0.706016682923319,0.032922457199849674,0.06836769500217103,0.010982584382873029,0.002003398023273647,10695.440548378043
1678273148368980206,141,1678263227473094224,camera_1,142,0,0.14458306910132324,-0.3238535722816228,2.635960537655182,0.7040933996631379,0.7064107112574021,0.02529231377661244,0.06779889700755976,0.004955189302563667,0.0009039120485374749,10703.924594293
1678273148376015274,142,1678263227479497194,camera_1,143,0,0.14454166208571878,-0.32385224080238817,2.636152062715605,0.7043701464391569,0.7062779929753417,0.02809297811587059,0.06515272845081134,0.002055780147202313,0.00037482746511927236,10706.599831138741
1678273148382965415,143,1678263227486616373,camera_1,144,0,0.1444723222951275,-0.32372501425583017,2.635062203504889,0.7039449653391234,0.7062871085673033,0.029954867170327915,0.06872199049901617,0.005360951879993081,0.000977518175944895,10704.466742405086
1678273148389980997,144,1678263227493335723,camera_1,145,0,0.14455819104776507,-0.32382304926271394,2.6360369946644377,0.704001770546041,0.7064079307778034,0.029957818408820173,0.06687205334402259,0.0077194717596285045,0.0014078700599619383,10701.36054199957
1678273148396287136,145,1678263227499922513,camera_1,146,0,0.14470818762841858,-0.32402166700878404,2.637531958759035,0.7042888557178084,0.7065847757488953,0.023196456332624907,0.06463038608264642,0.006960395141504705,0.001270168230977977,10700.842290879344
1678273148406320960,146,1678263227506602525,camera_1,147,0,0.14462859397448413,-0.3238608071227681,2.6360178748035175,0.7039925089283557,0.706303932597998,0.030971252590789814,0.067602394057602,0.00742984242970124,0.00135533272636471,10698.509578263967
1678273148409101044,147,1678263227513284683,camera_1,148,0,0.14459605478544155,-0.3238698572923897,2.6357680179654497,0.7041325618374316,0.7062926885447924,0.029560475451631128,0.06688910045364559,0.0030742426752112806,0.0005606056844943822,10703.817514811177
1678273148415649182,148,1678263227519294261,camera_1,149,0,0.14459394302749903,-0.3238030766649475,2.6355763533541574,0.704004127707606,0.706261749071517,0.031646861674794975,0.06760921620038986,0.0015596892917528749,0.000284427006348314,10701.330660554342
1678273148423255338,149,1678263227526705265,camera_1,150,0,0.14460982424729757,-0.32384917882290126,2.6363315691094225,0.7044429873782385,0.7061965719437756,0.027123431356421115,0.06565667353693866,0.00146274792496115,0.00026678128595940037,10704.800451467861
1678273148430262120,150,1678263227533371925,camera_1,151,0,0.14455534244149154,-0.32382382149614924,2.63595217887613,0.7039716742765275,0.7063515151058579,0.030150952001820365,0.06769297613006416,0.0033334825420752168,0.0006081152561398563,10699.730713272118
1678273148436223036,151,1678263227539974451,camera_1,152,0,0.1446331918978458,-0.3240036589001212,2.6370436821267123,0.7040483898111474,0.706461539223934,0.032617684306229223,0.06452941245803974,0.007523974927607923,0.0013724616883866083,10696.093332777149
1678273148443662342,152,1678263227546612739,camera_1,153,0,0.14459706844868445,-0.3238592560067889,2.636229818603271,0.7040436057040846,0.7064082395760894,0.028237151448120886,0.06717636194598207,0.007694050727877766,0.0014035766036927266,10700.721117262725
1678273148449595112,153,1678263227552638292,camera_1,154,0,0.14464991502851818,-0.32401325232659306,2.6372460788494796,0.7041496841748386,0.7064486362832967,0.031580514279235354,0.06407977596562328,0.00734652450773865,0.0013401509965242195,10696.732148163137
1678273148456392162,154,1678263227559954404,camera_1,155,0,0.14463938653559047,-0.3238424807178382,2.635721911553577,0.7041355785543425,0.7061700484423408,0.030516621994134945,0.06771768955709016,0.012353895988781005,0.0022530215483307463,10701.07041134592
1678273148463337345,155,1678263227566706657,camera_1,156,0,0.1446785705092593,-0.3239482746354679,2.6364401598689593,0.7041203264781525,0.7063671092588034,0.031479665423802275,0.0653383766439536,0.007270658970810473,0.0013258697633667725,10700.222615746901
1678273148470349086,156,1678263227573330640,camera_1,157,0,0.1446043128219411,-0.32382672394363954,2.6356274519583875,0.7041446932163502,0.7062044448735084,0.0304063272841462,0.06731261633038356,0.0029504377162083983,0.0005380337359935299,10703.009917107991
1678273148476732329,157,1678263227579966783,camera_1,158,0,0.14456433524225448,-0.3237946507161705,2.635635541238849,0.7039735564071242,0.7064983844179774,0.028377486836511624,0.06690278720006414,0.006503427808638662,0.0011857912717166846,10706.096620532102
1678273148483063611,158,1678263227586622476,camera_1,159,0,0.14456218316506805,-0.32383278346566635,2.636177822027957,0.7041230297715938,0.7063274798712417,0.026781875493205088,0.06778629115889705,0.009784628287889063,0.0017851236349940027,10700.95526178251
1678273148489598199,159,1678263227593343019,camera_1,160,0,0.14452316417363648,-0.3238089111005545,2.636020001847244,0.7042805369726106,0.7063435361986528,0.0264361892937013,0.0660973676297428,0.010855676780920476,0.001979331137716301,10706.866241895828
1678273148496548270,160,1678263227599927902,camera_1,161,0,0.1446819691105774,-0.3239929139491589,2.637289731878674,0.7043095269621427,0.7063333959957412,0.028674111502143364,0.0649539780232805,0.007828713045455515,0.0014284587909528647,10697.283432751896
1678273148503327511,161,1678263227606645822,camera_1,162,0,0.1445706854942686,-0.32387947754420554,2.635928160978385,0.7041154957966256,0.7059926304806015,0.03120060545153743,0.06944275704211732,0.0053825973300263286,0.000982189781893776,10694.14314120007
1678273148509339411,162,1678263227613291740,camera_1,163,0,0.1446368551111972,-0.3238106785225701,2.6357282236412125,0.7041053298890155,0.7062967106218598,0.03242282761310954,0.06579818566033438,0.008704618841875345,0.0015866917120380382,10703.832332429594
1678273148516477563,163,1678263227619952201,camera_1,164,0,0.1446088917734552,-0.3237916292737133,2.635228566073692,0.7043231618613511,0.7062667483139763,0.02651545744821383,0.06643112529487509,0.0019474424771033227,0.00035494379874748973,10712.25903804798
1678273148523040158,164,1678263227626645326,camera_1,165,0,0.1446146228096967,-0.32382996156549543,2.6357257475756777,0.70433863487381,0.7059411632341202,0.029236632429864948,0.06855202987451171,0.00176641542930156,0.00032224457808809135,10700.203242065734
1678273148528931931,165,1678263227632711648,camera_1,166,0,0.1446278304490385,-0.3239087714321913,2.6362776996043893,0.7040727725133489,0.7062147717173144,0.030195822273686,0.06804733301786173,0.005016460199840367,0.0009153142488809204,10696.06026140647
1678273148535848549,166,1678263227639509201,camera_1,167,0,0.1446234621231074,-0.3240048326227884,2.6372275143682278,0.7043746528018606,0.7063495999348526,0.027141828626102333,0.06472953190749585,0.004973430186510086,0.0009074043200252865,10699.794940349293
1678273148542810214,167,1678263227646633148,camera_1,168,0,0.14445736106688295,-0.3237165138340201,2.6349719577179553,0.7039563425056109,0.7061336352535518,0.03249565546644557,0.06902745385376094,0.002826536074280739,0.0005153684314701922,10701.607609770732
1678273148551611067,168,1678263227653305053,camera_1,169,0,0.14459837032695264,-0.3239260806601616,2.636930599318111,0.7043155835657506,0.706363067179997,0.02992289387359939,0.0639952849257868,0.000784585194196552,0.00014311304361778419,10701.320495251799
1678273148556192487,169,1678263227659913778,camera_1,170,0,0.14467712799071528,-0.32395142562547574,2.636869751799151,0.7041802047027165,0.706415481570259,0.028619820069131302,0.06548520903158231,0.008619561733212322,0.0015725841246858167,10699.412177994029
1678273148563063568,170,1678263227666600704,camera_1,171,0,0.14465732371899978,-0.3239073129845935,2.63641830022933,0.7039467622837258,0.7063417731268266,0.029698794017245032,0.06825127867103807,0.007315986731555313,0.0013351658095630235,10694.921147613088
1678273148569556880,171,1678263227673428297,camera_1,172,0,0.14456458039826603,-0.32371583019021205,2.6346188628238982,0.7042996684230494,0.7059076247281537,0.030727062506546877,0.0686458304601072,0.00428022030973807,0.000780165366134864,10707.360478022838
1678273148579685059,172,1678263227680017948,camera_1,173,0,0.14461587899993186,-0.32390986132861294,2.6364847662352373,0.7041814537296793,0.7062572792090749,0.027435202529751904,0.06764943051868232,0.00660405884264037,0.0012050299623605502,10698.171272688778
1678273148583436769,173,1678263227686700820,camera_1,174,0,0.1445116165708815,-0.3237082203253854,2.6351910447167426,0.7040770836260001,0.7061792388936097,0.02784369355155799,0.06936188865476091,0.00793622835772112,0.0014474359000793773,10703.839978601669
1678273148589555456,174,1678263227693435192,camera_1,175,0,0.1445820229822472,-0.3240033945660835,2.6374289680310863,0.7042431381506402,0.7064644704366552,0.025981120206867266,0.06537993401029871,0.0023461426608264446,0.00042821107025514454,10697.63437488419
1678273148596232659,175,1678263227700066328,camera_1,176,0,0.14465427669427014,-0.32399986753320026,2.6373411616157156,0.7041794522270637,0.7064433326742676,0.02706537399581436,0.06585273199900898,0.018665960640646517,0.003406489078325436,10696.167706255223
1678273148603386456,176,1678263227706669807,camera_1,177,0,0.14460254134408973,-0.3238736443408031,2.6360334255886944,0.7040240227888602,0.7063005913666861,0.03201697937179436,0.06681738548585894,0.0073013423243537545,0.001331499728717054,10699.233649937905
1678273148610065685,177,1678263227713354587,camera_1,178,0,0.14461876551687525,-0.3238053685968311,2.6357400176087395,0.7041150334587587,0.7063682490796132,0.03000199079590939,0.06607417723933427,0.004608325951267034,0.00084017352982344,10705.701543708337
1678273148617199018,178,1678263227720089197,camera_1,179,0,0.1445974013528322,-0.3237972287025681,2.63535941161762,0.7040438223658393,0.7062080446928367,0.030493892865431967,0.06828335300445082,0.004062505846377462,0.0007408354836197919,10702.568021656945
1678273148622945732,179,1678263227726753234,camera_1,180,0,0.14460122371880102,-0.32383732128105314,2.6356537212444677,0.70404298213755,0.7062594242544266,0.03185937900459548,0.06712737834977,0.0030404554563574493,0.0005543967135629779,10701.681124292434
1678273148630193465,180,1678263227733425140,camera_1,181,0,0.14462037275868386,-0.32387540441832324,2.6361713686461736,0.7041808591544187,0.7061114099808994,0.029025994183632768,0.0685090209898139,0.0111987289856188,0.002043416801131151,10696.934118032805
1678273148635739596,181,1678263227739358663,camera_1,182,0,0.14451246819999208,-0.32382747549464813,2.6359589934559704,0.704160360952188,0.7062726467237506,0.02948555408004542,0.06684112995832275,0.0012338467640802264,0.0002250377769679716,10702.557937884707
1678273148643973691,182,1678263227746665954,camera_1,183,0,0.14454857200904167,-0.32384451259349656,2.636248094555215,0.7038901966013388,0.7065045936672266,0.031899244075254435,0.06612328245832312,0.005121638416312635,0.0009341106925088148,10699.4656121342
1678273148650127996,183,1678263227753398895,camera_1,184,0,0.1443814783988882,-0.3236179854228222,2.634159394162717,0.7040576000893386,0.7059342496329093,0.03338579101843598,0.06960689556168849,0.004648355417884886,0.0008473357819999537,10705.637395121734
1678273148657133591,184,1678263227760012388,camera_1,185,0,0.14454896909283735,-0.3237516203246383,2.6350696770366744,0.7037795022416868,0.7062533319139643,0.03447745709607581,0.06864363289523512,0.008148031134624034,0.0014855828948113926,10699.424604160711
1678273148662108843,185,1678263227766240835,camera_1,186,0,0.14470621872661255,-0.3240184245985301,2.6373240708957013,0.7043061498721528,0.7065098246477298,0.02700483339700269,0.06377659368215906,0.0026549744652584195,0.00048434054939926663,10701.43021496409
1678273148669341910,186,1678263227772829294,camera_1,187,0,0.14461932163377036,-0.32382684117283655,2.635816373283868,0.7039756592108825,0.7062233529348708,0.03155709572691149,0.06834469048371576,0.005181032873224467,0.0009451552055572376,10697.57841285248
1678273148676164452,187,1678263227779939651,camera_1,188,0,0.14458038010524676,-0.32369020903121104,2.6347294898799403,0.7042514812133397,0.7060253754660823,0.027218584797292493,0.06940582863439507,0.00629184051649645,0.0011471170558322425,10707.976311906707
1678273148683263982,188,1678263227786622285,camera_1,189,0,0.1446585577687897,-0.32402386336273065,2.637322065823915,0.7042186152924912,0.7065021856437974,0.028678320946051297,0.06409646997907893,0.0009182040230371058,0.00016752726053032713,10699.100132314605
1678273148688309704,189,1678263227792629718,camera_1,190,0,0.14452359899442133,-0.32390721707983217,2.63608242435961,0.7040267790296734,0.7062592961483687,0.027478105104080802,0.06920299670536921,0.00030892586801201105,5.6383134943879224e-05,10697.315960909467
1678273148696608192,190,1678263227799897670,camera_1,191,0,0.14454144771861213,-0.32369205366265774,2.6352065276934376,0.704117538884275,0.7063118295989725,0.025750750489564756,0.06840314066859655,0.009873694682028146,0.0018003772076598922,10708.136650045866
1678273148702779329,191,1678263227806626081,camera_1,192,0,0.1444897410886243,-0.323765467325804,2.6355323066637872,0.7040428878816654,0.7065170233824947,0.027351365940569625,0.06640188608141735,0.005815378972329199,0.0010602098265670796,10709.221748777312
1678273148708701692,192,1678263227812609434,camera_1,193,0,0.14456394748903365,-0.32378962940162703,2.6355060993900032,0.7040985214921442,0.7062532654033074,0.02470576379591027,0.06957889317172872,0.01191814715275541,0.0021740525973950177,10703.409496685255
1678273148716682545,193,1678263227819906473,camera_1,194,0,0.14462821835724465,-0.32391179904553513,2.6365431785130267,0.7042899849506126,0.7063707537549425,0.029254186772343305,0.06449936351801665,0.004799468908458948,0.0008752142441260085,10703.869678903951
1678273148723907230,194,1678263227826651334,camera_1,195,0,0.14460465649353055,-0.3238445964058615,2.635733602494252,0.7041160384618691,0.7064552290450983,0.026208066306698977,0.0667439210420335,0.004896727215964347,0.0008928882443937198,10707.662841041107
1678273148728571621,195,1678263227832615137,camera_1,196,0,0.14451487296037058,-0.3236830360832595,2.634406240399856,0.7039503525102546,0.7060109586189924,0.033350626221401225,0.0699297021387931,0.005106641328893602,0.0009309684028255168,10702.735427625601
1678273148736107168,196,1678263227839941263,camera_1,197,0,0.1447028252824497,-0.3239887776088354,2.6373286960730904,0.7044576821593873,0.7063518012229901,0.02421472953600864,0.06496271106688048,0.007342312310356647,0.0013398758990053284,10700.896349739516
1678273148743131759,197,1678263227846619367,camera_1,198,0,0.14459119850679963,-0.32391466079990805,2.6364337045713593,0.7042300443784262,0.7062353149206774,0.029724470808492113,0.06639412917424758,0.003663706360384822,0.000668366392416078,10699.560002171898
1678273148749036244,198,1678263227852636098,camera_1,199,0,0.14452021952127805,-0.3237701227790891,2.6354804139942556,0.7040723821725475,0.7062232606664803,0.03323713788162672,0.06652878640796474,0.013533791352529079,0.002466750735395094,10703.094941119425
1678273148756164758,199,1678263227859920978,camera_1,200,0,0.1446077109958608,-0.32395982023386455,2.636612198827776,0.7040841170559486,0.7061934787034968,0.03203667577145883,0.0673051123742728,0.003422257024794817,0.0006244995839363091,10693.274804824734
1678273148762960970,200,1678263227866598367,camera_1,201,0,0.14466126011405414,-0.32397887304502626,2.6372065575374153,0.7042537707199165,0.7064589973026434,0.029911397650980248,0.06362090731424631,0.002085997723042965,0.0003805028275503685,10699.96702076797
1678273148768448854,201,1678263227872649192,camera_1,202,0,0.1446462634400754,-0.32394754521126173,2.636868258878788,0.704117800820761,0.7064183915046307,0.029745853385650962,0.06562288410078346,0.003721606859471649,0.0006790068424802111,10697.962426405287
1678273148776501782,202,1678263227879896640,camera_1,203,0,0.1445952444249555,-0.32389914465246933,2.636053413033462,0.7041166479237387,0.7062723414380744,0.031417303917846,0.06642348117007679,0.004020548250991851,0.0007332310487283101,10700.729257545321
1678273148785459289,203,1678263227886668443,camera_1,204,0,0.14458512749229585,-0.32383885380369287,2.6358590849938195,0.7041124602770629,0.7063690509891852,0.031491591165234506,0.06539638195727007,0.002438761934172362,0.000444620560676805,10704.834085389975
1678273148788577054,204,1678263227892663717,camera_1,205,0,0.14466359230023246,-0.3239660466702242,2.6368475848661808,0.7041532416105953,0.7064842634775065,0.02436219113349565,0.06674339990673948,0.0036880059051327407,0.0006730532754692815,10700.191737065668
1678273148795927173,205,1678263227899929761,camera_1,206,0,0.14450572540310588,-0.32377827538012266,2.635442110787153,0.7041683541915593,0.7059294068068047,0.03210962911301125,0.06913445796972904,0.0061740619712509215,0.0011261128797906863,10697.941238899019
1678273148804913036,206,1678263227906606674,camera_1,207,0,0.14462804158033474,-0.32393466131471343,2.6371893719369393,0.7045476948032627,0.7061813753937688,0.026384998809954072,0.06499417383252619,0.0026116096414625645,0.0004765397025792342,10700.185236695224
1678273148808690657,207,1678263227912652015,camera_1,208,0,0.14465357732793363,-0.3239929626755546,2.63712720942037,0.7042574359866994,0.706344407283645,0.0280499280323405,0.06566767617280793,0.006030013202689588,0.0011004035022009271,10697.426021192921
1678273148816848556,208,1678263227919886112,camera_1,209,0,0.1446186231879194,-0.3238102492974552,2.6354464476746324,0.7041003981833802,0.7061616941920524,0.030428855501065173,0.06820832564072395,0.005104367795865983,0.0009308220309897121,10702.115880974452
1678273148823105247,209,1678263227926716566,camera_1,210,0,0.14462514682230324,-0.32386136026612966,2.6359455977178063,0.7042877500511878,0.7063532531824097,0.02856905564792874,0.06502042683532179,0.005257043871097267,0.0009583512124425405,10708.08313219599
1678273148829964176,210,1678263227933355093,camera_1,211,0,0.14460368215317668,-0.3238599787939889,2.6357987699391083,0.7040866957485656,0.7061524515418133,0.03149219022654558,0.06796235727289819,0.005195993930101395,0.0009477686638483463,10698.761972006181
1678273148836430390,211,1678263227939947605,camera_1,212,0,0.1445371649407056,-0.32374042621474164,2.6354260178197486,0.7044092372207936,0.7058589432581716,0.029858996918553496,0.06840481739976471,0.0005285599036142229,9.639687237958313e-05,10702.44589248672
1678273148843084546,212,1678263227946600198,camera_1,213,0,0.14446195702061934,-0.3236956266809448,2.634884056715,0.7039617600188416,0.7062204216284204,0.03168252496032438,0.06846001839241235,0.0032667586929164827,0.0005955131619553825,10704.741481490899
1678273148848740537,213,1678263227952648639,camera_1,214,0,0.14463091609815626,-0.3239903780416158,2.6376171337157355,0.7042684219087324,0.7062953012858578,0.02866527936983374,0.06581214965606515,0.005894579866435379,0.0010760301212309432,10692.568690318967
1678273148856358706,214,1678263227959906578,camera_1,215,0,0.14451783461215367,-0.3238149775307536,2.6355857764077597,0.7040309033282233,0.7062838649274253,0.027605844424455978,0.06885859899560304,0.00571498938370496,0.0010424098020507555,10702.1451225339
1678273148862684679,215,1678263227966622114,camera_1,216,0,0.14459580008258902,-0.3238109410017894,2.6357548268895914,0.7042311912876793,0.7063254973327734,0.031653386504095736,0.0645041406265414,0.006073655327782035,0.0011068487516803533,10707.707316257174
1678273148869025878,216,1678263227972645044,camera_1,217,0,0.14468155817003717,-0.32396844161876487,2.636646226627703,0.7040282850237984,0.7063791539734225,0.029695027690337182,0.06701395413427687,0.002856545790564269,0.0005212610572658656,10696.239522823718
1678273148876057524,217,1678263227979914426,camera_1,218,0,0.14469801561954004,-0.3238911512446614,2.636343430786375,0.7041694748773021,0.7061097308207754,0.027483703241645396,0.0692751380176313,0.010773296642582864,0.00196642488329356,10694.983905781533
1678273148883618912,218,1678263227986606359,camera_1,219,0,0.14460418931353589,-0.32393096433657176,2.636359427544616,0.7041380264865016,0.706197506027274,0.03214660616545074,0.06664321307227318,0.0016026600496843457,0.0002923743771113712,10696.885099500649
1678273148888425708,219,1678263227992661714,camera_1,220,0,0.14473423677206237,-0.32405214530013426,2.637704123080389,0.7043224581024464,0.7063471083067879,0.027992628394364324,0.06496191464805745,0.012200729397591203,0.0022267682159159653,10694.548960375483
1678273148896809682,220,1678263227999917268,camera_1,221,0,0.1446293979825944,-0.3240511687942417,2.637908364331777,0.7040727831022167,0.7063227192618907,0.02849946168557778,0.06765732061513732,0.004008450836408883,0.0007322262599279353,10685.670591698727
1678273148902853359,221,1678263228006620168,camera_1,222,0,0.14448120461420005,-0.3236497257324702,2.634696715634839,0.7043383333510986,0.7059638857967392,0.02695801305887962,0.06925149568696957,0.0029126625740900636,0.0005309824179829697,10708.953817774891
1678273148910708078,222,1678263228012633562,camera_1,223,0,0.14439858400166292,-0.32362050799345055,2.6340563128906918,0.7040487471118015,0.706186669621009,0.03187912552595024,0.06781939763512465,0.0018204303341917694,0.00033163114826565614,10712.896284642165
1678273148916415751,223,1678263228019908428,camera_1,224,0,0.14465227415867768,-0.32389925863467817,2.636380797750341,0.704229504069159,0.7062143047557086,0.031733040779038144,0.06568999527959736,0.009061692166142166,0.0016525728578484953,10699.592870160588
1678273148923250795,224,1678263228026680231,camera_1,225,0,0.144592558656563,-0.32379562901753906,2.635130126597783,0.7040955382551567,0.7060437004053355,0.03324929717076119,0.06816340928073106,0.011097233276814222,0.002022916327810086,10701.616127846066
1678273148928613244,225,1678263228032656908,camera_1,226,0,0.14459477521900221,-0.3237538093136995,2.635110794611856,0.7040642701437951,0.7062298629855653,0.02910120705434132,0.06845439271701341,0.008962932915892452,0.0016341724319729886,10705.580615544575
1678273148936784552,226,1678263228039915084,camera_1,227,0,0.14462360221107473,-0.32397281614795154,2.636772395302524,0.704102844206258,0.7063514184832326,0.03176368187502738,0.06555857610660293,0.00356879091123119,0.0006510244914741981,10696.704128216257
1678273148942596148,227,1678263228046610116,camera_1,228,0,0.14458210957181067,-0.3238575175124181,2.636083236177738,0.7040473856188807,0.706408667083345,0.02972138492159844,0.06648844374094796,0.0030840123654343188,0.0005624835462795775,10702.174342088405
1678273148949227047,228,1678263228052645683,camera_1,229,0,0.14454225888781377,-0.3238259345338258,2.635861521873832,0.7042497314421122,0.7058928287819801,0.030457007998318453,0.06942622488424213,0.0011939509422518313,0.00021787749271877775,10695.577760470685
1678273148955962498,229,1678263228059915781,camera_1,230,0,0.14448975209098353,-0.3236839045344594,2.634781433287137,0.7037364637936642,0.7061381123496636,0.034921486239643,0.07003174718123886,0.012444204243365677,0.0022692833283842195,10697.568099553002
1678273148963102746,230,1678263228066605329,camera_1,231,0,0.1445485326867247,-0.3237948645545699,2.6352831441043647,0.7040739372667809,0.7060398899286323,0.03468635489637726,0.06770835602213666,0.005494223325513303,0.0010016741727189072,10699.861198432398
1678273148968546141,231,1678263228072656393,camera_1,232,0,0.14453946045451302,-0.32375867596168745,2.6351750963306597,0.7041481127738395,0.7063901957542505,0.026521523294094965,0.06696966045510812,0.0037512764101848006,0.0006837867224017428,10711.368034665704
1678273148976922641,232,1678263228079901933,camera_1,233,0,0.14461835268883605,-0.3238795689475219,2.635989039141902,0.7041626096392384,0.7062711480576888,0.028768662096436075,0.06714498260118226,0.0029194007511250675,0.0005324654992924768,10702.17332632956
1678273148982975747,233,1678263228086599826,camera_1,234,0,0.14459495770159567,-0.3238232485214555,2.6355886114189278,0.7040825190266959,0.7062852456165252,0.028347278648826225,0.0680102199572463,0.006648631941061467,0.0012125019697818156,10703.606410995828
1678273148988455669,234,1678263228092620611,camera_1,235,0,0.14456339782762556,-0.3236662655618979,2.634763355106782,0.7041390061695827,0.7059144506486085,0.03275391513078386,0.06928368783192006,0.007040345633868127,0.0012834687419070597,10702.299246211303
1678273148995573777,235,1678263228099897146,camera_1,236,0,0.14466687968568354,-0.3240816999067141,2.6380549430064892,0.7042037122033004,0.7065355007558236,0.028366914284139604,0.06403152399252643,0.003775724850129336,0.0006892349939062402,10693.67142644315
1678273149003430383,236,1678263228106588125,camera_1,237,0,0.14458670778755595,-0.3237746904874531,2.635544949022947,0.7040877287281004,0.7063229123935416,0.029766038488052662,0.0669507030219836,0.011026514403056353,0.0020101968798798896,10705.314419856175
1678273149008673195,237,1678263228112627267,camera_1,238,0,0.1444885189492383,-0.3237021901833642,2.634854341377004,0.7041273621628206,0.706120660286176,0.032641583572522094,0.06732605730711494,0.0018619157490320504,0.0003393610548485203,10706.825390500013
1678273149016646923,238,1678263228119918346,camera_1,239,0,0.14453866900998313,-0.32370361794212404,2.6349631435756806,0.7040231910332667,0.7061566339913127,0.03165393277443188,0.0684995131173025,0.011728046287316829,0.002138104893616052,10704.011397999588
1678273149022472697,239,1678263228126675128,camera_1,240,0,0.1445131390035514,-0.32370137115296344,2.6348211855106127,0.7042056928226789,0.7059630317388157,0.03270618490570416,0.06812375124128768,0.007823034306056798,0.0014258933613502701,10704.939977079051
1678273149031862938,240,1678263228132627725,camera_1,241,0,0.14451498379636019,-0.3237151666400707,2.6349975577509395,0.7041675108089598,0.7060767402185261,0.029622707302730863,0.06874771891161247,0.007976956956554204,0.0014544498200893196,10705.24974612519
1678273149036157171,241,1678263228139981269,camera_1,242,0,0.14456695534411237,-0.32379961079865455,2.6355506372207627,0.7040409677372041,0.7064122921836233,0.0297424569855189,0.06650846150682593,0.005340635776519775,0.0009737296158706592,10706.412238017656
1678273149042844921,242,1678263228146598100,camera_1,243,0,0.14454560706780797,-0.3237916224902238,2.63521390940351,0.7042658553565915,0.7059746504465052,0.03171318495208162,0.06785036334448191,0.005351688247174025,0.0009756582090508795,10703.549053869676
1678273149048803043,243,1678263228152619361,camera_1,244,0,0.1445963889311362,-0.3239086292532704,2.6362695554627074,0.7040226737792554,0.7061160621003418,0.03288259430662052,0.06834410464905263,0.0012543252669274807,0.00022890095194790042,10692.392162353499
1678273149055891329,244,1678263228159922122,camera_1,245,0,0.14457631666553228,-0.32383685706342813,2.635781778759173,0.7040733957999242,0.7064119626693227,0.027355778527251344,0.06718968451783837,0.00541290279943496,0.0009871484996118102,10705.122154157609
1678273149062725395,245,1678263228166636228,camera_1,246,0,0.14452476803161804,-0.3237937454103398,2.635285134052574,0.7040822514806425,0.7060082392502537,0.029648524059278307,0.07029590515678796,0.006515087792649865,0.0011886415750226266,10698.727102487348
