%time,field.header.seq,field.header.stamp,field.header.frame_id,field.image_seq,field.transforms0.fiducial_id,field.transforms0.transform.translation.x,field.transforms0.transform.translation.y,field.transforms0.transform.translation.z,field.transforms0.transform.rotation.x,field.transforms0.transform.rotation.y,field.transforms0.transform.rotation.z,field.transforms0.transform.rotation.w,field.transforms0.image_error,field.transforms0.object_error,field.transforms0.fiducial_area
1678317305779487457,194,1678248324354054450,camera_1,195,0,0.13951044887435415,-0.3319668798375102,2.63966696128794,0.7039999699416499,0.7062697251640424,0.030352068424754523,0.06816061605651114,0.0035622267751023173,0.0006519879667418126,10662.939653333397
1678317305786444130,195,1678248324360706567,camera_1,196,0,0.13952534599261865,-0.33199660022963934,2.63979939670732,0.7040834907246569,0.7061265038175983,0.030493380812701226,0.06871646398010371,0.003073522530030459,0.0005626755254587191,10660.253605542941
1678317305792901025,196,1678248324367388725,camera_1,197,0,0.13944654466404008,-0.33188568891936404,2.638838805878599,0.7037573545196114,0.7063354714342954,0.031168420215574786,0.06960113026751154,0.0019009520183317363,0.0003478470545929026,10664.94049929187
1678317305798612721,197,1678248324373312234,camera_1,198,0,0.13955896219591965,-0.33204467359123524,2.6402189632034005,0.7039163340282357,0.7062461771718458,0.03183573982000796,0.06859021496187255,0.006990323483478278,0.001280006107337557,10655.738824419099
1678317305805607248,198,1678248324379970550,camera_1,199,0,0.13957486057611385,-0.3320375080065881,2.640210808878257,0.7041939540031601,0.7062511811535004,0.030960780167946872,0.06604221646850682,0.0033047866309061646,0.0006048095651036614,10663.293108743963
1678317305813093103,199,1678248324387351512,camera_1,200,0,0.13962079938667632,-0.33215639434359123,2.6409046992726193,0.7040600202444621,0.7061765842560312,0.03081589358533918,0.06829714814243107,0.0031632300233468413,0.0005795241249620333,10652.069279282701
1678317305819406056,200,1678248324394069433,camera_1,201,0,0.13953793981556892,-0.33199725068916774,2.6395790950564235,0.7039869892546067,0.7061600050143068,0.03184539027531524,0.06874763557127901,0.0050809867680072784,0.0009300039064308568,10660.439438465517
1678317305826211525,201,1678248324400712728,camera_1,202,0,0.1395784707002994,-0.33207538274095155,2.6405276185644904,0.7041362151791137,0.7061366230788538,0.031885791650592646,0.06742815666203947,0.003636887005995959,0.0006659598941260275,10656.21505743521
1678317305832026865,202,1678248324406766891,camera_1,203,0,0.13953158782799333,-0.33191114741788685,2.639376852823163,0.7039532467443812,0.7061893946512129,0.031153881342934973,0.06910717008725108,0.0036338423960842192,0.0006650983574746639,10661.941133590528
1678317305839622160,203,1678248324414059638,camera_1,204,0,0.13966220162086565,-0.33222602491800196,2.641378275062148,0.7041744938574573,0.7060808624062154,0.03131884909396608,0.06787656175527981,0.008374357887078077,0.00153451498329852,10648.77909744321
1678317305846577855,204,1678248324420752286,camera_1,205,0,0.13951942730640965,-0.3318945018178824,2.638914362111273,0.7039865272013833,0.7061094343188665,0.03198894739384755,0.06920363812300538,0.0035473775351420045,0.0006490648438181402,10664.452225992922
1678317305853087479,205,1678248324427378654,camera_1,206,0,0.13963342100493428,-0.3321247329048443,2.640641708083741,0.7040788956245414,0.7062548536744926,0.028853746408085242,0.06815021434716922,0.0030158785521052778,0.0005524011919711674,10656.581735190235
1678317305858636587,206,1678248324433294773,camera_1,207,0,0.13949062975606782,-0.3318400156669873,2.638562766247007,0.703859751029089,0.706082536279655,0.03430741223031109,0.06965561218034014,0.0030458386172540486,0.0005572251508210311,10663.38099046261
1678317305866232161,207,1678248324440706729,camera_1,208,0,0.13959914397497272,-0.3321135461696331,2.640703098811107,0.7040155552387992,0.7061464457650823,0.03247967684902319,0.06829616172911913,0.004843704868108034,0.0008872305495019118,10651.868913936543
1678317305872791861,208,1678248324447372436,camera_1,209,0,0.1394481121599123,-0.331853890371566,2.6387211183533905,0.7037999701483105,0.7060929942179628,0.0322013423282921,0.07114322938836669,0.0022429783712141216,0.0004105566892248328,10660.600246416638
1678317305879344298,209,1678248324454033136,camera_1,210,0,0.13959362584192145,-0.33219280336812873,2.6412760454691884,0.7040600492241982,0.7062704630688452,0.029952756193530227,0.06770755112503608,0.004336954210884869,0.0007946467469485656,10651.538804324926
1678317305885268169,210,1678248324459937572,camera_1,211,0,0.13945722466842092,-0.33191664075381455,2.6389256878441367,0.7038667498543739,0.7061689179116355,0.03114801458680646,0.07019158790232931,0.0020315140136517584,0.0003718201979629803,10662.659749244107
1678317305893355351,211,1678248324467366695,camera_1,212,0,0.13954652187814093,-0.33191761187262486,2.6393949869294526,0.7041578330840611,0.7062609495922805,0.02704474379031087,0.0680132268068959,0.0034236923092976213,0.0006264775050978756,10668.761514418296
1678317305899905483,212,1678248324474206209,camera_1,213,0,0.139541806185643,-0.33189662608588993,2.639106743846139,0.7040100329688185,0.7060544492909532,0.03196665713744134,0.06953503395518938,0.002654497337061912,0.0004858145025997697,10662.061422442435
1678317305905758816,213,1678248324480567455,camera_1,214,0,0.13964629264049885,-0.3321373185859537,2.640930784259022,0.7043533374098366,0.706113609132719,0.029820566233620203,0.06633762813589963,0.005093853629659861,0.0009327770881605663,10657.928165742664
1678317305912666112,214,1678248324486642837,camera_1,215,0,0.13963900434776175,-0.3320877721812513,2.640297653685811,0.7039832984145755,0.7061578650402262,0.031990431565166864,0.0687400718899733,0.006501750787720084,0.0011906747102169676,10654.483525684103
1678317305920185769,215,1678248324494191884,camera_1,216,0,0.1395499351185498,-0.33203563206884557,2.639790548338835,0.7039886243426242,0.7062133945780528,0.03232849936447807,0.06795238217725788,0.005486254522111267,0.0010041419088816774,10660.254123914287
1678317305926692879,216,1678248324500811815,camera_1,217,0,0.13950395450448042,-0.33199744000885906,2.6398961887865675,0.7041375645218789,0.7061449694363802,0.03180921504127349,0.06736279542409639,0.0035308347432874143,0.0006462227575737115,10661.568052360091
1678317305933154733,217,1678248324507462978,camera_1,218,0,0.13942298031084585,-0.33188174253764186,2.639050063275928,0.7038968737559417,0.7063651333711581,0.032203625199682055,0.06738260901862177,0.0022649277234449983,0.00041428802366341304,10667.92553674313
1678317305940072714,218,1678248324514179468,camera_1,219,0,0.13953093722843865,-0.3320755071378915,2.6404419298106268,0.7037628217222807,0.706346062380594,0.033319001888632405,0.0684322660304984,0.00508648477261886,0.0009315463845275792,10652.666829319205
1678317305945836791,219,1678248324520343542,camera_1,220,0,0.13950245967960373,-0.33196446656203016,2.6394542335025277,0.7039642916293184,0.7064273027134214,0.02891402945053941,0.06751830116942764,0.0022865778882987797,0.00041838570100465527,10667.76514924469
1678317305952553353,220,1678248324526990652,camera_1,221,0,0.13961946977934409,-0.33207414352707837,2.6403088949639217,0.7040491157430868,0.7062543722813065,0.030974397058975173,0.0675291861475328,0.002757009118795395,0.000504785105496267,10658.681588370237
1678317305959431665,221,1678248324533660888,camera_1,222,0,0.1396155486801082,-0.3319954343085151,2.639957067351054,0.7040928239201982,0.7061487949501374,0.03053144371182089,0.06837401289540866,0.004921748884953559,0.0009010451396535648,10659.831251481082
1678317305965991295,222,1678248324540341854,camera_1,223,0,0.13972224452648493,-0.33223949112077555,2.6414970230449932,0.7040567186222727,0.7063145603119536,0.030045713986863027,0.06723937778704736,0.004371261689811945,0.0008009934777437939,10650.80795313383
1678317305972481084,223,1678248324546984672,camera_1,224,0,0.139572609778946,-0.33197102351631225,2.6393300316970545,0.7040259670791416,0.705944565823283,0.033142414885001005,0.0699377437328834,0.002836013154592365,0.0005191764950861886,10657.789017913052
1678317305979160212,224,1678248324553680896,camera_1,225,0,0.1395671152083328,-0.3320728767837974,2.640296562993972,0.7039008696838169,0.7062577560930998,0.03207722810234757,0.06851714423394903,0.0019088241970166564,0.0003495788939576068,10655.020731290682
1678317305985753784,225,1678248324560363531,camera_1,226,0,0.13947377152393733,-0.33192250158276154,2.639151186785924,0.7040222064586932,0.7061391845823359,0.03006745271998109,0.06939836523549117,0.005392688966821879,0.0009868860265470627,10664.127958527071
1678317305993506360,226,1678248324567455768,camera_1,227,0,0.13938269458925717,-0.3318201874138577,2.638448105232028,0.7039357959858993,0.7061431808201113,0.031148102591954847,0.06975671305239989,0.0030875360826030374,0.0005648081310247099,10667.727977226485
1678317306000245270,227,1678248324574184417,camera_1,228,0,0.1394370048683684,-0.33188541638398655,2.639063912520236,0.7037808566848098,0.7063121824670527,0.03215792049641006,0.06914820902937732,0.0014993349905125797,0.0002743768753821368,10663.262605898086
1678317306005345513,228,1678248324580148220,camera_1,229,0,0.13955425405380953,-0.33206539673550844,2.6403050552353733,0.7039451722394571,0.706320733037938,0.033568580997881146,0.06667358495911316,0.002752324042376131,0.0005038219782840476,10657.977025599343
1678317306012756988,229,1678248324587160110,camera_1,230,0,0.13959282526212233,-0.3320259825062194,2.6399301596620597,0.704022759532701,0.7062803224531845,0.029912543126700716,0.06800955770389802,0.0016229706234298646,0.0002971127862408186,10661.62299040868
1678317306019918433,230,1678248324594125747,camera_1,231,0,0.1396665320366137,-0.33211501401242594,2.640556468626904,0.7042104979769722,0.7063385428956317,0.028453867920218964,0.06605917619437608,0.002483735093846917,0.00045467922459710197,10662.984448442701
1678317306026410877,231,1678248324600734710,camera_1,232,0,0.13968555022877283,-0.33215234462634663,2.641042001764311,0.7041520432483529,0.7061844812091373,0.03093160041035059,0.06720576303119936,0.003241875790990889,0.0005938352847476904,10653.653489433813
1678317306032373929,232,1678248324606968402,camera_1,233,0,0.13954451432875706,-0.3319605825223067,2.6396082549226945,0.7040665706253568,0.7061354197235197,0.030613275283368796,0.06874489447343023,0.0012612462742254138,0.00023087970858017828,10661.59645029332
1678317306039131348,233,1678248324613677501,camera_1,234,0,0.13959923742087493,-0.3321439844362013,2.640862458141188,0.7040293442737503,0.7063446561628651,0.030209670633110083,0.06713631589442562,0.008640624466352165,0.0015823601845184896,10656.052688931
1678317306045772691,234,1678248324620280981,camera_1,235,0,0.13951005644639433,-0.3320189900096622,2.6399906454669453,0.7037916566613783,0.706488305899369,0.030277864938371753,0.06807957502838863,0.003734673489816487,0.0006836982787134519,10660.614839000398
1678317306052361724,235,1678248324626942157,camera_1,236,0,0.1394284395697333,-0.33183070727756736,2.6385769588380845,0.7037900309496402,0.7061918312459615,0.031663912691513994,0.07049884006452838,0.004846330964937806,0.0008867709185842826,10664.11970330192
1678317306058847672,236,1678248324633643865,camera_1,237,0,0.13942985517931777,-0.33183195162752904,2.6385446361246836,0.7038879683964141,0.7062699018731867,0.03018185022244056,0.06938018140620716,0.003912256739567965,0.0007156484352246507,10668.970081127485
1678317306065468064,237,1678248324640319347,camera_1,238,0,0.1395891474821955,-0.3321053225049874,2.6404515523534373,0.7041324464102199,0.7061446757196822,0.03041127747027033,0.06806136251743557,0.007697176013607532,0.001409486182984838,10656.7553299265
1678317306072372287,238,1678248324646958827,camera_1,239,0,0.1396456545258184,-0.3321788302431994,2.640994799624593,0.7041863040401973,0.7063583308582155,0.02968044535743202,0.06556392905239117,0.0046780683333054185,0.0008565193897386099,10659.468639492989
1678317306078990932,239,1678248324653629302,camera_1,240,0,0.13957413490776333,-0.3320600298207405,2.640009686183088,0.7040752155539717,0.706264193550521,0.03128402427440859,0.06700962301236175,0.0017631961381994188,0.0003227223085223142,10662.076161687728
1678317306085665030,240,1678248324660287857,camera_1,241,0,0.13960550568986435,-0.33204498962811124,2.6401382038687653,0.7041652338943083,0.7063106228358913,0.03061238191515504,0.06587495364119922,0.0015240084030665457,0.00027889679194882693,10664.648138588302
1678317306091832017,241,1678248324666603088,camera_1,242,0,0.13952090687117744,-0.3319366381345654,2.6393733147379104,0.7039115851328768,0.7062473743934315,0.03246659274513695,0.06833042392394846,0.003879047697409987,0.0007098417040475603,10662.520178925944
1678317306099851174,242,1678248324674149513,camera_1,243,0,0.13954304655228295,-0.3320384895248973,2.6401043534058966,0.7041145355697003,0.7061931816099865,0.029885622061441318,0.06797617701099805,0.0022880936157889664,0.00041891486760067397,10660.358698104508
1678317306106542384,243,1678248324680784940,camera_1,244,0,0.13957400932818878,-0.3321222423791473,2.6407327084136685,0.7041263249632045,0.7063963941319175,0.02811253375442525,0.06648261650343573,0.0036749698920175433,0.0006728926460718356,10660.872594583661
1678317306113223815,244,1678248324687487840,camera_1,245,0,0.1395653767714022,-0.33206137946326303,2.6400978483180753,0.7039991212714326,0.7062465772814022,0.031553082124939055,0.06786318837022115,0.006829591817222536,0.00125026701700412,10658.883534837052
1678317306119478033,245,1678248324694134712,camera_1,246,0,0.13950194052737871,-0.33193451868940677,2.6392835923173883,0.7040176981741695,0.7061339688316521,0.03191003848570903,0.06867057713055984,0.0022858554148115218,0.00041831911523980257,10662.986774946567
1678317306126563352,246,1678248324700787544,camera_1,247,0,0.13951307485993691,-0.33194701997551795,2.639474051191769,0.7039411330421231,0.7062411108200705,0.032502067742916724,0.06807341765652529,0.0022238510427996516,0.00040696972948716677,10662.345503705897
1678317306132903544,247,1678248324707452297,camera_1,248,0,0.1395740876336767,-0.3320550550150554,2.64007180033267,0.7040782087630629,0.7061298834343219,0.03160350251001032,0.06823256037353059,0.005274881317745894,0.0009657382501967248,10658.080267786514
1678317306140255375,248,1678248324714152812,camera_1,249,0,0.1395804390083455,-0.3320426999562013,2.6399939583836702,0.7039243594154392,0.7060927877698105,0.03253872659744652,0.0697474196830084,0.001513700990471989,0.0002772446360178792,10653.67206951556
1678317306147109941,249,1678248324720876216,camera_1,250,0,0.139546504210082,-0.3319968339868068,2.639629136162304,0.7041016423007418,0.7062416431548788,0.03085424133313554,0.06716870234753507,0.002291578217409551,0.0004193222944117365,10665.221708584
1678317306153134593,250,1678248324727470874,camera_1,251,0,0.13956695714691578,-0.33202829021611807,2.6401682366094916,0.7040487507340145,0.7062622190667551,0.03050216924171056,0.06766573860031745,0.002094818919431418,0.00038352215826847316,10660.008287104898
1678317306159845707,251,1678248324734174966,camera_1,252,0,0.13954128006128874,-0.3319748325973107,2.6397269119327587,0.7041059197616796,0.7061970064251277,0.030304773591273853,0.06783997767046189,0.0021396151278167963,0.0003916084073024768,10663.323447870203
1678317306166520713,252,1678248324740873813,camera_1,253,0,0.1396296970456084,-0.33218853465811904,2.64126958860393,0.7040771654738512,0.7063643848034894,0.030477886577364385,0.06630082480084579,0.0036268248222768307,0.0006643183123602695,10654.613709990055
1678317306173080343,253,1678248324747122287,camera_1,254,0,0.13953923294417864,-0.3320902661758923,2.640379321930914,0.7040713036235821,0.7062055251965147,0.03179426063755465,0.06742759513890383,0.0016807820065878332,0.0003077551863555968,10657.4952885448
1678317306178590550,254,1678248324753471136,camera_1,255,0,0.13956058619201447,-0.33207193542072544,2.640161172041873,0.7039280172655437,0.7061609519627475,0.033093534793503215,0.06875226822831224,0.0042237063171342015,0.0007734490046493204,10654.308168733727
1678317306186392084,255,1678248324760834932,camera_1,256,0,0.13939630466955164,-0.3317513034414378,2.6377945235616784,0.7037101628153368,0.7061568454360361,0.032925295571383975,0.0710664569665295,0.0028555349563248456,0.0005223166638300995,10667.446573499594
1678317306193130156,256,1678248324767473459,camera_1,257,0,0.1395645022443873,-0.3320464745788091,2.6403057867771214,0.704128750212108,0.7062833365461063,0.029823158188202,0.06691136583358678,0.0014243164332583547,0.0002607501491194978,10661.544319303706
1678317306199921238,257,1678248324774167299,camera_1,258,0,0.13950656597177233,-0.3319376892092968,2.6390130523215674,0.7039638925384742,0.7062023935128282,0.030920501010329626,0.06897057355207593,0.0048038222012110054,0.0008789494947373133,10665.426208557332
1678317306205404835,258,1678248324780138492,camera_1,259,0,0.13960763089006178,-0.3321208515166177,2.640728689388557,0.7040695756324925,0.7062395909955077,0.029939199624168415,0.06793612518420684,0.005527198372874409,0.0010123472095968818,10655.357278286367
1678317306213051742,259,1678248324787448406,camera_1,260,0,0.13962825011440683,-0.3321667409359749,2.641053194201229,0.7042329236043383,0.7060887097881102,0.030066951501830166,0.06775471680137778,0.003804605803452432,0.0006970025198654163,10653.075160715496
1678317306219867058,260,1678248324794135093,camera_1,261,0,0.13953058876195637,-0.3319556545998744,2.639443839853005,0.7040329559311647,0.7061837149583468,0.03414891928733759,0.06690298201098518,0.0026924499543383718,0.0004925708744924713,10663.630444400362
1678317306225858256,261,1678248324800335407,camera_1,262,0,0.1395525845239334,-0.33191728350317257,2.6393502634762007,0.704084431331338,0.7060449455423141,0.030647494534759234,0.06947214916582796,0.002554439823143184,0.0004675834838772342,10661.721703983263
1678317306232608481,262,1678248324807011365,camera_1,263,0,0.13962086029302662,-0.3320891082061144,2.640594925717883,0.7041915513780627,0.7060601969172083,0.030207679808693058,0.06841603158299889,0.003228060610126704,0.0005912788060783408,10654.916007943564
1678317306239606430,263,1678248324814153909,camera_1,264,0,0.13955076376855066,-0.3320853729590411,2.639915572758701,0.7039269260328458,0.7061972994661775,0.03340169669916752,0.06823916536889496,0.0037460251478478312,0.0006857704580257984,10657.22404179582
1678317306246291564,264,1678248324820786714,camera_1,265,0,0.13952639730305452,-0.33202799172138536,2.6397210482649403,0.7040137976647921,0.7060896864149181,0.029986917781330526,0.07001937016323133,0.003471368399914354,0.0006356760573163787,10657.924317144905
1678317306253236085,265,1678248324827435970,camera_1,266,0,0.13951801975591038,-0.3319915924365484,2.6399372573576527,0.7040054481363631,0.7062149646488969,0.03224623527590584,0.06780068591693462,0.003104699368122965,0.0005683176281228563,10659.629195688758
1678317306260228516,266,1678248324834147691,camera_1,267,0,0.13948216012900252,-0.33184871578130415,2.6389649530341677,0.7041501169654777,0.7061425185009099,0.029986048316259818,0.06808959721625162,0.0061901582521386445,0.0011322848376081431,10669.190027603527
1678317306265609099,267,1678248324840467691,camera_1,268,0,0.13955661644572429,-0.33203872704986276,2.640090866093263,0.7040067594653864,0.7061049948584097,0.03164571643468083,0.06920092119608505,0.004871701938100159,0.000892144653711557,10655.366593476381
1678317306271627186,268,1678248324846617937,camera_1,269,0,0.139571482516294,-0.3320565738073644,2.6401454803715225,0.7040720431343154,0.7062966273872848,0.02924565585585002,0.06761896059226952,0.0019482047064229846,0.00035667533303992174,10661.585499699224
1678317306279683079,269,1678248324854151248,camera_1,270,0,0.13962273081206203,-0.33211464677273617,2.6404847197320924,0.7039327386402259,0.7062024556656543,0.03288649034682275,0.06837594485591554,0.0020951465703547,0.000383742279924497,10652.915912280088
1678317306287081214,270,1678248324860780477,camera_1,271,0,0.13955248921000585,-0.33192717528458077,2.639038010735869,0.7039968000355916,0.7060879714555445,0.03210284277384703,0.06926535635712178,0.004792269843164831,0.0008769179999339148,10663.136538397517
1678317306292046734,271,1678248324866799831,camera_1,272,0,0.13960502376834258,-0.33206705622026017,2.640528035673257,0.7040809796202859,0.7063052475445042,0.029067831978261884,0.06751246234673079,0.006313276709988713,0.0011560039177478502,10658.975203297565
1678317306299662213,272,1678248324874127388,camera_1,273,0,0.13950834576720464,-0.3319816637464973,2.6396347963275666,0.7038682685862685,0.7062106819712354,0.031796415898345684,0.06946165188872751,0.009469404991250485,0.0017335079944185271,10658.18782510329
1678317306306249221,273,1678248324880785465,camera_1,274,0,0.13950204659938584,-0.33197499953801585,2.6394580722408247,0.7037698100745194,0.7061757677809473,0.03291055598312863,0.07029036016087807,0.0024969205842353404,0.00045718732895624154,10656.119087372681
1678317306313129698,274,1678248324887456417,camera_1,275,0,0.13942066015056817,-0.3318457772936167,2.638424082282993,0.7039285890456775,0.7061738702707779,0.030727586606348216,0.06970525010572318,0.001976829720661044,0.0003616294140986214,10668.473876193635
1678317306319960798,275,1678248324894250869,camera_1,276,0,0.1395123876712029,-0.33192989801497114,2.639178559127661,0.7039328347263106,0.7061143660376036,0.03159498039635695,0.06987720288654682,0.0027185481158085167,0.0004976062343998418,10660.975612079843
1678317306325385380,276,1678248324900135278,camera_1,277,0,0.1395305241172919,-0.33196724293641616,2.639622406192034,0.7040232385417738,0.7061095938851011,0.03218128970168795,0.06873780335235084,0.0014176477561704814,0.00025951065834023363,10659.777018571505
1678317306332540680,277,1678248324906804084,camera_1,278,0,0.13966558116848873,-0.3321548080212266,2.640893732614953,0.7041507835321045,0.7061461680218407,0.030559380933076558,0.06778928880126163,0.003080603783018887,0.0005643158104380171,10653.730355961132
1678317306339705198,278,1678248324914182662,camera_1,279,0,0.13960973091453943,-0.3321170109737764,2.640393080263027,0.703952633771093,0.7062305541471573,0.03277454634163092,0.0679332238881754,0.0016898721805773675,0.0003094626945273364,10654.924999060459
1678317306345226789,279,1678248324919980525,camera_1,280,0,0.13959346474597956,-0.33210142850824564,2.6405077548540996,0.7042336834805033,0.7061925329333087,0.02919064315176699,0.06704425279698556,0.0012512389803305268,0.0002291099079602435,10660.190870519033
1678317306353609885,280,1678248324927442789,camera_1,281,0,0.13954257652777385,-0.3320135985248218,2.6399576551854556,0.7042553404780162,0.7062548126484378,0.02914155217363514,0.06617646829519414,0.0015245909453369677,0.00027898651694561284,10666.891985168684
1678317306360261215,281,1678248324934198379,camera_1,282,0,0.13947197309796344,-0.33188547795954865,2.6387508394769386,0.703867259750318,0.7060830205047299,0.031304350516514264,0.07097666127139753,0.0034954326110891998,0.0006397722828862596,10661.778898131104
1678317306365696623,282,1678248324940177917,camera_1,283,0,0.13962568224748848,-0.3321851543526294,2.6414432799106233,0.7042779131339733,0.7062055451903897,0.029570438796375453,0.06627169956617884,0.0017405137768946584,0.00031885813764225734,10654.260244531324
1678317306373155379,283,1678248324947373867,camera_1,284,0,0.13955177042303832,-0.3320606928633232,2.640109681878556,0.7039071877278986,0.7064052120167552,0.03144218592983068,0.06721410896915919,0.0007761817541904747,0.00014208966217275616,10660.596896721634
1678317306380362990,284,1678248324954166889,camera_1,285,0,0.13960987315427115,-0.332184914296235,2.6409578196383006,0.7040929593403187,0.7062480619082798,0.032094069724138016,0.06660893593755186,0.006087053276132792,0.0011147576062358249,10654.544745194726
1678317306385668354,285,1678248324960170984,camera_1,286,0,0.13951939567326538,-0.33193299379767666,2.6391377311652464,0.7039782384140348,0.7063578148928382,0.03091530200189842,0.06721250837023302,0.003667432931251824,0.0006708161022367893,10669.01041865419
1678317306392652894,286,1678248324966847181,camera_1,287,0,0.13958459388254202,-0.3321756347293329,2.641086816275266,0.7039306831090659,0.7062040202223274,0.03323179344162895,0.06821380435131291,0.0012707580463029444,0.00023285221467928398,10648.124741871723
1678317306399672284,287,1678248324974185943,camera_1,288,0,0.139546705103515,-0.3320792479933014,2.6403312549854716,0.7040013260519028,0.7061097402129998,0.03206726077688842,0.06901346593063834,0.0045818553189747036,0.0008391874998212661,10653.450554331068
1678317306406559117,288,1678248324980816364,camera_1,289,0,0.13959795707624395,-0.33212534747997585,2.6407092909639127,0.7042421587975309,0.7060597876060415,0.031187476335213793,0.06745294224676456,0.0041708024218678474,0.0007638283945044425,10655.430591541113
1678317306412908247,289,1678248324987498283,camera_1,290,0,0.1395487790005525,-0.33196817539362616,2.639656770639091,0.7040655292841212,0.706146868099378,0.03057478860175449,0.06865503222101078,0.0044135983334854245,0.0008078828544701369,10661.475884008687
1678317306418721003,290,1678248324993360280,camera_1,291,0,0.1395851521937279,-0.332033341757845,2.6401167150896288,0.7039983911348934,0.7062880622061616,0.03168328570056731,0.06737661220158785,0.0006977668963372707,0.0001277415002817489,10659.869572262043
1678317306426329917,291,1678248325000830650,camera_1,292,0,0.13959570841795965,-0.33204387465856167,2.6401920552624865,0.7041085994367966,0.7062450839202102,0.03079309453441296,0.06708760665489986,0.002421043231151998,0.00044319765772047156,10660.966024253514
1678317306433038028,292,1678248325007491350,camera_1,293,0,0.13961074765190162,-0.332078118325537,2.640360118987988,0.7041083176572437,0.7062868625139979,0.029252773864303645,0.06733958766775479,0.005199558450840414,0.0009519349173702948,10660.554856583129
1678317306438838841,293,1678248325013436317,camera_1,294,0,0.13959642907495015,-0.3321318314599152,2.6408480604608457,0.7039919503561922,0.7061277337320182,0.03239327015764932,0.06877233118531158,0.001841720542870462,0.00033745205156881516,10649.562672475466
1678317306445687890,294,1678248325020144701,camera_1,295,0,0.13954714733014872,-0.3320832786313465,2.640466701158574,0.7039561088103029,0.7065162790362934,0.03101495282724801,0.06571618542254962,0.001236451789736748,0.00022632312918753156,10661.993199134246
1678317306453112704,295,1678248325027478218,camera_1,296,0,0.1394974893735756,-0.33192329277062627,2.6393442968848437,0.7039019533815397,0.7062363023216204,0.030505581660257186,0.06943871251907709,0.004581478540785611,0.0008385794538908561,10662.02276370535
1678317306459654036,296,1678248325034154891,camera_1,297,0,0.13947799735854952,-0.33193703400428487,2.6392158813723654,0.7039571770003707,0.7063117070679653,0.030260024933292617,0.06820847674183807,0.00222563260467723,0.00040722974528502586,10666.52853408316
1678317306466232802,297,1678248325040804862,camera_1,298,0,0.13954570955826984,-0.33200871076779304,2.6399365062685742,0.7041365482996118,0.705984616527769,0.03023481509726065,0.06973735391368073,0.0060237342258915305,0.0011031130258388768,10656.720941830075
1678317306473358140,298,1678248325047383785,camera_1,299,0,0.13956090255090478,-0.3320659522529641,2.6401934742003963,0.7039881601368358,0.7061050991773055,0.03125608088383581,0.0695651975541183,0.0021565513452515006,0.00039501594948329377,10653.99469331023
1678317306479778718,299,1678248325054082393,camera_1,300,0,0.13953395027210555,-0.33195111632974406,2.6395336924364083,0.7039729860692105,0.7062041433814733,0.03224077697096962,0.06825155716866046,0.0013859417522326112,0.0002536603301874293,10661.699139324252
1678317306486580694,300,1678248325060721635,camera_1,301,0,0.13955194466965654,-0.33195331879768253,2.6395497460210033,0.7039275027025924,0.7063810522930727,0.02999734418216529,0.06791199630580542,0.0018621719209477305,0.0003407914971110715,10664.883608451115
1678317306493254164,301,1678248325067500829,camera_1,302,0,0.13958744221408786,-0.3320962979022499,2.640426751270862,0.7041098357681002,0.7062254530779654,0.031013586960744736,0.06717965483142858,0.001753896358422935,0.0003211373504615008,10658.589768243022
1678317306500109639,302,1678248325074160814,camera_1,303,0,0.13946060112589584,-0.33189035462784267,2.638811072192226,0.7037819521088429,0.7061340272972078,0.03225454865905086,0.0708896570008188,0.0003457628772594035,6.329302814189504e-05,10660.478871657746
1678317306505425060,303,1678248325080131053,camera_1,304,0,0.13950866299685227,-0.3320513960876428,2.6400709087550367,0.7040269078914801,0.7063302659820683,0.03146219284697283,0.06673678703475203,0.0015499997534789145,0.0002836979695313224,10662.116359668435
1678317306512752586,304,1678248325087142467,camera_1,305,0,0.13935910773860058,-0.33170884837009884,2.637575542514104,0.7036905597553896,0.7061857273634479,0.03288761093207119,0.07099098271249102,0.001442915410734713,0.000263879954553545,10669.483443111068
1678317306520430293,305,1678248325094166994,camera_1,306,0,0.1394918533702685,-0.3319610043019803,2.6395066132888894,0.7040629972690895,0.7062831185393331,0.029429250989526024,0.06777441647860855,0.005467908747959882,0.0010005163902086782,10666.172863761427
1678317306526444748,306,1678248325100776910,camera_1,307,0,0.1395681627490571,-0.3320397762058301,2.640188390739622,0.7040058662660709,0.7062781658755833,0.02931541231447461,0.0684653143658421,0.00169847666984424,0.000311033845111928,10658.992390519821
1678317306532892983,307,1678248325107421398,camera_1,308,0,0.13962451181168864,-0.33215529385809095,2.6406786028343014,0.7039477269306929,0.7063447750720556,0.03009428624771881,0.06803668431631842,0.00260238564806059,0.0004766785876816371,10655.299607641526
1678317306539803561,308,1678248325114114046,camera_1,309,0,0.13966472944722885,-0.3321409853218631,2.6405371846614596,0.7042242957738865,0.7060952682201973,0.03218185334787923,0.0667977675818362,0.0033242448698729277,0.000608634342894594,10657.327176010233
1678317306546533812,309,1678248325120787143,camera_1,310,0,0.1396146314988447,-0.3320460306387103,2.6401464369908494,0.7041044265356364,0.7062731915893651,0.03155477442691213,0.06647880553952049,0.001324135228060186,0.000242360062608555,10662.038159048305
1678317306552047929,310,1678248325126625537,camera_1,311,0,0.13965157767740463,-0.3321595995948721,2.641097420189056,0.7043911196970765,0.706271647310426,0.030015847310909824,0.06412924143886532,0.0013313589734025297,0.00024372476276569169,10661.844415361997
1678317306559087503,311,1678248325133299112,camera_1,312,0,0.13939538872963964,-0.3318255432834037,2.638299222464102,0.7037470357610354,0.7062157119730499,0.03264315227891722,0.07024174278340233,0.001719244581181556,0.00031452147262888466,10665.927671005604
1678317306566431791,312,1678248325140768527,camera_1,313,0,0.13944026641902965,-0.33193554455160745,2.639286463788478,0.7039422495210759,0.7061045792464374,0.03176856884922263,0.06980251098414089,0.005302885372657329,0.0009706523722142894,10660.144307179378
1678317306572967885,313,1678248325147519588,camera_1,314,0,0.13938853356968167,-0.3318685754997875,2.6387995866555856,0.7039457304784532,0.706145411807549,0.029250339308841786,0.07045199482357983,0.002045207715127617,0.0003743157002761572,10665.022681014148
1678317306579713570,314,1678248325154062747,camera_1,315,0,0.13952859835736664,-0.3320150783644754,2.6401700310671363,0.7038888536606972,0.7063854318104076,0.02918337565202891,0.06861802972839035,0.005128324846737087,0.0009390501448283689,10658.90779299708
1678317306585330284,315,1678248325159935712,camera_1,316,0,0.13948752138790682,-0.3318231534098294,2.6383831305060332,0.7037822099889751,0.7062022879249014,0.033248833847362755,0.06973840032908296,0.0025725968880578876,0.0004705943240043511,10665.871609288268
1678317306592014928,316,1678248325166606426,camera_1,317,0,0.13969091799825065,-0.33222240929502395,2.64129726006289,0.7041690012823549,0.7064166145770424,0.029900562787164294,0.0650195403515898,0.0035574798239395022,0.0006514350831484545,10658.137690638423
1678317306599990505,317,1678248325174232721,camera_1,318,0,0.13967109607117167,-0.33207334269839156,2.640023191940631,0.7041019152860669,0.7060501158424448,0.03312431622219108,0.06809189734597627,0.003868765605147928,0.0007082690593993028,10657.052401414836
1678317306606319312,318,1678248325180750370,camera_1,319,0,0.1396594141523547,-0.33218555112854176,2.6410899797792107,0.7041729293051333,0.7060737564342854,0.031895717366273627,0.06769785315869346,0.0015204149531200528,0.00027856168981467075,10650.930874722315
1678317306613265579,319,1678248325187553167,camera_1,320,0,0.13958248768430656,-0.3320867140138117,2.640354903076084,0.7039016245981724,0.7062672469261022,0.03131440909254434,0.06876399196281789,0.0025023104972206056,0.00045831429974778137,10654.74526124517
1678317306619945195,320,1678248325194122076,camera_1,321,0,0.13939659033003812,-0.33182395377554985,2.6386952301608373,0.7037049033141669,0.7062796771061445,0.03244226475912404,0.07011366639777394,0.003167000017128885,0.0005795159043477899,10663.363602226718
1678317306626848580,321,1678248325200738191,camera_1,322,0,0.13948243244648137,-0.3320068914149473,2.6399708150281698,0.7039759037105472,0.7063614424986246,0.029526856852862642,0.06782038241245185,0.005062722892034799,0.0009267160594642943,10662.236214082108
1678317306632036822,322,1678248325206605911,camera_1,323,0,0.13951812591696514,-0.33207673215545463,2.640270389335385,0.7040642726172469,0.7061853286263804,0.030343276629796783,0.0683744632166568,0.0027623767382465303,0.0005058554990660274,10657.502686876684
1678317306639982157,323,1678248325214064598,camera_1,324,0,0.13960503829607812,-0.33207206921736226,2.6403404859964468,0.7040278270669199,0.7061011592425017,0.03264529121760189,0.06855841737631063,0.00428871379699558,0.0007854184057879317,10653.904187946813
1678317306646349097,324,1678248325220749139,camera_1,325,0,0.13958461328446523,-0.33201880623201724,2.6397484680123617,0.7040547004283835,0.7060971963766534,0.030419543109989438,0.06934247955408546,0.0015521581517532468,0.0002842064458127258,10659.045276765832
1678317306651850434,325,1678248325226618289,camera_1,326,0,0.13959297221834563,-0.3319947454939677,2.6396264018303786,0.7041305961838911,0.7061315984506759,0.03132671012886188,0.06780048981913016,0.001228473731316626,0.0002248326322671864,10663.092905862726
1678317306658739921,326,1678248325233287096,camera_1,327,0,0.13959413674380822,-0.3320141796249441,2.6396828704935524,0.7041022681664509,0.7060153256757137,0.03141177501920188,0.06925067699321258,0.005091447266750038,0.0009321090394103196,10658.73678081308
1678317306666965037,327,1678248325240788459,camera_1,328,0,0.13963255583669545,-0.33218880875647605,2.6410105770648844,0.7041565866725569,0.7062539882536858,0.03052268339897915,0.06661209589513215,0.0032905448460951447,0.0006026515817414596,10655.832958092793
1678317306673120500,328,1678248325247397899,camera_1,329,0,0.13948384344318016,-0.33191688623368876,2.6390617993939567,0.7038793414415686,0.7060688599449345,0.03192023443050445,0.07072295484314746,0.0012402435531839728,0.00022705429263477012,10659.286458443503
1678317306678431452,329,1678248325253313541,camera_1,330,0,0.13955772785413226,-0.33211834347551783,2.640999261203714,0.7041543951982185,0.7062497286138117,0.029294465240137797,0.06722903288195212,0.005406199838034809,0.000990207595958671,10655.710351747926
1678317306686342077,330,1678248325260446786,camera_1,331,0,0.1394015729235485,-0.33178319454766186,2.6382784591445145,0.7037836108178774,0.7063230804308626,0.02977021131325335,0.07007188960754493,0.002548606600612402,0.0004662203183874557,10669.727632251801
1678317306693984095,331,1678248325267372608,camera_1,332,0,0.13959263950007092,-0.33215288144734967,2.6410659104638547,0.7040610727634434,0.7063557446301746,0.029472345443651606,0.06701454096829336,0.008128039189614356,0.001488682264880883,10655.505478509353
1678317306699814869,332,1678248325274095058,camera_1,333,0,0.13963473119426023,-0.3321100121614295,2.6406334701402874,0.70422664129867,0.706173132832263,0.03057302257730592,0.06670558028792761,0.0034580014762468636,0.0006331490174753064,10658.602375302697
1678317306704912458,333,1678248325279977560,camera_1,334,0,0.13961684972803218,-0.33203068541398734,2.6398800978181463,0.7041407876225056,0.706108462492533,0.03241787759700982,0.06742159605715335,0.0024267693515866995,0.00044417104262771856,10660.791723981496
1678317306713193657,334,1678248325287459373,camera_1,335,0,0.13956606567140947,-0.331977903459778,2.639347863388735,0.7040935038843915,0.7062385840944133,0.032353203440224035,0.06657830240607088,0.0019234764622524379,0.00035185148928338305,10667.302008449453
1678317306719712640,335,1678248325294083833,camera_1,336,0,0.13949805735450832,-0.33193435496204055,2.6392366052063276,0.7041262024642916,0.7060798754487396,0.030487372185485383,0.06876060374030665,0.00304961740039289,0.0005580701060654898,10664.67507931008
1678317306726010787,336,1678248325300136089,camera_1,337,0,0.13957057340845053,-0.3320605096899009,2.6402314568215286,0.704160530619078,0.7061327024753479,0.02996371848401369,0.06809353264247024,0.002622687490656972,0.0004802305711690017,10658.936441071794
1678317306732904464,337,1678248325307392597,camera_1,338,0,0.13952428724533705,-0.3320359720217084,2.6400705708181844,0.7040240948490942,0.7061239286742225,0.030396293971175496,0.06939118487540821,0.0026413126615807414,0.00048373685089246317,10656.392003968354
1678317306740557726,338,1678248325314284563,camera_1,339,0,0.13954369234234262,-0.3320726040322355,2.640373603009667,0.7039978719564826,0.7062094640522003,0.03086908293158512,0.06857323736568757,0.0054846699931658804,0.0010044430753885425,10655.601022494844
1678317306745345852,339,1678248325320106983,camera_1,340,0,0.13947521109788635,-0.33192798630345366,2.6393648207758837,0.7038566638737095,0.7061442181237743,0.03360938706713192,0.06940136188798686,0.0018743054242804646,0.00034309205233687493,10658.464277241499
1678317306753329251,340,1678248325327391147,camera_1,341,0,0.13957755722346832,-0.33208943007101144,2.6403595365331127,0.7039945747836844,0.7061599035192693,0.03491382618865733,0.06716289211807358,0.004234767809975892,0.0007752919188541648,10654.625603235094
1678317306759682921,341,1678248325334071874,camera_1,342,0,0.13955157544905733,-0.33195709624277076,2.6391091620830656,0.7040318684859319,0.7062099932439608,0.030849923094556895,0.06822650396753693,0.0032031970331445336,0.0005860408656441589,10666.65638734552
1678317306765600926,342,1678248325340189218,camera_1,343,0,0.13964432049974082,-0.3321386140514917,2.640659604135323,0.7040473472302754,0.7061083936114005,0.033652631067214174,0.06779210685465899,0.003823334991466254,0.000700262885618798,10652.105553249363
1678317306773014496,343,1678248325347368955,camera_1,344,0,0.1395515684889149,-0.3319915487590661,2.63966947178353,0.704055398159923,0.7061787987435307,0.029305859181205575,0.06898309317990675,0.001800301659386605,0.0003295897814699545,10661.812228219467
1678317306780342721,344,1678248325354098081,camera_1,345,0,0.13954953260998765,-0.33205475569245896,2.6403795557967373,0.703938870687801,0.7064542178753881,0.028247813679883386,0.06778322361147959,0.006189250969327986,0.0011332417557899672,10660.291555365551
1678317306785116320,345,1678248325360057830,camera_1,346,0,0.13944568917163663,-0.3318680473953696,2.639086147830376,0.7039475910592875,0.7063388321837022,0.030213425095150112,0.068046984762072,0.002426464285235852,0.0004439105820258059,10668.099471214462
1678317306793150143,346,1678248325367367029,camera_1,347,0,0.13956503498212938,-0.33212535024002615,2.6408276699681372,0.7039767366336472,0.7063801437224824,0.030784462849519665,0.06705343898945279,0.004939843318425119,0.0009046472597474681,10655.96304952167
1678317306799934520,347,1678248325374134778,camera_1,348,0,0.13954509320438976,-0.3320164920313805,2.6396246687317624,0.704025373741881,0.7062716682790369,0.030455363323112678,0.06783122112131107,0.002633710391819477,0.00048199877350612127,10663.96282651299
1678317306805237091,348,1678248325379947185,camera_1,349,0,0.1396090358684971,-0.33205036395509047,2.6400558917022066,0.7039450648721626,0.7062703407263747,0.031747278531409254,0.06808569422592944,0.002236322849057615,0.0004094378571433991,10658.430216194014
1678317306813026402,349,1678248325387367486,camera_1,350,0,0.1395628020033146,-0.3319691108024604,2.639414537842041,0.704001040113113,0.7061933295000711,0.03409260032821202,0.06716555286841494,0.0018322740797884762,0.00033523222533589554,10663.246304250788
1678317306819592318,350,1678248325394230604,camera_1,351,0,0.1395667569617715,-0.331997196047884,2.6397030068781926,0.7039542192191185,0.7062228355510566,0.0315129287919727,0.06859080921507209,0.0030254638986662026,0.0005538237159771571,10660.231523553375
1678317306826230169,351,1678248325400745868,camera_1,352,0,0.13957634473126881,-0.3321009915736256,2.6404157045876095,0.7040951111862526,0.7062315619193189,0.03312489998197358,0.06625553828777003,0.0014235018170438707,0.0002605850382496772,10658.639904006268
1678317306831704827,352,1678248325406631946,camera_1,353,0,0.13954577854961434,-0.3321263865382382,2.640633379603127,0.7039912222517559,0.7062084390205384,0.030346573573745105,0.06888457825222277,0.0013890665140934289,0.00025448724112370614,10653.234297893474
1678317306839368426,353,1678248325413844585,camera_1,354,0,0.13953553519089335,-0.33210530405920846,2.6407423489775925,0.7041727927916758,0.7060984660455941,0.030620919965082673,0.06802935690216991,0.003449700423516333,0.0006318796807016475,10654.331504070897
1678317306846692740,354,1678248325420739650,camera_1,355,0,0.13937849632982152,-0.3317049149292167,2.637622819486088,0.70371235566935,0.7061604869298719,0.033706042662091304,0.0706412759321481,0.0032439802889712155,0.0005931946390946725,10669.084576275784
1678317306852097976,355,1678248325426782369,camera_1,356,0,0.13955532151243563,-0.3320021838320187,2.63991108079108,0.7040479807298367,0.7060634410019178,0.03045726154721515,0.0697367430399179,0.0016587927821092308,0.0003037937604188912,10656.695953188457
1678317306859848945,356,1678248325434096336,camera_1,357,0,0.13959145961755334,-0.33204809548183595,2.639737927521112,0.7040295851572392,0.7061700534064991,0.030856939171913542,0.06865892658736211,0.0023148548789322376,0.00042377155394261376,10660.435645409741
1678317306867166205,357,1678248325441342353,camera_1,358,0,0.13963242918305876,-0.33207128154946086,2.6403251027202894,0.7041590505950588,0.7061251849467947,0.029914715237291382,0.06820824335219647,0.003724930400494486,0.0006821077834040696,10657.913915047651
1678317306872264143,358,1678248325446951389,camera_1,359,0,0.13952418871100433,-0.3319082954459824,2.6390367951522395,0.7039102243517975,0.7060268338461178,0.03385850518595746,0.0699293040777701,0.0010677353711798787,0.0001954331427822061,10659.362443280868
1678317306878991879,359,1678248325453625679,camera_1,360,0,0.1395385072819347,-0.33201949314573614,2.6400690291651223,0.7038940317457122,0.7063621032298021,0.03196406867495707,0.06755789744566812,0.007568697968963534,0.0013853931733420976,10659.494391915388
1678317306886372415,360,1678248325460723638,camera_1,361,0,0.13947086601917671,-0.331907078432827,2.639192865690212,0.7039479218808219,0.7062474998731099,0.030454249855200077,0.0688791032782164,0.0023923463886603713,0.00043779577816887026,10664.781291418709
1678317306893941799,361,1678248325467398405,camera_1,362,0,0.13957788140226435,-0.3321334318404324,2.64067049923131,0.7039682651107563,0.7062455887649915,0.029794799321304147,0.06897912728025768,0.004009950556792319,0.0007346296418259905,10653.247229807654
1678317306899414711,362,1678248325474124431,camera_1,363,0,0.13945991742121466,-0.33188027737661513,2.6387995985899257,0.7038145376880682,0.7060834440958291,0.0345182460190281,0.06999826572475176,0.0013864891952835023,0.0002537361174592398,10660.303577458257
1678317306905106782,363,1678248325480107069,camera_1,364,0,0.1395789347975185,-0.33201263576627144,2.6402519643224256,0.704016170620151,0.7063379136658909,0.030318509830939387,0.06729614539545256,0.004048487695399672,0.0007411449449353319,10660.498875835096
1678317306912658357,364,1678248325487259149,camera_1,365,0,0.1395452752693358,-0.3319743885721695,2.6395609435596943,0.7039783204238464,0.7062781930483198,0.031219563137838743,0.06790417715503945,0.0009810057817958295,0.00017953897601867455,10663.49577923643
1678317306920176827,365,1678248325494165420,camera_1,366,0,0.13959905593627567,-0.3320521857888686,2.640185204935047,0.7041308335912798,0.7063182881292605,0.030569407662215126,0.06617972767684818,0.00440684036584571,0.0008064859751534005,10663.551169964943
1678317306926228507,366,1678248325500786066,camera_1,367,0,0.13959022197268542,-0.3320412459791713,2.6399409517234025,0.7039468210645465,0.7062633162534344,0.03192823745289713,0.06805577771925213,0.002831025456544012,0.0005182592925016429,10659.229059644276
1678317306932147420,367,1678248325506775140,camera_1,368,0,0.13955661426564972,-0.33201997945422207,2.639779302669191,0.7039402358341448,0.7060710928880161,0.032279617161511454,0.06992697961157425,0.0024790630559436977,0.0004539895265753908,10655.21178114845
1678317306939090684,368,1678248325513711214,camera_1,369,0,0.13957540379795294,-0.3321135189551435,2.6406715290213443,0.7039981155151421,0.7061718461573642,0.03262112644139098,0.06814572000884124,0.005267815024126321,0.0009648585680520479,10652.351435098326
1678317306946786130,369,1678248325520748615,camera_1,370,0,0.13950538004065718,-0.3319483490950332,2.639445426574075,0.7038607873024509,0.7062063268608277,0.030340757122178114,0.07022858717762005,0.0026350586558692157,0.0004824691472343474,10659.262570267194
1678317306952894451,370,1678248325527386188,camera_1,371,0,0.13953131340727648,-0.3320206362513258,2.6401371202621604,0.7040380946553331,0.7061702736273509,0.030668778919670216,0.06865371016002685,0.0034423357574269176,0.0006303398934705728,10657.530442104908
1678317306959886464,371,1678248325534065485,camera_1,372,0,0.13953905251162452,-0.33200442280352244,2.6397336817000836,0.7040338566574957,0.7061377331784753,0.029152889606678972,0.06968457138504906,0.0023962685954757035,0.00043878186987571384,10659.588262907699
1678317306967185844,372,1678248325540715217,camera_1,373,0,0.13955604008386105,-0.3320278211916327,2.639863070772823,0.7040209030183673,0.7061796252530983,0.03252714986588034,0.06787407098590104,0.01039949682308361,0.0019033362431715634,10659.652106568916
1678317306973594689,373,1678248325547388315,camera_1,374,0,0.139577414462654,-0.3320121105602827,2.639852875271022,0.7040477761205532,0.7062883621176437,0.030336950941451318,0.06747701745376633,0.0040928926900960505,0.0007490813700762767,10663.180327693233
1678317306979527710,374,1678248325554076910,camera_1,375,0,0.13965312949676825,-0.3321424634188397,2.64099796549122,0.7040615467062051,0.7063326934390032,0.03014435995936219,0.06695358236502034,0.0019405483035370708,0.0003554427618339897,10655.500739919724
1678317306985040360,375,1678248325560108900,camera_1,376,0,0.13953338186691466,-0.331976135876164,2.639364714331458,0.7039738662820131,0.7061819583433887,0.03124225800365294,0.06893300092904707,0.002592060423921794,0.0004744114960405672,10662.343949767532
1678317306993115041,376,1678248325567483186,camera_1,377,0,0.13961919861736577,-0.33219937469638705,2.6411331376997778,0.7041505174361551,0.7061301335732048,0.03067238645797966,0.0679079374098175,0.0025998527416959405,0.0004763534853741906,10651.385150481943
1678317307000283750,377,1678248325574104309,camera_1,378,0,0.13950301127937223,-0.3319749918806769,2.6397077733832846,0.7040167944464366,0.7060574737812778,0.03178857318302803,0.06951750477362942,0.002731961547397077,0.000500215605399202,10657.482254627164
1678317307006239399,378,1678248325580713987,camera_1,379,0,0.13959038523226153,-0.33207098727686246,2.6405416878573083,0.7041185513847352,0.7063630238220735,0.029464279559199648,0.06633400638327518,0.0036697123432531953,0.0006718129176533088,10661.467552510674
1678317307011914639,379,1678248325586724758,camera_1,380,0,0.13952075629416558,-0.33200385288152634,2.6400137028890898,0.7039438657122522,0.7064833356537713,0.031100550546755878,0.06615955052220532,0.0024494625395163894,0.000448230056312164,10664.46238091495
1678317307019503648,380,1678248325594083309,camera_1,381,0,0.13958181629444413,-0.33209513038070204,2.640225252946922,0.7040763706571437,0.7061764138579516,0.03239716175637264,0.06739258641066545,0.004617105470970273,0.0008452422251416235,10658.104224511073
1678317307026140731,381,1678248325600697994,camera_1,382,0,0.13958291687026436,-0.33206737073387327,2.639991295301529,0.7040502688467963,0.7060872972144683,0.032149385331656996,0.06870491010049916,0.0026193855446763337,0.00047962001218878757,10656.86240154831
1678317307032627587,382,1678248325606938123,camera_1,383,0,0.13959478805428602,-0.33212565884988965,2.640685755550659,0.7039540714075561,0.7061924709709078,0.033015038066329425,0.06819726207266805,0.003468182578217238,0.0006352704270030794,10651.634357816893
1678317307038506691,383,1678248325613459110,camera_1,384,0,0.13953416540499167,-0.3319750865641459,2.6398872459043807,0.7039014024778282,0.7062681039356123,0.032022953303378905,0.06843033986961759,0.001159887237008661,0.00021235405664365935,10658.654068293868
1678317307046455729,384,1678248325620787620,camera_1,385,0,0.1395051494558545,-0.3319991433289019,2.639761802311409,0.7040407454615025,0.7062216918658795,0.03250287331377423,0.0672392288359667,0.00309680710779503,0.0005667181344853488,10662.165858881435
1678317307052940839,385,1678248325627439022,camera_1,386,0,0.13949904559676063,-0.33192554457669093,2.6390751513560384,0.704031808592217,0.706085870085353,0.03171461026858654,0.069109623437651,0.0037266435683704913,0.0006819288987587571,10663.708273855273
1678317307060360485,386,1678248325634153127,camera_1,387,0,0.13949193961596573,-0.33191910690220594,2.6390873651601656,0.7038639445190319,0.7062360426783787,0.030874734791166467,0.06966312065697047,0.0017953527276404202,0.00032859287108684003,10663.077751727777
1678317307065357503,387,1678248325640147924,camera_1,388,0,0.13960509373911414,-0.33208782434899015,2.6403474243237626,0.7040954264065952,0.7061484331059557,0.031562327127405566,0.06788107572528188,0.0027094089309684932,0.0004961280868090358,10656.817065148378
1678317307072545488,388,1678248325647106885,camera_1,389,0,0.13954142622693913,-0.3319660994160205,2.63950800550654,0.7041420488483334,0.7060578353715986,0.03182358524486508,0.06821706220738917,0.0028018581215292215,0.0005127707380725285,10662.441207536376
1678317307079622637,389,1678248325654133319,camera_1,390,0,0.13956395312562397,-0.3320326510151212,2.639838002374939,0.7040306699484083,0.7060170642519108,0.03246538681373524,0.06947459547304405,0.0016922791255638003,0.00030989597511934543,10655.725638081434
1678317307085866937,390,1678248325660146713,camera_1,391,0,0.13949237869804765,-0.3319451940296031,2.6390812148145724,0.7039388005803722,0.706161814080495,0.03148854662666277,0.06938392323407476,0.0025465067010372877,0.0004660264597555343,10663.172452082514
1678317307092760823,391,1678248325667070150,camera_1,392,0,0.13950599747287093,-0.33194685016882886,2.6392838891259953,0.7038184001627945,0.7060794824315455,0.03271357836504615,0.07086074986929768,0.0025351684889756143,0.00046419615870045523,10656.211857641578
1678317307099799978,392,1678248325674193143,camera_1,393,0,0.13956955378637811,-0.33210132507094364,2.640633806473463,0.7041117539091554,0.7063311391420017,0.030738169242603235,0.06616740010721585,0.00328397419070825,0.0006012101328851814,10659.809550891747
1678317307105521313,393,1678248325680150270,camera_1,394,0,0.13957647491399522,-0.3320808869091182,2.6403009727560085,0.7039605404695086,0.7061861684156465,0.03375710913434815,0.06783148666509636,0.0023001254885457456,0.00042116789913360347,10654.80028711911
1678317307113641529,394,1678248325687493801,camera_1,395,0,0.13952563490194694,-0.331938893126646,2.639240477647606,0.7039881227928011,0.7061232653434223,0.03121215838398855,0.06940070803978851,0.0008070070762187243,0.00014771406338682377,10662.163649588361
1678317307119614638,395,1678248325694150686,camera_1,396,0,0.13956868827337918,-0.33202899213746917,2.63971580272107,0.7040499530676455,0.7061950373615625,0.032017926170110234,0.06765415874218572,0.003910515806637704,0.0007156692478912806,10661.970767725255
1678317307125521679,396,1678248325700144290,camera_1,397,0,0.1395448221531812,-0.332006203063268,2.639624872611991,0.7041149296867808,0.7061092742114718,0.03315479331497951,0.06732472313325374,0.0027298154891468585,0.0004995253519549762,10662.259197152343
1678317307133061380,397,1678248325707462549,camera_1,398,0,0.1396503986122699,-0.33222779692133825,2.6416802464510583,0.7042514078635679,0.7063573511938008,0.028080177782187642,0.06558010790156468,0.005553553462959826,0.0010173241499989729,10655.532193977853
1678317307139957083,398,1678248325714152812,camera_1,399,0,0.13942813814358296,-0.33187506104054754,2.639115509976809,0.7037821840020646,0.7061408808917464,0.033424633072930074,0.07027437455184127,0.0030919109703972936,0.0005659717930621067,10658.392143976875
1678317307145393189,399,1678248325719978094,camera_1,400,0,0.13947850184463412,-0.33197609163969305,2.639632150892079,0.7039743221108283,0.7062008159798702,0.03120208208067356,0.06875311914230685,0.0016945638926699758,0.0003102024188708698,10660.758534460329
1678317307153282722,400,1678248325727437496,camera_1,401,0,0.13952558245870614,-0.3320492677478545,2.6402774716455615,0.7040725045832585,0.7062375772518446,0.030114659675579695,0.06784909756161966,0.002401294419541955,0.00043968238944210687,10659.071730443971
1678317307160528605,401,1678248325734547615,camera_1,402,0,0.13960378653626787,-0.3320474742432466,2.640251835237303,0.7041139386323234,0.7063251875716181,0.028923511444899002,0.06702030521634465,0.0021153910784050822,0.0003872528414402801,10662.592519440457
1678317307165860648,402,1678248325740427255,camera_1,403,0,0.13966403015725343,-0.3321551695697079,2.6409542988822117,0.7041341450312212,0.7063015466232246,0.028887978691538793,0.06707246622802014,0.0020571472705341876,0.0003767977862635304,10656.80641072127
1678317307173578792,403,1678248325747425556,camera_1,404,0,0.13957110851241517,-0.331946536180481,2.639376008909003,0.7041610067772821,0.7059514307113549,0.03141846519292627,0.06930176084282784,0.003021912300027907,0.0005531416069315125,10661.095134238367
1678317307179891397,404,1678248325754158258,camera_1,405,0,0.1396078314817146,-0.3320673463782638,2.6401273489829964,0.704141253694366,0.7061217577399975,0.031250991407590266,0.06782723367457548,0.003911300154868513,0.0007160639193627516,10659.05831516394
1678317307185454193,405,1678248325760173797,camera_1,406,0,0.1395261619619302,-0.33206084632357413,2.6400193801652687,0.7038865200593871,0.7062156461941003,0.03299553144115602,0.06866238310932053,0.0027485016034916043,0.0005032581114082529,10655.808275086338
1678317307193524334,406,1678248325767449617,camera_1,407,0,0.13954409287488698,-0.33209615534002007,2.6403662970448734,0.7039557716500732,0.7063934042532208,0.029431945137553987,0.06773766008296865,0.0034608045825734735,0.0006336913959554414,10659.310925544705
1678317307200696116,407,1678248325774556159,camera_1,408,0,0.13943914458186038,-0.33190672642822155,2.6391552336212767,0.7038462344455835,0.7063467565082999,0.03200986646310163,0.06819168773385718,0.0034574686433188617,0.0006325759952901962,10665.191085459428
1678317307205299024,408,1678248325780336856,camera_1,409,0,0.13952858032301169,-0.3319987462688532,2.640032951920534,0.7040377786241626,0.7062719084678843,0.028638524165287726,0.06848819250587154,0.0031504814978688955,0.0005768327014868154,10660.88765987917
1678317307213418682,409,1678248325787628889,camera_1,410,0,0.13948062063010172,-0.33191673715908376,2.6390278821743727,0.7038881741212464,0.7064106201583907,0.029802562093190727,0.06809758697910777,0.0030659291660413146,0.0005608829818163273,10668.80593077792
1678317307219658163,410,1678248325794190883,camera_1,411,0,0.13959943872939884,-0.33207829724521415,2.6403370721888577,0.7040551358959836,0.7062089998719948,0.0297081711900481,0.0685028370421837,0.0028920279000885785,0.0005296411495333409,10657.270135495579
1678317307226051991,411,1678248325800491571,camera_1,412,0,0.13966337310216634,-0.33213768014811434,2.6408064898045875,0.7039864785050449,0.7062705886477305,0.03258790474525989,0.06725267398080297,0.003530499408952892,0.000646594264768709,10653.576910873528
1678317307233228662,412,1678248325807434082,camera_1,413,0,0.13961075206469786,-0.3320926742680259,2.640225956415482,0.7040405283302342,0.706129028014492,0.03372362292317231,0.06761248051010411,0.003036242676898837,0.0005558903907796488,10655.975147798537
1678317307239974278,413,1678248325814256906,camera_1,414,0,0.13955120074479155,-0.33202318115139595,2.6397408229732053,0.7040812225792071,0.7060673264271957,0.031739557270713245,0.0687834505355755,0.0024582461919635534,0.0004500357364350603,10659.15330435231
1678317307245631289,414,1678248325820315122,camera_1,415,0,0.13953910017296187,-0.3319924666863887,2.6396906211886946,0.7038758197887194,0.7060817742339451,0.034166680986431934,0.06957008208830862,0.004510909435339272,0.0008259116214023683,10654.678884799358
1678317307253544358,415,1678248325827416896,camera_1,416,0,0.1394833192975949,-0.3319187094700314,2.6390231403878843,0.7038816590436371,0.7061712114825561,0.031688273977102534,0.06977595164229809,0.0033086440525949,0.0006055241427937222,10662.396367254201
1678317307259696120,416,1678248325834167480,camera_1,417,0,0.13941345133657726,-0.33179265773020605,2.6384235032211802,0.703551302300128,0.7064227849091572,0.03344360236279948,0.06974194902627584,0.0033956770203076303,0.0006211798956690536,10665.372172969626
1678317307265505174,417,1678248325840308904,camera_1,418,0,0.1396693947229141,-0.3322497148501351,2.6421353507003937,0.7042967130249436,0.7063419725821378,0.027548262217264762,0.06548473898431288,0.011007460008841008,0.0020168529533804405,10652.63625299581
1678317307273066456,418,1678248325847394704,camera_1,419,0,0.1395653660994015,-0.33197260053152916,2.6398011769044234,0.7040381204171461,0.7060895997267089,0.03060853872812866,0.0695048164820037,0.0028016072465106845,0.0005130006217524146,10658.045368677935
1678317307279973682,419,1678248325854158163,camera_1,420,0,0.1396885907128444,-0.33222058597174536,2.64149376333038,0.7040460215724033,0.7064822854408308,0.03213755259022639,0.06456901408479315,0.0037231488968245685,0.0006817953515808492,10655.270684749703
1678317307285214584,420,1678248325860070228,camera_1,421,0,0.13960830695962143,-0.3320775031566817,2.640184540216967,0.7041064717908491,0.7063981955194572,0.030686291032027368,0.06552875164227674,0.0015787435113452375,0.0002889025812782763,10665.03448726656
1678317307293277182,421,1678248325867445707,camera_1,422,0,0.1397132028326246,-0.33227261642323375,2.6418711606135536,0.7042442547996328,0.7062857854325182,0.03022811589947811,0.06547274155592155,0.003196967125404626,0.0005857388555660233,10652.077468399082
1678317307299840863,422,1678248325874178647,camera_1,423,0,0.1394795005130986,-0.3319513590666736,2.6393914129618716,0.7039844019394839,0.7061297168034176,0.03241660894626221,0.06881822678228226,0.004038278770167381,0.0007390715237971821,10661.157842104089
1678317307306624890,423,1678248325880795955,camera_1,424,0,0.1395207574605913,-0.33207482069389926,2.640572806715979,0.7040160096631886,0.7061368140947937,0.032158201706810524,0.06854274564795301,0.005111597361974418,0.0009362568079797465,10652.684703940062
