field.image_seq,field.transforms0.transform.translation.x,field.transforms0.transform.translation.y,field.transforms0.transform.translation.z,%time,field.header.seq,field.header.stamp,field.header.frame_id,field.transforms0.fiducial_id,field.transforms0.transform.rotation.x,field.transforms0.transform.rotation.y,field.transforms0.transform.rotation.z,field.transforms0.transform.rotation.w,field.transforms0.image_error,field.transforms0.object_error,field.transforms0.fiducial_area
178,0.0,0.0,0.0,1678323347902271314,176,1677825034910499572,camera_1,0,0.7040540005899686,0.7062455480088639,0.034741851840322316,0.0657129660084319,0.00415496074128896,0.0007598384181122079,10668.52353097382
179,6.954612441979757e-05,-0.00015475400629355596,0.0015121880857553727,1678323347908560887,177,1677825034917077779,camera_1,0,0.7040571378057943,0.7062420144181006,0.033617512057240624,0.0662995223094224,0.003503789252135903,0.0006415233708542402,10656.257913698675
180,-4.780103828740112e-05,6.026733325587008e-05,-0.00023042698830844088,1678323347916039707,178,1677825034923938274,camera_1,0,0.7038659805582852,0.7062918942802313,0.03471273547347626,0.06722698478077767,0.002200111746788025,0.0004024083123385196,10666.618690301546
181,-1.8213355749266413e-05,-9.863344012528419e-05,0.0011158295989783795,1678323347922288353,179,1677825034930506706,camera_1,0,0.7040743772511442,0.7062439657046781,0.03335927655324171,0.06622605885893723,0.004086848173756152,0.000748014180802899,10659.961076191508
182,-8.868103139590688e-05,2.2274222646723185e-05,4.172308658745294e-05,1678323347928865739,180,1677825034936291694,camera_1,0,0.7038729619391038,0.7063514196752618,0.034614660684626763,0.06657590134202923,0.0030875058146193624,0.0005647185754789325,10666.213265242288
183,1.2498079816805618e-05,-0.00018457342200089988,0.0019496041173812095,1678323347934609576,181,1677825034943076372,camera_1,0,0.7041550587241161,0.7064218383754394,0.028520007855883163,0.06573012012313348,0.008080620900727808,0.001479638961502846,10659.711719778012
184,-5.3062997337552376e-05,6.0560653173946655e-06,0.0002781986690969518,1678323347942461415,182,1677825034950578927,camera_1,0,0.7039401257699003,0.706411965130101,0.033748392315733323,0.06566186768733659,0.0072753254789859065,0.00133063611475575,10667.670033357805
185,-3.5656931546307336e-05,2.5598776421942304e-06,0.0003206526133845422,1678323347950671117,183,1677825034957170009,camera_1,0,0.7039089286626279,0.706295615419116,0.03318654019423786,0.06750835014055567,0.004974343697540462,0.0009102180941939551,10663.307652567048
186,-8.989699895241288e-05,0.00014311385753079664,-0.0011872209616083929,1678323347955185340,184,1677825034963759183,camera_1,0,0.7038218792967393,0.7062510734593533,0.0364623316793068,0.06719138210533718,0.005382216942962259,0.0009836135573508577,10672.16040625644
187,-6.898560373987117e-05,8.330739948175792e-05,-0.0005944871829326459,1678323347961191568,185,1677825034969747304,camera_1,0,0.7039136157174544,0.7061587966157352,0.03688836905492381,0.06696733381481472,0.0031644537230022256,0.0005785849548917037,10667.401825492963
188,-4.062627721726497e-05,6.768740151485986e-06,0.0001852453235353657,1678323347969242593,186,1677825034976616382,camera_1,0,0.7039449695317473,0.7063285679732151,0.032517428337286096,0.06711222534072414,0.005204763438086957,0.0009522077151750348,10666.18104686088
189,1.345650428752343e-05,-0.00014239581421976455,0.0012866861334637214,1678323347975447519,187,1677825034983732461,camera_1,0,0.7039161145462088,0.706297496037236,0.03570867075164804,0.06611234080600925,0.002686560095753521,0.0004917745596664329,10655.954070650045
190,-4.933048044915289e-05,-1.3968067575087506e-05,0.0003287225307633257,1678323347981335996,188,1677825034989924907,camera_1,0,0.7040255919215828,0.7061558260780401,0.0350352800828635,0.06681649770095144,0.0024534271215088665,0.00044885840615782764,10662.755437282265
191,2.0724959849116598e-06,-0.00018181663891814193,0.001835557871144644,1678323347990444618,189,1677825034996572017,camera_1,0,0.7041196636135596,0.7062841863287407,0.03349215026371464,0.06524127010864478,0.0037723412970080967,0.0006906749088932787,10656.475874980566
192,-2.901487596883301e-05,-6.609009729580118e-05,0.0010303166642744443,1678323347994591478,190,1677825035003214836,camera_1,0,0.7040830065934026,0.7062846915755324,0.03258680651258936,0.06608444835027914,0.003414947830606252,0.0006250112351122513,10661.928222855204
193,-5.0626012368326645e-05,2.6037349178997804e-05,-7.728490166192259e-05,1678323348001103912,191,1677825035009919881,camera_1,0,0.7038079180997334,0.7062478082824676,0.035622955952608136,0.0678192651503119,0.003866512444801629,0.000707351443443837,10662.701150066912
194,5.123342821447552e-06,-7.090723198782678e-05,0.0008410673779568612,1678323348009419633,192,1677825035016564369,camera_1,0,0.703960241926209,0.7061303874774985,0.035110210412625464,0.06772833079924931,0.0035504020634107287,0.0006499811164095579,10656.199778720036
195,-3.8269369562873856e-05,7.405660392528768e-05,-0.0005122813054767583,1678323348015829192,193,1677825035023276329,camera_1,0,0.7039058252777501,0.7062293541366396,0.03465610938544439,0.0674955004282401,0.007626964128576217,0.0013946209947079042,10668.246959297452
196,-4.30268965759123e-05,2.885363734905777e-05,-0.00024705143432068866,1678323348021289127,194,1677825035029927730,camera_1,0,0.7039028159935147,0.7060375010072321,0.03675151104460031,0.0684192899977915,0.0032524320413358514,0.0005950331883153871,10661.016982762376
197,-5.899194031196153e-05,4.303799178939638e-05,-0.00010594357299265056,1678323348029377586,195,1677825035037101984,camera_1,0,0.7037827034214377,0.7062939822501103,0.035432931943760064,0.06769951503491446,0.0034753383370116357,0.0006357491301344851,10663.496594786524
198,-6.278204063676907e-05,5.198121653265941e-05,-0.00026225513744648765,1678323348035369986,196,1677825035043729066,camera_1,0,0.7040170303820056,0.7060883573504811,0.033764181738269734,0.06825857145990283,0.0029610662604682148,0.0005416771778181801,10665.352040034139
199,-7.910532428159756e-05,6.152190405661617e-05,-0.00021457022443316376,1678323348041140363,197,1677825035049594640,camera_1,0,0.7039254194968165,0.7062557995393937,0.032050141374994186,0.06829742192092977,0.003952760132960975,0.0007231115557135955,10666.877319742227
200,-3.991093606285634e-05,-4.3209518393982904e-05,0.0007199183320207858,1678323348049657923,198,1677825035056460380,camera_1,0,0.704040480485138,0.7061752866837269,0.03466603180079127,0.06664632438926192,0.005218663194682449,0.0009549795803262244,10660.516861925953
201,-1.0997228551801186e-05,-0.00011069573806893329,0.0011039176774074733,1678323348055585162,199,1677825035063745260,camera_1,0,0.7041015020043273,0.7062086722093615,0.03356809615501552,0.06620852733650451,0.003774072567466647,0.0006908107171448228,10659.843842025966
202,-8.033804959656221e-05,7.793628052737978e-05,-0.00036419929802589124,1678323348062352585,200,1677825035070535659,camera_1,0,0.7040109822791529,0.7060272313496716,0.03458020695882705,0.06854410776824148,0.004111080546863377,0.0007520493309871516,10664.45153803588
203,-3.429284271122546e-05,-8.916971545691599e-05,0.0007626632357768948,1678323348069218343,201,1677825035077146768,camera_1,0,0.7040912431590464,0.7061331319278625,0.033237128983697795,0.06728160638256006,0.004101029073353857,0.0007506233152721338,10660.238627300012
204,-5.95159184953592e-05,2.8348060133021047e-05,0.00019656184911864827,1678323348076683055,202,1677825035083746671,camera_1,0,0.7039113418572274,0.7059857405271173,0.035659004744624474,0.06943624671422352,0.002578220854047686,0.0004719682785564244,10656.242155512795
205,-3.667456475975328e-05,-8.434274749896664e-05,0.0009221715043463696,1678323348080697428,203,1677825035089646100,camera_1,0,0.7039537492543053,0.7062021827746439,0.032658805613474874,0.06827150482475483,0.004452223074622452,0.000815143519281387,10657.086439613366
206,-5.550228595986584e-05,-3.0734453403125084e-05,0.0004099497822203091,1678323348088588447,204,1677825035096402168,camera_1,0,0.703882991192553,0.7062639008411344,0.03487705626114281,0.06725792165273625,0.0017004915280267596,0.00031116778150664634,10661.168261038838
207,-4.504692237521091e-05,-6.1793726395809045e-06,0.00020978989646014412,1678323348096270224,205,1677825035103788137,camera_1,0,0.7039368682467276,0.7063246299502286,0.03496718623501942,0.06599771613826873,0.004336079640779643,0.0007930446258617404,10665.862996301848
208,-5.3507450740397644e-05,0.0001019625804218327,-0.0008115132573607298,1678323348102118822,206,1677825035110538482,camera_1,0,0.7038704339262432,0.7062244840604308,0.0352162784592861,0.06762546923710383,0.0033973765675909817,0.0006211867657971013,10669.620777102886
209,2.6405955593916675e-06,1.553983603541642e-05,-0.000208273812391635,1678323348108637053,207,1677825035117165327,camera_1,0,0.7039924386288596,0.7062558547212029,0.0323554680711989,0.06745693227021424,0.0034345315070822835,0.000628178446151038,10668.598498041974
210,3.558463632846731e-05,-0.00012298163617491253,0.0009864703055098012,1678323348115569020,208,1677825035123746395,camera_1,0,0.7040419380667141,0.7063006643985865,0.034164037583836016,0.06555257012010192,0.0059549518628045925,0.0010896907604552905,10661.682295838142
211,-6.248774989871253e-05,-2.575615141331422e-06,0.0004911145575428044,1678323348122004001,209,1677825035130510568,camera_1,0,0.7038696132658071,0.7062585914710465,0.03299394957951614,0.06839421602387802,0.005704368639271706,0.0010441194073620072,10659.882167506497
212,-8.247571194150427e-05,-1.9185420727485525e-05,0.0005711721777652556,1678323348131066388,210,1677825035137161731,camera_1,0,0.7039576638226658,0.7062506929773184,0.03386211877395304,0.06713362143167366,0.005211102426983415,0.0009536404817215088,10661.470117542658
213,-5.857425603622568e-05,-4.4652981377402146e-05,0.0008145480928969384,1678323348133918612,211,1677825035142889976,camera_1,0,0.7040081649590982,0.7063812697120373,0.03397253273433913,0.06514501124834812,0.002621783991344273,0.0004796493901546268,10664.375282886667
214,-2.6748568123929894e-05,-6.860449627110743e-06,0.0003462031282190914,1678323348141635449,212,1677825035149996757,camera_1,0,0.7037795892075337,0.7062923672302481,0.037051840862296535,0.06687707302119797,0.005085676850285381,0.0009304278540846869,10659.853800123436
215,-2.1169264128637066e-05,-2.0759898038291702e-05,0.00037583812349106793,1678323348150165301,213,1677825035157121181,camera_1,0,0.7040324700637574,0.7060637964302449,0.036132165973023295,0.06713168438622896,0.00682747788960114,0.0012493318874477071,10660.17400442611
216,-3.535503103793691e-05,4.145040875663808e-05,-0.0004063678322210329,1678323348153930971,214,1677825035162902355,camera_1,0,0.7038548645492726,0.7062098943343876,0.035795403893927415,0.0676358178379538,0.002576546976342797,0.000471218344420733,10665.574575707202
217,-1.8565831107666964e-05,2.1228814989393552e-05,-0.0002012536480435756,1678323348161741185,215,1677825035169990301,camera_1,0,0.7039249978506261,0.7062102364928733,0.034776705970127865,0.06743352278758234,0.0034865786437876523,0.0006377105764444591,10665.733421031617
218,-2.3497227954930033e-05,-2.3488382304426292e-05,0.00035110104666680186,1678323348170520577,216,1677825035177170276,camera_1,0,0.7038901951986009,0.7062330624615791,0.032753475759249355,0.06856139157793686,0.005472525139339268,0.0010016198194538663,10660.806441303339
219,-2.8768487419991717e-05,-0.00010507137485460394,0.001116710715225011,1678323348174166820,217,1677825035182896375,camera_1,0,0.7040238798281498,0.7063156607090358,0.033947416805548684,0.06569731319549836,0.004253904975485057,0.0007785192419573332,10660.577710372629
220,-7.185902310943848e-05,8.708730095785544e-06,0.00013369773946925179,1678323348180944579,218,1677825035189406871,camera_1,0,0.7039113059247678,0.7061747443720027,0.03727202535366695,0.06661005876337461,0.0044261981383897355,0.0008095973356677103,10661.945278747471
221,-2.26260321430638e-05,-9.547826610811772e-05,0.0012149335710676112,1678323348189958636,219,1677825035197112321,camera_1,0,0.7041027561648342,0.7063320924463425,0.031907382886799326,0.06569781471838082,0.0029265411430969834,0.0005356313381506101,10662.17096034263
222,-3.726498721605409e-05,-2.357424434829003e-06,0.0002575479560955607,1678323348195693744,220,1677825035203797817,camera_1,0,0.7040054778170427,0.7062941555591555,0.033331145616984,0.0664370962522916,0.004667988221626729,0.0008538698764275813,10666.365691981513
223,-1.6577921825577935e-06,1.6461989763294493e-05,-0.0002326650659689733,1678323348202212813,221,1677825035210479021,camera_1,0,0.7039022249662817,0.7061660624825524,0.03394760329640482,0.06854713791133772,0.00328591390280053,0.0006011892221240252,10664.10037849646
224,4.9606885748038065e-05,-0.00011543735899349761,0.0010355867546909536,1678323348210417766,222,1677825035217265844,camera_1,0,0.703923492146852,0.7062441026439317,0.034674153508566924,0.06714676286250132,0.0022656777291558683,0.00041478243951104235,10656.643964499235
225,1.504639313942846e-05,-5.229880711649093e-05,0.0004066370025408439,1678323348214722117,223,1677825035223191499,camera_1,0,0.704175553294259,0.7061393061957545,0.03397507805701517,0.06595274413640859,0.00278171815443784,0.000508851440057103,10665.57621858548
226,-9.302455906338991e-05,0.00013646608985651287,-0.000962246457130167,1678323348221690820,224,1677825035229886770,camera_1,0,0.7038444644738683,0.7061207103648067,0.03714515109532094,0.06794667006925352,0.0039930533384904265,0.0007300458467685278,10667.511602616873
227,-8.875842282075885e-05,2.1466982320916816e-05,0.00023430919307010356,1678323348228249489,225,1677825035236518383,camera_1,0,0.7039840854305344,0.7061655810409424,0.03428946382080837,0.06753378624454387,0.002607616654131561,0.00047712591871100214,10662.633018477587
228,-9.09794435659389e-05,8.719100801912738e-07,0.00027160646387480725,1678323348235069292,226,1677825035243291378,camera_1,0,0.703908476231704,0.7061202156141245,0.03643502109596248,0.06767264903903017,0.002894421981181949,0.0005296498689004098,10659.244240322265
229,-0.00013555465686888868,0.00015146706731289372,-0.0010437413313919564,1678323348241960263,227,1677825035249891042,camera_1,0,0.7037920741303386,0.7059525854465291,0.038170751449744335,0.06964665983691426,0.005911086744163185,0.001081040265563256,10662.30222318904
230,-7.720847781389484e-06,-7.813157253266922e-05,0.000637465230670653,1678323348248601972,228,1677825035256554603,camera_1,0,0.7038690899672265,0.7063024832339095,0.03429088114798566,0.06729964217152885,0.0031984401284717023,0.0005853721544425263,10659.927965403076
231,-0.00010197771584423421,0.0001541298956149184,-0.0009670917634116982,1678323348254362362,229,1677825035263068437,camera_1,0,0.7039770911563823,0.7059876029852595,0.035840867692625115,0.06865268939499827,0.003398482396733016,0.0006214463974418388,10667.439664804026
232,-8.257429031709174e-05,0.00011145759305808411,-0.0008236560333285681,1678323348261580536,230,1677825035269887208,camera_1,0,0.7038263222218729,0.7061292030323241,0.03578287194620764,0.06877239888100903,0.0011569199268706145,0.00021158566481702945,10666.014355747726
233,-5.560004111532235e-06,-9.031227066930159e-05,0.0008818312058700428,1678323348269771311,231,1677825035277042627,camera_1,0,0.7038555524584256,0.7062837455261224,0.03489563683498318,0.0673270124758052,0.002957414137199521,0.0005413617650242887,10657.161007894782
234,4.665894024130646e-05,-0.00017567431986098558,0.0016721448907950354,1678323348275835997,232,1677825035283699512,camera_1,0,0.7042615680586232,0.7061951982885835,0.0321280186029796,0.0653588256504384,0.003394783940166235,0.0006214772253109235,10659.050188281108
235,-1.818891889431018e-05,-0.00013098821028140195,0.001396968165442658,1678323348282380348,233,1677825035290376901,camera_1,0,0.7042984907655768,0.7060810458900645,0.032820819663901685,0.06584820678433945,0.0030763757531531155,0.0005631356858389483,10659.276188180893
236,-6.312139228246971e-05,6.511788509910854e-06,0.00017590981357651359,1678323348289251135,234,1677825035297504425,camera_1,0,0.7038335972405645,0.7061800174017306,0.03678551759952463,0.06763783048585724,0.005357570247724652,0.0009803203883368278,10659.634287575493
237,-7.112221978726463e-05,1.2903485560933348e-05,0.00015208673542810303,1678323348296121084,235,1677825035303963899,camera_1,0,0.7038266248352301,0.7062400524684809,0.034691040572823184,0.06818799136461245,0.0066049948800355205,0.0012086179538944824,10661.089778879072
238,-2.7122325322953555e-05,-2.2156803251960344e-05,0.00036045004174223294,1678323348301182159,236,1677825035309730768,camera_1,0,0.7041182459389475,0.7061842553654598,0.03573579155130667,0.06514788110132423,0.0037251199246384203,0.000681260373507377,10665.792699413496
239,5.411034810433313e-05,-0.00019027782451247477,0.0016473858065584324,1678323348308735847,237,1677825035316989421,camera_1,0,0.7041384421952263,0.7061610887246416,0.03368859393331666,0.06626197727886733,0.002443752659019083,0.0004474621041591956,10655.162094258587
240,-2.9304838315452608e-05,7.469487620592741e-06,-0.0002699427919550246,1678323348316195950,238,1677825035323693037,camera_1,0,0.7039286375864673,0.7061043155812436,0.03699819974225197,0.0673223730942115,0.003030322666745633,0.0005542113508500722,10663.687072675908
241,2.8510686871097146e-05,-9.11344257716884e-05,0.0008016078879617972,1678323348322277607,239,1677825035330392837,camera_1,0,0.7038090125717659,0.7063822809541269,0.03355195583363218,0.06746268032430232,0.007738468644674867,0.0014164424014425315,10659.079561139455
242,-7.67292555925031e-05,5.6739033730435207e-05,-0.00012572807619948279,1678323348327544642,240,1677825035336114168,camera_1,0,0.7039592956003194,0.7063586478774104,0.033662645991207475,0.06607266432927654,0.005542508792132139,0.0010134781581807297,10669.999839709373
243,-9.800916849042607e-05,4.394382653388762e-05,-0.00010493452038495832,1678323348337375416,241,1677825035343665838,camera_1,0,0.7039246050590742,0.7060589431324156,0.03488220915696147,0.06895034952408323,0.004961714614182711,0.0009079691401215027,10660.928535807176
244,-5.703376055127274e-05,-4.8988175182285154e-05,0.0006614305137220278,1678323348342031764,242,1677825035350376844,camera_1,0,0.7040158180849214,0.7062118882991933,0.032814105258536536,0.06745169536185598,0.0030777899082750078,0.0005633241744276131,10661.139322493571
245,-6.768740303959853e-05,-2.9932897487983112e-05,0.0005154083836340639,1678323348348470517,243,1677825035357006788,camera_1,0,0.7039681045046796,0.7061771120278986,0.03432824379975559,0.06756009151599687,0.0031645121634937823,0.0005791608067837136,10660.238269468073
246,-8.057169353009597e-05,0.00010228669525769174,-0.0005147380973329341,1678323348355487620,244,1677825035363012313,camera_1,0,0.7038978750316419,0.7062321791223161,0.03325721124026085,0.06824843293882009,0.007022368954494596,0.0012843615299768644,10668.040597206687
247,-3.993773714595916e-05,2.6217683278595416e-05,-3.8126621101586267e-05,1678323348361310237,245,1677825035369699478,camera_1,0,0.7040317364675799,0.7060570466812998,0.03422452295272738,0.06820148757016438,0.0032595886150375013,0.0005963991687142571,10663.139088599592
248,7.377689660628683e-05,-0.00023045958998846316,0.002010325215023645,1678323348368736956,246,1677825035377024412,camera_1,0,0.7040949605279487,0.7063049020267375,0.03502017454232408,0.06447681216664207,0.004764882731251419,0.0008723631777632383,10655.052629461508
249,1.0510631726537434e-05,-8.124106829909827e-05,0.0007487606597949004,1678323348375963790,247,1677825035383746147,camera_1,0,0.7040544565182959,0.7061212568429408,0.03481288853023691,0.0669936988339488,0.005925067875068635,0.0010843811642686607,10659.17884544702
250,-6.536649289060059e-05,-1.075300078751118e-05,0.00020119096158399685,1678323348381678295,248,1677825035390368700,camera_1,0,0.7039707224915209,0.7062215666149372,0.0354719608717569,0.06646849415040465,0.004469730833079666,0.0008175441600077032,10664.104571399392
251,-4.944011976210083e-05,-2.2743592289820036e-05,0.0006789300046872171,1678323348389143216,249,1677825035397015571,camera_1,0,0.7039697751858804,0.7062107731525271,0.035665582009561485,0.06648959142580255,0.00313034316059202,0.0005728067592133831,10660.001101324222
253,-4.648115030779498e-05,0.00012018825977211378,-0.0009163439141959273,1678323348415692872,250,1677825035417053222,camera_1,0,0.7037731476290926,0.7062199289643508,0.03626248308077309,0.06813076346734502,0.003599623625632376,0.0006581596613204711,10667.812625797347
254,-5.44810275392299e-05,0.00010909665179936745,-0.0010097864241433996,1678323348418651463,251,1677825035423679590,camera_1,0,0.7038779169100928,0.7060429310309915,0.03684886811942045,0.06856689103198896,0.0042561046429909774,0.0007782166217650447,10666.63275023131
255,4.679695340592538e-05,-0.00016140179589851922,0.0014522928171500915,1678323348422398067,252,1677825035430486440,camera_1,0,0.7040983573829034,0.7063340966999461,0.03341884563141776,0.06496789766055244,0.003394158091396093,0.0006212051753520624,10660.284941323573
256,-6.563758324393265e-05,1.8554819699201364e-05,0.0001476927889481061,1678323348428444454,253,1677825035437006950,camera_1,0,0.7038841198721744,0.7062355803960501,0.03389855887325532,0.06803924221172247,0.003733278950676322,0.0006831301005624528,10662.481329245958
257,-9.154157617088932e-05,-7.450542650427883e-05,0.0009364764222064004,1678323348434236551,254,1677825035443045377,camera_1,0,0.7040367961143291,0.7064251318628175,0.035183332502822795,0.06370130221327844,0.002459554350934923,0.0004498510419298173,10665.41748386878
258,-7.518086871810548e-05,-3.7643474799065046e-05,0.0008211761042775656,1678323348441599855,255,1677825035449673652,camera_1,0,0.7039420699800975,0.7065590473441414,0.0311481080774052,0.06534271261183787,0.005789381102658809,0.0010592073124888076,10667.084654459151
259,-2.1584925542189604e-05,-0.0001190236556209423,0.0013539495328966922,1678323348450069155,256,1677825035457026004,camera_1,0,0.7038797443757145,0.7064095146709284,0.03219618027242966,0.06709924750567335,0.004994509858079255,0.0009144897155864369,10657.184923656632
260,-9.854320930195726e-05,0.00014496495935079068,-0.0009498169106723076,1678323348455460576,257,1677825035463811874,camera_1,0,0.7036775007547091,0.7061098486511218,0.035675605318804635,0.07052735465500701,0.003981645742896943,0.0007284012720217713,10662.504995052004
261,4.485747873393675e-05,-0.00010421955252915005,0.000862626429352531,1678323348462254608,258,1677825035470443964,camera_1,0,0.7039542382198575,0.7062458014638681,0.0350191329733685,0.06662551112563776,0.004825667187105864,0.0008831528345539338,10658.924992395796
262,-1.9558234402292096e-05,-7.681631452427506e-06,-9.778218348222012e-05,1678323348467778936,259,1677825035476294517,camera_1,0,0.7038387671237601,0.7061503550140058,0.03695711532314398,0.06779998255376554,0.007709439087193459,0.0014103047046893028,10661.134929535916
263,-5.679606898442713e-06,-5.022122348424807e-05,0.00036144316987529734,1678323348474605025,260,1677825035483033418,camera_1,0,0.703849843196668,0.7062157338273723,0.037400143512327434,0.06675301335482142,0.0029197119874879718,0.0005341624413729889,10659.532815195736
264,-2.7039894149955e-05,-9.427277579487914e-05,0.0009703948544776964,1678323348482014283,261,1677825035490359306,camera_1,0,0.7039152937457589,0.7062395813973761,0.03600080244134369,0.06657969001174767,0.0021271876175887887,0.00038933355203100013,10656.957438200716
265,-0.00011482656444819495,5.043538452986773e-06,0.00037134180614772916,1678323348490018724,262,1677825035497017621,camera_1,0,0.7039944170803153,0.7062800337935711,0.033113068302802924,0.06681241869497723,0.002994578506331891,0.0005479119380850833,10664.79281166487
266,-3.871347006770276e-05,-9.471284069523245e-05,0.0013934537617994458,1678323348495329898,263,1677825035503709554,camera_1,0,0.7040531432289707,0.7063570206103019,0.03180890590673068,0.0660085180030625,0.006336647435091436,0.0011600715801133284,10660.097220172644
267,-3.460471686091149e-05,4.35837382193327e-05,9.85757203464388e-06,1678323348501651528,264,1677825035510363340,camera_1,0,0.7041185496780128,0.7060998969697988,0.03236280645367126,0.06776910990276899,0.0039767507114447645,0.0007275372099108888,10666.086283212991
268,-2.158182985470547e-05,-8.841386576030619e-06,0.00022926246301091524,1678323348507406540,265,1677825035516306400,camera_1,0,0.7039412242953295,0.7061908078063727,0.034830288567204645,0.06743994888566303,0.0028189157019369304,0.0005157582305350074,10662.204087063199
269,-1.9234008218307896e-05,-3.0080875887794623e-05,0.0004959750751178937,1678323348514688897,266,1677825035523036956,camera_1,0,0.7041041913890244,0.7060976495843568,0.034299437057205465,0.06698466643504263,0.00157724239397794,0.0002886252758777341,10661.889767186254
270,2.2879153957960918e-05,-0.00013171800756578422,0.001059883723610433,1678323348523386786,267,1677825035530386924,camera_1,0,0.7038777434195715,0.7063738246290239,0.03561340358361384,0.0657558186225957,0.0053251347853802145,0.0009745030525105492,10658.780132640035
271,-9.432173296787527e-05,0.00012194807626508819,-0.0008631485656258597,1678323348528813966,268,1677825035537023782,camera_1,0,0.7038341890421371,0.7060317435800552,0.03706619315808925,0.06901238089989112,0.004258357104845345,0.0007787787389616529,10664.023410668946
272,-5.1832237748627996e-05,-3.439849459418998e-05,0.0005671389097519075,1678323348535389117,269,1677825035543740272,camera_1,0,0.7038622641099259,0.7061933834848033,0.034154076486558466,0.06857344488710303,0.004152596928179264,0.0007601802315525527,10657.398333784666
273,-9.328474291499245e-05,-4.089831118053722e-05,0.0007696595409232287,1678323348542209060,270,1677825035550420522,camera_1,0,0.7039976581432855,0.7062536049902637,0.033559888889994435,0.06683469626412424,0.007064333593007176,0.0012929685644416475,10661.006101718176
274,-3.565693366260059e-05,-8.5459876984606e-05,0.0011107555338067954,1678323348548583978,271,1677825035556342601,camera_1,0,0.7041970125392392,0.7061447777506173,0.03348233785052397,0.06591701933799424,0.0032310205278918147,0.0005913129244568344,10660.642872144816
275,-9.98898945809984e-05,0.0001040009517713214,-0.0005741323087207206,1678323348555403501,272,1677825035563626527,camera_1,0,0.7039929916377807,0.7061507590044092,0.033440223049578936,0.06802003208451722,0.00524177134502679,0.0009585972680906512,10668.894244670862
276,-9.712349503900042e-05,6.011730651117597e-05,-0.0004503340032333547,1678323348562393087,273,1677825035570414543,camera_1,0,0.7039085908615641,0.7060436768975175,0.03613724331843175,0.06862304037031293,0.003352117259055376,0.0006132124474833357,10662.944993642162
277,-2.9378492044263016e-05,-1.8441664633439547e-05,0.0002057653348730426,1678323348569726848,274,1677825035576356649,camera_1,0,0.7038719173852631,0.7062380257822457,0.03533724978547348,0.06740514545039178,0.004948027548380196,0.0009052996877980683,10661.84219095786
278,2.6040598493495826e-05,-9.018927916176755e-05,0.0007273283388626872,1678323348575167576,275,1677825035583664894,camera_1,0,0.7038097877081787,0.7065311315624881,0.03411837398967843,0.0655856647103549,0.005906191654503346,0.001080534897226146,10663.743418595981
279,3.863834407069611e-05,-0.0001226421455947091,0.0009099880793650428,1678323348582780490,276,1677825035590401887,camera_1,0,0.7038199182754293,0.7063830581210357,0.035940874395585166,0.06609653081684372,0.002289441763423383,0.00041898730545765744,10658.699814304251
280,-0.00010508651473789543,0.0001733275649380417,-0.0012945298908979552,1678323348589354664,277,1677825035597009420,camera_1,0,0.7038025542482572,0.7060932199005213,0.03577351275090557,0.06938721229163024,0.005077555717434734,0.0009284143884759057,10668.207598314615
281,-8.092641640140841e-05,2.1028486811514036e-05,-2.1127890932781668e-05,1678323348595604148,278,1677825035603729724,camera_1,0,0.7039148535569918,0.7061388068128941,0.032676240451658775,0.06931181547648534,0.005746909126173705,0.0010517293645394058,10661.923925620504
282,-8.047602781627305e-05,3.653730374608699e-05,0.00024229846839185498,1678323348602041293,279,1677825035610400676,camera_1,0,0.7040529266534642,0.7062375224163366,0.033797978090637365,0.06630033996074869,0.00405393575783819,0.0007415497071448622,10666.3224432288
283,-5.618652640076993e-05,-5.415779719075697e-05,0.0008542599766392378,1678323348609889989,280,1677825035617014169,camera_1,0,0.7039507151534721,0.7062933226598358,0.03438281924109588,0.06649026050541776,0.002465293335262686,0.00045116285727370636,10660.184813099564
284,-3.7255462153301666e-05,-3.653580986412441e-05,0.0004604605164919562,1678323348615374299,281,1677825035623694896,camera_1,0,0.7039231425323804,0.7062805327667719,0.03412226843702719,0.06704990110905629,0.002733460976742208,0.0005001733519076929,10662.219687333913
285,5.781102402380167e-05,-0.00013252816515868515,0.0009428276734575469,1678323348621824435,282,1677825035630375146,camera_1,0,0.7040391391323112,0.7061321138209079,0.033976313973303716,0.0674680553257469,0.00520842761034146,0.0009534361902331512,10657.387778538283
286,-3.312113458966981e-05,6.214230620427141e-05,-0.0006928973465476496,1678323348630933685,283,1677825035637262821,camera_1,0,0.7037043346949282,0.7060468569145325,0.036658844521580684,0.07038589554037633,0.00375314790289849,0.0006867519780626451,10659.480287931628
287,-6.758218034932928e-05,0.0001011975594970016,-0.0007081790897789375,1678323348635497006,284,1677825035643690347,camera_1,0,0.7036468142481631,0.7061629980160385,0.03637274907691551,0.06994286351014907,0.005674754385836422,0.0010382219008531366,10661.216952242192
288,-7.750074573245613e-05,7.098700355534504e-06,0.0004421132824585783,1678323348641853905,285,1677825035650347948,camera_1,0,0.7041577149857579,0.7061428671577344,0.03416289051819858,0.066008033599949,0.004151043423917145,0.0007593555015984652,10665.00202331436
289,-4.976923939770117e-05,-0.00010139234464956459,0.0010300463701762297,1678323348648759682,286,1677825035657071828,camera_1,0,0.7039364654553495,0.7063131275054415,0.03304942115251931,0.06710405559424308,0.005847239983268082,0.0010703459582337284,10658.783612427304
290,-0.000146719556568628,0.00011527002818556564,-0.000524210025916183,1678323348655297608,287,1677825035663634061,camera_1,0,0.7038455292509741,0.7061668680434475,0.035318928860982035,0.06842805488421842,0.002925398002844304,0.0005350989008560876,10665.154012591232
291,-6.269184613610923e-05,5.870562706855598e-05,-0.00028407039712829985,1678323348660767740,288,1677825035669648408,camera_1,0,0.7037583480271975,0.7061814484330193,0.033930317411199604,0.06986188539860658,0.005578316457103938,0.0010208522193262519,10661.099324426152
292,-3.787237198270288e-05,4.5522630310768086e-05,-0.00037321809652590687,1678323348668676498,289,1677825035676990509,camera_1,0,0.7038407373778165,0.7061727577906709,0.03663917067387487,0.06771871036944542,0.006645009270869196,0.0012152724802023034,10664.002798540285
293,4.744395955597058e-05,-9.296034552497279e-05,0.0008368937388452125,1678323348675641081,290,1677825035683659791,camera_1,0,0.7038644588146156,0.7063817837767123,0.03663427524070356,0.06524974362881905,0.006802050571423024,0.0012444324472302092,10660.514896178263
294,-2.9330035744706828e-05,1.5023307612771486e-05,-9.20111441748972e-06,1678323348682124601,291,1677825035690332174,camera_1,0,0.7040010471875406,0.7061694972978492,0.03571094388784265,0.06657248028719287,0.005019504984375089,0.0009180278866607149,10665.227209834618
295,-3.9048065685831634e-05,2.137132400825692e-05,-8.542714444104149e-05,1678323348689454032,292,1677825035696966171,camera_1,0,0.7037705208619922,0.7064248599306123,0.03605103598818159,0.06611576243101233,0.0054841323872096845,0.0010028088545214807,10666.555769691591
296,-4.5381938612601425e-05,-6.810418317082512e-05,0.0009044276916152505,1678323348695159596,293,1677825035703012466,camera_1,0,0.7041236519979234,0.7060979107123024,0.033886062889419685,0.06698774460065962,0.0032259108847938482,0.0005904407397583812,10659.109149967087
297,-0.00010632066335107548,1.770684933100064e-05,0.00038412640115303986,1678323348701754163,294,1677825035709858894,camera_1,0,0.703899268896472,0.7063469375863533,0.03224476501929685,0.0675284987116048,0.006002042267937213,0.0010982983051465855,10663.867605576988
298,-4.5538022276442325e-05,-7.985320026604459e-06,0.00048313345882444736,1678323348708471720,295,1677825035716956615,camera_1,0,0.7040262713436081,0.7063484195965458,0.03511874289400408,0.06469616131597775,0.00453056552214548,0.0008285340858564336,10666.73138159095
299,-6.875870270867113e-05,0.00012538409515394644,-0.000874028916994618,1678323348714602195,296,1677825035723027944,camera_1,0,0.7039083579192285,0.7060856177071405,0.03587205713792321,0.06833242008940331,0.0028343070880509913,0.000518252901191601,10667.461852222685
300,2.4846723655769232e-05,-8.808978894692121e-05,0.0007738389666749335,1678323348721969339,297,1677825035730298519,camera_1,0,0.7038645879733433,0.7064926162839815,0.035888733402163614,0.06445792230687326,0.003139260516036302,0.0005742012747815316,10663.941215224912
301,-6.99174969390759e-05,7.185190473452119e-05,-0.0006375501253108595,1678323348730683082,298,1677825035736937999,camera_1,0,0.7038956875992707,0.7061948446685392,0.03566171259499043,0.06743845043830826,0.0031446065986528997,0.0005749857546595053,10668.127798734702
302,9.258004530979247e-05,-0.00025979700592687616,0.0023939388783040805,1678323348735519829,299,1677825035743620872,camera_1,0,0.7040609419555641,0.7065989494999699,0.03213866657913449,0.06311276169443028,0.003411709680221975,0.0006245928898934906,10658.692763303872
303,-0.00012756134139527142,0.00011225454785951383,-0.00036818858516340924,1678323348741740259,300,1677825035750428915,camera_1,0,0.7039202668142686,0.7062397328400106,0.03499635873312321,0.06705932151179203,0.006352858152240515,0.0011617938060690912,10667.857683152197
304,4.514691519602598e-06,-0.00019172821367940962,0.0019553064768005335,1678323348750305101,301,1677825035757591724,camera_1,0,0.7041574015885922,0.7062805895553274,0.034976208989017085,0.064083909135897,0.004738321586046368,0.0008673566612175944,10656.545753826384
305,-7.19575175131687e-05,-3.976981824871384e-05,0.0007338199088202657,1678323348754669306,302,1677825035763080120,camera_1,0,0.7041216880470309,0.7061434235191524,0.03557860101279145,0.065637466377241,0.006092845113016665,0.001114644060982283,10661.805547222375
306,-3.057458797903201e-06,-5.609602297079741e-05,0.0005874910359509045,1678323348761839360,303,1677825035769843101,camera_1,0,0.7040211127228965,0.7064051577947557,0.03397581351291515,0.06474310756765463,0.0015950686647556722,0.00029174025870678995,10667.141692884614
307,-6.455888237706653e-05,0.00013808561940875652,-0.0011352746021779936,1678323348768953821,304,1677825035777068376,camera_1,0,0.7036633369538289,0.7062565416458806,0.03595518637258767,0.06904223477202365,0.008078463026322423,0.0014772099035100224,10667.58722480899
308,2.342388112269722e-05,-0.0001414763831700805,0.000946309825994085,1678323348776028472,305,1677825035783717870,camera_1,0,0.7039225512174945,0.7062503454299466,0.03694533326898351,0.06586754752667684,0.0024102032766677444,0.000441081264785367,10657.653991756382
309,5.197018163496936e-06,-0.00011464040953279575,0.0012671068827918575,1678323348781936086,306,1677825035790408372,camera_1,0,0.7041578427422789,0.7061801117616371,0.03478501741865755,0.06527928323783802,0.001433424069546163,0.00026234295952914016,10659.37833169336
310,-6.207922929041265e-05,-3.4568885759644896e-05,0.0004423956817611874,1678323348788858066,307,1677825035797030210,camera_1,0,0.704040169834,0.7061376670654103,0.034198195053461285,0.06728683278783135,0.0005065718432888389,9.270184479896392e-05,10661.668353686577
311,-7.41789841363083e-05,2.521141403899474e-05,0.00021286431370981518,1678323348795607819,308,1677825035803778648,camera_1,0,0.7040571723358926,0.7061956311990709,0.03421726473548282,0.06648614405840317,0.008530514198355377,0.0015603467133295734,10665.569711825456
312,-6.675576518795634e-05,-5.1106246425791646e-05,0.0007992452001919226,1678323348802200919,309,1677825035810540437,camera_1,0,0.7039436251808595,0.7062327325282878,0.03439367847997606,0.0671995160211259,0.00202710967278108,0.0003710457896021839,10658.811769501188
313,-3.5041003504959756e-05,-6.619321736084371e-05,0.0009419716186469529,1678323348810068193,310,1677825035817027568,camera_1,0,0.7040530343383538,0.7062704079883416,0.034903390150916355,0.06536963358403856,0.0027794393245130773,0.0005085476122666674,10661.63802820444
314,-7.07511522079346e-05,0.00010401034710605384,-0.0004244243801441172,1678323348815700215,311,1677825035823714494,camera_1,0,0.7039008600636136,0.706160286440475,0.034895877848610916,0.06814328114484958,0.003019448195118457,0.0005522722559980727,10665.605147857215
315,7.269733502508757e-05,-0.0001809206232759042,0.0017480233685698288,1678323348822147488,312,1677825035830425262,camera_1,0,0.7041568946128847,0.7062701133138211,0.031146698565093438,0.06614739584682494,0.00259864324470982,0.000475845995674855,10657.552343290536
316,-3.072617504519537e-05,6.766019759590902e-05,-0.000392501909697085,1678323348827558884,313,1677825035836252689,camera_1,0,0.7038966115511454,0.7063110891596224,0.03533178152307293,0.06637673381065015,0.005652749561704695,0.0010334663367820424,10669.29752234137
317,-4.756576952769098e-05,6.95258769255469e-05,-0.000210700217977422,1678323348837074258,314,1677825035843706846,camera_1,0,0.7038921130961829,0.7063033097534226,0.035145805508676416,0.06660555613083123,0.0037697582738474007,0.0006893742338230374,10667.514220969984
318,-2.574283507175701e-05,-7.269838195861356e-05,0.0009843784606866635,1678323348843394979,315,1677825035850383758,camera_1,0,0.7040169811682132,0.70634838710466,0.035914259932313015,0.06436002015968835,0.002199928800109774,0.00040244206237061435,10662.49631134095
319,-5.736972396999662e-05,-3.657261139755619e-05,0.000543589145804102,1678323348848341026,316,1677825035857123613,camera_1,0,0.7039520743998763,0.7060800606275878,0.0343229331229274,0.06873398863802631,0.002169861865695566,0.0003972376655582991,10656.955426966078
320,-0.00013608189459798914,0.00020314227310347377,-0.0012663967995929504,1678323348854261701,317,1677825035862987279,camera_1,0,0.7038628913178578,0.7061740509345796,0.03339767103902756,0.06913635499127943,0.0054409358999691895,0.0009947579318948638,10671.614358330262
321,-4.344545675226408e-05,-2.4719028276609656e-05,0.0004139073750697442,1678323348862018556,318,1677825035869719266,camera_1,0,0.704047274084754,0.7060909008753127,0.033418451543082234,0.06809025371798359,0.003684221068397164,0.0006742906258288497,10660.763211770802
322,-4.726175553347589e-05,-2.2579633191910364e-05,0.0005194394255743084,1678323348869080217,319,1677825035877058506,camera_1,0,0.7040757322017708,0.7061576171807574,0.034589009462067964,0.06650100335008685,0.0020973573555238545,0.0003837511259588167,10662.589819129204
323,1.6641862266561502e-05,-9.788981994973689e-05,0.0008271698872976962,1678323348875472875,320,1677825035883660554,camera_1,0,0.7039915351940442,0.7061047608829494,0.03569203300765425,0.06736515281171923,0.002026029513217509,0.0003708710513552314,10656.47812079615
324,2.49241888111984e-05,-0.00010370483259619645,0.0007163212152199172,1678323348882407566,321,1677825035890463590,camera_1,0,0.7039611036266592,0.7062352260640142,0.03552005439188498,0.06639951643682472,0.004121195001062007,0.0007541134561476348,10660.030709577492
325,-3.8678362837663016e-05,8.949454207340946e-05,-0.0005935752793018167,1678323348889024481,322,1677825035897118568,camera_1,0,0.7038847464709411,0.7061347164015904,0.03467833619724203,0.06868361505173932,0.0026008555432781573,0.0004757196540351017,10665.78550599702
326,9.031248668425751e-06,-9.002681649999955e-05,0.0007853315503125735,1678323348896997145,323,1677825035903688669,camera_1,0,0.7040150401439994,0.7062880894713187,0.03411527499987081,0.0660008025230058,0.002914940705522895,0.0005333671950901184,10662.247019135391
327,-0.0001388867504981961,0.0001765061115915345,-0.0010144946933929866,1678323348900924985,324,1677825035909736394,camera_1,0,0.7038460870182937,0.7060830745359681,0.03506579556537098,0.06941014064413885,0.007141495065297931,0.001306021188167038,10666.831142752666
328,9.236866666290089e-06,-0.0002591849176364902,0.002616775331663046,1678323348909388069,325,1677825035916993856,camera_1,0,0.7044089298319637,0.7062530702561778,0.029643335498279064,0.0643112197617681,0.0026995801599696283,0.0004944593384676143,10656.734640786422
329,-0.00015264729390498943,0.00012567126674095652,-0.00048305862380404463,1678323348916019861,326,1677825035923710823,camera_1,0,0.7037494769044855,0.7062177526460284,0.03593360382696725,0.06857066224168049,0.006087987392675132,0.0011135956630039473,10663.680044727756
330,-6.752103457906278e-05,2.2783547992288877e-05,3.0767563598654846e-05,1678323348921745610,327,1677825035930354833,camera_1,0,0.7039336462300967,0.7060514000426517,0.03644449799204287,0.06812224870863079,0.004788146063219756,0.0008760834226997827,10659.992626158404
331,-3.4503307154792884e-05,-4.260601808359077e-06,3.3227275909375464e-05,1678323348927735775,328,1677825035936368942,camera_1,0,0.7038857726985377,0.7062985165073585,0.036155773732495525,0.06618145206847519,0.0032554548233747482,0.0005953530367213049,10665.284731708005
332,9.82703389483669e-05,-0.00020825474053176585,0.0015840033032299417,1678323348935460015,329,1677825035943660020,camera_1,0,0.7041332953006461,0.7063649355322521,0.03322822089814114,0.06434878115018958,0.002144676516763866,0.000392524782120942,10660.930973941811
333,-2.420412339262934e-05,3.317649230921704e-05,-0.00021317551135302537,1678323348943180274,330,1677825035950426340,camera_1,0,0.7038133439085158,0.706312400377436,0.03594567500985379,0.06691396309787452,0.0046719954116269955,0.0008544279996771227,10665.693569881845
334,1.2964106824442378e-06,-9.6657362582242e-05,0.0009360842671877201,1678323348948389760,331,1677825035957033634,camera_1,0,0.7038795374945476,0.706200033210752,0.03642550608122816,0.06714381800524293,0.002953325980342925,0.0005405897373118344,10655.23193576443
335,-0.00012232524908473152,4.624083259441303e-05,2.01713446839058e-05,1678323348954385024,332,1677825035963065385,camera_1,0,0.7039387054703043,0.7063438160811387,0.032899999272497815,0.06683040081127918,0.0053239273838698855,0.0009738345578988617,10667.824903768138
336,-0.00014470153901539884,0.00011081390726802587,-0.0007097450668864802,1678323348964552012,333,1677825035970426082,camera_1,0,0.7038838257392005,0.7062487499937868,0.033749548278454285,0.06797963655360897,0.003570692031644285,0.0006529409368762183,10669.725255998086
337,-8.449639916686957e-05,2.8581940168803666e-05,3.01871899748285e-05,1678323348969077548,334,1677825035977079868,camera_1,0,0.7039281257425454,0.7063002587268121,0.03277828090726465,0.0674590439584634,0.004639990453142673,0.0008488563187908259,10666.25171914208
338,-1.0838678518310108e-05,-9.912720508892248e-05,0.0011989666272604893,1678323348975262918,335,1677825035983690738,camera_1,0,0.7040368758059805,0.7064334401772956,0.032922760469369365,0.06480712883396615,0.006283735565375536,0.001149879119779819,10663.34665512922
339,3.9866725483062027e-05,-6.586105520106633e-05,0.0006810892035189475,1678323348982213393,336,1677825035990382909,camera_1,0,0.7039260717881268,0.7063398161230933,0.03440030686593061,0.06624778112255005,0.004602078755851835,0.0008420385967028389,10662.121808569878
340,1.47906131553327e-05,-8.319871952844338e-05,0.0008290843922331703,1678323348989747946,337,1677825035996399402,camera_1,0,0.7040799114147518,0.7062130816250818,0.03420487712794578,0.06606502905821672,0.006265645322855562,0.001146557522038073,10661.639876999776
341,-9.413423307375046e-06,7.783232269242824e-07,0.00013459749971378443,1678323348994691758,338,1677825036003070354,camera_1,0,0.7038618990397904,0.7062131234766668,0.035325942632556465,0.06777557883597668,0.003509634989313781,0.0006421505385901928,10661.476391233156
342,-7.484164320636921e-05,3.41556995839265e-05,0.00022655154229456187,1678323349002052198,339,1677825036010373115,camera_1,0,0.70400035825452,0.7062806785875869,0.0330606034118448,0.06676896834166204,0.005435879167634994,0.0009944069196702592,10666.13044107263
343,-3.800447655610828e-05,-0.00012113923381801284,0.001339366295461275,1678323349010230193,340,1677825036017042875,camera_1,0,0.7039790001779835,0.7064352220000295,0.03248862389669257,0.06563028069020338,0.008903518319129944,0.0016294916033478782,10660.674620400534
344,-0.00010039263617085681,-4.272540150002113e-05,0.0007165283676018319,1678323349015782318,341,1677825036023743391,camera_1,0,0.7040218370744603,0.7063115134178926,0.033868786908617,0.06580428716251717,0.002326337504200637,0.00042563386999004335,10663.649579282857
345,-4.157842040590498e-05,-6.02561545270941e-06,0.00018955149400845528,1678323349022183915,342,1677825036030383825,camera_1,0,0.7038704140320271,0.7062940981838627,0.035542257558273435,0.06672207317438829,0.004558303742669523,0.0008338279920389282,10663.46858370956
346,-1.9082729576111457e-05,3.626546469959191e-05,-0.0002556947789349451,1678323349027867689,343,1677825036036308288,camera_1,0,0.7038368430862274,0.7063918546425517,0.033850298487578326,0.06692087343550784,0.003157260827720165,0.0005773821519124622,10668.625734774627
347,-1.8220598018772738e-05,8.4397969243033e-05,-0.0008101049490019108,1678323349035425987,344,1677825036043712615,camera_1,0,0.7040782712330202,0.7060084770817909,0.035818565322341504,0.06740065759635422,0.0033493729424662892,0.000612317669318804,10669.3904125765
348,5.677219435423764e-06,-0.00010435209211351326,0.0011449155142391199,1678323349042190337,345,1677825036050321340,camera_1,0,0.7042472208325462,0.7062382301604793,0.03155181049184566,0.06532914712527202,0.0034092303249053657,0.0006238814357498178,10664.023412222276
349,-8.980453859872006e-06,-0.00010941845746675893,0.0010101960091950524,1678323349048247340,346,1677825036056557416,camera_1,0,0.7038361240439133,0.7062931715945522,0.03704583833617139,0.06627421905778942,0.0029862691299058497,0.0005465484068961264,10656.024165566314
350,-8.258269550061315e-05,4.234706449685044e-05,-4.253868895798263e-05,1678323349055718756,347,1677825036063668251,camera_1,0,0.7039402927985638,0.7062290975300969,0.03315944263292132,0.06788944940689405,0.004780547285918146,0.0008745865564964737,10665.283644591109
351,-9.441756286560077e-05,7.909300325248392e-05,-0.00034495372345766384,1678323349062453424,348,1677825036070393562,camera_1,0,0.7039023485671351,0.7061265114734961,0.03465415836998558,0.06859972874297597,0.0015849251649342475,0.0002899520509293373,10664.064495115072
352,-7.044381720497372e-05,1.4366396569598372e-05,0.00013421984927708408,1678323349070795544,349,1677825036076998233,camera_1,0,0.7040282461460442,0.7061827480343433,0.034665091656254594,0.06669697465141726,0.0028963233926333487,0.0005297927048138465,10665.095251957424
353,-1.3452501646693538e-05,-5.699062478181638e-05,0.0004919911569380986,1678323349075182028,350,1677825036083642482,camera_1,0,0.7038600119142464,0.7061405918211452,0.03554468895149333,0.06843334931085415,0.005372326530050486,0.0009833770278487722,10656.602788484312
354,3.557150441189927e-05,-0.00011346065487427559,0.00099151173427936,1678323349081032582,351,1677825036089705228,camera_1,0,0.7041858155071129,0.7061017486648041,0.03390613457478805,0.06627995028124747,0.003606766695156694,0.0006601130795051965,10660.135514691934
355,-4.432469965597041e-05,3.3012494868867037e-06,5.928943118327368e-05,1678323349090902048,352,1677825036096935272,camera_1,0,0.7038898441662935,0.7063436681282947,0.033468647206951085,0.06706384591382454,0.0044907969422638425,0.0008215051112111183,10666.194501673688
356,-4.215286791910133e-05,5.9573053211858795e-05,-9.150061670926135e-05,1678323349095344125,353,1677825036103609561,camera_1,0,0.7038075642631835,0.7062490814693471,0.033395151986822996,0.06893410791042237,0.0045493695652112365,0.0008324772881167254,10662.669552961828
357,-0.00015755604272335577,0.00022924379963162878,-0.0013303696199802317,1678323349101672319,354,1677825036110304355,camera_1,0,0.7037879699234595,0.7060078648737677,0.03613956430082083,0.07020911635639948,0.0025685623404569924,0.0004697618714804417,10665.880452428712
358,-2.4503582803273027e-05,-0.00017128972358371186,0.0016432811962143745,1678323349108586198,355,1677825036116938829,camera_1,0,0.7040593741118049,0.7064442170786093,0.03317713119353497,0.06431363655750995,0.0038647495093755424,0.0007072913356327124,10660.657631470824
359,-5.416380131055554e-05,-4.9832191567789064e-05,0.0007105693790943057,1678323349116582816,356,1677825036123649120,camera_1,0,0.7040224010661037,0.7062439924461126,0.034912410797838564,0.0659773105179096,0.002877959341276437,0.0005265732054682041,10661.968730902998
360,-6.188126982503706e-05,-7.492406166020871e-05,0.0007141417915033088,1678323349121915781,357,1677825036130313634,camera_1,0,0.7039538406778851,0.706203955960799,0.035683299252047926,0.06672079836648909,0.002473518194165081,0.0004526663022896013,10659.069598164991
361,-4.8952102928712105e-05,2.9067391393133857e-05,-2.756620990007619e-05,1678323349128663439,358,1677825036136999368,camera_1,0,0.7038279330424052,0.7061826029365414,0.03609327762850538,0.06804151151362023,0.004785682423971593,0.0008756235667496808,10661.129265376136
362,4.1707994283726735e-05,-0.0001557710557641423,0.0012515707517199992,1678323349135402645,359,1677825036143615245,camera_1,0,0.7040367802106603,0.7062015733170198,0.03696943887647956,0.06515221058667639,0.002684366772882641,0.0004912425419982472,10656.95729327749
363,-2.7709419562510496e-05,2.8355784308597975e-05,-0.0001403570799562992,1678323349142272873,360,1677825036150329351,camera_1,0,0.7040177270037751,0.7061232518579033,0.03559543506296413,0.06694742902260534,0.005097661749459803,0.0009322705066598816,10665.470371662059
364,3.554649446166347e-06,-0.0001264845852824159,0.0011797203886452223,1678323349148898380,361,1677825036156934738,camera_1,0,0.7039331901529878,0.7061359209311665,0.034865062644310045,0.06807754680171367,0.007039011805318295,0.0012890111489022367,10652.867886021968
365,-4.106415332949531e-05,-3.585599932737216e-05,0.0007136704598029731,1678323349154478161,362,1677825036163053274,camera_1,0,0.7040625688395027,0.7062489940799329,0.0324597104589235,0.06674297503952238,0.0022627723519690326,0.00041411228148572005,10662.95207542274
366,-1.1388625184391432e-05,-0.0002244752083671031,0.002173668000204909,1678323349161772322,363,1677825036170283317,camera_1,0,0.7040805406018028,0.7063716774100316,0.0329013285421882,0.06501652312274801,0.0029332751873880625,0.0005371383372804093,10655.002921185927
367,-0.00010627788831477081,0.00010448985381772413,-0.0003602732276415388,1678323349170764589,364,1677825036176940202,camera_1,0,0.7038656952271394,0.7061968852078235,0.03440660095091955,0.068375640517571,0.0009880626457743347,0.00018075253712458754,10665.103834540116
368,-1.1789884503232706e-05,-0.00011026044364631504,0.0011151746886688407,1678323349174888472,365,1677825036183572769,camera_1,0,0.7038730063773079,0.7062873395994528,0.0338378031038838,0.06764604863552894,0.00360394746530801,0.0006598801772209553,10655.768485673478
369,-2.1954633178639105e-05,-4.655115544183186e-05,0.00046434360560931864,1678323349181874426,366,1677825036190279006,camera_1,0,0.7039835851452995,0.7061998210369229,0.03301523078088794,0.06781533123028713,0.002844106289558113,0.0005205208914895738,10661.525287765304
370,1.341167327932602e-05,-5.254847337649027e-05,0.0002943560638919429,1678323349188684940,367,1677825036196892023,camera_1,0,0.7038523631100451,0.7063402710709704,0.03400690413370036,0.06722204161608603,0.002868866315111518,0.0005249010067123245,10663.211723060347
371,-8.172004415787915e-06,3.751567080201301e-05,-0.00027879690817300684,1678323349195764062,368,1677825036203581333,camera_1,0,0.7038528771171774,0.7062101987669469,0.037107928260181534,0.06694239457666643,0.0027706233086064462,0.0005067011856285258,10664.610564217895
372,3.695860870160661e-05,-0.0001693162195398057,0.0014480519100263933,1678323349201688996,369,1677825036210235118,camera_1,0,0.7040274109224949,0.7064582876573322,0.03328403909605107,0.06445358959353045,0.004089945869054645,0.0007484661350004746,10661.737166488778
373,-2.016629048157137e-05,-0.00011617676815467437,0.0013470736976941566,1678323349209208603,370,1677825036217001914,camera_1,0,0.7040486024355401,0.7063305296184246,0.03230939737228401,0.06609728571551611,0.00515200209338218,0.0009431466476472293,10659.654525215272
374,-0.00011646321241365332,4.356101341590479e-05,0.00026313595161298053,1678323349218087589,371,1677825036223650932,camera_1,0,0.7039162723852784,0.7061624416183029,0.03458036826583328,0.06812257811835279,0.005275007744785397,0.0009652884053988533,10660.548985363448
375,-0.00014518440444452607,7.917517757755066e-05,-0.00032175701475356533,1678323349220918022,372,1677825036229637384,camera_1,0,0.7038713188306168,0.7062615626052398,0.032587474451294215,0.06854070486170492,0.0037638106732629244,0.0006885554415139183,10666.516000279693
376,-0.0001023446418428331,0.00016197285074620593,-0.0009657875685822326,1678323349227963340,373,1677825036236335039,camera_1,0,0.7038886675007956,0.7060565214944929,0.03522353715927377,0.06916816210540959,0.0031787937623448674,0.0005813410971716892,10666.863508815295
377,0.00011400135623861052,-0.0002702524591560729,0.002287632288518804,1678323349235764335,374,1677825036243624925,camera_1,0,0.7040856274615795,0.7064707991578479,0.033594285740114256,0.06351270034345118,0.005519698082935065,0.0010104572500520216,10656.878179783464
378,2.6521932814174698e-05,-9.94588779867911e-06,-0.00015516188881292692,1678323349241958575,375,1677825036250280618,camera_1,0,0.7038765410692854,0.7061503317983524,0.03698571264081764,0.06739125235419258,0.002204697695560753,0.0004032654905860009,10662.588228484616
379,2.8613740382238406e-05,-0.00014321563512498248,0.0010190156236697945,1678323349248973304,376,1677825036256946086,camera_1,0,0.7041314794952815,0.7063048894102025,0.03534610550039553,0.06389769639808986,0.0014722816413268447,0.00026934362405485625,10664.000977011867
380,-6.857125407859488e-05,0.00010355494853908631,-0.0005878198391222611,1678323349256686159,377,1677825036263598918,camera_1,0,0.7037419709522567,0.7062501049039848,0.036546779366290416,0.06798794423495677,0.0035408168914727867,0.0006475867162971468,10665.194217083625
381,-4.610559677886705e-05,-9.948314211699616e-05,0.001186987184202959,1678323349261754079,378,1677825036270290851,camera_1,0,0.7040136421101009,0.7062500692501503,0.03440433638227765,0.0662719627378262,0.0025325868045911197,0.0004636113499524212,10658.032572989578
382,-0.00012217835349509487,-7.53969922558384e-05,0.001000625276836864,1678323349267651496,379,1677825036276323795,camera_1,0,0.7041158989610298,0.7060825820329049,0.034715177491179035,0.06680602242165756,0.0012639646884053946,0.00023136294651375616,10657.807330790905
383,-9.603902454786983e-05,-8.33589949165714e-05,0.0009917070092915203,1678323349275354085,380,1677825036283295154,camera_1,0,0.7037703929816859,0.7062781678361255,0.034793337053416536,0.06832135315650703,0.0035443113301880658,0.0006490390928052716,10653.875057433032
384,-6.390246289116053e-05,-2.1221396800108483e-05,0.0005971718579149687,1678323349281724393,381,1677825036290279865,camera_1,0,0.7038188120158645,0.7063985833230658,0.035165814014793406,0.06635877377121907,0.0029289535013958816,0.0005359201342106856,10661.621703129615
385,-5.384272519101674e-06,-3.0169328248674798e-05,0.00014350925805928227,1678323349287389101,382,1677825036296329975,camera_1,0,0.7038681579621734,0.7062907255163284,0.03400543021139193,0.06757705211603872,0.005558551580179483,0.001016998264511904,10663.52664007723
386,5.0839713796227426e-05,-4.38335246039645e-05,0.0003723619313715787,1678323349294938041,383,1677825036303261756,camera_1,0,0.7040638528121461,0.7062180907441223,0.034014859752600525,0.06628038009135308,0.004517077759373933,0.0008263237088231413,10664.977644049091
387,-2.3409442798660862e-06,4.6826416155720807e-07,0.00014691886677065114,1678323349302049010,384,1677825036310288190,camera_1,0,0.7041199762006612,0.7061928115389752,0.033118687535736345,0.06640726301970477,0.003105084877461195,0.0005679615271865688,10667.564327907754
388,-5.0750826859347065e-06,-0.0001974915260895549,0.0017677293723559195,1678323349309557302,385,1677825036316930294,camera_1,0,0.7041071378127834,0.7063234476197078,0.03430032921418316,0.06452761609961151,0.0036402467521838852,0.0006663228438449454,10657.782516402309
389,-7.584094051660273e-05,-2.267379461740049e-06,0.0003699020674337028,1678323349315144836,386,1677825036323622941,camera_1,0,0.7038612717797323,0.7062432135404959,0.034589959993914864,0.06784812513423541,0.0036461014533415437,0.000667213967372315,10660.348555317269
390,-8.356310675436407e-05,-5.9610408741583853e-05,0.0009275726438064957,1678323349321632686,387,1677825036330287933,camera_1,0,0.703983036682888,0.7063604725005963,0.034494951877493886,0.0653671572461552,0.005269378190860152,0.000964188736585076,10662.288791630295
391,-0.00010962962920767205,8.478257888983043e-05,-0.0002356015118514243,1678323349327874907,388,1677825036336394548,camera_1,0,0.7039370312311918,0.7061586316491871,0.03411869395679828,0.06818033243866006,0.007069380430039018,0.001293279483235355,10664.964814724164
392,2.8819424277848338e-05,-0.0002108363839661842,0.0019443281107029975,1678323349335610950,389,1677825036343592405,camera_1,0,0.7041327477487912,0.7062312447007498,0.03293465232409533,0.0659530987327964,0.003981919144280255,0.0007291922285524631,10654.459225792896
393,-4.773160487717143e-05,6.131752269938895e-05,-0.0004570369346650338,1678323349342205377,390,1677825036350285530,camera_1,0,0.7040372007763661,0.7061344551928986,0.03587197619107409,0.0664752016661442,0.004644748813007027,0.0008491991538055617,10668.869881671384
394,7.297243305902368e-05,-0.00013012647401822175,0.0011391871277997012,1678323349348441242,391,1677825036356914520,camera_1,0,0.7039460420846501,0.7064397787674237,0.032836932637086445,0.06576127023847092,0.0023913787445053463,0.00043768557635258534,10661.507269114372
395,-3.3667920110794225e-05,4.140781591521758e-05,-0.0001553650784607008,1678323349354465629,392,1677825036362918615,camera_1,0,0.7039827102324339,0.7062262474855343,0.033303477180690794,0.0674070431332889,0.004519403271842748,0.0008267270209420793,10667.247678186868
396,5.084971387486759e-06,-5.8283637695111246e-05,0.0005524606063453952,1678323349361857567,393,1677825036370300769,camera_1,0,0.7039267643678401,0.7062192792661406,0.03453726274771109,0.06744343912740346,0.00461642345180735,0.000844813729258155,10659.942768985402
397,-6.179828174769642e-05,9.576277406497802e-06,0.0002977969469966091,1678323349368680304,394,1677825036376973628,camera_1,0,0.7038581500643192,0.7063018915475348,0.034426043133271564,0.06735124452150107,0.004249475779943168,0.0007775540551801444,10662.418578468028
398,-6.0833266943310926e-05,-9.449770641656308e-05,0.0010514461085784355,1678323349375245747,395,1677825036383608818,camera_1,0,0.7039457081864382,0.7062201560579702,0.035048211684896365,0.06697129206638495,0.0039242456550709895,0.0007183794712317625,10656.54503585491
399,-0.00011228935854827593,8.528992318651563e-05,-0.00029325804739244177,1678323349382101727,396,1677825036390296220,camera_1,0,0.7038760791270765,0.7062114929406594,0.035577012015194885,0.06751347041361,0.002060541941318661,0.000376880195994933,10665.329034040918
400,-8.456264183105688e-05,1.97047101324066e-05,0.00047245747761781587,1678323349389737200,397,1677825036396291017,camera_1,0,0.7040600352445393,0.7063605969106594,0.033340996020773395,0.06513487458971337,0.005675611726474017,0.0010380538499979706,10667.935532319128
