%time,field.header.seq,field.header.stamp,field.header.frame_id,field.image_seq,field.transforms0.fiducial_id,field.transforms0.transform.translation.x,field.transforms0.transform.translation.y,field.transforms0.transform.translation.z,field.transforms0.transform.rotation.x,field.transforms0.transform.rotation.y,field.transforms0.transform.rotation.z,field.transforms0.transform.rotation.w,field.transforms0.image_error,field.transforms0.object_error,field.transforms0.fiducial_area
1678267665258690067,14,1678267620778189420,camera_1,15,0,0.14586519465921352,-0.3427206435575004,2.6324121789840498,0.7040372581920684,0.7065000411234903,0.027689290754085702,0.06650213641257911,0.002620494517032057,0.00047751302405668676,10713.821362959341
1678267665266394893,15,1678267620786000013,camera_1,16,0,0.14584727686963403,-0.3426607040290917,2.631869953237224,0.7042502700210116,0.7059827604448531,0.029905400491757574,0.06874275344663505,0.005073445674497634,0.0009245355687793624,10710.216872627028
1678267665273526815,16,1678267620791605472,camera_1,17,0,0.14588575414646812,-0.3426619192693421,2.6323122981324243,0.7042439937477001,0.7060141667054711,0.025197289012370387,0.07035261408004613,0.008418197394348681,0.0015352777777245428,10706.778202544898
1678267665278451911,17,1678267620798168182,camera_1,18,0,0.1458898025406343,-0.34280055233228734,2.6335215358839092,0.7043052542247239,0.7061590445186471,0.029286554585175407,0.066601880127276,0.004504580632783473,0.0008214752131728815,10703.070949961897
1678267665286460125,18,1678267620805891990,camera_1,19,0,0.1456794264699225,-0.34249839268421467,2.6311646437952794,0.7042660310233464,0.7060805009007385,0.027808078970172682,0.06845724606185719,0.005012006091419607,0.0009129090208430579,10718.902188393642
1678267665293168324,19,1678267620812379598,camera_1,20,0,0.14578614022884603,-0.34271803150049057,2.63264789165587,0.7040193512978882,0.7062492748852869,0.02892402509951967,0.06879037355727596,0.005883858189918101,0.0010728052628614431,10704.849053475657
1678267665300347668,20,1678267620819215536,camera_1,21,0,0.1457207529955783,-0.3425921723747244,2.6319739703397014,0.7041170585727861,0.7059573863819149,0.033131659050715426,0.06888853030926667,0.009442184469662607,0.0017207022229335336,10705.542201263708
1678267665306265410,21,1678267620825795173,camera_1,22,0,0.14572005502994087,-0.34261001345818576,2.632027798237029,0.7038259757150599,0.7064931881842407,0.032127387774374565,0.06681468336231335,0.011298304016236216,0.002058221173834327,10711.652951137396
1678267665313184667,22,1678267620832448720,camera_1,23,0,0.1458197308990291,-0.34268673647794035,2.632715366803282,0.7038389832264604,0.7063393608297865,0.03248654313838103,0.06811767427202121,0.004683152947109193,0.0008538213704492183,10702.281984896626
1678267665319884276,23,1678267620839133024,camera_1,24,0,0.14600123267956183,-0.34285657691989624,2.633778475182579,0.7041323752049486,0.7064871849466365,0.026174814163990492,0.06624450768097707,0.008029896358493716,0.0014644684416500002,10704.765561388807
1678267665326373245,24,1678267620845849752,camera_1,25,0,0.14575890320540158,-0.3424774029506795,2.630577617814385,0.7041434021359666,0.7061097970856643,0.024929216594019872,0.07049509094991663,0.00815031526144594,0.0014846459384853913,10720.693315180371
1678267665331932704,25,1678267620851907730,camera_1,26,0,0.14577991389888906,-0.3426175358156034,2.6317556764129972,0.7040871299779915,0.7061767633038161,0.031156844436386086,0.06785973337604385,0.004861245222855359,0.0008856585009607558,10712.180386794033
1678267665339520267,26,1678267620858867168,camera_1,27,0,0.1457242829482863,-0.3425345450519116,2.6314374462629226,0.7036866676812866,0.7066170449120407,0.03205976338921425,0.06700445611158284,0.0029027366545051336,0.0005286124723567352,10716.024686023127
1678267665347252959,27,1678267620865869760,camera_1,28,0,0.14578055633829948,-0.34266021935893887,2.63281295648627,0.7041365658769687,0.7063228624099188,0.025630710864334088,0.06813792844398238,0.003226802626159042,0.0005883665461657192,10708.340829363446
1678267665352028945,28,1678267620871798276,camera_1,29,0,0.14584245179560715,-0.3428772207686027,2.634013798386614,0.7042611623467351,0.7064954263865797,0.025115650476715552,0.06518920007180762,0.004470549174584448,0.0008153128882572722,10706.472097695805
1678267665358929835,29,1678267620878781795,camera_1,30,0,0.14578607551210127,-0.34261719787212247,2.6319331873680705,0.7040923480711264,0.706194241809561,0.0269966229864868,0.06938905223471899,0.0069060990354046226,0.001258821365114668,10710.902321914327
1678267665366369685,30,1678267620885832786,camera_1,31,0,0.1458304917712366,-0.34259113990540924,2.6315961511705885,0.7039363202937308,0.706081942161421,0.031632067348080724,0.07015240723000618,0.009481131157372147,0.0017280010803420358,10706.866352039273
1678267665373279304,31,1678267620891762971,camera_1,32,0,0.1458696539241473,-0.3426861217146273,2.632500173365539,0.7041434325869579,0.7060887344314299,0.029562665663722235,0.06889683775423183,0.006482636672444642,0.0011819243288426612,10705.103933038305
1678267665379089212,32,1678267620898748636,camera_1,33,0,0.14584827233986844,-0.34271026491202333,2.6327305971079342,0.7040438713422762,0.7063634664880517,0.029149779272999,0.06725452255944701,0.0042929324554279455,0.0007825281761342995,10707.949472439597
1678267665385915372,33,1678267620905792236,camera_1,34,0,0.14582193068819116,-0.34281049906272404,2.6332673676572216,0.7041809839524885,0.7060569271753679,0.025113424995399855,0.0705838034706468,7.878727046772838e-05,1.4380990724326148e-05,10698.49494144949
1678267665392364113,34,1678267620911759853,camera_1,35,0,0.14578131081778428,-0.3426750159205919,2.6324812991055966,0.7039494545748075,0.7062295937674152,0.032700696432939755,0.068011695639381,0.006648260110523552,0.0012119591162073112,10704.209269827812
1678267665399271916,35,1678267620918737173,camera_1,36,0,0.14592320822656185,-0.34284200642394863,2.6337493145494615,0.7040772586640601,0.7064834663399325,0.029080441950214704,0.06565556729170517,0.005689318873919547,0.0010374611980583026,10703.798834441692
1678267665406780210,36,1678267620925799369,camera_1,37,0,0.14592682022577858,-0.34279176793027616,2.633293875884311,0.7041914616837567,0.706257433500713,0.028413721754697176,0.06713779362421018,0.0074022418120875955,0.0013497489692749292,10704.37467653456
1678267665413380994,37,1678267620931766271,camera_1,38,0,0.1458787767852436,-0.34274263748476996,2.6328135724179558,0.7043164264882679,0.7062983201674397,0.026220006352833,0.06628397675386402,0.0014235011185519397,0.00025946134603927894,10712.47585714026
1678267665419583337,38,1678267620938719034,camera_1,39,0,0.14577799858741494,-0.3426172176708273,2.6316720912502953,0.7040979309378179,0.7061254453681479,0.03009155611134754,0.06875650735396915,0.005563516344409436,0.0010136960485053568,10711.634995806726
1678267665426172108,39,1678267620945844650,camera_1,40,0,0.14576258919927693,-0.3426735290572401,2.6323215456693743,0.7039793832300996,0.7060482116127285,0.029906152833221986,0.07081364902441084,0.008474183618091047,0.0015458091518182053,10701.097313673587
1678267665433926172,40,1678267620952642917,camera_1,41,0,0.1457314902501395,-0.3425829860935189,2.6317763792541924,0.7040418527690377,0.70638475382281,0.03276950664552142,0.0653590739717001,0.001905105193145573,0.00034689165143270725,10716.607807579454
1678267665438176118,41,1678267620958375930,camera_1,42,0,0.14570025870581504,-0.3425944571939576,2.6318517890398234,0.7039758157904028,0.706251083829712,0.030215728878405453,0.06866197710480375,0.0028513307333923876,0.00051961739750166,10710.372433330165
1678267665445483061,42,1678267620965070962,camera_1,43,0,0.14577027981240986,-0.3425840928996987,2.6318427733664977,0.7042140379651055,0.7059699347785906,0.02742147469831508,0.07026451911856561,0.005493682168889791,0.001001476496503209,10708.915373234897
1678267665454404372,43,1678267620972435712,camera_1,44,0,0.14577753774143334,-0.3425465364465524,2.631013391572149,0.7039628914984009,0.7058706598381485,0.03306023885367598,0.07134339198416109,0.004985193023458123,0.0009085233448148774,10706.702163666607
1678267665459891057,44,1678267620979129076,camera_1,45,0,0.14581771789393863,-0.3425739371798757,2.631362381801705,0.7042446147185414,0.7061966871153064,0.0273346815466141,0.06766518256861942,0.005955961474683136,0.00108471200025856,10719.705912970703
1678267665465125547,45,1678267620985104322,camera_1,46,0,0.14580511530716447,-0.34255699093374564,2.6313080145878684,0.7040261885252014,0.7063262752111616,0.029214077485070954,0.06780012163484848,0.005296257440932095,0.0009645057091410194,10717.992448451347
1678267665473811704,46,1678267620992404222,camera_1,47,0,0.14589955763884854,-0.34282602813792534,2.63360521101485,0.7040965306021305,0.7064928821327432,0.030888548330592378,0.06451186458196302,0.004973648698069155,0.0009066201216711579,10705.92331984371
1678267665479445125,47,1678267620999163389,camera_1,48,0,0.1457623881690227,-0.3427103262296779,2.6327524267986204,0.7042628798333739,0.7062090636857886,0.02778255616891484,0.06716162616826438,0.008213452936615795,0.001497205112200055,10709.379796528028
1678267665486343081,48,1678267621005855321,camera_1,49,0,0.14577368287604497,-0.342782592172477,2.6332848628699095,0.7041849738475471,0.7061628578950881,0.02950970465666861,0.06772531334624596,0.007418138557113707,0.0013529586531444895,10701.914259458546
1678267665494593083,49,1678267621012419939,camera_1,50,0,0.1457134909543995,-0.3426159149290736,2.63206911323238,0.704086647865224,0.706223739496905,0.029179945425456412,0.06825359224163431,0.010714296251535416,0.0019522940629850233,10710.740069622643
1678267665499565182,50,1678267621019151449,camera_1,51,0,0.14596616098521428,-0.3429067288540842,2.6345669008550052,0.7042773789466438,0.7064553780950039,0.0241063244485971,0.06582596285866012,0.007429123506881297,0.0013557554938628533,10701.219973624684
1678267665506223584,51,1678267621025789022,camera_1,52,0,0.14586890641317718,-0.342727467531494,2.632824530447377,0.7042068979145008,0.7061181998008424,0.030861360504339828,0.06735955216207104,0.005522506893612444,0.001006754796925699,10705.125938648123
1678267665513439735,52,1678267621032448530,camera_1,53,0,0.14581015855179408,-0.3426458173560268,2.631932799153527,0.7041616074345755,0.7061816533447774,0.031585093377758854,0.06683026986859769,0.006770012550987303,0.001233326766158288,10712.912634731041
1678267665519905866,53,1678267621039170980,camera_1,54,0,0.14589858647956483,-0.3427843269720412,2.6330270600383394,0.7041692477674633,0.7063203791473951,0.025666023507301298,0.06781185543109505,0.009602265083231032,0.0017510685563974502,10707.297416986665
1678267665526910888,54,1678267621045808315,camera_1,55,0,0.14583386218254069,-0.3427189222234239,2.6323720496889598,0.7042348635198838,0.7065149570828203,0.02690357314341127,0.06454510185527836,0.0018049998325295746,0.00032876049653751444,10719.7650712023
1678267665534467930,55,1678267621052417755,camera_1,56,0,0.1457319444922684,-0.34259769026745424,2.6317456013362444,0.7039578239868677,0.7061978407493312,0.03252405008290191,0.06833870012563226,0.006854312319774181,0.0012489102937603153,10709.518453659264
1678267665539561831,56,1678267621059131145,camera_1,57,0,0.14575508899147085,-0.3426414617154091,2.632450206608599,0.7042737245236418,0.7059121275857281,0.02902837135290381,0.06959843913182627,0.007665858371183276,0.0013978907949895184,10704.265030270093
1678267665545420698,57,1678267621065078258,camera_1,58,0,0.14572329115989185,-0.3425390070289542,2.6314980448754883,0.7039395998720968,0.7061622208915965,0.028888282205335108,0.07049414634269505,0.009797188744414598,0.0017857417892411928,10709.705541162286
1678267665552554715,58,1678267621072067737,camera_1,59,0,0.14583066509578127,-0.34283921694518943,2.6336420304950394,0.7042763951584531,0.7063436287607553,0.026787887213271227,0.06599883658332269,0.002875497448258102,0.0005243761877378734,10706.007567187773
1678267665559360901,59,1678267621079169273,camera_1,60,0,0.14579997428918998,-0.342554243168908,2.631609146369726,0.7042979036270153,0.7059652228793071,0.030811197713725095,0.06803114821174026,0.004950724483933301,0.0009017999380387122,10713.320325239325
1678267665565287722,60,1678267621085085868,camera_1,61,0,0.1458342067143809,-0.34262848630157205,2.6321465096585284,0.7040261843363856,0.7062802237550145,0.028034236909284842,0.0687710612265809,0.010936326463706791,0.0019934688034644846,10709.84327414096
1678267665573173575,61,1678267621092416048,camera_1,62,0,0.14584824987015735,-0.34268347695333295,2.6326281727260743,0.7040521543039802,0.7060643782233349,0.03093312400936176,0.06947517299756574,0.008461925317533314,0.0015431773891926394,10701.122507665772
1678267665581777599,62,1678267621099150657,camera_1,63,0,0.1459206353145802,-0.34277334540147303,2.6329747252528675,0.7039998834550902,0.7063448433096736,0.028579507621553417,0.06814938128230845,0.007557942939456552,0.0013782497581017726,10704.168680539355
1678267665585934098,63,1678267621105834245,camera_1,64,0,0.14593838953418076,-0.34296160433929296,2.6343376036394073,0.7042628186940997,0.7065602532776641,0.028080132613345025,0.06322971489467412,0.005078701418824494,0.000926058136870951,10705.907841949253
1678267665593094865,64,1678267621112437009,camera_1,65,0,0.14565518924708945,-0.342303279603512,2.6296575426716537,0.7040345245205966,0.7057163658735499,0.030738999078889405,0.0731772721336032,0.012436898599844426,0.0022651702575840166,10715.296528582461
1678267665599058353,65,1678267621119134664,camera_1,66,0,0.14569827586670048,-0.342648173153834,2.6321883327099966,0.7039845701615144,0.7062749590150471,0.034180873488477,0.06643098020025029,0.0026544841239228845,0.00048357194637946104,10708.888958398016
1678267665606622170,66,1678267621125819206,camera_1,67,0,0.14576389025020983,-0.34267311683095947,2.6325731814739854,0.7040550157913287,0.7061436866293648,0.031154276316378293,0.06853495195711598,0.006269600067753345,0.0011430677204627318,10703.84821475437
1678267665614742059,67,1678267621132711410,camera_1,68,0,0.14579308291793522,-0.3426251273036204,2.6318755704971215,0.7037250643769944,0.7060111014022579,0.03352645180981078,0.07207867571903692,0.008588055614382029,0.00156627575481188,10697.158691223241
1678267665620026765,68,1678267621139091730,camera_1,69,0,0.1457775091227427,-0.34248709910156383,2.6306294951970512,0.7037196056350756,0.7060122798613926,0.03295592245688362,0.07238290201938741,0.009773535537533462,0.0017810284635119235,10707.06379405281
1678267665625342340,69,1678267621145100355,camera_1,70,0,0.14579663310344274,-0.34250235770275445,2.63074303777558,0.7038977202652392,0.7060096323156341,0.03048184160768577,0.07175831530315034,0.003533419978339225,0.0006438865519071034,10710.631637285114
1678267665632633499,70,1678267621151910305,camera_1,71,0,0.14571269612449952,-0.3424630538572443,2.6305000137952526,0.7039978444588404,0.706097776615146,0.033413962251955816,0.06853081046564942,0.004217352892737836,0.0007677089902999942,10718.048266317695
1678267665640298795,71,1678267621159064054,camera_1,72,0,0.14575391154594713,-0.3425931675474698,2.6315796745790663,0.7040890260773786,0.7059433752048201,0.031068244559332363,0.0702663400344474,0.0026111556799151003,0.0004759177852231313,10707.328700196462
1678267665648043220,72,1678267621165789842,camera_1,73,0,0.14572130387572063,-0.3426765898964571,2.6322738738640172,0.7040248266934387,0.7062948023123056,0.03229238840317555,0.06673752525463564,0.005759478663094342,0.0010494052641330574,10709.630564143063
1678267665652569526,73,1678267621172376632,camera_1,74,0,0.14581915379671456,-0.34279549915217167,2.633560872673702,0.7037832086302205,0.7064386728351766,0.025643181647883772,0.07054093852508435,0.012489164189901203,0.0022798338594907886,10695.847227009017
1678267665659495628,74,1678267621179070234,camera_1,75,0,0.14580322102153911,-0.34263465499838547,2.6322183297086648,0.7039811609014245,0.7060336456540487,0.030997124414874202,0.07047123227491385,0.0033298906055279076,0.0006072876130512806,10701.708449195372
1678267665667246409,75,1678267621185816764,camera_1,76,0,0.14583965433459778,-0.34271779340160846,2.632784740367795,0.7042033828661842,0.7062312491961101,0.028333747856999866,0.06732174203851472,0.003979806730058044,0.0007255452166864636,10708.148084402434
1678267665672101245,76,1678267621191710710,camera_1,77,0,0.14580638351866979,-0.3426002077868966,2.631627613620428,0.7037139466423505,0.706249777524728,0.028435677033302152,0.07203711070675471,0.012991144612897186,0.002369015920073928,10704.792955501245
1678267665679218361,77,1678267621199021339,camera_1,78,0,0.14582500984567312,-0.3426753822255961,2.631922396511195,0.7039136557517851,0.7061073663972067,0.03210363027231781,0.06990929329564712,0.006784116965718566,0.001236704896048441,10704.311173479186
1678267665686904400,78,1678267621205762147,camera_1,79,0,0.14582030627763795,-0.3427058233028631,2.632679481589722,0.7041103724123833,0.7061663319474276,0.029287153263874835,0.06855623778263165,0.005089507030788809,0.0009280100138240639,10704.852940066017
1678267665693102552,79,1678267621211736917,camera_1,80,0,0.14567244764390644,-0.3424964091264075,2.6308913134266776,0.7037222792569916,0.7060824565527513,0.036710283621438584,0.06982029291123486,0.00488300301367417,0.0008894145544152053,10707.325759466856
1678267665698620805,80,1678267621218401432,camera_1,81,0,0.14577005660588857,-0.3426219911130786,2.6323097024658884,0.7040615138976801,0.7060254169087887,0.030507305777296326,0.06996284457544825,0.0040232453611679375,0.0007336406903334083,10702.896874332564
1678267665705731706,81,1678267621225767374,camera_1,82,0,0.14582521241542265,-0.3427320479987496,2.633149649002287,0.7044197635549051,0.7064640938464971,0.026157156153677585,0.06338047018484194,0.0007016347954049708,0.00012783504971008912,10717.031429432795
1678267665712805451,82,1678267621232412338,camera_1,83,0,0.14585516710401475,-0.3427013287170343,2.632499851802118,0.7041481799957611,0.7060582520495373,0.02871727303288199,0.06951549144589607,0.008072193362750113,0.0014720604437957075,10704.308818077436
1678267665719148104,83,1678267621239086389,camera_1,84,0,0.14592674328831579,-0.34283892009196143,2.6334437983371752,0.7041578417824804,0.7063884375083527,0.028711458816480056,0.06597546016040337,0.012705280096270144,0.0023164944449378,10705.804862285731
1678267665726080421,84,1678267621244858741,camera_1,85,0,0.1458556136034571,-0.34255312435947743,2.631659104303382,0.7036787540960526,0.7062163745637173,0.030213268862432443,0.07198473252400671,0.016907628683838993,0.0030832249365582622,10702.916943899821
1678267665731938729,85,1678267621251518964,camera_1,86,0,0.14563284465833456,-0.34223369869641435,2.6290277217321774,0.7036384122653292,0.7060988992023213,0.02996572401730703,0.07361647039973801,0.015288038877770305,0.0027835332414526985,10719.982241452562
1678267665739657592,86,1678267621259364604,camera_1,87,0,0.14581259604978317,-0.3427700783981909,2.6331181358898403,0.7040347211222404,0.7061591987386392,0.03107578301002611,0.06861918974635274,0.00581361522199586,0.0010604332278087263,10699.261849774048
1678267665744864496,87,1678267621264854669,camera_1,88,0,0.14570824590958267,-0.34264482868665697,2.6320561320098133,0.7041080829258235,0.7058999376426563,0.03262775165562946,0.0698034054793481,0.003568932006601244,0.0006506511723143189,10702.996855325768
1678267665753705699,88,1678267621272619485,camera_1,89,0,0.14571379745418556,-0.34261087833616033,2.6318121670478005,0.7040451045412445,0.7062805270804671,0.027282969680822004,0.06887631961597142,0.005121266469359399,0.0009333267348727776,10713.001839460921
1678267665759025675,89,1678267621278195142,camera_1,90,0,0.14583157031463215,-0.3426956900798939,2.6325543389354507,0.7040034153423621,0.7063249258045253,0.03041945522235834,0.06751997569235736,0.018176311918068677,0.0033131164687757396,10707.39380419964
1678267665765598383,90,1678267621285115718,camera_1,91,0,0.1458386193591472,-0.34263230980595133,2.6319121046529843,0.7040553245704868,0.7060815024090671,0.03447533145441889,0.0675756126188227,0.01200859562959522,0.002187602869829385,10707.774416510829
1678267665772804196,91,1678267621292625904,camera_1,92,0,0.14588583257556412,-0.3427250249919216,2.632439448769068,0.7041619838496007,0.7061546551033611,0.02875866606904475,0.06836989617351401,0.003890776657499373,0.0007092836104500926,10707.740713058733
1678267665778769640,92,1678267621298183441,camera_1,93,0,0.1457198993086592,-0.34244887518310047,2.6304595382252574,0.7039652340958238,0.7059140615448328,0.03371396535387748,0.07058084327781504,0.0027424991712905467,0.0004994709813660206,10712.538087380468
1678267665786588864,93,1678267621306025266,camera_1,94,0,0.14571245790029716,-0.34249914001833554,2.630769496259745,0.7038997180448817,0.7063572580031832,0.033069770302202456,0.06701493337100407,0.0022697802050970495,0.0004131296949307233,10720.204527925236
1678267665791973303,94,1678267621311522006,camera_1,95,0,0.14584611056565097,-0.34278590482263976,2.633236273604213,0.7042901717122411,0.7058807197030917,0.030859323724473763,0.06895988486254426,0.005962878989521414,0.0010877456358483295,10697.619278704864
1678267665799087555,95,1678267621318864107,camera_1,96,0,0.14585517791858013,-0.3427775861265852,2.633212796547211,0.7039417424944784,0.7063926659326514,0.027809876822695312,0.06857138938001428,0.016298135044053197,0.002972716620831108,10701.927008937113
1678267665807469487,96,1678267621326110601,camera_1,97,0,0.14574137111184765,-0.34258875826906365,2.631457182249697,0.7040458398806363,0.7061757116540339,0.029371822037572947,0.06908412036699678,0.007137172506190836,0.0013002660532515297,10713.26449249429
1678267665811583243,97,1678267621331517219,camera_1,98,0,0.14569033817579832,-0.34253370984282305,2.631061755965409,0.7037664022083547,0.7063468599042798,0.0321375924617128,0.06895027031736133,0.004568094678688794,0.0008320146325784501,10713.88234439935
1678267665819938146,98,1678267621339347124,camera_1,99,0,0.14583579955127374,-0.3426228801247971,2.632070485313866,0.7039163868240662,0.7061737574794803,0.031353646780697415,0.06955065378136259,0.007884662772994488,0.00143735687776861,10704.973927997053
1678267665824689898,99,1678267621344876289,camera_1,100,0,0.14592275706942026,-0.34290715785070364,2.63410653622924,0.7041811805881607,0.7062681963659039,0.03144471820655445,0.06576723655763374,0.0060661922907456756,0.0011064870099115733,10698.1268600286
1678267665832210134,100,1678267621351486921,camera_1,101,0,0.14581769660444285,-0.3426019228489778,2.631936739539781,0.7040478976538683,0.7061855470018025,0.030310165854581482,0.06855526865822176,0.008047960174735636,0.0014666314111297903,10709.826981344258
1678267665839222839,101,1678267621359307527,camera_1,102,0,0.14582510580113983,-0.34280828330133845,2.6330907794705696,0.7041797563769006,0.7062806738877123,0.03138509111853932,0.06567690961950744,0.0039032279164530337,0.0007114306017885557,10706.643211675924
1678267665847013149,102,1678267621364894866,camera_1,103,0,0.14569595042622682,-0.34254822905291316,2.6310097766777725,0.7037052785196388,0.7062828285943997,0.03207452042560349,0.07024722169423389,0.008658272330649197,0.001577384357394078,10710.88632267341
1678267665852451994,103,1678267621372621774,camera_1,104,0,0.1458055575725699,-0.3427227241282052,2.63271543729585,0.7040778758846412,0.7060991757747748,0.031113405752461555,0.06877684670322035,0.00666226667817682,0.0012148394093115505,10702.05913910596
1678267665858262670,104,1678267621378175497,camera_1,105,0,0.14574373259731244,-0.342594347398963,2.632028576077683,0.7040445114927405,0.706152157910514,0.031209706250127107,0.06853035787921954,0.012179981567896903,0.0022195574037038902,10708.224410140887
1678267665864955992,105,1678267621384831428,camera_1,106,0,0.14562705894091657,-0.34228237580890575,2.629803932800061,0.7037308981646581,0.7059694362047884,0.033446083501980486,0.07246611353892032,0.012644009490031749,0.0023027596439125246,10713.100583273217
1678267665873785044,106,1678267621392675638,camera_1,107,0,0.1457792925057752,-0.3426776478066019,2.632399944835605,0.7040589688388753,0.7061476489675813,0.03468450307485855,0.06673418540408939,0.0019583867979235947,0.0003568916739670652,10705.761608081753
1678267665879306230,107,1678267621398178815,camera_1,108,0,0.14583032850955877,-0.34267413304946176,2.6317542538486434,0.703862842541844,0.7063132941534193,0.030644985509743334,0.06898923288578133,0.0014402944361791015,0.0002624733838447099,10709.70686824666
1678267665886453099,108,1678267621406015157,camera_1,109,0,0.1458716806758355,-0.34279749631781087,2.6329388451914313,0.704084788558538,0.706222749632553,0.030677697710758838,0.06762334866806402,0.004698130767792463,0.0008566952433760099,10703.671315873042
1678267665891143809,109,1678267621411529302,camera_1,110,0,0.1458057520396723,-0.3425495366053816,2.631191157458654,0.7039985586484075,0.7060163865819066,0.029113560135440836,0.07126915121588452,0.018029648053925484,0.003285663103089156,10709.76454121154
1678267665898338868,110,1678267621418170690,camera_1,111,0,0.14586145128943157,-0.3429731152052664,2.634512848956325,0.7044130818891716,0.7063819528178044,0.02321315804156495,0.06548202875936253,0.001381571579258889,0.000252127611756168,10703.17659049423
1678267665906516445,111,1678267621426012516,camera_1,112,0,0.14578860040209699,-0.34267859712575466,2.6326806070963786,0.7042017447484683,0.7061653148774087,0.030962022828070604,0.06687154775909795,0.004598824481945485,0.000838212452795349,10707.49254142214
1678267665912182132,112,1678267621431919813,camera_1,113,0,0.145786376864838,-0.34269022472130123,2.632722997318999,0.7040991441556652,0.7062336450648626,0.02992490807413025,0.06769736814982183,0.016882742114830762,0.0030775189558980127,10706.121215429972
1678267665919317616,113,1678267621438755273,camera_1,114,0,0.14583413444856824,-0.34278695533841486,2.6331792904170057,0.7041832251204662,0.7061796095551771,0.031069755008418933,0.06686564761634617,0.005857834767084569,0.0010680305069062093,10703.294377493557
1678267665926327946,114,1678267621445834398,camera_1,115,0,0.14583511241771344,-0.3425839181589699,2.6316805252337314,0.7041311642721756,0.7061269374341217,0.028834570345190713,0.06893924342221115,0.00846104312222451,0.0015417615276409127,10712.377528101206
1678267665931659026,115,1678267621451714992,camera_1,116,0,0.1457553644337578,-0.3425189378243574,2.631034998201703,0.7036783171853647,0.7061290232186913,0.035478731357201455,0.07042647309551717,0.008326568524353206,0.001517000765239829,10706.103143677112
1678267665939114730,116,1678267621458701848,camera_1,117,0,0.1456986844440016,-0.3424503644798655,2.6305143077741397,0.7039591387889289,0.705963356298572,0.031084831697701414,0.07135126990832731,0.009934902773238719,0.0018097794132381718,10713.019637786667
1678267665946465323,117,1678267621466116905,camera_1,118,0,0.1457690231643821,-0.34262092102737396,2.631936612600317,0.7040391335833022,0.7060935639871223,0.032352395319231286,0.06865930232929131,0.008039255510084331,0.0014650483711626354,10707.310611796795
1678267665954172594,118,1678267621471538543,camera_1,119,0,0.1457768207748937,-0.34276780592399536,2.6329579103640754,0.7040783024344301,0.7061630781571432,0.030341798081856185,0.06846040007069475,0.006073073134757578,0.0011075305529988611,10701.753417778527
1678267665957905020,119,1678267621478161096,camera_1,120,0,0.14574799627953683,-0.34261754027111646,2.6320596316274503,0.7042809351905135,0.7061091327986841,0.029196960337860442,0.06742250672064638,0.0060397759662009776,0.0011004616489742158,10712.948379877835
1678267665966705367,120,1678267621486122608,camera_1,121,0,0.14589240789597713,-0.34287107049139653,2.634016817621801,0.7043428451547751,0.7067785152302382,0.02391077790368836,0.06159189547543714,0.004593688470777124,0.000837165521067248,10716.041188013973
1678267665971814284,121,1678267621491514205,camera_1,122,0,0.14585807161820322,-0.34272499771975007,2.6325966475289704,0.7041374784165914,0.7062423021517279,0.029711822741370724,0.06730103810445627,0.00800153607269749,0.0014584241886545703,10708.3136515487
1678267665980152495,122,1678267621499322891,camera_1,123,0,0.14584387938929252,-0.3427152695994075,2.6322166666026776,0.7039033483058866,0.7064041764077515,0.029219604918204134,0.06826002113881863,0.0038305821362882853,0.0006982194371103678,10709.377797522233
1678267665984858850,123,1678267621504988908,camera_1,124,0,0.14577666190271835,-0.342519190124331,2.6311043689088507,0.7040467513603926,0.7060344387729102,0.030148640552984364,0.07017551309613736,0.004892039694823325,0.0008912642457818139,10712.410882125952
1678267665992127031,124,1678267621511509656,camera_1,125,0,0.1459155910522181,-0.3428088864145442,2.6337584623979198,0.7043477092566797,0.7064341063055088,0.02335642912877091,0.06557160308821047,0.0022199241793714464,0.0004048360291968467,10708.982777620899
1678267666000066103,125,1678267621519306659,camera_1,126,0,0.14581310553598922,-0.3427743354907314,2.633040205835071,0.7039511503651896,0.7065926305593788,0.02941554205048389,0.06568377443919857,0.007708535413257778,0.0014049604519711155,10709.152923778396
1678267666005143731,126,1678267621524887323,camera_1,127,0,0.14570495820984652,-0.3425608500101195,2.6313251699525533,0.7041845570685891,0.7062986817413095,0.028892930452181765,0.06656936477456316,0.00708024378400296,0.0012890792874096415,10721.375507622608
1678267666020083075,127,1678267621538180828,camera_1,129,0,0.14578243840334495,-0.3426020664879018,2.6319112676551053,0.7039391735210854,0.7060703645802424,0.03244904911597751,0.06986658325296781,0.005210875708144158,0.0009499928453346425,10704.21094400517
1678267666024499312,128,1678267621544831752,camera_1,130,0,0.1458767948051501,-0.34269217245360717,2.63259648400065,0.7040767129809912,0.7062604926976775,0.027598961349343195,0.06863232492604508,0.00671220850199461,0.00122392048988785,10706.954167684893
1678267666034862204,129,1678267621552643537,camera_1,131,0,0.14593781940050282,-0.34284725199347876,2.6334537277792354,0.704223354397705,0.7062140359029502,0.027568391689588613,0.06761054942951163,0.004263903945684433,0.0007777435761191059,10702.637054441147
1678267666039410091,130,1678267621558201551,camera_1,132,0,0.14578900024761343,-0.3424995257806539,2.63154529269269,0.704375728629927,0.7060174524855505,0.02169351345942065,0.07016823481219181,0.013077232404612003,0.0023835746611948865,10716.242062702539
1678267666046799167,131,1678267621566045761,camera_1,133,0,0.14576722693740182,-0.34266097596344836,2.6323257499304025,0.7040147106299971,0.7062554227885678,0.03233980688695487,0.06723616503651365,0.003365356591530144,0.0006132627465245302,10707.880082110407
1678267666051475630,132,1678267621571584463,camera_1,134,0,0.14568727141867885,-0.34253759251209603,2.6314312371622135,0.7039175925553643,0.7064294015520078,0.029130130837314236,0.06788931426471449,0.0021724639227613807,0.00039570572626096027,10716.925198267327
1678267666059547538,133,1678267621578751325,camera_1,135,0,0.14578611925728674,-0.34267086820703846,2.632487690858018,0.7039527434251845,0.7064699912527191,0.027545713984902805,0.06776370801986333,0.0021052214433439076,0.00038373282388069936,10710.187791414675
1678267666066160754,134,1678267621585817098,camera_1,136,0,0.14578971371294866,-0.3426663865243009,2.6323536879726412,0.7041798757291644,0.7060567699026135,0.03134376099447103,0.06805959843745935,0.007389990205410869,0.0013468939332108296,10706.628172346038
1678267666073379418,135,1678267621592418193,camera_1,137,0,0.1458478604646941,-0.342718268098218,2.6326061207963347,0.7041973312952313,0.7061069743020031,0.032378051571158924,0.06686345201378649,0.007944399607367814,0.0014477742897953006,10706.471494860474
1678267666079694554,136,1678267621599056720,camera_1,138,0,0.14574485891971112,-0.34243678710089276,2.630337882682622,0.703840232899177,0.7060553776451713,0.03142312146781829,0.07146549998415686,0.009367607184685767,0.0017063506882958083,10713.74301064981
1678267666086282417,137,1678267621605838298,camera_1,139,0,0.14580955853411648,-0.3426254396141357,2.632012111594732,0.704024448146142,0.7061144912479009,0.030620706022657602,0.06938496973345377,0.006825234915595502,0.0012441401522462522,10706.68168805702
1678267666091181812,138,1678267621611514329,camera_1,140,0,0.1458567660923514,-0.34267102707116454,2.632641988795993,0.7043363421708173,0.7059211228182533,0.026130743218627777,0.07002049496606215,0.005078597401734442,0.0009262738178184383,10704.240753054155
1678267666098599033,139,1678267621618387937,camera_1,141,0,0.14561903912756727,-0.3424399728192495,2.630315292419258,0.7037800750066235,0.7061805611921935,0.035944975841267844,0.0686336632398465,0.0037615664768964052,0.0006847177416825291,10716.163879227941
1678267666107408879,140,1678267621625772714,camera_1,142,0,0.14576306381352647,-0.3426118769147131,2.6317654026554362,0.7040131577105869,0.7060998722996633,0.03051055371374611,0.06969612773209201,0.008683258958626539,0.0015825927181499857,10707.965020522712
1678267666113108159,141,1678267621632478952,camera_1,143,0,0.1457723261917777,-0.3427048925935609,2.632475988588649,0.7038801231955624,0.7063271302312755,0.03327196935780392,0.06743688400648488,0.003958932007662952,0.0007215793304796866,10705.04416902247
1678267666119229067,142,1678267621639146804,camera_1,144,0,0.1458023052082782,-0.3426480934896754,2.632280205013627,0.7040355478727277,0.7063925927488764,0.028513680520639045,0.06730841154146415,0.0034863761393353343,0.0006353303688289109,10712.112166959558
1678267666126745952,143,1678267621646070480,camera_1,145,0,0.1459234366350284,-0.3428289812634803,2.6339051999286514,0.7041845543436357,0.7062566981637585,0.024925171444277177,0.0685880860729811,0.0022785881883464754,0.0004158603482314601,10698.832348186523
1678267666131515233,144,1678267621651714324,camera_1,146,0,0.1457639895520241,-0.34259335206494357,2.631521780787976,0.7037488693937485,0.7062862412142709,0.03464442854102987,0.06853493904209063,0.003213050833437592,0.0005853742782978057,10708.24495111662
1678267666140343097,145,1678267621659091949,camera_1,147,0,0.1457780712438353,-0.34258151248500096,2.6314114472341026,0.7038049235988596,0.7061523635520952,0.03343999064181368,0.06992307196961883,0.013315076881553978,0.0024261885938063987,10706.907638856555
1678267666147493737,146,1678267621665818214,camera_1,148,0,0.14579011530998612,-0.34268934284419816,2.6325120816963476,0.7042866131094401,0.7061058189974484,0.03192606222305121,0.06614881347164392,0.008034117112401871,0.0014638673952985443,10709.599035568186
1678267666151629982,147,1678267621671725749,camera_1,149,0,0.1458652929724465,-0.3427112811283025,2.632690656649801,0.7042816702632343,0.7061741649935235,0.025177094478703445,0.06834831044392774,0.008113633492030203,0.0014792544454354138,10709.065889172023
1678267666159884594,148,1678267621679125308,camera_1,150,0,0.14578182320346475,-0.34264717196460537,2.6323708944079574,0.7040441100495858,0.7062096046660368,0.02981993781057976,0.0685613352473528,0.008547701931092888,0.0015581493553638577,10706.826726126486
1678267666168703169,149,1678267621685826301,camera_1,151,0,0.1459518813291318,-0.3430103775421262,2.635204687425793,0.7043575795350127,0.7066217576766894,0.020853802258948145,0.06427449463690273,0.0008540822309441864,0.00015587985227164086,10702.204955632682
1678267666172512770,150,1678267621692451477,camera_1,152,0,0.14566871531783834,-0.3425631197672935,2.6311734022228905,0.7040470301633069,0.7058942248962468,0.032005682093992564,0.0707584545482242,0.005996283725835383,0.0010927761538760137,10708.266160049356
1678267666180327175,151,1678267621699211835,camera_1,153,0,0.14580833836672538,-0.34263685329392307,2.6321277590615697,0.7038823434153418,0.7062880836202997,0.030893737231975735,0.06893741048177776,0.004967670189216733,0.0009055438124807833,10706.645500089158
1678267666186425805,152,1678267621705815076,camera_1,154,0,0.14600508840535725,-0.3429697841010553,2.6351103080957414,0.7045584895003176,0.7066211690096244,0.01894047054561539,0.06265075383435909,0.009578268858604133,0.001747604126773474,10708.027158288758
1678267666192865676,153,1678267621712419748,camera_1,155,0,0.14580032078869914,-0.3424916554071158,2.630838061889646,0.7039109618755538,0.7063115108382996,0.028200809837253843,0.06955660812082849,0.004908598668407649,0.000894049133560715,10718.18564735492
1678267666199873142,154,1678267621719176769,camera_1,156,0,0.14570136102784326,-0.3424877385444247,2.6304925339416285,0.7038099509481243,0.7059863501099697,0.0357566589190198,0.07040090729352527,0.004468647122848779,0.0008138593576748178,10710.19368565502
1678267666206853720,155,1678267621725802183,camera_1,157,0,0.14578351699489375,-0.3426598321817771,2.6320309974197587,0.7040041040499226,0.7063482562225183,0.03035086678337388,0.06729923697763038,0.007344965415541083,0.0013381915595081487,10712.256124747106
1678267666213182683,156,1678267621732484579,camera_1,158,0,0.14582280478252962,-0.34268429867528966,2.632742143280832,0.7042636677088069,0.7059793548203263,0.030004114865578576,0.06859730318276545,0.006394038500729948,0.0011659407127584084,10703.529200100806
1678267666220415316,157,1678267621739327669,camera_1,159,0,0.1456940070397359,-0.34256609380801256,2.6317116258692423,0.7040753503032661,0.7061483183930793,0.03012578144224003,0.06873784124086271,0.00795771460980177,0.0014499321654529366,10711.41240784607
1678267666224854600,158,1678267621744913339,camera_1,160,0,0.1457150018170946,-0.34257189610925853,2.631279232866045,0.7039272438583414,0.7058631097054112,0.03474930438101556,0.07096612963971952,0.002675190451554954,0.0004876192709364534,10703.570802787439
1678267666234873318,159,1678267621751849174,camera_1,161,0,0.14587650534878205,-0.342807415908356,2.6334426457522193,0.7040205526459936,0.7062674055545326,0.031147788907830303,0.0676108611796375,0.006715552764944732,0.001224879785754739,10699.164433970112
1678267666239728364,160,1678267621759083509,camera_1,162,0,0.14587930398295282,-0.3427743544854035,2.6329133608500523,0.7041710796225307,0.7060531289670348,0.029396852174299923,0.06904994410817282,0.01377145474543795,0.00251179115610977,10701.493761092075
1678267666246419242,161,1678267621765929222,camera_1,163,0,0.145815726776064,-0.3426231654545497,2.6319722811886797,0.7040283249579152,0.7063981667873049,0.027210235885895467,0.06786273409995477,0.00509107526158914,0.0009276494730849647,10714.391949418929
1678267666252810853,162,1678267621772453308,camera_1,164,0,0.14595329945737032,-0.3428831311366667,2.634179779957179,0.704201870324805,0.7061730205701008,0.02879769838296585,0.06775015437465978,0.016025171848013997,0.002924650830304502,10695.275854984997
1678267666260323687,163,1678267621779113054,camera_1,165,0,0.1457343771225993,-0.3426616700701912,2.632402756778881,0.7040941508759119,0.7062018509108677,0.02721951146929243,0.0692060016744667,0.003515382180921733,0.0006409988834649746,10707.417029845534
1678267666266296882,164,1678267621785800695,camera_1,166,0,0.14581335168205373,-0.3427232117739826,2.6329049962135707,0.7040049236327456,0.7060993407433332,0.03268832040410355,0.06879143996051357,0.007853604387491941,0.0014322277489358512,10698.737810884602
1678267666273204756,165,1678267621792450666,camera_1,167,0,0.14582043285929602,-0.34275778788951045,2.6330984554888364,0.7040104508178904,0.706401944515576,0.026169303227034826,0.06841597395649164,0.01378956635016948,0.00251503295100194,10704.773299254826
1678267666280880528,166,1678267621799069404,camera_1,168,0,0.14590139572806,-0.3428087111434357,2.6334300997211475,0.7043368641390785,0.7061391113632074,0.02666030975149732,0.0675748851413262,0.005090076418127865,0.0009284928682722914,10703.801598782651
1678267666287062966,167,1678267621805940151,camera_1,169,0,0.14582746903598315,-0.3426855387892227,2.6322994944484432,0.7039281586228985,0.7063384508961159,0.02828131041238432,0.06907465356271512,0.006363392691127956,0.001160144607052787,10707.531503099483
1678267666292986435,168,1678267621812442064,camera_1,170,0,0.14579716467746973,-0.34259809161797117,2.6315191218745144,0.7037787685388017,0.7063636551436905,0.031032961028348044,0.06915769643262085,0.004568794567603618,0.0008325161274652334,10710.810498936573
1678267666299604539,169,1678267621819130659,camera_1,171,0,0.1457972673620937,-0.3426461472552193,2.632239803596071,0.7042508292054593,0.7061663695565303,0.02983509233924148,0.0668557801232,0.013506508083082734,0.002460761776175752,10712.270405238956
1678267666306038334,170,1678267621825807571,camera_1,172,0,0.14582283841817162,-0.3428131415409301,2.6333946472433336,0.7041920151374698,0.706024527565668,0.035136696465554174,0.06639566893851143,0.004097236436791718,0.0007470901646377444,10697.97931484692
1678267666313557383,171,1678267621832486152,camera_1,173,0,0.14559242641974884,-0.3424019114593045,2.6302747772198107,0.7036927663030709,0.7063599819331289,0.031230664068438916,0.06997651175934683,0.009818045946303755,0.0017877909737995035,10718.611633890314
1678267666319833059,172,1678267621839144945,camera_1,174,0,0.1457371671827607,-0.34252503318956296,2.6315567220317058,0.7040783397575837,0.7060534487003431,0.03138573601704218,0.06911696345489474,0.009786963637452573,0.0017832939354635441,10710.321758277136
1678267666325375337,173,1678267621845082283,camera_1,175,0,0.1457777784604227,-0.34256712509342274,2.6318272298497085,0.7039730023537826,0.7061917231524923,0.029274909842608533,0.06970108866884402,0.00849328690674156,0.0015481606368610182,10708.780256093485
1678267666332906539,174,1678267621852424383,camera_1,176,0,0.14582248507768344,-0.34269028470243434,2.6323450154340757,0.7039951625321133,0.706203221683312,0.034061640625836324,0.06713885204090698,0.008696343109477311,0.0015847498736790923,10705.908596044756
1678267666340026658,175,1678267621859203577,camera_1,177,0,0.14595449476343647,-0.34290340299422656,2.6340402278222292,0.7039311792025825,0.7068178224976901,0.02457862642192052,0.06546259901116974,0.0018010124913416803,0.00032853220597028833,10705.96384483029
1678267666347190498,176,1678267621865798473,camera_1,178,0,0.14577903111040252,-0.3425758487668767,2.6317005068738024,0.7039669823921746,0.7063442550346173,0.029313482232838153,0.06818358189940206,0.006826617638580501,0.001243758666064623,10713.75594471663
1678267666352028014,177,1678267621871762990,camera_1,179,0,0.145752808776254,-0.34260968873671926,2.631978836052944,0.7040976109233459,0.706206385158148,0.028502092608236048,0.06860558702357727,0.007342489669099449,0.0013381351391036707,10711.210069634955
1678267666359543012,178,1678267621878867149,camera_1,180,0,0.1458226860549683,-0.3427981115185042,2.6333256764289628,0.704084833312314,0.7062832119553958,0.027238761511608152,0.06845890651225982,0.004659192461986095,0.0008499417897989961,10701.846734136234
1678267666366689252,179,1678267621885857343,camera_1,181,0,0.1457380464390237,-0.3427029794095513,2.632572929611227,0.7041553283597078,0.7061694403633574,0.03156277982396365,0.06703570667426874,0.001865195226855576,0.00033994398074835936,10707.264446065412
1678267666374131197,180,1678267621892447948,camera_1,182,0,0.14579508313380593,-0.3427236552653452,2.6330042045997026,0.7040945035976415,0.7064252066605485,0.02788264865546979,0.06661017416392039,0.011189612851012498,0.00203975473573506,10708.66057023406
1678267666379703717,181,1678267621899092197,camera_1,183,0,0.14580233969952672,-0.3426229649799692,2.631948375534237,0.7039894786815858,0.7059419687534401,0.03297482782331215,0.07040888713911919,0.013333484821487218,0.0024309180194373556,10701.815915508188
1678267666386147778,182,1678267621905854940,camera_1,184,0,0.14590810608266097,-0.3428092759748451,2.633334169525436,0.7042479626166901,0.7061466140500638,0.029063023669358375,0.0674322420735481,0.005882427038159221,0.0010728007767308563,10702.651160155892
1678267666393791982,183,1678267621912473201,camera_1,185,0,0.14570054979735333,-0.34232688408349676,2.629652293522654,0.7036727067339364,0.7059467316903766,0.035309556662624315,0.07236828740339142,0.008354722405783832,0.0015213863872367852,10712.217638073487
1678267666399476456,184,1678267621919171333,camera_1,186,0,0.14576842501294712,-0.34251418739570266,2.6308822336827045,0.7039147151043628,0.7061742362961385,0.03122857284140295,0.06961894921211279,0.011008094239514321,0.0020048655425367926,10714.537334841676
1678267666406543496,185,1678267621925893783,camera_1,187,0,0.14588644714978188,-0.34288069252109843,2.633737765042852,0.704265922859362,0.7063580050891135,0.02945194638010694,0.0648109666646221,0.006979316822253168,0.0012725023168488633,10705.592382403789
1678267666412847038,186,1678267621932428836,camera_1,188,0,0.14571647557760267,-0.3424537266789282,2.631083911882221,0.7038769339968526,0.7059773415500838,0.03259242170582223,0.07135116714123595,0.014199967088643461,0.0025876517044909515,10706.772584324588
1678267666419885374,187,1678267621939086914,camera_1,189,0,0.14583697624067346,-0.34285006596027934,2.6339415224026674,0.7042160547183377,0.7064133436687208,0.02732159864865213,0.06567698539822732,0.005852196423802525,0.0010672766764284122,10703.92376376677
1678267666424996875,188,1678267621945095062,camera_1,190,0,0.14579973579807814,-0.34268673112036613,2.6328198954620645,0.7039401402000919,0.7065039498942097,0.025772893808144123,0.06823639603400251,0.0186290176352486,0.0033970212807485772,10707.886234893229
1678267666433908688,189,1678267621951513767,camera_1,191,0,0.14585449169614895,-0.342901376301698,2.6341344388894807,0.7041512095354412,0.7066135599709253,0.028057406757531326,0.0638837452019948,0.0032791043049655855,0.0005979160811356092,10706.058433405124
1678267666439146600,190,1678267621959053277,camera_1,192,0,0.1456774623310477,-0.34235354947953833,2.6300378933901993,0.7038331107463641,0.7059066631902471,0.031997158832245284,0.07273868920575621,0.00500548433046788,0.0009119010116322564,10712.057009551907
1678267666445963401,191,1678267621965785503,camera_1,193,0,0.14585079321733202,-0.342668651267357,2.632418068542594,0.7039133067474775,0.7063955783876905,0.03084161322133497,0.06752879616916974,0.00445253646466881,0.0008114759273654426,10708.015152667069
1678267666454336533,192,1678267621972424507,camera_1,194,0,0.1457074553976696,-0.34243550377536447,2.63063517234075,0.7040573473313058,0.7058741776625523,0.0329072431247878,0.07044153837010234,0.003973951446823776,0.000723865607437258,10712.494160367176
1678267666459588902,193,1678267621979104280,camera_1,195,0,0.14584295615561657,-0.3427133495526298,2.6322504597574414,0.7040884143872586,0.7060691176136308,0.031504624363395364,0.06879945146340996,0.01030195300700143,0.0018778130425863408,10705.27390556841
1678267666465968570,194,1678267621985764503,camera_1,196,0,0.1456892677911197,-0.34255683211676935,2.6313202019151802,0.7040701672385988,0.7062793511008626,0.0319761488116847,0.06657479793682604,0.012719499063678086,0.0023156463019944726,10718.143257174059
1678267666472412003,195,1678267621991764307,camera_1,197,0,0.14575655963361928,-0.34257854565178597,2.6316714934755567,0.7041865500083205,0.706170904300531,0.030298221729183065,0.06727536300012604,0.004852015641517937,0.0008837498525605739,10715.325063986937
1678267666479220424,196,1678267621999096632,camera_1,198,0,0.14570136570341574,-0.3425094691682162,2.6311689750881078,0.7039720616701678,0.7061865800832671,0.03144531348680491,0.06881164696379415,0.007643768389243632,0.001392311609648107,10714.188702635236
1678267666486712095,197,1678267622005791664,camera_1,199,0,0.14575343357590767,-0.3426322821390566,2.631897982766634,0.704056261609645,0.7061537533924083,0.030925739121504,0.0685219360340461,0.0005988694611005485,0.00010914313712783256,10709.558904141537
1678267666494206631,198,1678267622012417554,camera_1,200,0,0.14594052367442115,-0.3429033848821387,2.634214431766532,0.7040950114538773,0.7063605952857868,0.024022516190703763,0.06875931201765326,0.010132231866009533,0.0018497580319617561,10696.573852676549
1678267666498506792,199,1678267622018364906,camera_1,201,0,0.14579949763854994,-0.34255328888610437,2.6312297707960335,0.7039633908875267,0.7061189206138273,0.029943142176263593,0.07024971514469538,0.00821826665196568,0.0014974950509976876,10711.390628980822
1678267666505785310,200,1678267622025092840,camera_1,202,0,0.14581995242117282,-0.3426695016402738,2.6321834840968372,0.7039189646619645,0.706300165858177,0.030088203634535963,0.06879583490289644,0.006777161848731339,0.001235296701249862,10707.390720163705
1678267666514518051,201,1678267622032679080,camera_1,203,0,0.14573190136421774,-0.3425005277423377,2.6312418742817303,0.7040581773217124,0.7061823785097296,0.029570326645346787,0.0688049926303071,0.010081668442580849,0.0018363192049368714,10715.610280908644
1678267666519907588,202,1678267622039144754,camera_1,204,0,0.14581468385044588,-0.3427481321505268,2.633169213902109,0.7043981358781558,0.706057809919524,0.026573288667527287,0.06781958089236936,0.00427665573079139,0.0007799605988171812,10705.410659363726
1678267666526763849,203,1678267622046179533,camera_1,205,0,0.14580932679057843,-0.34263162112273804,2.63227342698842,0.7039715768152366,0.7062308643300989,0.029084622810000692,0.06939791077425193,0.01445738662732765,0.0026359451098572364,10706.150975558907
1678267666532371079,204,1678267622052008152,camera_1,206,0,0.14578440703414855,-0.34261019485463184,2.6319893899252027,0.7041909732210733,0.7062211040589373,0.027896432879869093,0.0677393124286942,0.00577909656567499,0.001053030166062767,10713.958161238119
1678267666539519694,205,1678267622059112310,camera_1,207,0,0.14596698017512091,-0.3428740668479445,2.6338370224514787,0.7040984746112062,0.7061908304304902,0.02845769134578794,0.06877505993698023,0.016411927645094693,0.0029950220669194847,10695.66252302308
1678267666546280692,206,1678267622066016435,camera_1,208,0,0.14588938756563063,-0.3428354074892058,2.6335183063071943,0.7043239633665621,0.7061958452704409,0.030208439036816175,0.06559445831275958,0.0059257508255541325,0.001080342877074653,10704.652931244114
1678267666553375948,207,1678267622072437524,camera_1,209,0,0.14594805604917066,-0.34288646942337037,2.6342745392137834,0.704168637021344,0.7065122435943958,0.02726657107086658,0.06514226269291895,0.008355153375305235,0.001523989081403726,10702.58037019998
1678267666559582132,208,1678267622079102754,camera_1,210,0,0.1457490040717271,-0.3425723464048981,2.631713575485936,0.7041282889776617,0.7061258304184983,0.03191836064289505,0.06760830223461471,0.004293035774026066,0.0007820635576127043,10712.377419666507
1678267666566386083,209,1678267622085911035,camera_1,211,0,0.14570822885915416,-0.3426980986036867,2.6321927665111353,0.7038157629318373,0.7063064483451342,0.03212775937212416,0.06886493993669711,0.004207691352348775,0.0007670020488445891,10704.92904589057
1678267666572778183,210,1678267622092424154,camera_1,212,0,0.14576341661850695,-0.3426697049895805,2.6325905736196025,0.7039723398173593,0.7063672145742457,0.03107354199884503,0.06710244357950243,0.010972605086863041,0.001999723264823164,10707.517608926977
1678267666579574940,211,1678267622099101066,camera_1,213,0,0.145845956971431,-0.34279328496238576,2.633239367589596,0.7041213165048499,0.7065372019085351,0.027597898805257762,0.06524346667881542,0.0036416094517335296,0.0006637773210167664,10710.402383393026
1678267666586141292,212,1678267622105830907,camera_1,214,0,0.14598138676861983,-0.34286137116543763,2.63398784822292,0.7041855420717991,0.7065727256282177,0.027797304739775236,0.06407039553929526,0.01001706108218059,0.0018263950891548504,10707.016166522746
1678267666594865862,213,1678267622112450838,camera_1,215,0,0.14595375437426256,-0.34286294543257767,2.6336317348943075,0.7043374126645634,0.7058795355548831,0.028837228179310715,0.06936356880052591,0.008058857347350568,0.001470865014291513,10695.385669830608
1678267666599307800,214,1678267622119116544,camera_1,216,0,0.14589977189054995,-0.34276582953222823,2.632626380935403,0.7040589715421018,0.7061697865951817,0.03249474431656149,0.06759651383758421,0.004556671134196222,0.0008306523649331334,10704.235264141227
1678267666606439792,215,1678267622125792026,camera_1,217,0,0.14578283405389342,-0.3426693061008088,2.6323177485544944,0.7041040023352579,0.7061529669615433,0.030039349707961443,0.06843375348469193,0.008453134738374501,0.0015408989325733785,10707.340310033178
1678267666612772946,216,1678267622132544040,camera_1,218,0,0.1457550811803203,-0.34268607684949476,2.63279767771873,0.7039413552840801,0.7062494295481155,0.03114845055813674,0.06861549104685817,0.009541066596284509,0.0017396871951321005,10701.840297772087
1678267666620062499,217,1678267622139106750,camera_1,219,0,0.1456779816996168,-0.3425830927686536,2.631606448949102,0.7040062186319291,0.7060217291841288,0.03150932918298436,0.07011222590863447,0.009822976891882718,0.0017902070624078751,10707.088123243537
1678267666625137543,218,1678267622145079851,camera_1,220,0,0.14572858692123514,-0.34268796608693763,2.632216113940323,0.7042315949916632,0.7058821871053421,0.030719624601285606,0.06960246552553176,0.0031654160702601075,0.0005771163608695436,10704.331658240175
1678267666632923594,219,1678267622152046918,camera_1,221,0,0.1458430375815748,-0.3427385972726025,2.6328243114111607,0.7042674544933941,0.7060633979935881,0.02978729665394529,0.06778309164676015,0.006062745407689363,0.0011053329905000337,10705.162692984108
1678267666639968634,220,1678267622159093618,camera_1,222,0,0.14587947996111097,-0.3427586147231643,2.633266527560737,0.704611786600196,0.706122324031926,0.024008318689919084,0.06585661942064072,0.0029394180164672434,0.0005358640260404833,10711.750029055396
1678267666645996375,221,1678267622165136098,camera_1,223,0,0.14591866236200784,-0.34266643766028215,2.6323212335530437,0.7041058569326667,0.7062513166788941,0.027209816085321553,0.06858313080522595,0.016448157839477062,0.0029983005994343374,10709.647707652304
1678267666653117472,222,1678267622172629833,camera_1,224,0,0.1458546382302524,-0.34264876014613144,2.6317816104621703,0.7037913436421843,0.7059487757646198,0.032560889528059245,0.07248350904795563,0.006814276450313628,0.001243016679131993,10697.873890514016
1678267666659802135,223,1678267622179175138,camera_1,225,0,0.1457404701010642,-0.3425007872901872,2.6308659980474967,0.7040338636129265,0.7058957506654991,0.03164442881820393,0.07103617531523239,0.00827585969818756,0.0015079245686820963,10710.39895695448
1678267666666085563,224,1678267622185893535,camera_1,226,0,0.14555098496748178,-0.34234179921559027,2.6296818205890946,0.703697991244678,0.7062363794587035,0.02935546956360498,0.07195533235256248,0.003416358260437846,0.0006221101199239169,10719.984610189098
1678267666671865579,225,1678267622191704273,camera_1,227,0,0.1456926735989517,-0.34254422322747696,2.63163043366711,0.7040096541711205,0.7062983609939384,0.029402595942561754,0.0681800516498361,0.01040705613559112,0.001895796500964825,10714.291470287135
1678267666678474045,226,1678267622198143005,camera_1,228,0,0.14571410982116328,-0.3426200665911674,2.6321230641515703,0.704288273862448,0.7062212402967487,0.02746805315202426,0.0668961367316021,0.0028997728368267417,0.0005283579376327821,10715.480761574698
1678267666686946071,227,1678267622206092357,camera_1,229,0,0.14580128660317276,-0.3427532454521394,2.6329959997983616,0.7040361670776885,0.7064639783063323,0.029140769183567342,0.06627622781614008,0.006313719961326569,0.001150880081262261,10708.31576360541
1678267666694787226,228,1678267622212454557,camera_1,230,0,0.14568199047740665,-0.3424631667172978,2.6306089166398507,0.704071957123605,0.7058070404841378,0.032186753274914784,0.07129595857255153,0.004041029023937881,0.000736181852547391,10711.178668106326
1678267666699554621,229,1678267622219313621,camera_1,231,0,0.1457968433208784,-0.34263640429568437,2.6320044501163236,0.7042440754767566,0.7061996056870347,0.025203009907585026,0.0684631826236795,0.0042778338538482785,0.0007796491032623654,10714.323783298605
1678267666704532796,230,1678267622224860429,camera_1,232,0,0.14587902009374895,-0.3427478476578445,2.6329369560762994,0.7040104777332403,0.7064620912219988,0.02934076752006719,0.06648067590953194,0.010781286400742829,0.001965231191826324,10708.047221364104
1678267666715914665,231,1678267622232720375,camera_1,233,0,0.14575814558346314,-0.34248852443327904,2.6309069623135435,0.7039924040107036,0.7061724105589359,0.031696768405486485,0.06863334855054795,0.0056421224726364025,0.0010274112395732128,10716.466967511802
1678267666733601821,232,1678267622244887351,camera_1,235,0,0.14592727231753325,-0.3429950870520409,2.6350666731418086,0.704351991960486,0.7064083445101489,0.026437421189761817,0.06462650376247468,0.01033451285911724,0.001885897724971629,10698.194534385573
1678267666736504540,233,1678267622252418041,camera_1,236,0,0.14570469943984093,-0.342553757924398,2.631803808695364,0.7039206741460654,0.7064016007844336,0.02806415101115713,0.06859202830476518,0.009022951475344598,0.0016443269572123968,10713.143915502817
1678267666739703314,234,1678267622259038209,camera_1,237,0,0.14562479575510298,-0.34245140922166667,2.6309230786678843,0.703995695288541,0.7060667271328033,0.03279261174914338,0.06916995349026409,0.006646332214586437,0.0012104917576414651,10713.757668721959
1678267666745877511,235,1678267622265717267,camera_1,238,0,0.1458100495894145,-0.34271599256763036,2.632671970110954,0.7042315760096916,0.7061862814441706,0.03142664713399823,0.06611496881097102,0.006982961611356586,0.0012724859617880791,10708.931976139313
1678267666752939174,236,1678267622272319316,camera_1,239,0,0.14586495730410035,-0.34266182699432607,2.632239392415527,0.7040861555987731,0.7060801329077054,0.029707148257707646,0.0695055159650793,0.00643338420195505,0.0011729519336774728,10705.448507381607
1678267666758077493,237,1678267622278219938,camera_1,240,0,0.1458497466470163,-0.3427620968350009,2.6329142360368056,0.7038723854982181,0.706414863281373,0.025747135619766916,0.06984834196732514,0.007742472633253783,0.001412517473883723,10702.799015873112
1678267666767944447,238,1678267622285708427,camera_1,241,0,0.14590530048076578,-0.3427363152324719,2.6330312288868214,0.7041513597321623,0.7060714936711593,0.02972137376658732,0.06892422182188214,0.002326246874872595,0.000424337897292437,10700.576999403998
1678267666773002520,239,1678267622292326927,camera_1,242,0,0.14578895453623694,-0.34259260824519105,2.63192403542057,0.7038557971833729,0.7061372585135476,0.029612982516720197,0.07127594388567711,0.010002800088841468,0.0018240616881926575,10703.364419094636
1678267666778702778,240,1678267622298399925,camera_1,243,0,0.14573972430762958,-0.3426510140480434,2.632005418225575,0.704136259777905,0.7063372226260548,0.029229425972642303,0.06652440346371823,0.004492851614486426,0.0008184226053188676,10715.621140139403
1678267666785362508,241,1678267622304859638,camera_1,244,0,0.14573230630640835,-0.34248881557839894,2.630886989789872,0.703784508647346,0.706276689227567,0.030354603894895,0.07027945406834266,0.011128897545859218,0.002027099984742608,10713.695775972912
1678267666793641494,242,1678267622312326669,camera_1,245,0,0.14569464023558582,-0.34260908046777133,2.63162133010076,0.7038572244745743,0.7063254080787327,0.03097020730789108,0.06877697083084615,0.004107743327040225,0.0007485523972090265,10711.099131823288
1678267666799406145,243,1678267622318980932,camera_1,246,0,0.1457049238848093,-0.3424048976468938,2.6302456797126776,0.7039040076522948,0.7060698847235829,0.03567004541816975,0.0686448378054045,0.012806212238501756,0.0023306619922033754,10717.051030034774
1678267666805591446,244,1678267622324986696,camera_1,247,0,0.145797480198678,-0.342728737545628,2.632629534802026,0.7041916840135661,0.7060731682236657,0.031656145288507444,0.06762131133160505,0.0037253237678669393,0.000679093130158187,10705.160649451891
