%time,field.header.seq,field.header.stamp,field.header.frame_id,field.image_seq,field.transforms0.fiducial_id,field.transforms0.transform.translation.x,field.transforms0.transform.translation.y,field.transforms0.transform.translation.z,field.transforms0.transform.rotation.x,field.transforms0.transform.rotation.y,field.transforms0.transform.rotation.z,field.transforms0.transform.rotation.w,field.transforms0.image_error,field.transforms0.object_error,field.transforms0.fiducial_area
1678249584991009132,28,1678248323127532482,camera_1,29,0,0.13253236083271094,-0.32706095691377496,2.641002936630171,0.7038674699540463,0.7063937704252803,0.03012331346401717,0.06834480105168911,0.003331064828671515,0.0006098690800607526,10659.819549801647
1678249584995768423,29,1678248323134009838,camera_1,30,0,0.13251265218338465,-0.32697928245040686,2.64052792808637,0.7041667999509846,0.706093003266095,0.02963654405183217,0.0685818040162288,0.001599586976226419,0.00029279286162172096,10663.54835293
1678249585001791969,30,1678248323140177249,camera_1,31,0,0.13256984974713318,-0.3270630241848983,2.64120853072985,0.7039653226294688,0.7061158567016018,0.03220850299031198,0.06925195870784996,0.007809112314134836,0.0014301618956968959,10653.520684110348
1678249585010851069,31,1678248323147397518,camera_1,32,0,0.13259932227910926,-0.32717035985947196,2.6418151984776252,0.704012618368798,0.7063192865156889,0.030487884843967288,0.06745211302263592,0.0032819012994877994,0.0006011078081698364,10655.187187091216
1678249585016180539,32,1678248323154191255,camera_1,33,0,0.1325987350403572,-0.32716333598897845,2.6419161411938967,0.7040639780656868,0.7063943721959612,0.028153749179325824,0.06714366781269562,0.001828775682952255,0.0003349688182529901,10657.539552971022
1678249585021850063,33,1678248323160234212,camera_1,34,0,0.1324653874788781,-0.32687901225736704,2.639508294917307,0.7037956978016435,0.7062759445546964,0.031720436353267815,0.06956809481958866,0.004575021797791123,0.0008369208307094834,10666.92328694975
1678249585029502014,34,1678248323167400360,camera_1,35,0,0.13248733451288727,-0.32690485012355813,2.6399325261947997,0.7039148284835811,0.7062006197213052,0.03200035709781367,0.06899692813297979,0.0022122194641269743,0.00040477355120445305,10664.72196826641
1678249585036404156,35,1678248323174122333,camera_1,36,0,0.1325885827095742,-0.32709375968129745,2.641370716169597,0.7040735685177337,0.7061059095033058,0.030543386184652906,0.0690069289244837,0.004246053344104439,0.0007777167703106942,10654.676511829253
1678249585042054194,36,1678248323180205345,camera_1,37,0,0.1325134624449778,-0.327012112659407,2.640627497714195,0.7039017620414633,0.7062667650807194,0.03236816401207289,0.06827787266623596,0.0023295157589018345,0.00042638315214452453,10660.56863581482
1678249585049283190,37,1678248323187474012,camera_1,38,0,0.13252366122098536,-0.327054520430984,2.640766930426213,0.7040194490657591,0.706092633009126,0.03212773326328338,0.06897548624509994,0.003927071695216,0.0007189705085734022,10657.863333753072
1678249585056064018,38,1678248323194125413,camera_1,39,0,0.1325061150432816,-0.3270056526627566,2.640649866650781,0.7038996681440419,0.7062094868217927,0.0301060880350562,0.06990737709879652,0.004010701726656407,0.0007343817980191105,10658.571847843472
1678249585061532331,39,1678248323200146198,camera_1,40,0,0.13251180731248627,-0.3269751844460613,2.6405380823969673,0.7039411657133329,0.7062804699960596,0.02954064258074526,0.06900784993184271,0.0030886767199262977,0.0005653891112485088,10662.455414006257
1678249585069483130,40,1678248323207471370,camera_1,41,0,0.13249194695754524,-0.3269315205411357,2.6401732797528426,0.7038407830084821,0.7062831978408272,0.031670737183404865,0.0690591125630899,0.0045091822976246485,0.0008251838271015574,10662.992606565356
1678249585076473620,41,1678248323214174985,camera_1,42,0,0.13255870158235605,-0.3270666805388402,2.641084751492409,0.7039105427085639,0.7060725337490035,0.03374289088150222,0.06951936610726933,0.006216554844286293,0.0011385033024118038,10652.0017193805
1678249585082012892,42,1678248323220131397,camera_1,43,0,0.13253274158396536,-0.3269674453448613,2.6402187381272726,0.7041143669812279,0.7060908284749704,0.0317008287547153,0.06821845505740425,0.000986554368864745,0.00018052623964883712,10664.751416284595
1678249585089384991,43,1678248323227387428,camera_1,44,0,0.1326391178786988,-0.32723389121309593,2.64235072559136,0.7041701206433351,0.7063156947934299,0.028886376815698535,0.06654440409295806,0.005190404481254518,0.0009508054941867163,10654.821627083238
1678249585096125312,44,1678248323234073162,camera_1,45,0,0.1325395888404604,-0.3270103477710429,2.640519989313588,0.7040344282184303,0.7062142894994322,0.03089436424473957,0.06813544927475897,0.00629531528102234,0.0011520328192723174,10663.417381588602
1678249585101906860,45,1678248323240323781,camera_1,46,0,0.13257410940471814,-0.32711500105728303,2.6413417316806727,0.7040613805790256,0.7060632474575209,0.03182742697091111,0.06898751959092048,0.002888405346311629,0.0005290517236582684,10653.544239906125
1678249585109788308,46,1678248323247441768,camera_1,47,0,0.13252625977211374,-0.3271436440979999,2.6417093240960017,0.7040931564684789,0.7062952304756508,0.030202629369545184,0.06699011569453565,0.004354863543994725,0.0007974616360432716,10657.549104725244
1678249585117886121,47,1678248323254156827,camera_1,48,0,0.1325243001316216,-0.32707490118434124,2.6413000917121274,0.7039996127504577,0.7063754710673494,0.028171670447782248,0.06800438298938688,0.004723112739156932,0.0008648234745022631,10660.291632437145
1678249585122320862,48,1678248323260760307,camera_1,49,0,0.13252620692884234,-0.327031012857,2.641117602688374,0.7040032450070702,0.7063330968876361,0.030581737726046884,0.06736278333242647,0.004374985466711223,0.000800852482325711,10660.9901248333
1678249585128300479,49,1678248323266762733,camera_1,50,0,0.13260670269071734,-0.32709993744249705,2.6413911676055535,0.704111962233248,0.7061146737824281,0.0330197575433935,0.06736547870353105,0.0031580565264448524,0.0005782394172541367,10656.005783720644
1678249585138160232,50,1678248323274244785,camera_1,51,0,0.13264150376611378,-0.3270784105369628,2.641229760689858,0.7040981732468338,0.7062522222840356,0.030258707043406274,0.06736446835976911,0.008789233805146068,0.001608923015569321,10660.355393379927
1678249585142360798,51,1678248323280750989,camera_1,52,0,0.13262612134394336,-0.3271466572869538,2.641472263211126,0.7040939512398388,0.7061933324521383,0.03141002507768278,0.06749885445127801,0.0034530420089140534,0.0006323095014530942,10656.79818725225
1678249585149392843,52,1678248323287425994,camera_1,53,0,0.13257921354124044,-0.3270812633171425,2.6412423716518685,0.7040169105115801,0.7063520773177626,0.030242359909685823,0.06717389559720625,0.0012923689209856093,0.00023660333775115525,10660.787337992806
1678249585156730371,53,1678248323294160604,camera_1,54,0,0.13236726917107394,-0.326764432991347,2.6387348623856988,0.7036052429973247,0.7062331249225899,0.033056882966091994,0.07128588764485705,0.0018180194892920554,0.0003325467340223266,10667.038371887287
1678249585162960367,54,1678248323299990892,camera_1,55,0,0.13246841421295816,-0.3269676948054385,2.640485687708744,0.7038864912131593,0.7063056712272471,0.031026541796871438,0.06865464284359771,0.005878179450519383,0.0010758129858896939,10662.255000168927
1678249585169404912,55,1678248323307480335,camera_1,56,0,0.1325061345971325,-0.3270344660798641,2.6411462357612563,0.703993569462038,0.7060854729851347,0.03009195711326434,0.07021989114596448,0.006508301245048642,0.00119218669810499,10653.784588827755
1678249585176405809,56,1678248323314151525,camera_1,57,0,0.13258123552552073,-0.3271836818362977,2.6419014860283134,0.7040247566482224,0.706395625438665,0.03087065336414162,0.0663427852023078,0.004337315331213176,0.0007942526748828962,10656.903774066013
1678249585181695889,57,1678248323320043087,camera_1,58,0,0.1325354606890353,-0.32701870075110573,2.6406865050947523,0.7040140473664145,0.7061906803596745,0.031096494881389783,0.0684978254398748,0.0009516217396594584,0.00017420547618069877,10660.932763493387
1678249585188679115,58,1678248323326773643,camera_1,59,0,0.13266973213989622,-0.3271538872104268,2.641782402740534,0.7042323444109346,0.7060722584575649,0.0316240068889502,0.06722122514801525,0.004123947990592569,0.0007552726237496482,10654.793532500626
1678249585196014408,59,1678248323334156751,camera_1,60,0,0.13258490417280241,-0.3270675355870093,2.6410047738477456,0.7040607815069913,0.7060764120969616,0.03332356073200987,0.06814731487143537,0.0017340591293759644,0.0003174849744641948,10656.732516587244
1678249585201686167,60,1678248323340007781,camera_1,61,0,0.13263882039657457,-0.32722614197180117,2.6424722307793647,0.70426774468452,0.7061707540805755,0.029917897776358147,0.06659376300295992,0.002568537718616426,0.00047061136222352354,10652.696187989553
1678249585209023765,61,1678248323346784591,camera_1,62,0,0.13244170990863113,-0.3269421602854923,2.6402820657523853,0.7038800466676306,0.7060352080738576,0.03335149036627658,0.07039064535595141,0.002255433122627437,0.00041293856820822804,10656.657317826059
1678249585217681841,62,1678248323354284048,camera_1,63,0,0.13243549951632624,-0.3269091030398259,2.640143539586992,0.7038318628789134,0.7063104842712395,0.03172257120728678,0.06884683784259171,0.0021642219508066773,0.0003960393394191868,10663.7639768176
1678249585221941282,63,1678248323360356330,camera_1,64,0,0.13242921348584857,-0.3268315392300566,2.639654620582783,0.7038632158082241,0.7061670797471682,0.03117712770694871,0.07023258233474364,0.003133667982183397,0.0005734271108808186,10664.637646099554
1678249585229175795,64,1678248323367402553,camera_1,65,0,0.13246855052997772,-0.32686510844382244,2.6396567305612018,0.7039880890013798,0.7061325960195858,0.03208180130848507,0.06890780367729768,0.003380911482963711,0.000618452408887238,10667.095618181163
1678249585235715534,65,1678248323374126911,camera_1,66,0,0.13264125202787588,-0.32719284156170203,2.641864607503589,0.7041481715153387,0.7062607857926484,0.03152695289422415,0.06615970257159197,0.0014396421611309052,0.0002636284525535414,10656.918142443526
1678249585241789505,66,1678248323380242109,camera_1,67,0,0.13265449013373548,-0.327165199811178,2.641785147203596,0.7041860281266431,0.7061626519583875,0.0320613407856357,0.06654635374945313,0.004178977222181857,0.0007652172164914348,10655.99633302982
1678249585249614451,67,1678248323387274980,camera_1,68,0,0.13259107977808943,-0.32712123441616364,2.6411683905724708,0.7039764743059935,0.7061042151413429,0.03461622320212161,0.0680858140478016,0.0017284210189245641,0.00031648368360264167,10653.985689840978
1678249585255857018,68,1678248323394168376,camera_1,69,0,0.1325511080704224,-0.3270021182226363,2.640695441903388,0.7040529297493628,0.7062339538069285,0.03087034449127929,0.06775025042434757,0.003150387725327164,0.0005765803437895733,10663.0515216745
1678249585261696464,69,1678248323400128364,camera_1,70,0,0.13250094211238275,-0.3269856335794819,2.6406669875469038,0.7039130108802417,0.7062914804107309,0.03093322372485289,0.068570791760917,0.00322714849608019,0.0005907253763568844,10661.11042412289
1678249585269587689,70,1678248323407289505,camera_1,71,0,0.13244884569642323,-0.3268970511271896,2.639933481880903,0.7038266686762581,0.7062451819075605,0.03038449105769786,0.07016085942747818,0.0021515461849048734,0.0003937903234819775,10663.40226901101
1678249585276333318,71,1678248323414171934,camera_1,72,0,0.1325103687482458,-0.3270711205504942,2.6411762991198775,0.7040176666057179,0.7062532393840417,0.032464055599385144,0.06716823699211043,0.004245505784638226,0.0007771617318811878,10658.911652389095
1678249585282112561,72,1678248323420228004,camera_1,73,0,0.13245585027723172,-0.3269185951199688,2.6399862908238765,0.7038302466290949,0.7063117573150017,0.031739767960513886,0.06884237458451394,0.0031501020421274006,0.000576366962341244,10664.991569073632
1678249585289440312,73,1678248323427281618,camera_1,74,0,0.13253502517103682,-0.3269874120159008,2.6406827153908257,0.7041749356192526,0.706141665832631,0.03120012596628451,0.06729160393709077,0.0005520579870790243,0.00010103620696126201,10663.99535375135
1678249585296379260,74,1678248323434169530,camera_1,75,0,0.13261605429233989,-0.32712050780033375,2.641761747770241,0.7041648758878483,0.7062821638046073,0.029051743853155027,0.06688294877189449,0.001345729164313525,0.0002464518057737164,10658.578168806387
1678249585302213398,75,1678248323440743446,camera_1,76,0,0.13265150392472755,-0.32721087812010347,2.6420460765006406,0.7040697028549763,0.7061113106191976,0.03146645441306899,0.06857501574199423,0.0019174909684807064,0.0003513865952896601,10649.336547328854
1678249585308724222,76,1678248323446751117,camera_1,77,0,0.13259839880450577,-0.3270973111302202,2.641190171613631,0.703993130502901,0.7061045383587129,0.03310146743389116,0.06866109500785261,0.00435520481551066,0.0007975347872039022,10654.15335592511
1678249585315867733,77,1678248323453663587,camera_1,78,0,0.13254714720443003,-0.32702441668459,2.640919668693051,0.7040311789714477,0.7061513396885762,0.03185562898824319,0.06837838396646842,0.0036365005071274936,0.0006657486795800411,10658.543770356684
1678249585322843627,78,1678248323460764884,camera_1,79,0,0.13246186610132782,-0.32684809603345094,2.639527436096978,0.703957015802975,0.7062111146839061,0.03035843433449322,0.06920077213039807,0.003178849525284022,0.0005814754002490958,10669.248412029006
1678249585328959502,79,1678248323466794013,camera_1,80,0,0.13238179279125403,-0.3268114007560412,2.639328079053713,0.7037735049784509,0.7061870440002662,0.032389073724931716,0.0703822454867242,0.0013549001305364072,0.0002478904497230333,10665.50753422163
1678249585336787172,80,1678248323474188804,camera_1,81,0,0.13252137505629927,-0.32708743444974614,2.641028953815114,0.7039005291627521,0.7063006657095405,0.03251804363772652,0.06786745538645624,0.003673681349027902,0.0006725280653389596,10658.208329042773
1678249585342432601,81,1678248323480416536,camera_1,82,0,0.13252552880535567,-0.3270139108057621,2.6407084540797214,0.7039958665820523,0.706152650257571,0.03138546302438736,0.06894350644069777,0.003028313221875578,0.0005544012225153598,10659.27807688084
1678249585349082409,82,1678248323486807107,camera_1,83,0,0.13254256660884153,-0.32700849098789947,2.640794623676257,0.7039793798413392,0.7061563608185704,0.03370042318114524,0.06797432096820097,0.001953805040102452,0.00035763735300988885,10658.469361602445
1678249585355544973,83,1678248323493663787,camera_1,84,0,0.13255211058173824,-0.3269835886475502,2.64038240129562,0.7041061998955993,0.7061630420246953,0.032591297900267616,0.06712692938145648,0.004484886070713401,0.000820469980987724,10665.239802353317
1678249585362982304,84,1678248323500815629,camera_1,85,0,0.1326216011854518,-0.32715213757169787,2.6418416777081224,0.704211603394125,0.7060437311424884,0.0314753853240708,0.06780536467102383,0.0025394498952664435,0.0004651858133264653,10653.005117509983
1678249585370595144,85,1678248323506962060,camera_1,86,0,0.13252519813349525,-0.3270011718406632,2.64029082554982,0.7039298846615195,0.7062212674137901,0.031742041513212964,0.06875086714691918,0.0031629299046471715,0.0005788370929168382,10662.714259253933
1678249585375693301,86,1678248323513339757,camera_1,87,0,0.13249602407468464,-0.32699959337960416,2.640402633508258,0.7038862831552588,0.7062696727883289,0.03289607049478148,0.06815495749646125,0.001268005114980042,0.00023205099965053333,10662.082479333385
1678249585383232879,87,1678248323520750999,camera_1,88,0,0.13244029555258882,-0.32688700906010415,2.6394370273007084,0.7038392607225988,0.7060811943072726,0.031124016209102667,0.07135080746632604,0.005044009361881763,0.000923059680475375,10663.325942631225
1678249585389789449,88,1678248323527551889,camera_1,89,0,0.1324250233767393,-0.32680663468255267,2.639371552184103,0.7037971256731639,0.7060687561477673,0.03234033770016654,0.07134858123029943,0.0039481292478740215,0.0007225011262246672,10662.581213839701
1678249585396921366,89,1678248323534508943,camera_1,90,0,0.13245642550568737,-0.3268832375898469,2.639790321378336,0.7039625673070572,0.7062016104247856,0.0307014670695886,0.0690898631035789,0.0014137871912680566,0.00025866915671422856,10667.063052646812
1678249585403174269,90,1678248323540363073,camera_1,91,0,0.1325606103251418,-0.32715410421995084,2.6417047089442174,0.7040694474149019,0.7062899287734573,0.030334910961610284,0.06723498276203069,0.0052332288469187915,0.0009583610397869486,10656.800527718144
1678249585408933259,91,1678248323546829223,camera_1,92,0,0.13255311500131525,-0.32704307453139475,2.640930048004221,0.7041378879854655,0.7061810531534776,0.03193640068073004,0.06691951271470377,0.005176760605536401,0.000947372878528759,10662.11303549213
1678249585416757367,92,1678248323554165363,camera_1,93,0,0.1325579395773762,-0.32708081786300214,2.640967441708534,0.7041024424410689,0.7061563675115132,0.03162035361175022,0.0676985111278955,0.003837468335404992,0.0007024526774482355,10660.135314172487
1678249585424006198,93,1678248323561143398,camera_1,94,0,0.1325885249987189,-0.32710116085729174,2.641429204227559,0.7039925431283207,0.7063135412977273,0.03199872348594136,0.06702061096747548,0.003000553755555302,0.0005493627456329152,10657.763997609145
1678249585429104774,94,1678248323567036867,camera_1,95,0,0.1325467541456111,-0.32703768308257053,2.6409522031128647,0.7039953065331773,0.7063347260867614,0.030740890982624558,0.06735622261374247,0.0014600091380998492,0.0002672511673296748,10662.13936545595
1678249585435503784,95,1678248323573495626,camera_1,96,0,0.13261909111276748,-0.3272118769957361,2.642246361431712,0.7041771135408562,0.7061448593314226,0.02997153843409393,0.06779186742498806,0.0031501975026912987,0.0005772230572171457,10651.390403800175
1678249585443088618,96,1678248323580790758,camera_1,97,0,0.13253595920598527,-0.3270693776191876,2.640917432937187,0.7040379605525092,0.7061713643565932,0.03039577751248767,0.06876518721869786,0.0024142941692844033,0.00044205665529810964,10659.10102613922
1678249585451375630,97,1678248323587556362,camera_1,98,0,0.13255686322233995,-0.32705459808545645,2.641151499032006,0.7040032318773523,0.7061022244307845,0.03289111178778251,0.06868240622972481,0.0033625656506046653,0.0006157556142694555,10654.70094925398
1678249585455383924,98,1678248323593346834,camera_1,99,0,0.1324806347558806,-0.32690394176021614,2.6399933212009046,0.7038907456011403,0.7062871323641428,0.030542270194708575,0.06901792988246103,0.004878148378338665,0.0008925549154124651,10665.78126247204
1678249585462536864,99,1678248323600133419,camera_1,100,0,0.13256279509951638,-0.32708248320939004,2.6414658318219226,0.7040154502196923,0.70632011244965,0.03083781541169756,0.0672545443945029,0.004210203303955495,0.0007708893780394245,10658.173136507394
1678249585470606252,100,1678248323607414007,camera_1,101,0,0.132484417882578,-0.32699676284241996,2.640452722859009,0.7039588662944882,0.70621837871841,0.029826157025592298,0.06933914105902927,0.0033799795201048255,0.0006187224013887779,10661.954411709448
1678249585476938634,101,1678248323614109039,camera_1,102,0,0.13264149181481485,-0.32722626859925413,2.642447180056781,0.7041226106539245,0.7063898644924752,0.028891987209024007,0.06625678518701414,0.008747571264393628,0.0016023269636402143,10654.781589143797
1678249585482256231,102,1678248323620152235,camera_1,103,0,0.13249681340648078,-0.3270046271644482,2.6406339344551983,0.7038302536327352,0.7062290736660399,0.032983200252237894,0.0691055575276506,0.002667256281711161,0.0004882987301794465,10657.650336163584
1678249585490931975,103,1678248323627394199,camera_1,104,0,0.1325896430855635,-0.32711567815811127,2.641672952439317,0.7041357586413716,0.7063492045029675,0.030858874218338002,0.06566098219294261,0.0020754910656251013,0.0003799553846593919,10660.494810820204
1678249585496127770,104,1678248323634159564,camera_1,105,0,0.13259992792824493,-0.3270748459763125,2.6411202900395887,0.7041412441505955,0.7060469837216143,0.03167987384907071,0.06840431752871154,0.0018943974864669144,0.00034688692284571513,10657.02074046165
1678249585502098168,105,1678248323640174388,camera_1,106,0,0.13264799741575764,-0.32723892732883475,2.6423565871213697,0.704204766291425,0.7063152710876832,0.02706912130842399,0.06694510909963478,0.0023880192311480646,0.0004375281370112351,10655.482769750986
1678249585510653088,106,1678248323647482633,camera_1,107,0,0.13253815752229883,-0.3270622057682452,2.641043574700152,0.7040422835941798,0.7060961690315866,0.03152793871631126,0.06898298392147338,0.0019423929625190794,0.0003557041066985825,10656.31196379033
1678249585516725803,107,1678248323654080152,camera_1,108,0,0.13254095724719908,-0.32702919389742924,2.6407361468900845,0.7041054014030131,0.7061466638287337,0.031573280423223604,0.06779086105049423,0.006290683231782168,0.0011512750640154071,10661.835444506258
1678249585521802380,108,1678248323660104990,camera_1,109,0,0.13253348209419916,-0.3270147377286724,2.641107301947761,0.7040520835848749,0.7063252444101443,0.02885275929886088,0.06769660988253547,0.0015704823890700936,0.00028752134931396014,10662.004117254979
1678249585529688297,109,1678248323667378664,camera_1,110,0,0.1324074739549615,-0.32684077328481426,2.6393799435290637,0.703836939685692,0.7060110728426345,0.03359175516268615,0.07094731385022267,0.0019161893287673593,0.00035063646232936005,10662.119772194186
1678249585535978844,110,1678248323674138069,camera_1,111,0,0.13263073339228285,-0.3272721264025816,2.6428502854255225,0.7040946520095686,0.7063931951957492,0.02978068537384904,0.06612477275067719,0.0031730654882267118,0.0005814446736579185,10650.988372513097
1678249585541616171,111,1678248323680101156,camera_1,112,0,0.13254404422884292,-0.32701391354857046,2.6407532252203083,0.7040297450474431,0.7062553104620342,0.029482479806726095,0.06838375477446414,0.006338630453683436,0.0011602349761025467,10662.391877294634
1678249585549542316,112,1678248323687413215,camera_1,113,0,0.13258255825451984,-0.3270728897673488,2.6412837021781006,0.7039683782958044,0.7062458144839712,0.03329479167793739,0.06735598511320465,0.006730864348355681,0.0012322063942993065,10656.592875784496
1678249585555964303,113,1678248323694080114,camera_1,114,0,0.1325522091207248,-0.32698138184018083,2.6405550321443334,0.7040407788741653,0.7061927907656488,0.030203915025713377,0.06860063753350135,0.0023791856365278363,0.00043548387720778896,10662.685201070151
1678249585561536190,114,1678248323700103998,camera_1,115,0,0.13264354696124456,-0.32720417888022235,2.6422141527731537,0.7042199417381714,0.7062622266211558,0.029156794671943313,0.06646670016535995,0.0025140539510175586,0.00046051235619029026,10655.85677433655
1678249585569330057,115,1678248323707409381,camera_1,116,0,0.13257263883025464,-0.32707617049964033,2.6412883965777953,0.7040725840936211,0.7063501769462227,0.028862600962802288,0.06721736473139264,0.004566152696497738,0.0008359201919880366,10661.71957833832
1678249585578418141,116,1678248323714080572,camera_1,117,0,0.13255630438263993,-0.32707462767628576,2.641194231622395,0.7039932654459715,0.7061432292039285,0.03266074419080865,0.06847260653041237,0.0065218458767049015,0.0011941914258631824,10655.157765320975
1678249585581734874,117,1678248323720098733,camera_1,118,0,0.13245933501596624,-0.3268693736166312,2.6396767526336204,0.7038965047201187,0.7062481675179705,0.02943784617131503,0.06983301320366206,0.0015276515041477978,0.0002795262242204592,10667.318051495819
1678249585589527134,118,1678248323727436304,camera_1,119,0,0.13248145629887126,-0.3269208617719901,2.6400194187727726,0.7039137881608812,0.7061604886617774,0.031304895510410165,0.06973339664063538,0.006123211293015629,0.0011205601435734021,10662.834082457817
1678249585596046340,119,1678248323734069824,camera_1,120,0,0.13247704833046117,-0.3269340162435932,2.6400336814296828,0.703925191044911,0.7062283191188741,0.0322825595085595,0.0684742509158866,0.0011279613827355206,0.00020638460226850514,10664.952233053158
1678249585601546989,120,1678248323739958286,camera_1,121,0,0.13261493829200116,-0.32722519193140853,2.6422462650605594,0.704176648954642,0.7061693917147089,0.030588472470868648,0.06726353116056255,0.0036707197432406247,0.0006725094527398264,10652.0893074791
1678249585609007018,121,1678248323746945858,camera_1,122,0,0.1325823349526109,-0.32706075490380343,2.641316601916525,0.7041981408080289,0.7062868935575429,0.030085731481203862,0.06602008204018307,0.004256101499777287,0.0007789597494125895,10663.292021539532
1678249585615798811,122,1678248323753633499,camera_1,123,0,0.13250688579355444,-0.3269390789937052,2.6401226522240457,0.7038540040071477,0.7062142762689574,0.03150272322397627,0.0697030520600977,0.0032903035171329975,0.000602209071052,10661.857822307617
1678249585623032626,123,1678248323760875701,camera_1,124,0,0.13247364138548245,-0.3269091715026326,2.6398312537319475,0.7039176638953987,0.706154188321871,0.03157151182922041,0.06963780878475073,0.0015451316721737385,0.00028274449293604325,10664.306404566396
1678249585631008568,124,1678248323767499685,camera_1,125,0,0.13245947727982546,-0.32695510701200436,2.6402458139921596,0.7039476925348725,0.7061528686879117,0.030939420700670062,0.0696313468587855,0.0024450597120448947,0.0004475503435706846,10661.688603787685
1678249585634569882,125,1678248323773334264,camera_1,126,0,0.1324606740086349,-0.32692086233085604,2.6398982901781745,0.7039318721075875,0.7061412618493603,0.03200970570200572,0.06942489816896705,0.002870584954507649,0.0005252746718225696,10663.840380752808
1678249585641511414,126,1678248323780302762,camera_1,127,0,0.13258047007130588,-0.32714461893212843,2.642004789463802,0.704170162648881,0.7063196729795539,0.028112576191057885,0.06683251197588169,0.004419345408678055,0.0008094081181664533,10657.684411219787
1678249585650454508,127,1678248323786995172,camera_1,128,0,0.13259292215723584,-0.32711502161801564,2.6415789151835263,0.704009482777398,0.7064554108833014,0.029880725441201853,0.06632151114317153,0.0014069295721128583,0.0002575882136984358,10660.62188396533
1678249585655265761,128,1678248323793685436,camera_1,129,0,0.13257599899008735,-0.32702869950108193,2.6408870130524567,0.7040454291558887,0.7061845907306514,0.030722618960714754,0.06840671153825227,0.0006203301600180566,0.00011357529966661964,10659.962070549256
1678249585661610714,129,1678248323800308942,camera_1,130,0,0.13266653437648734,-0.3272260169226572,2.6421990763592635,0.7039916950808329,0.7063102858880284,0.03170062209041441,0.06720523688722535,0.004208709753584117,0.0007710282883122638,10651.392588092946
1678249585668833354,130,1678248323807038545,camera_1,131,0,0.13258190684571025,-0.32712438915334285,2.641427930235933,0.704071618545429,0.7061335043215422,0.03187153467658954,0.06813835418292422,0.0029111370095051825,0.0005331366072094789,10655.023137903769
1678249585675270776,131,1678248323813669443,camera_1,132,0,0.1325457807994321,-0.32708648554838177,2.6414436419443637,0.703930530012573,0.7063787108051554,0.02945468690895115,0.06814211074336167,0.004627856716979295,0.0008475136056765996,10657.515344481679
1678249585682057262,132,1678248323820314168,camera_1,133,0,0.13253548025482642,-0.3270508670640019,2.641133864870844,0.7039894184933784,0.7062706383582912,0.03109242484861083,0.06792602711303256,0.004136854026000947,0.0007573788902456567,10658.843830778962
1678249585688704555,133,1678248323826994895,camera_1,134,0,0.13246988823552014,-0.3269207662221311,2.6400547883595467,0.7039294886897871,0.7062690959670959,0.03093250876739379,0.06863249183958949,0.0025722688296809793,0.00047064852253401367,10665.875526957912
1678249585695222084,134,1678248323833691120,camera_1,135,0,0.13255223503447294,-0.32705510521947745,2.6409122262410345,0.7040116221296738,0.7061370403519747,0.03189616395723979,0.0687077206295777,0.003148224437609315,0.000576408835091988,10657.668777738927
1678249585702256643,135,1678248323840351343,camera_1,136,0,0.1326562229469425,-0.3272670543781686,2.6426814646506256,0.7040824260359562,0.7062652444809138,0.029849869374771333,0.0675746038386198,0.0038835801533423364,0.0007117980162886983,10648.568298415279
1678249585709036354,136,1678248323846997261,camera_1,137,0,0.1326431208354188,-0.32718904719243375,2.64199566603999,0.7041680522952309,0.706288322903191,0.03121401569170192,0.06580155227452475,0.003231570706702769,0.0005917504003375167,10657.118538418203
1678249585715570925,137,1678248323853719234,camera_1,138,0,0.13256082911065256,-0.32709791307938474,2.64138524630391,0.7039804513884584,0.7062304037021464,0.0330517282576301,0.0675109191819329,0.0014219929580576718,0.00026038354042343153,10655.662120708148
1678249585721863637,138,1678248323860328435,camera_1,139,0,0.13248905197614638,-0.32690842090283107,2.639974088140064,0.7038181356829133,0.70635739043465,0.03214981120023105,0.0683056256978097,0.0021327199647203088,0.00039017796097737804,10666.03474942187
1678249585728490816,139,1678248323866640567,camera_1,140,0,0.1324242713910387,-0.32690410768244743,2.6397142066943116,0.7037840055665416,0.7061442016996438,0.03204104046709954,0.07086474187120423,0.0023187968763522804,0.0004244051891783105,10661.432615575734
1678249585735665825,140,1678248323873323440,camera_1,141,0,0.1325094839123394,-0.3270817436940844,2.6411651128812283,0.7039138611416899,0.7062059424853765,0.032225435728873306,0.06884739779413018,0.003938691923394799,0.0007212845011811829,10654.915581339043
1678249585741388428,141,1678248323879953861,camera_1,142,0,0.13246652708488532,-0.32698279398795876,2.6406290218622344,0.7039597188952398,0.7063829389883957,0.028784014309826467,0.06808331806884507,0.003390623489394784,0.0006205539870977494,10664.917761833647
1678249585749003223,142,1678248323886625766,camera_1,143,0,0.13264099818552122,-0.3272750358509041,2.6426971361002027,0.7041440442865838,0.7063598619095518,0.03041842069722701,0.06566300374745924,0.0050198191893287,0.0009196203498778611,10652.681980517693
1678249585755474169,143,1678248323893300771,camera_1,144,0,0.13253638432093198,-0.3269351132099448,2.6401506674957966,0.7040729881041319,0.7060843094336096,0.029544167399347617,0.0696657560531789,0.004113922768738122,0.0007529494353326986,10663.803786465898
1678249585762356546,144,1678248323900188684,camera_1,145,0,0.13265881286104228,-0.3272089531722959,2.642046091960923,0.704165216185469,0.706069489665325,0.03270498369192036,0.06743595569079193,0.004196001915261149,0.0007686705729786584,10650.885814480484
1678249585768747873,145,1678248323906685590,camera_1,146,0,0.13260061796215955,-0.32708758359222895,2.6411216606954127,0.7042075225383526,0.7063113501592135,0.0303521625427324,0.06553463256663665,0.002736654016189277,0.0005007602616794117,10665.74392489879
1678249585775036185,146,1678248323913326263,camera_1,147,0,0.1325699479083251,-0.3270884556792074,2.641373184873288,0.7039823596701348,0.7061849978689677,0.03179475078143493,0.06856150436521755,0.0011248571099713445,0.00020602650134850294,10654.478286366206
1678249585782047418,147,1678248323919971466,camera_1,148,0,0.13250933469325676,-0.3269665857087874,2.64053807011499,0.7040344275167614,0.7062719823986491,0.0278853342781936,0.06883182317810412,0.00493587797973305,0.0009034424398870877,10664.552511331509
1678249585788335311,148,1678248323926628112,camera_1,149,0,0.13243026901904056,-0.32696774788433186,2.6404053933187996,0.703759897027285,0.7063804882886398,0.03132051404816958,0.06904808832260764,0.002747058286331594,0.0005028125644836993,10661.552839825628
1678249585797072096,149,1678248323933321237,camera_1,150,0,0.13232775366293206,-0.32676697458700704,2.638760550465079,0.7036117265678743,0.7062593902947273,0.03269407099353115,0.07112882382385503,0.003812034789007157,0.0006972474117808758,10667.697299123387
1678249585802772350,150,1678248323940768003,camera_1,151,0,0.1324484894188964,-0.32696471865112386,2.6406249462083737,0.7038376130731511,0.706266400675927,0.031399259656181885,0.06938639775059643,0.006180504977237433,0.0011314783556363173,10658.826953080828
1678249585809760745,151,1678248323947453737,camera_1,152,0,0.13265038921642186,-0.3271938172916652,2.642218840170593,0.7043488365534004,0.7061826838315495,0.028400062966178852,0.06627344812108608,0.00555600825464353,0.001017619604839333,10657.05413069343
1678249585815747904,152,1678248323954151868,camera_1,153,0,0.13267091884490875,-0.3271151628945149,2.641488810064788,0.7041051235871532,0.7061515886169849,0.031683843479954406,0.06769078884431834,0.0027650390402413905,0.000506354934959778,10655.886195635887
1678249585823547848,153,1678248323960816383,camera_1,154,0,0.13266118319053863,-0.32711294341451547,2.641441217899707,0.7043254487435927,0.7062985288230558,0.030405206656838872,0.06437059765668499,0.0017665583873167634,0.00032324721200607386,10665.976155130194
1678249585829431224,154,1678248323967501640,camera_1,155,0,0.132610134001693,-0.3270379088170339,2.6406117525408517,0.7040821037570103,0.7060580379945782,0.03164574003813424,0.06891288188567127,0.0024187055532820523,0.000442776368195149,10659.788050884967
1678249585834697348,155,1678248323973303794,camera_1,156,0,0.13261150565342278,-0.32714987265157086,2.6418969800495278,0.7041292687571522,0.706210903233043,0.030875982192037105,0.06719231174743594,0.0018341855029575527,0.00033595819655078793,10654.802660836845
1678249585842126856,156,1678248323980299711,camera_1,157,0,0.132596893710708,-0.32720811163607627,2.642215965210486,0.7041294765006402,0.7062960788836204,0.02926775546389342,0.06701438477418735,0.0046249813749454916,0.0008472428255766165,10654.353859151011
1678249585849632212,157,1678248323987369298,camera_1,158,0,0.1324401877512918,-0.32698363780294637,2.640885241454646,0.703802159756696,0.7062755960301266,0.03294756205659352,0.06893301479426808,0.00466499209869653,0.0008541156318664281,10656.191479186526
1678249585856190039,158,1678248323994109153,camera_1,159,0,0.13236227853373336,-0.32677093285375586,2.638890907236408,0.7037872502504078,0.7061164979050809,0.03181802104078599,0.07120822500443297,0.003993221209384501,0.0007304603761550823,10667.423765203912
1678249585862201852,159,1678248324000716209,camera_1,160,0,0.13248039820842056,-0.3270399702968324,2.6409001383359,0.7039504366713049,0.706098350235056,0.03261708582426733,0.06939040436504115,0.002985841885674745,0.0005467660980226912,10655.182931385934
1678249585868274287,160,1678248324006777286,camera_1,161,0,0.13252474803398717,-0.32692895623128776,2.6398946980651723,0.7040180268696863,0.7060636216345444,0.030713645029276444,0.06992461695168765,0.0028108347905799747,0.0005144036198006251,10663.932833896371
1678249585878130059,161,1678248324013603210,camera_1,162,0,0.13268781629535598,-0.3272261656181292,2.6421934467398276,0.7040337005062998,0.7061555524971745,0.03297897346417553,0.06777367879985027,0.0019772432860918343,0.00036229642056555966,10648.513322802493
1678249585882278454,162,1678248324020743131,camera_1,163,0,0.13263426546607476,-0.3270213805797868,2.640655001749059,0.7040943975138592,0.7059849551024783,0.03279900157201648,0.06899672495435064,0.003066162928007543,0.0005613213610439458,10657.927249496335
1678249585889674858,163,1678248324027457475,camera_1,164,0,0.13256974516184733,-0.3270528838777125,2.6407167209999636,0.7039870953230718,0.7060558377302972,0.03195974523661707,0.06975599121196084,0.0020939004025422037,0.0003834333993450617,10656.370757923465
1678249585896067582,164,1678248324034139633,camera_1,165,0,0.1324521122463188,-0.32690240949266436,2.6396561086846395,0.7038295620230942,0.7061694810560342,0.03401188955407586,0.06922285039199148,0.00040447100764140487,7.400081372501093e-05,10663.982088672234
1678249585902899673,165,1678248324040789604,camera_1,166,0,0.13257679516299437,-0.32717410911506295,2.6420342298880466,0.7042505330776333,0.7062082701495729,0.02964374777987103,0.06650048157555298,0.003198668418917805,0.0005858343688463044,10656.750105306039
1678249585909862157,166,1678248324047473192,camera_1,167,0,0.13241842681547944,-0.3268437424307791,2.639858603010206,0.7038042112487398,0.7062370955496291,0.0307526830781213,0.0703069668074228,0.008228741004131734,0.0015059203303817875,10663.269966643536
1678249585916504352,167,1678248324054142951,camera_1,168,0,0.13249628855557594,-0.3270550332216752,2.6411909142206107,0.7038570846206408,0.7064757534187904,0.029394083142962664,0.06792055754239076,0.002763594384305179,0.0005059976891605843,10660.197545182078
1678249585922767382,168,1678248324060156583,camera_1,169,0,0.13243277688249044,-0.3268830547380659,2.6395175156512143,0.7037482181988051,0.706283950588973,0.032767561358249035,0.06948174900701375,0.003882735501974821,0.0007102696802858227,10665.894490124778
1678249585930550144,169,1678248324067134618,camera_1,170,0,0.1326359483867491,-0.32706974408730194,2.6409907863414572,0.7040682453677483,0.7062355178623665,0.0311631309657844,0.06744003590498,0.0025606456911191344,0.00046872625904225047,10661.110664323201
1678249585936683759,170,1678248324074148416,camera_1,171,0,0.13265079987861933,-0.3271140002713327,2.6413321711164013,0.704050572527178,0.7061460984783213,0.03362937361393385,0.06737613938429937,0.0025845227646641433,0.00047320544069240995,10655.70545586606
1678249585942374096,171,1678248324080144405,camera_1,172,0,0.13265311093038426,-0.3271137774192591,2.6415647684919805,0.7042914768865177,0.706183929226156,0.03091199200358081,0.0657436113860919,0.005978655652143061,0.0010943225701405275,10661.07047614234
1678249585949760932,172,1678248324087114810,camera_1,173,0,0.132587716207056,-0.3271286168300578,2.641715297726256,0.704035409103164,0.7063327403374147,0.03115533648194113,0.06676486849441123,0.004865548224188387,0.0008909172859805841,10657.053693298712
1678249585956891033,173,1678248324094183683,camera_1,174,0,0.13246915429333223,-0.32695648500303925,2.6401982994682514,0.7039830723109295,0.7061154850774918,0.02945688888447727,0.070292583753128,0.0006703488761559129,0.00012272591008964293,10661.846923731388
1678249585962316604,174,1678248324100142955,camera_1,175,0,0.13250303104576494,-0.32706059688281597,2.641252070953189,0.7039336913666482,0.7064264417732332,0.029425255448553712,0.06762540102890618,0.0032002426451072097,0.0005859235304091844,10660.43434819567
1678249585969882092,175,1678248324107098340,camera_1,176,0,0.13244967490749154,-0.3268877471111105,2.639814503823905,0.7039415663286768,0.7061109717974372,0.03194026151263534,0.06966625005346855,0.0018413126235827804,0.00033694021295929363,10663.98136112059
1678249585976409329,176,1678248324114160299,camera_1,177,0,0.13257400718996398,-0.3271595780774239,2.642100046872331,0.70429333101876,0.706119421246128,0.03122209271659438,0.06626799942603546,0.003140609012916684,0.0005751874774561196,10655.160768781787
1678249585982776002,177,1678248324120134592,camera_1,178,0,0.1324933294722763,-0.326948953906509,2.640094244758321,0.7039703094935105,0.7060537988731552,0.03330436771758511,0.06931562262094307,0.000937615695875138,0.00017159942568950189,10661.051188836569
1678249585989002855,178,1678248324127054691,camera_1,179,0,0.13254938450615944,-0.3270543009419283,2.640669500115893,0.7038791408926952,0.7061817464984712,0.032610077772916184,0.06926816553204355,0.001249114633537829,0.00022870433390748528,10657.310644959447
1678249585996664443,179,1678248324134146928,camera_1,180,0,0.13257012565244156,-0.3270711045486945,2.640815531662805,0.7041079946880338,0.7059766484726584,0.03084360047892708,0.069839644452165,0.0029365147929638624,0.0005377649989442054,10656.573731351178
1678249586002877817,180,1678248324140859603,camera_1,181,0,0.13258892155935503,-0.3270915401303094,2.6413268971253756,0.7040273524748666,0.7061645655177332,0.031577761568373115,0.06841007490649369,0.0029200915014371276,0.0005347709541162462,10655.470136054097
1678249586009402190,181,1678248324147508144,camera_1,182,0,0.13256942650859196,-0.3270115268960291,2.6407975106100845,0.7042254118975396,0.7058689713244934,0.03332290752791688,0.06859408424148528,0.005736302817240357,0.0010500831693808909,10657.263058501181
1678249586018269927,182,1678248324154176950,camera_1,183,0,0.13251668912905906,-0.3270170563109396,2.64057015517077,0.7039922726546932,0.7059575421076894,0.03401151461300779,0.06972837053509502,0.002441729127895087,0.00044706906888607347,10655.258398071863
1678249586022249028,183,1678248324160146236,camera_1,184,0,0.13250618507736595,-0.32697060130563105,2.640350757610878,0.7040925857628569,0.7061146072938509,0.030143972702704597,0.0688994408520379,0.0021610030089505017,0.0003955175966059096,10663.608101663409
1678249586029388558,184,1678248324167006492,camera_1,185,0,0.13253394725601556,-0.3270802035012202,2.6411311167445746,0.7040075885706845,0.7061887668686389,0.03172247789004178,0.06829659713307082,0.0020079525420442224,0.00036767134220503105,10657.18529060134
1678249586036957608,185,1678248324174167633,camera_1,186,0,0.13257663674837916,-0.32711199475628583,2.641596605903592,0.7040276618477949,0.7062278469441935,0.0315430501497929,0.0677666255685172,0.002166444784961641,0.00039677971322525413,10655.025152218528
1678249586043414236,186,1678248324180800437,camera_1,187,0,0.13250752424431234,-0.3269274111327637,2.64012456261152,0.7040682743935518,0.7059333483793288,0.030912056135420588,0.07064288657689405,0.0021953217801637948,0.0004019066889032747,10659.97283735266
1678249586049590384,187,1678248324187478303,camera_1,188,0,0.132593896836585,-0.3272052312709779,2.642135205521568,0.7040950772592133,0.7062367863302795,0.030300840332235096,0.06753949132457258,0.0051750578568317,0.0009480661121708036,10652.59030084021
1678249586056869595,188,1678248324194154500,camera_1,189,0,0.1324562145125694,-0.32690953848808874,2.6397939363270027,0.703804049733247,0.7061708507359713,0.033409666111020184,0.06975946788978481,0.0021192486747168005,0.00038780162337545944,10662.17851705465
1678249586062787124,189,1678248324200790166,camera_1,190,0,0.1324919532904611,-0.3269793421343096,2.6402698366241837,0.7039044361698618,0.7060079683679872,0.03223885711456121,0.07093623498074404,0.0037218184443190694,0.0006814714947303166,10656.510920220982
1678249586069842566,190,1678248324207498550,camera_1,191,0,0.13250976472376902,-0.3269362790237047,2.640283627826699,0.7040876931100409,0.7062007915192404,0.03177784060444438,0.06731367851408653,0.003301002667285502,0.0006038950692279452,10666.526293133735
1678249586077125339,191,1678248324214135646,camera_1,192,0,0.13261363534662643,-0.3271260316800679,2.6416920208398254,0.7039824336307203,0.7062350546248006,0.03191190957804502,0.06798831359547008,0.00471763894893229,0.0008640821252383734,10653.260028090564
1678249586083228014,192,1678248324220804929,camera_1,193,0,0.13258986000682732,-0.3270702347188065,2.641099697981269,0.7041198041718469,0.7062664334441523,0.0292929260870888,0.06741625059533699,0.0035873119486495852,0.0006566823623186511,10662.275811284897
1678249586089373293,193,1678248324227493286,camera_1,194,0,0.13260155063243792,-0.3272080365719523,2.6417705715415813,0.7040232107664672,0.7064014562157476,0.03097800570333537,0.06624699631673849,0.0011035975767299533,0.00020208238653241103,10658.04554289684
1678249586096918178,194,1678248324234194517,camera_1,195,0,0.13244923080890705,-0.326800646049434,2.6389891777744636,0.7037303159992443,0.7061294426408247,0.034473780241123055,0.07040178304026894,0.0018074371619150043,0.00033060023370279845,10665.657531450732
1678249586104054146,195,1678248324240855216,camera_1,196,0,0.13256061252002577,-0.3270862943541426,2.6415447671824093,0.7042511964537497,0.7061235218877793,0.029522469303779376,0.06744069940672572,0.003995940904133022,0.0007317212985385528,10658.443642699156
1678249586109321877,196,1678248324247494220,camera_1,197,0,0.13252400635385164,-0.3270564467642891,2.6413052968768054,0.7040671566977507,0.7062845923195696,0.02798468470218905,0.06832547792473408,0.004622415523044765,0.0008464566485949272,10659.609707412543
1678249586115971684,197,1678248324254159927,camera_1,198,0,0.13251505513226386,-0.3270713474958201,2.6412844252185144,0.7039255026754887,0.7061947768442912,0.03082838416919966,0.06947974215855274,0.002340259379707277,0.0004286902680594606,10653.854845697992
1678249586123012390,198,1678248324260822296,camera_1,199,0,0.13253141025755683,-0.3270676446751527,2.641146630498849,0.7039831794159765,0.7062717241895926,0.029775158669356046,0.06856657083337103,0.002524829120375216,0.00046234330023054023,10658.457718986087
1678249586129523354,199,1678248324267492532,camera_1,200,0,0.13248767056370145,-0.32693503201983637,2.6399568545388217,0.7038834602619315,0.7061964725751835,0.03433726975840476,0.06823172574101405,0.0029002188239246607,0.0005305597064560165,10663.755961287534
1678249586136316614,200,1678248324274191379,camera_1,201,0,0.13263347568288614,-0.32716632372710075,2.6418150676402052,0.7041773813214893,0.7061020834628992,0.031463512206482344,0.06755820278985765,0.0029628049232997,0.0005426869298704957,10653.849971916294
1678249586142077909,201,1678248324280356407,camera_1,202,0,0.13258970965777464,-0.3270621544860251,2.6410755495803024,0.7040166711237635,0.7062269032476554,0.032420952248562396,0.06747569758318751,0.0035950802266597748,0.0006580996218289487,10658.96038846486
1678249586148861182,202,1678248324286642313,camera_1,203,0,0.1326108121054994,-0.3271482652065989,2.6417749745845582,0.7041863799661995,0.7062088411012528,0.029305193731887075,0.06731879856965269,0.0006335689686238766,0.00011604610475586546,10657.086428670911
1678249586156260658,203,1678248324294155836,camera_1,204,0,0.13253980594344966,-0.3270383643635973,2.640733875612737,0.7040325615799848,0.7063128894393369,0.03137813525652722,0.06690042656667462,0.003673464816529304,0.0006721809646885831,10664.34801311255
1678249586162378071,204,1678248324300820827,camera_1,205,0,0.13251383470964304,-0.32703631207340433,2.6408163877166837,0.7040159372747771,0.7062064418847086,0.031342205018232705,0.06820328209296188,0.003885428362991661,0.0007112365234980862,10660.392223622184
1678249586168162901,205,1678248324306643247,camera_1,206,0,0.1324200784609873,-0.3268704509218252,2.6397301247974294,0.7037406431258281,0.7063226532769533,0.031268544776166265,0.06985481220525612,0.0009368901955895126,0.00017144344418714856,10664.92070563976
1678249586174655637,206,1678248324313291549,camera_1,207,0,0.132572562613404,-0.3271830930627137,2.64227139028763,0.7041278242760345,0.7063347127280584,0.028465707600811876,0.06697002438743918,0.0028063947684131563,0.000514135091773485,10654.851613841485
1678249586182648061,207,1678248324320701122,camera_1,208,0,0.13243863057515046,-0.32686292639464504,2.639397577303683,0.7038155952564429,0.706172300196616,0.03344976008635649,0.06960893519516324,0.0022723658476024866,0.00041567708571336803,10665.719492193311
1678249586189538190,208,1678248324327440023,camera_1,209,0,0.13261989678976513,-0.32713022354206256,2.641349268483304,0.7041533654275961,0.7060577535985918,0.03207330911650593,0.06798374351723849,0.004890010983217508,0.0008954191113083428,10655.800852537388
1678249586195412487,209,1678248324333301782,camera_1,210,0,0.13256888807326342,-0.3270041490540747,2.640505597717108,0.7040997874396622,0.7061511237229104,0.030955500807713525,0.06808697938693699,0.0016668063472025096,0.0003050484072153151,10663.590069639267
1678249586202368476,210,1678248324340701341,camera_1,211,0,0.1326738467673242,-0.32715511512154494,2.641849533879959,0.7043220203646848,0.7062085998240079,0.029750045716555165,0.06568744129501339,0.003689517208840698,0.0006754942723501041,10660.131552164561
1678249586209576100,211,1678248324347357034,camera_1,212,0,0.13257044365914555,-0.32707277573647475,2.6412183014674944,0.7040822779233669,0.7063618706413795,0.028769939078864135,0.067032411739788,0.002939885016530752,0.0005381706168184589,10662.843501196006
1678249586216676380,212,1678248324354054450,camera_1,213,0,0.1324987215643143,-0.3269840519125268,2.640649988118071,0.7039999699416499,0.7062697251640424,0.030352068424754523,0.06816061605651114,0.0035622267751023173,0.0006519879667418126,10662.939653333397
1678249586222667311,213,1678248324360706567,camera_1,214,0,0.13251326686247028,-0.32701352225009667,2.640782518490637,0.7040834907246569,0.7061265038175983,0.030493380812701226,0.06871646398010371,0.003073522530030459,0.0005626755254587191,10660.253605542941
1678249586229569941,214,1678248324367388725,camera_1,215,0,0.13243701723907256,-0.32690442433320444,2.6398215141473496,0.7037573545196114,0.7063354714342954,0.031168420215574786,0.06960113026751154,0.0019009520183317363,0.0003478470545929026,10664.94049929187
1678249586235730934,215,1678248324373312234,camera_1,216,0,0.13254576853592914,-0.32706080356279427,2.64120226277058,0.7039163340282357,0.7062461771718458,0.03183573982000796,0.06859021496187255,0.006990323483478278,0.001280006107337557,10655.738824419099
1678249586241905615,216,1678248324379970550,camera_1,217,0,0.13256168852117042,-0.3270536533062426,2.6411941371927017,0.7041939540031601,0.7062511811535004,0.030960780167946872,0.06604221646850682,0.0033047866309061646,0.0006048095651036614,10663.293108743963
1678249586249653946,217,1678248324387351512,camera_1,218,0,0.13260578411103646,-0.3271712297059428,2.641888370283255,0.7040600202444621,0.7061765842560312,0.03081589358533918,0.06829714814243107,0.0031632300233468413,0.0005795241249620333,10652.069279282701
1678249586256239570,218,1678248324394069433,camera_1,219,0,0.13252644577456743,-0.32701458840447906,2.6405622526865447,0.7039869892546067,0.7061600050143068,0.03184539027531524,0.06874763557127901,0.0050809867680072784,0.0009300039064308568,10660.439438465517
1678249586263616419,219,1678248324400712728,camera_1,220,0,0.13256445715327933,-0.32709093007178947,2.6415110262635415,0.7041362151791137,0.7061366230788538,0.031885791650592646,0.06742815666203947,0.003636887005995959,0.0006659598941260275,10656.21505743521
1678249586268491366,220,1678248324406766891,camera_1,221,0,0.13252063100966105,-0.3269288669883684,2.640359832160622,0.7039532467443812,0.7061893946512129,0.031153881342934973,0.06910717008725108,0.0036338423960842192,0.0006650983574746639,10661.941133590528
1678249586276091983,221,1678248324414059638,camera_1,222,0,0.13264592832780342,-0.3272399662304668,2.6423621849330625,0.7041744938574573,0.7060808624062154,0.03131884909396608,0.06787656175527981,0.008374357887078077,0.00153451498329852,10648.77909744321
1678249586282786768,222,1678248324420752286,camera_1,223,0,0.132509698939266,-0.3269130942888185,2.639897280190942,0.7039865272013833,0.7061094343188665,0.03198894739384755,0.06920363812300538,0.0035473775351420045,0.0006490648438181402,10664.452225992922
1678249586290091821,223,1678248324427378654,camera_1,224,0,0.13261910421669817,-0.32714006458335054,2.641625354262264,0.7040788956245414,0.7062548536744926,0.028853746408085242,0.06815021434716922,0.0030158785521052778,0.0005524011919711674,10656.581735190235
1678249586295005250,224,1678248324433294773,camera_1,225,0,0.13248183537035207,-0.32685927190146774,2.639545506878336,0.703859751029089,0.706082536279655,0.03430741223031109,0.06965561218034014,0.0030458386172540486,0.0005572251508210311,10663.38099046261
1678249586302250169,225,1678248324440706729,camera_1,226,0,0.1325846642546751,-0.3271287621697645,2.6416866325104214,0.7040155552387992,0.7061464457650823,0.03247967684902319,0.06829616172911913,0.004843704868108034,0.0008872305495019118,10651.868913936543
1678249586309178501,226,1678248324447372436,camera_1,227,0,0.13243889732652792,-0.32687284793521043,2.6397037713996494,0.7037999701483105,0.7060929942179628,0.0322013423282921,0.07114322938836669,0.0022429783712141216,0.0004105566892248328,10660.600246416638
1678249586317115262,227,1678248324454033136,camera_1,228,0,0.13257762433125614,-0.3272069379851273,2.6422597110457753,0.7040600492241982,0.7062704630688452,0.029952756193530227,0.06770755112503608,0.004336954210884869,0.0007946467469485656,10651.538804324926
1678249586321775379,228,1678248324459937572,camera_1,229,0,0.13244746643033015,-0.32693521209909443,2.639908482430986,0.7038667498543739,0.7061689179116355,0.03114801458680646,0.07019158790232931,0.0020315140136517584,0.0003718201979629803,10662.659749244107
1678249586329219903,229,1678248324467366695,camera_1,230,0,0.13253551683940545,-0.3269352971397442,2.6403780180360723,0.7041578330840611,0.7062609495922805,0.02704474379031087,0.0680132268068959,0.0034236923092976213,0.0006264775050978756,10668.761514418296
1678249586336492200,230,1678248324474206209,camera_1,231,0,0.13253156676181785,-0.32691485538584253,2.640089724353062,0.7040100329688185,0.7060544492909532,0.03196665713744134,0.06953503395518938,0.002654497337061912,0.0004858145025997697,10662.061422442435
1678249586343493027,231,1678248324480567455,camera_1,232,0,0.13263120799909156,-0.327152104636642,2.641914486842675,0.7043533374098366,0.706113609132719,0.029820566233620203,0.06633762813589963,0.005093853629659861,0.0009327770881605663,10657.928165742664
1678249586348745672,232,1678248324486642837,camera_1,233,0,0.1326256013823375,-0.32710375320076135,2.6412812467676154,0.7039832984145755,0.7061578650402262,0.031990431565166864,0.0687400718899733,0.006501750787720084,0.0011906747102169676,10654.483525684103
1678249586355956020,233,1678248324494191884,camera_1,234,0,0.1325378793883501,-0.3270525706047301,2.640773809140433,0.7039886243426242,0.7062133945780528,0.03232849936447807,0.06795238217725788,0.005486254522111267,0.0010041419088816774,10660.254123914287
1678249586362392814,234,1678248324500811815,camera_1,235,0,0.13249161836414777,-0.3270141794603268,2.6408792548240076,0.7041375645218789,0.7061449694363802,0.03180921504127349,0.06736279542409639,0.0035308347432874143,0.0006462227575737115,10661.568052360091
1678249586369256403,235,1678248324507462978,camera_1,236,0,0.1324128918587587,-0.3269000793816022,2.6400327003874713,0.7038968737559417,0.7063651333711581,0.032203625199682055,0.06738260901862177,0.0022649277234449983,0.00041428802366341304,10667.92553674313
1678249586378737132,236,1678248324514179468,camera_1,237,0,0.13251715144328177,-0.3270912164005956,2.641425211947849,0.7037628217222807,0.706346062380594,0.033319001888632405,0.0684322660304984,0.00508648477261886,0.0009315463845275792,10652.666829319205
1678249586382015521,237,1678248324520343542,camera_1,238,0,0.13249129741587728,-0.3269820401391383,2.640437235687755,0.7039642916293184,0.7064273027134214,0.02891402945053941,0.06751830116942764,0.0022865778882987797,0.00041838570100465527,10667.76514924469
1678249586389180194,238,1678248324526990652,camera_1,239,0,0.13260603703061477,-0.3270901034466321,2.641292410381066,0.7040491157430868,0.7062543722813065,0.030974397058975173,0.0675291861475328,0.002757009118795395,0.000504785105496267,10658.681588370237
1678249586395623762,239,1678248324533660888,camera_1,240,0,0.1326030504499628,-0.3270120583570304,2.640940425680251,0.7040928239201982,0.7061487949501374,0.03053144371182089,0.06837401289540866,0.004921748884953559,0.0009010451396535648,10659.831251481082
1678249586402352699,240,1678248324540341854,camera_1,241,0,0.13270565561497147,-0.3272532080297789,2.642481117176297,0.7040567186222727,0.7063145603119536,0.030045713986863027,0.06723937778704736,0.004371261689811945,0.0008009934777437939,10650.80795313383
1678249586409549009,241,1678248324546984672,camera_1,242,0,0.13256177715236134,-0.32698883115144506,2.6403132332383157,0.7040259670791416,0.705944565823283,0.033142414885001005,0.0699377437328834,0.002836013154592365,0.0005191764950861886,10657.789017913052
1678249586415843537,242,1678248324553680896,camera_1,243,0,0.13255371539918442,-0.3270888602207427,2.6412799370294304,0.7039008696838169,0.7062577560930998,0.03207722810234757,0.06851714423394903,0.0019088241970166564,0.0003495788939576068,10655.020731290682
1678249586422354571,243,1678248324560363531,camera_1,244,0,0.13246341428709069,-0.32694064727843986,2.6401340351857483,0.7040222064586932,0.7061391845823359,0.03006745271998109,0.06939836523549117,0.005392688966821879,0.0009868860265470627,10664.127958527071
1678249586432976426,244,1678248324567455768,camera_1,245,0,0.13237420513816314,-0.32683966057172925,2.6394305223703474,0.7039357959858993,0.7061431808201113,0.031148102591954847,0.06975671305239989,0.0030875360826030374,0.0005648081310247099,10667.727977226485
1678249586436901261,245,1678248324574184417,camera_1,246,0,0.13242687958100433,-0.3269037270201722,2.640046593741559,0.7037808566848098,0.7063121824670527,0.03215792049641006,0.06914820902937732,0.0014993349905125797,0.0002743768753821368,10663.262605898086
1678249586442297708,246,1678248324580148220,camera_1,247,0,0.13254083173703857,-0.3270813642186722,2.641288380949419,0.7039451722394571,0.706320733037938,0.033568580997881146,0.06667358495911316,0.002752324042376131,0.0005038219782840476,10657.977025599343
1678249586449386114,247,1678248324587160110,camera_1,248,0,0.13258039856868373,-0.3270426573857632,2.640913515430344,0.704022759532701,0.7062803224531845,0.029912543126700716,0.06800955770389802,0.0016229706234298646,0.0002971127862408186,10661.62299040868
1678249586458822773,248,1678248324594125747,camera_1,249,0,0.13265244153622852,-0.32713050641935904,2.6415401848609625,0.7042104979769722,0.7063385428956317,0.028453867920218964,0.06605917619437608,0.002483735093846917,0.00045467922459710197,10662.984448442701
1678249586463041847,249,1678248324600734710,camera_1,250,0,0.13267017004300807,-0.3271669205784975,2.6420258363851548,0.7041520432483529,0.7061844812091373,0.03093160041035059,0.06720576303119936,0.003241875790990889,0.0005938352847476904,10653.653489433813
1678249586468748386,250,1678248324606968402,camera_1,251,0,0.13253294282846553,-0.3269778652418719,2.6405913606597533,0.7040665706253568,0.7061354197235197,0.030613275283368796,0.06874489447343023,0.0012612462742254138,0.00023087970858017828,10661.59645029332
1678249586475825828,251,1678248324613677501,camera_1,252,0,0.13258433442095743,-0.3271588996380494,2.6418460486862094,0.7040293442737503,0.7063446561628651,0.030209670633110083,0.06713631589442562,0.008640624466352165,0.0015823601845184896,10656.052688931
1678249586483331043,252,1678248324620280981,camera_1,253,0,0.13249746939384488,-0.3270355511354536,2.6409737678794634,0.7037916566613783,0.706488305899369,0.030277864938371753,0.06807957502838863,0.003734673489816487,0.0006836982787134519,10660.614839000398
1678249586489103513,253,1678248324626942157,camera_1,254,0,0.1324196077106458,-0.32684993703198706,2.6395595166467376,0.7037900309496402,0.7061918312459615,0.031663912691513994,0.07049884006452838,0.004846330964937806,0.0008867709185842826,10664.11970330192
1678249586495574807,254,1678248324633643865,camera_1,255,0,0.13242110916573657,-0.32685124237275504,2.6395272002131938,0.7038879683964141,0.7062699018731867,0.03018185022244056,0.06938018140620716,0.003912256739567965,0.0007156484352246507,10668.970081127485
1678249586502351725,255,1678248324640319347,camera_1,256,0,0.1325753359221583,-0.3271210132856163,2.6414350453169853,0.7041324464102199,0.7061446757196822,0.03041127747027033,0.06806136251743557,0.007697176013607532,0.001409486182984838,10656.7553299265
1678249586509119772,256,1678248324646958827,camera_1,257,0,0.13263039984212868,-0.32719349541282944,2.6419785785147996,0.7041863040401973,0.7063583308582155,0.02968044535743202,0.06556392905239117,0.0046780683333054185,0.0008565193897386099,10659.468639492989
1678249586516525604,257,1678248324653629302,camera_1,258,0,0.13256149704008596,-0.32707655464330354,2.640993056141096,0.7040752155539717,0.706264193550521,0.03128402427440859,0.06700962301236175,0.0017631961381994188,0.0003227223085223142,10662.076161687728
1678249586522478961,258,1678248324660287857,camera_1,259,0,0.13259252636700256,-0.32706127179318323,2.6411216280830554,0.7041652338943083,0.7063106228358913,0.03061238191515504,0.06587495364119922,0.0015240084030665457,0.00027889679194882693,10664.648138588302
