field.image_seq,field.transforms0.transform.translation.x,field.transforms0.transform.translation.y,field.transforms0.transform.translation.z,%time,field.header.seq,field.header.stamp,field.header.frame_id,field.transforms0.fiducial_id,field.transforms0.transform.rotation.x,field.transforms0.transform.rotation.y,field.transforms0.transform.rotation.z,field.transforms0.transform.rotation.w,field.transforms0.image_error,field.transforms0.object_error,field.transforms0.fiducial_area
179,0.0,0.0,0.0,1678317119498025067,179,1677825034870501995,camera_1,0,0.7039368175833797,0.7062321640627842,0.03610733321999155,0.06637279398609794,0.0034804932656697925,0.0006365725141357541,10664.881819907225
180,-2.2385228683446945e-05,6.8640180908075e-05,-0.00017251712578270073,1678317119502811655,180,1677825034876345157,camera_1,0,0.7038883257641458,0.7060985761673628,0.03470415085683816,0.06900469187436811,0.0032960835960693657,0.0006031488054263505,10661.301590561512
181,6.640600251946183e-05,-0.00018964711758989727,0.0016630361991181175,1678317119510754126,181,1677825034883761644,camera_1,0,0.7041914960707545,0.7062712097280425,0.03411580865169273,0.06427617576490574,0.006686621985863893,0.0012236999467177944,10659.189551701309
182,3.0638017750828084e-05,-1.465930255867276e-05,0.00045772218958273214,1678317119518784596,182,1677825034890496969,camera_1,0,0.7038434353224087,0.7063149700423449,0.03367814421880785,0.06774484666458855,0.004547352727968246,0.0008322283595223014,10660.752089198912
183,4.862094566353281e-05,-5.6015968424028006e-05,0.0003976189180714407,1678317119522743644,183,1677825034896349191,camera_1,0,0.7038727592947067,0.7062128272688961,0.034905200581781815,0.06788378522205238,0.003396115789655596,0.0006215551872633809,10659.32892438886
184,7.760912805847286e-05,3.408822924139132e-05,-0.00036907095240179544,1678317119529802982,184,1677825034903126478,camera_1,0,0.7038681379459806,0.7061183077799704,0.034351459976479225,0.06918494778413307,0.003169419476762414,0.000579904790613755,10662.761355633262
185,9.743999609375387e-05,-3.408206972643768e-06,-3.421071236919815e-05,1678317119537738049,185,1677825034910499572,camera_1,0,0.7040540005899686,0.7062455480088639,0.034741851840322316,0.0657129660084319,0.00415496074128896,0.0007598384181122079,10668.52353097382
186,0.00016763934000291192,-0.00016624196751363618,0.0014770984853558211,1678317119544664341,186,1677825034917077779,camera_1,0,0.7040571378057943,0.7062420144181006,0.033617512057240624,0.0662995223094224,0.003503789252135903,0.0006415233708542402,10656.257913698675
187,4.953848309199871e-05,5.8088754450902336e-05,-0.00026429169039232647,1678317119550786768,187,1677825034923938274,camera_1,0,0.7038659805582852,0.7062918942802313,0.03471273547347626,0.06722698478077767,0.002200111746788025,0.0004024083123385196,10666.618690301546
188,7.970825246621238e-05,-0.00010800578774178282,0.0010810833776178086,1678317119557551239,188,1677825034930506706,camera_1,0,0.7040743772511442,0.7062439657046781,0.03335927655324171,0.06622605885893723,0.004086848173756152,0.000748014180802899,10659.961076191508
189,8.776315568156945e-06,1.8640175242168322e-05,7.668911264246958e-06,1678317119563383130,189,1677825034936291694,camera_1,0,0.7038729619391038,0.7063514196752618,0.034614660684626763,0.06657590134202923,0.0030875058146193624,0.0005647185754789325,10666.213265242288
190,0.00011077986982419019,-0.0001984009048742741,0.0019143733017683573,1678317119570295035,190,1677825034943076372,camera_1,0,0.7041550587241161,0.7064218383754394,0.028520007855883163,0.06573012012313348,0.008080620900727808,0.001479638961502846,10659.711719778012
191,4.44962929592313e-05,1.159085172675045e-06,0.0002440391056750535,1678317119578460716,191,1677825034950578927,camera_1,0,0.7039401257699003,0.706411965130101,0.033748392315733323,0.06566186768733659,0.0072753254789859065,0.00133063611475575,10667.670033357805
192,6.192067438476334e-05,-2.563518081311056e-06,0.0002864662785380112,1678317119585000370,192,1677825034957170009,camera_1,0,0.7039089286626279,0.706295615419116,0.03318654019423786,0.06750835014055567,0.004974343697540462,0.0009102180941939551,10663.307652567048
193,7.029602613561892e-06,0.00014604778189225565,-0.0012206109511012642,1678317119591377157,193,1677825034963759183,camera_1,0,0.7038218792967393,0.7062510734593533,0.0364623316793068,0.06719138210533718,0.005382216942962259,0.0009836135573508577,10672.16040625644
194,2.8197019605699647e-05,8.307410547203631e-05,-0.0006282143881519708,1678317119597263244,194,1677825034969747304,camera_1,0,0.7039136157174544,0.7061587966157352,0.03688836905492381,0.06696733381481472,0.0031644537230022256,0.0005785849548917037,10667.401825492963
195,5.6893084142833894e-05,2.3690105311335863e-06,0.00015108556882603708,1678317119604418892,195,1677825034976616382,camera_1,0,0.7039449695317473,0.7063285679732151,0.032517428337286096,0.06711222534072414,0.005204763438086957,0.0009522077151750348,10666.18104686088
196,0.00011145258893295595,-0.00015268002265744762,0.0012516899151080452,1678317119610994374,196,1677825034983732461,camera_1,0,0.7039161145462088,0.706297496037236,0.03570867075164804,0.06611234080600925,0.002686560095753521,0.0004917745596664329,10655.954070650045
197,4.825101536089227e-05,-1.913474955683725e-05,0.00029445359277735506,1678317119617417605,197,1677825034989924907,camera_1,0,0.7040255919215828,0.7061558260780401,0.0350352800828635,0.06681649770095144,0.0024534271215088665,0.00044885840615782764,10662.755437282265
198,0.00010030525052161232,-0.00019503477998550345,0.0018003479077299822,1678317119623704297,198,1677825034996572017,camera_1,0,0.7041196636135596,0.7062841863287407,0.03349215026371464,0.06524127010864478,0.0037723412970080967,0.0006906749088932787,10656.475874980566
199,6.886918382406626e-05,-7.500607362637135e-05,0.000995750280507135,1678317119629742148,199,1677825035003214836,camera_1,0,0.7040830065934026,0.7062846915755324,0.03258680651258936,0.06608444835027914,0.003414947830606252,0.0006250112351122513,10661.928222855204
200,4.6780138513224934e-05,2.3040508211669142e-05,-0.00011133358187231934,1678317119636450188,200,1677825035009919881,camera_1,0,0.7038079180997334,0.7062478082824676,0.035622955952608136,0.0678192651503119,0.003866512444801629,0.000707351443443837,10662.701150066912
201,0.00010292626880555045,-7.881049028318765e-05,0.0008064633118136655,1678317119643069390,201,1677825035016564369,camera_1,0,0.703960241926209,0.7061303874774985,0.035110210412625464,0.06772833079924931,0.0035504020634107287,0.0006499811164095579,10656.199778720036
202,5.894878323038644e-05,7.338484111307775e-05,-0.0005460723298700287,1678317119650016006,202,1677825035023276329,camera_1,0,0.7039058252777501,0.7062293541366396,0.03465610938544439,0.0674955004282401,0.007626964128576217,0.0013946209947079042,10668.246959297452
203,5.430629214078775e-05,2.6764512349952696e-05,-0.00028108587922259787,1678317119658316758,203,1677825035029927730,camera_1,0,0.7039028159935147,0.7060375010072321,0.03675151104460031,0.0684192899977915,0.0032524320413358514,0.0005950331883153871,10661.016982762376
204,3.8401470828675066e-05,4.019387871784241e-05,-0.00013989736751263138,1678317119664142433,204,1677825035037101984,camera_1,0,0.7037827034214377,0.7062939822501103,0.035432931943760064,0.06769951503491446,0.0034753383370116357,0.0006357491301344851,10663.496594786524
205,3.454402918039168e-05,4.997248566512846e-05,-0.0002961572481656738,1678317119670807242,205,1677825035043729066,camera_1,0,0.7040170303820056,0.7060883573504811,0.033764181738269734,0.06825857145990283,0.0029610662604682148,0.0005416771778181801,10665.352040034139
206,1.8240975925232217e-05,5.925766515896269e-05,-0.00024841501180361547,1678317119677075077,206,1677825035049594640,camera_1,0,0.7039254194968165,0.7062557995393937,0.032050141374994186,0.06829742192092977,0.003952760132960975,0.0007231115557135955,10666.877319742227
207,5.7839268550852196e-05,-5.046678770820323e-05,0.00068548340490171,1678317119683560047,207,1677825035056460380,camera_1,0,0.704040480485138,0.7061752866837269,0.03466603180079127,0.06664632438926192,0.005218663194682449,0.0009549795803262244,10660.516861925953
208,8.691957390483118e-05,-0.0001200040325608498,0.001069104046948155,1678317119690471392,208,1677825035063745260,camera_1,0,0.7041015020043273,0.7062086722093615,0.03356809615501552,0.06620852733650451,0.003774072567466647,0.0006908107171448228,10659.843842025966
209,1.6943586608267336e-05,7.647166502233738e-05,-0.0003979536557072727,1678317119697992515,209,1677825035070535659,camera_1,0,0.7040109822791529,0.7060272313496716,0.03458020695882705,0.06854410776824148,0.004111080546863377,0.0007520493309871516,10664.45153803588
210,6.34768923771234e-05,-9.665467829228502e-05,0.0007279795864367777,1678317119704361131,210,1677825035077146768,camera_1,0,0.7040912431590464,0.7061331319278625,0.033237128983697795,0.06728160638256006,0.004101029073353857,0.0007506233152721338,10660.238627300012
211,3.800775004267343e-05,2.3886998172129026e-05,0.0001625253989634423,1678317119710400378,211,1677825035083746671,camera_1,0,0.7039113418572274,0.7059857405271173,0.035659004744624474,0.06943624671422352,0.002578220854047686,0.0004719682785564244,10656.242155512795
212,6.116353164389854e-05,-9.268055077715776e-05,0.0008875123875600188,1678317119718142895,212,1677825035089646100,camera_1,0,0.7039537492543053,0.7062021827746439,0.032658805613474874,0.06827150482475483,0.004452223074622452,0.000815143519281387,10657.086439613366
213,4.2114515245467166e-05,-3.633529572577565e-05,0.0003755926945356869,1678317119723290629,213,1677825035096402168,camera_1,0,0.703882991192553,0.7062639008411344,0.03487705626114281,0.06725792165273625,0.0017004915280267596,0.00031116778150664634,10661.168261038838
214,5.248330960914982e-05,-1.0710251977741336e-05,0.0001755624675121581,1678317119730476029,214,1677825035103788137,camera_1,0,0.7039368682467276,0.7063246299502286,0.03496718623501942,0.06599771613826873,0.004336079640779643,0.0007930446258617404,10665.862996301848
215,4.3581512702922653e-05,0.00010288963788646077,-0.0008451442570618362,1678317119738882939,215,1677825035110538482,camera_1,0,0.7038704339262432,0.7062244840604308,0.0352162784592861,0.06762546923710383,0.0033973765675909817,0.0006211867657971013,10669.620777102886
216,9.999077060252048e-05,1.3244878272034022e-05,-0.00024239958930216687,1678317119744014609,216,1677825035117165327,camera_1,0,0.7039924386288596,0.7062558547212029,0.0323554680711989,0.06745693227021424,0.0034345315070822835,0.000628178446151038,10668.598498041974
217,0.0001334513234800272,-0.00013166059948915843,0.0009515726923123857,1678317119750440633,217,1677825035123746395,camera_1,0,0.7040419380667141,0.7063006643985865,0.034164037583836016,0.06555257012010192,0.0059549518628045925,0.0010896907604552905,10661.682295838142
218,3.516317801811886e-05,-8.61094850562738e-06,0.00045690983364865545,1678317119758765760,218,1677825035130510568,camera_1,0,0.7038696132658071,0.7062585914710465,0.03299394957951614,0.06839421602387802,0.005704368639271706,0.0010441194073620072,10659.882167506497
219,1.5210016452590902e-05,-2.5649049982756633e-05,0.000536886088035704,1678317119764114494,219,1677825035137161731,camera_1,0,0.7039576638226658,0.7062506929773184,0.03386211877395304,0.06713362143167366,0.005211102426983415,0.0009536404817215088,10661.470117542658
220,3.921661659715692e-05,-5.24166265602477e-05,0.0007801120987727117,1678317119769216552,220,1677825035142889976,camera_1,0,0.7040081649590982,0.7063812697120373,0.03397253273433913,0.06514501124834812,0.002621783991344273,0.0004796493901546268,10664.375282886667
221,7.084024864305316e-05,-1.2120050718766873e-05,0.0003119622427680824,1678317119778967961,221,1677825035149996757,camera_1,0,0.7037795892075337,0.7062923672302481,0.037051840862296535,0.06687707302119797,0.005085676850285381,0.0009304278540846869,10659.853800123436
222,7.643263230343311e-05,-2.617756845435526e-05,0.0003415201128547096,1678317119784344213,222,1677825035157121181,camera_1,0,0.7040324700637574,0.7060637964302449,0.036132165973023295,0.06713168438622896,0.00682747788960114,0.0012493318874477071,10660.17400442611
223,6.190943148887129e-05,4.0212997301058984e-05,-0.0004403359383604588,1678317119789236819,223,1677825035162902355,camera_1,0,0.7038548645492726,0.7062098943343876,0.035795403893927415,0.0676358178379538,0.002576546976342797,0.000471218344420733,10665.574575707202
224,7.878721413207002e-05,1.889565486778988e-05,-0.00023534001156155782,1678317119797513965,224,1677825035169990301,camera_1,0,0.7039249978506261,0.7062102364928733,0.034776705970127865,0.06743352278758234,0.0034865786437876523,0.0006377105764444591,10665.733421031617
225,7.40941177917731e-05,-2.8773838427587073e-05,0.00031676980490047413,1678317119806673686,225,1677825035177170276,camera_1,0,0.7038901951986009,0.7062330624615791,0.032753475759249355,0.06856139157793686,0.005472525139339268,0.0010016198194538663,10660.806441303339
226,6.915366515515553e-05,-0.00011444863564724628,0.001081934595314138,1678317119809475547,226,1677825035182896375,camera_1,0,0.7040238798281498,0.7063156607090358,0.033947416805548684,0.06569731319549836,0.004253904975485057,0.0007785192419573332,10660.577710372629
227,2.5638159444452135e-05,4.583665129398451e-06,9.956250227194374e-05,1678317119816267675,227,1677825035189406871,camera_1,0,0.7039113059247678,0.7061747443720027,0.03727202535366695,0.06661005876337461,0.0044261981383897355,0.0008095973356677103,10661.945278747471
228,7.533804586182247e-05,-0.00010538057559494884,0.0011802046854958448,1678317119824217968,228,1677825035197112321,camera_1,0,0.7041027561648342,0.7063320924463425,0.031907382886799326,0.06569781471838082,0.0029265411430969834,0.0005356313381506101,10662.17096034263
229,6.0285650968869287e-05,-7.143447711133177e-06,0.00022333693181764147,1678317119830937252,229,1677825035203797817,camera_1,0,0.7040054778170427,0.7062941555591555,0.033331145616984,0.0664370962522916,0.004667988221626729,0.0008538698764275813,10666.365691981513
230,9.568188723005355e-05,1.4297290367226712e-05,-0.00026678371751254204,1678317119837638727,230,1677825035210479021,camera_1,0,0.7039022249662817,0.7061660624825524,0.03394760329640482,0.06854713791133772,0.00328591390280053,0.0006011892221240252,10664.10037849646
231,0.00014749446630255014,-0.00012437860683317536,0.0010007227472432767,1678317119844364018,231,1677825035217265844,camera_1,0,0.703923492146852,0.7062441026439317,0.034674153508566924,0.06714676286250132,0.0022656777291558683,0.00041478243951104235,10656.643964499235
232,0.00011266231841243479,-5.787966087117402e-05,0.00037213440279826315,1678317119849729304,232,1677825035223191499,camera_1,0,0.704175553294259,0.7061393061957545,0.03397507805701517,0.06595274413640859,0.00278171815443784,0.000508851440057103,10665.57621858548
233,3.998806036256686e-06,0.00013819734519276983,-0.0009956738776160101,1678317119858427589,233,1677825035229886770,camera_1,0,0.7038444644738683,0.7061207103648067,0.03714515109532094,0.06794667006925352,0.0039930533384904265,0.0007300458467685278,10667.511602616873
234,8.781631680554458e-06,1.6803410683829956e-05,0.00020024796595174976,1678317119863182819,234,1677825035236518383,camera_1,0,0.7039840854305344,0.7061655810409424,0.03428946382080837,0.06753378624454387,0.002607616654131561,0.00047712591871100214,10662.633018477587
235,6.577152803013964e-06,-3.990814377408114e-06,0.00023743555555144624,1678317119869622601,235,1677825035243291378,camera_1,0,0.703908476231704,0.7061202156141245,0.03643502109596248,0.06767264903903017,0.002894421981181949,0.0005296498689004098,10659.244240322265
236,-3.856666229634653e-05,0.00015363257834610788,-0.0010770691327479653,1678317119878659333,236,1677825035249891042,camera_1,0,0.7037920741303386,0.7059525854465291,0.038170751449744335,0.06964665983691426,0.005911086744163185,0.001081040265563256,10662.30222318904
237,8.999484806344882e-05,-8.494666286651409e-05,0.0006028309851764391,1678317119883168794,237,1677825035256554603,camera_1,0,0.7038690899672265,0.7063024832339095,0.03429088114798566,0.06729964217152885,0.0031984401284717023,0.0005853721544425263,10659.927965403076
238,-4.956883168802384e-06,0.0001558865506382512,-0.0010004208434613027,1678317119889593421,238,1677825035263068437,camera_1,0,0.7039770911563823,0.7059876029852595,0.035840867692625115,0.06865268939499827,0.003398482396733016,0.0006214463974418388,10667.439664804026
239,1.4509218851696537e-05,0.00011244861611225954,-0.000857223623836223,1678317119896576353,239,1677825035269887208,camera_1,0,0.7038263222218729,0.7061292030323241,0.03578287194620764,0.06877239888100903,0.0011569199268706145,0.00021158566481702945,10666.014355747726
240,9.22609223751869e-05,-9.843346683735543e-05,0.000847127402493264,1678317119904543338,240,1677825035277042627,camera_1,0,0.7038555524584256,0.7062837455261224,0.03489563683498318,0.0673270124758052,0.002957414137199521,0.0005413617650242887,10657.161007894782
241,0.00014482137180581167,-0.00018801772425225405,0.00163695097655836,1678317119911705691,241,1677825035283699512,camera_1,0,0.7042615680586232,0.7061951982885835,0.0321280186029796,0.0653588256504384,0.003394783940166235,0.0006214772253109235,10659.050188281108
242,7.98542257568341e-05,-0.00014186301535423773,0.0013620449268243462,1678317119917348314,242,1677825035290376901,camera_1,0,0.7042984907655768,0.7060810458900645,0.032820819663901685,0.06584820678433945,0.0030763757531531155,0.0005631356858389483,10659.276188180893
243,3.439396954642293e-05,2.1613402356734923e-06,0.00014175847455311086,1678317119924234447,243,1677825035297504425,camera_1,0,0.7038335972405645,0.7061800174017306,0.03678551759952463,0.06763783048585724,0.005357570247724652,0.0009803203883368278,10659.634287575493
244,2.638275045419025e-05,8.68007669335702e-06,0.00011797334205265742,1678317119930868526,244,1677825035303963899,camera_1,0,0.7038266248352301,0.7062400524684809,0.034691040572823184,0.06818799136461245,0.0066049948800355205,0.0012086179538944824,10661.089778879072
245,7.047300060622486e-05,-2.7492357861313987e-05,0.00032612733985937226,1678317119936242054,245,1677825035309730768,camera_1,0,0.7041182459389475,0.7061842553654598,0.03573579155130667,0.06514788110132423,0.0037251199246384203,0.000681260373507377,10665.792699413496
246,0.000152262523119312,-0.00020248845407827565,0.0016121109820961266,1678317119943774770,246,1677825035316989421,camera_1,0,0.7041384421952263,0.7061610887246416,0.03368859393331666,0.06626197727886733,0.002443752659019083,0.0004474621041591956,10655.162094258587
247,6.801906904363442e-05,5.503424957198355e-06,-0.0003040971136392123,1678317119951555770,247,1677825035323693037,camera_1,0,0.7039286375864673,0.7061043155812436,0.03699819974225197,0.0673223730942115,0.003030322666745633,0.0005542113508500722,10663.687072675908
248,0.0001262971874113339,-9.882579774717071e-05,0.000766886219811802,1678317119957295332,248,1677825035330392837,camera_1,0,0.7038090125717659,0.7063822809541269,0.03355195583363218,0.06746268032430232,0.007738468644674867,0.0014164424014425315,10659.079561139455
249,2.0655311403064425e-05,5.399999406352496e-05,-0.00015960072954701587,1678317119962823556,249,1677825035336114168,camera_1,0,0.7039592956003194,0.7063586478774104,0.033662645991207475,0.06607266432927654,0.005542508792132139,0.0010134781581807297,10669.999839709373
250,-6.153437307337972e-07,4.109321630285656e-05,-0.00013886674050578307,1678317119970630257,250,1677825035343665838,camera_1,0,0.7039246050590742,0.7060589431324156,0.03488220915696147,0.06895034952408323,0.004961714614182711,0.0009079691401215027,10660.928535807176
251,4.0691482077012675e-05,-5.593317402302622e-05,0.0006269728851475698,1678317119978635584,251,1677825035350376844,camera_1,0,0.7040158180849214,0.7062118882991933,0.032814105258536536,0.06745169536185598,0.0030777899082750078,0.0005633241744276131,10661.139322493571
252,2.9974657383274872e-05,-3.609785598196469e-05,0.00048105929425146243,1678317119983719763,252,1677825035357006788,camera_1,0,0.7039681045046796,0.7061771120278986,0.03432824379975559,0.06756009151599687,0.0031645121634937823,0.0005791608067837136,10660.238269468073
253,1.664468450035539e-05,0.0001016264808979539,-0.0005483600162086155,1678317119989435718,253,1677825035363012313,camera_1,0,0.7038978750316419,0.7062321791223161,0.03325721124026085,0.06824843293882009,0.007022368954494596,0.0012843615299768644,10668.040597206687
254,5.748522072798745e-05,2.3011804604122776e-05,-7.217948789906004e-05,1678317119998900921,254,1677825035369699478,camera_1,0,0.7040317364675799,0.7060570466812998,0.03422452295272738,0.06820148757016438,0.0032595886150375013,0.0005963991687142571,10663.139088599592
255,0.00017208592811915335,-0.0002446093102728697,0.0019748219244601906,1678317120004039715,255,1677825035377024412,camera_1,0,0.7040949605279487,0.7063049020267375,0.03502017454232408,0.06447681216664207,0.004764882731251419,0.0008723631777632383,10655.052629461508
256,0.00010827419030086383,-8.865057191792536e-05,0.0007141003657720191,1678317120010681407,256,1677825035383746147,camera_1,0,0.7040544565182959,0.7061212568429408,0.03481288853023691,0.0669936988339488,0.005925067875068635,0.0010843811642686607,10659.17884544702
257,3.216016629437046e-05,-1.5238413929474781e-05,0.00016694792768090494,1678317120017140884,257,1677825035390368700,camera_1,0,0.7039707224915209,0.7062215666149372,0.0354719608717569,0.06646849415040465,0.004469730833079666,0.0008175441600077032,10664.104571399392
258,4.829196262738644e-05,-2.9782303411829414e-05,0.0006446091647269725,1678317120024675626,258,1677825035397015571,camera_1,0,0.7039697751858804,0.7062107731525271,0.035665582009561485,0.06648959142580255,0.00313034316059202,0.0005728067592133831,10660.001101324222
259,2.2230641355550085e-05,4.018132583571976e-05,5.376943192736405e-05,1678317120030896459,259,1677825035402904510,camera_1,0,0.7038447540728129,0.7062650112321238,0.033521290637211015,0.06832729430824143,0.004018646781332791,0.0007353165228375463,10662.678675393692
260,6.127303532273143e-05,3.452257282593463e-05,-1.4914897819906514e-05,1678317120036944437,260,1677825035409975528,camera_1,0,0.704120872366702,0.7061157925463314,0.03276592023003521,0.0673845611820684,0.005161268752999604,0.0009441551761691864,10666.5390866521
261,5.0562336122730867e-05,0.00012167566051374257,-0.0009498789903474858,1678317120043866957,261,1677825035417053222,camera_1,0,0.7037731476290926,0.7062199289643508,0.03626248308077309,0.06813076346734502,0.003599623625632376,0.0006581596613204711,10667.812625797347
262,4.252262449781774e-05,0.00011108351581723408,-0.0010433760169106243,1678317120050254010,262,1677825035423679590,camera_1,0,0.7038779169100928,0.7060429310309915,0.03684886811942045,0.06856689103198896,0.0042561046429909774,0.0007782166217650447,10666.63275023131
263,0.00014486462552099066,-0.000172570107405845,0.0014171783041523334,1678317120057017294,263,1677825035430486440,camera_1,0,0.7040983573829034,0.7063340966999461,0.03341884563141776,0.06496789766055244,0.003394158091396093,0.0006212051753520624,10660.284941323573
264,3.1865355042792753e-05,1.4354972610208794e-05,0.00011360731588716533,1678317120065959252,264,1677825035437006950,camera_1,0,0.7038841198721744,0.7062355803960501,0.03389855887325532,0.06803924221172247,0.003733278950676322,0.0006831301005624528,10662.481329245958
265,6.302414883072038e-06,-8.292137485399476e-05,0.0009018932377982125,1678317120069411118,265,1677825035443045377,camera_1,0,0.7040367961143291,0.7064251318628175,0.035183332502822795,0.06370130221327844,0.002459554350934923,0.0004498510419298173,10665.41748386878
266,2.261267145571566e-05,-4.5443116323984345e-05,0.0007867846142524115,1678317120076420939,266,1677825035449673652,camera_1,0,0.7039420699800975,0.7065590473441414,0.0311481080774052,0.06534271261183787,0.005789381102658809,0.0010592073124888076,10667.084654459151
267,7.643944259108637e-05,-0.0001296687560077836,0.0013190923312054181,1678317120085304231,267,1677825035457026004,camera_1,0,0.7038797443757145,0.7064095146709284,0.03219618027242966,0.06709924750567335,0.004994509858079255,0.0009144897155864369,10657.184923656632
268,-1.5147249877861535e-06,0.00014662949276522674,-0.0009831967076139314,1678317120090745225,268,1677825035463811874,camera_1,0,0.7036775007547091,0.7061098486511218,0.035675605318804635,0.07052735465500701,0.003981645742896943,0.0007284012720217713,10662.504995052004
269,0.00014267051158646515,-0.00011223647593300301,0.0008278269164421204,1678317120097623117,269,1677825035470443964,camera_1,0,0.7039542382198575,0.7062458014638681,0.0350191329733685,0.06662551112563776,0.004825667187105864,0.0008831528345539338,10658.924992395796
270,7.783997769285345e-05,-1.056754759026779e-05,-0.00013202415992052963,1678317120102727479,270,1677825035476294517,camera_1,0,0.7038387671237601,0.7061503550140058,0.03695711532314398,0.06779998255376554,0.007709439087193459,0.0014103047046893028,10661.134929535916
271,9.191686305115576e-05,-5.556108714283026e-05,0.00032696122225939206,1678317120110104591,271,1677825035483033418,camera_1,0,0.703849843196668,0.7062157338273723,0.037400143512327434,0.06675301335482142,0.0029197119874879718,0.0005341624413729889,10659.532815195736
272,7.081916067198935e-05,-0.00010286796211095295,0.0009356778245037667,1678317120117103726,272,1677825035490359306,camera_1,0,0.7039152937457589,0.7062395813973761,0.03600080244134369,0.06657969001174767,0.0021271876175887887,0.00038933355203100013,10656.957438200716
273,-1.7227251476528704e-05,-3.5308052187543737e-07,0.0003372019997356368,1678317120125325070,273,1677825035497017621,camera_1,0,0.7039944170803153,0.7062800337935711,0.033113068302802924,0.06681241869497723,0.002994578506331891,0.0005479119380850833,10664.79281166487
274,5.9327237430351065e-05,-0.0001055699500754903,0.0013587333055662398,1678317120130388297,274,1677825035503709554,camera_1,0,0.7040531432289707,0.7063570206103019,0.03180890590673068,0.0660085180030625,0.006336647435091436,0.0011600715801133284,10660.097220172644
275,6.283839724390006e-05,4.0121244783197785e-05,-2.4105437534061025e-05,1678317120139330115,275,1677825035510363340,camera_1,0,0.7041185496780128,0.7060998969697988,0.03236280645367126,0.06776910990276899,0.0039767507114447645,0.0007275372099108888,10666.086283212991
276,7.595682876135323e-05,-1.3475669487450492e-05,0.00019501045192837907,1678317120143001071,276,1677825035516306400,camera_1,0,0.7039412242953295,0.7061908078063727,0.034830288567204645,0.06743994888566303,0.0028189157019369304,0.0005157582305350074,10662.204087063199
277,7.841970782729302e-05,-3.614059140499837e-05,0.00046160467761824364,1678317120149957883,277,1677825035523036956,camera_1,0,0.7041041913890244,0.7060976495843568,0.034299437057205465,0.06698466643504263,0.00157724239397794,0.0002886252758777341,10661.889767186254
278,0.00012077758634146396,-0.0001407896570244649,0.0010249438046110448,1678317120157492415,278,1677825035530386924,camera_1,0,0.7038777434195715,0.7063738246290239,0.03561340358361384,0.0657558186225957,0.0053251347853802145,0.0009745030525105492,10658.780132640035
279,2.7445521833535658e-06,0.00012314974181187877,-0.000896654465583957,1678317120166411745,279,1677825035537023782,camera_1,0,0.7038341890421371,0.7060317435800552,0.03706619315808925,0.06901238089989112,0.004258357104845345,0.0007787787389616529,10664.023410668946
280,4.58521462085304e-05,-4.083948921906888e-05,0.0005327583988776752,1678317120170412418,280,1677825035543740272,camera_1,0,0.7038622641099259,0.7061933834848033,0.034154076486558466,0.06857344488710303,0.004152596928179264,0.0007601802315525527,10657.398333784666
281,4.486763758332346e-06,-4.842301288332518e-05,0.0007352591622198368,1678317120177244984,281,1677825035550420522,camera_1,0,0.7039976581432855,0.7062536049902637,0.033559888889994435,0.06683469626412424,0.007064333593007176,0.0012929685644416475,10661.006101718176
282,6.22621598313916e-05,-9.480577503190313e-05,0.001076087296168371,1678317120182756726,282,1677825035556342601,camera_1,0,0.7041970125392392,0.7061447777506173,0.03348233785052397,0.06591701933799424,0.0032310205278918147,0.0005913129244568344,10660.642872144816
283,-2.6990596197346006e-06,0.00010365768491338301,-0.0006077359177800723,1678317120190794389,283,1677825035563626527,camera_1,0,0.7039929916377807,0.7061507590044092,0.033440223049578936,0.06802003208451722,0.00524177134502679,0.0009585972680906512,10668.894244670862
284,1.2161768796203898e-07,5.911293865840106e-05,-0.00048417517526910814,1678317120199037663,284,1677825035570414543,camera_1,0,0.7039085908615641,0.7060436768975175,0.03613724331843175,0.06862304037031293,0.003352117259055376,0.0006132124474833357,10662.944993642162
285,6.815032496496065e-05,-2.2950416392830686e-05,0.0001714656864728603,1678317120202930922,285,1677825035576356649,camera_1,0,0.7038719173852631,0.7062380257822457,0.03533724978547348,0.06740514545039178,0.004948027548380196,0.0009052996877980683,10661.84219095786
286,0.0001237951831082884,-9.748364741207771e-05,0.0006926138517324709,1678317120210565256,286,1677825035583664894,camera_1,0,0.7038097877081787,0.7065311315624881,0.03411837398967843,0.0655856647103549,0.005906191654503346,0.001080534897226146,10663.743418595981
287,0.0001364721845963507,-0.00013091216706767606,0.0008750920702702558,1678317120217893899,287,1677825035590401887,camera_1,0,0.7038199182754293,0.7063830581210357,0.035940874395585166,0.06609653081684372,0.002289441763423383,0.00041898730545765744,10658.699814304251
288,-8.206759562826016e-06,0.00017683428908854548,-0.001327750299861652,1678317120224263073,288,1677825035597009420,camera_1,0,0.7038025542482572,0.7060932199005213,0.03577351275090557,0.06938721229163024,0.005077555717434734,0.0009284143884759057,10668.207598314615
289,1.6503976724632774e-05,1.7730664815140962e-05,-5.519115022600829e-05,1678317120230622399,289,1677825035603729724,camera_1,0,0.7039148535569918,0.7061388068128941,0.032676240451658775,0.06931181547648534,0.005746909126173705,0.0010517293645394058,10661.923925620504
290,1.706706969314964e-05,3.183103878934279e-05,0.0002083141351483242,1678317120237729089,290,1677825035610400676,camera_1,0,0.7040529266534642,0.7062375224163366,0.033797978090637365,0.06630033996074869,0.00405393575783819,0.0007415497071448622,10666.3224432288
291,4.162164002083357e-05,-6.213353304079794e-05,0.000819771575290229,1678317120243872678,291,1677825035617014169,camera_1,0,0.7039507151534721,0.7062933226598358,0.03438281924109588,0.06649026050541776,0.002465293335262686,0.00045116285727370636,10660.184813099564
292,6.038317289799866e-05,-4.240608161065751e-05,0.00042606385757704146,1678317120250359044,292,1677825035623694896,camera_1,0,0.7039231425323804,0.7062805327667719,0.03412226843702719,0.06704990110905629,0.002733460976742208,0.0005001733519076929,10662.219687333913
293,0.0001556592159425163,-0.00014097306481825056,0.000907870113898479,1678317120258622432,293,1677825035630375146,camera_1,0,0.7040391391323112,0.7061321138209079,0.033976313973303716,0.0674680553257469,0.00520842761034146,0.0009534361902331512,10657.387778538283
294,6.401977573912421e-05,6.2436401069621e-05,-0.0007267516751237046,1678317120264376241,294,1677825035637262821,camera_1,0,0.7037043346949282,0.7060468569145325,0.036658844521580684,0.07038589554037633,0.00375314790289849,0.0006867519780626451,10659.480287931628
295,2.955117052957923e-05,0.00010157182726094893,-0.0007418096242712835,1678317120271224102,295,1677825035643690347,camera_1,0,0.7036468142481631,0.7061629980160385,0.03637274907691551,0.06994286351014907,0.005674754385836422,0.0010382219008531366,10661.216952242192
296,2.0128896818322195e-05,1.3247620927470116e-06,0.000407967424351785,1678317120277198816,296,1677825035650347948,camera_1,0,0.7041577149857579,0.7061428671577344,0.03416289051819858,0.066008033599949,0.004151043423917145,0.0007593555015984652,10665.00202331436
297,4.811561145483256e-05,-0.00011030695137659308,0.0009953001778026938,1678317120284407822,297,1677825035657071828,camera_1,0,0.7039364654553495,0.7063131275054415,0.03304942115251931,0.06710405559424308,0.005847239983268082,0.0010703459582337284,10658.783612427304
298,-4.950757209917778e-05,0.00011465841576202562,-0.0005577340105582529,1678317120291206236,298,1677825035663634061,camera_1,0,0.7038455292509741,0.7061668680434475,0.035318928860982035,0.06842805488421842,0.002925398002844304,0.0005350989008560876,10665.154012591232
299,3.462468487075432e-05,5.681342341773421e-05,-0.00031793628515952577,1678317120296545402,299,1677825035669648408,camera_1,0,0.7037583480271975,0.7061814484330193,0.033930317411199604,0.06986188539860658,0.005578316457103938,0.0010208522193262519,10661.099324426152
300,5.9406219197200016e-05,4.410787731362609e-05,-0.00040716382946737184,1678317120304484032,300,1677825035676990509,camera_1,0,0.7038407373778165,0.7061727577906709,0.03663917067387487,0.06771871036944542,0.006645009270869196,0.0012152724802023034,10664.002798540285
301,0.0001452456551412351,-0.00010083979483566097,0.0008021536758642256,1678317120311588975,301,1677825035683659791,camera_1,0,0.7038644588146156,0.7063817837767123,0.03663427524070356,0.06524974362881905,0.006802050571423024,0.0012444324472302092,10660.514896178263
302,6.810562734911596e-05,1.1663254242511023e-05,-4.331879351404666e-05,1678317120317772024,302,1677825035690332174,camera_1,0,0.7040010471875406,0.7061694972978492,0.03571094388784265,0.06657248028719287,0.005019504984375089,0.0009180278866607149,10665.227209834618
303,5.835470789569697e-05,1.841840024668917e-05,-0.0001195056207445866,1678317120323534005,303,1677825035696966171,camera_1,0,0.7037705208619922,0.7064248599306123,0.03605103598818159,0.06611576243101233,0.0054841323872096845,0.0010028088545214807,10666.555769691591
304,5.244812391602682e-05,-7.634760623853598e-05,0.000869859376147808,1678317120329589874,304,1677825035703012466,camera_1,0,0.7041236519979234,0.7060979107123024,0.033886062889419685,0.06698774460065962,0.0032259108847938482,0.0005904407397583812,10659.109149967087
305,-8.716186803175985e-06,1.2241942686008755e-05,0.00035005045621305797,1678317120337003792,305,1677825035709858894,camera_1,0,0.703899268896472,0.7063469375863533,0.03224476501929685,0.0675284987116048,0.006002042267937213,0.0010982983051465855,10663.867605576988
306,5.210961609949938e-05,-1.3977436941758903e-05,0.0004488926553194439,1678317120343658893,306,1677825035716956615,camera_1,0,0.7040262713436081,0.7063484195965458,0.03511874289400408,0.06469616131597775,0.00453056552214548,0.0008285340858564336,10666.73138159095
307,2.8302820496373116e-05,0.00012664459029787523,-0.0009075272638736642,1678317120349814914,307,1677825035723027944,camera_1,0,0.7039083579192285,0.7060856177071405,0.03587205713792321,0.06833242008940331,0.0028343070880509913,0.000518252901191601,10667.461852222685
308,0.00012262122388245755,-9.56328587057298e-05,0.0007391355466359606,1678317120357541018,308,1677825035730298519,camera_1,0,0.7038645879733433,0.7064926162839815,0.035888733402163614,0.06445792230687326,0.003139260516036302,0.0005742012747815316,10663.941215224912
309,2.72469311535517e-05,7.184895578171702e-05,-0.0006713375505773556,1678317120364235509,309,1677825035736937999,camera_1,0,0.7038956875992707,0.7061948446685392,0.03566171259499043,0.06743845043830826,0.0031446065986528997,0.0005749857546595053,10668.127798734702
310,0.00019105453182854948,-0.0002759965171709178,0.0023582651671283372,1678317120370355283,310,1677825035743620872,camera_1,0,0.7040609419555641,0.7065989494999699,0.03213866657913449,0.06311276169443028,0.003411709680221975,0.0006245928898934906,10658.692763303872
311,-3.0282293582734043e-05,0.00011080944880531574,-0.0004017391567199269,1678317120378983657,311,1677825035750428915,camera_1,0,0.7039202668142686,0.7062397328400106,0.03499635873312321,0.06705932151179203,0.006352858152240515,0.0011617938060690912,10667.857683152197
312,0.00010279911403023034,-0.00020558630121303434,0.001920040757284358,1678317120384851446,312,1677825035757591724,camera_1,0,0.7041574015885922,0.7062805895553274,0.034976208989017085,0.064083909135897,0.004738321586046368,0.0008673566612175944,10656.545753826384
313,2.5798570507953866e-05,-4.71023475088761e-05,0.0006994169244967097,1678317120389314044,313,1677825035763080120,camera_1,0,0.7041216880470309,0.7061434235191524,0.03557860101279145,0.065637466377241,0.006092845113016665,0.001114644060982283,10661.805547222375
314,9.463621518145116e-05,-6.264414409035135e-05,0.000552973306262583,1678317120396897046,314,1677825035769843101,camera_1,0,0.7040211127228965,0.7064051577947557,0.03397581351291515,0.06474310756765463,0.0015950686647556722,0.00029174025870678995,10667.141692884614
315,3.239014894082515e-05,0.00014074262678581695,-0.001168703094205359,1678317120404033976,315,1677825035777068376,camera_1,0,0.7036633369538289,0.7062565416458806,0.03595518637258767,0.06904223477202365,0.008078463026322423,0.0014772099035100224,10667.58722480899
316,0.00012127380072683713,-0.0001499407306185807,0.000911319139747846,1678317120411208760,316,1677825035783717870,camera_1,0,0.7039225512174945,0.7062503454299466,0.03694533326898351,0.06586754752667684,0.0024102032766677444,0.000441081264785367,10657.653991756382
317,0.00010318398554215458,-0.00012482057786844525,0.0012322628671781466,1678317120418822632,317,1677825035790408372,camera_1,0,0.7041578427422789,0.7061801117616371,0.03478501741865755,0.06527928323783802,0.001433424069546163,0.00026234295952914016,10659.37833169336
318,3.555160148731307e-05,-4.034330745883441e-05,0.0004080204520438002,1678317120423912607,318,1677825035797030210,camera_1,0,0.704040169834,0.7061376670654103,0.034198195053461285,0.06728683278783135,0.0005065718432888389,9.270184479896392e-05,10661.668353686577
319,2.3351765647314227e-05,2.0662836980600563e-05,0.00017881715456180558,1678317120430471398,319,1677825035803778648,camera_1,0,0.7040571723358926,0.7061956311990709,0.03421726473548282,0.06648614405840317,0.008530514198355377,0.0015603467133295734,10665.569711825456
320,3.102870337549912e-05,-5.8788221209804536e-05,0.0007647784395357071,1678317120438560953,320,1677825035810540437,camera_1,0,0.7039436251808595,0.7062327325282878,0.03439367847997606,0.0671995160211259,0.00202710967278108,0.0003710457896021839,10658.811769501188
321,6.280512855026676e-05,-7.463708250082801e-05,0.0009074085405829102,1678317120443743118,321,1677825035817027568,camera_1,0,0.7040530343383538,0.7062704079883416,0.034903390150916355,0.06536963358403856,0.0027794393245130773,0.0005085476122666674,10661.63802820444
322,2.650395690587115e-05,0.00010286758020611186,-0.00045804259850834583,1678317120450419520,322,1677825035823714494,camera_1,0,0.7039008600636136,0.706160286440475,0.034895877848610916,0.06814328114484958,0.003019448195118457,0.0005522722559980727,10665.605147857215
323,0.0001708924771215703,-0.00019366885913546517,0.001712789141317561,1678317120458674736,323,1677825035830425262,camera_1,0,0.7041568946128847,0.7062701133138211,0.031146698565093438,0.06614739584682494,0.00259864324470982,0.000475845995674855,10657.552343290536
324,6.654356833686592e-05,6.634841599006958e-05,-0.00042633208846609705,1678317120462602985,324,1677825035836252689,camera_1,0,0.7038966115511454,0.7063110891596224,0.03533178152307293,0.06637673381065015,0.005652749561704695,0.0010334663367820424,10669.29752234137
325,4.978198411756396e-05,6.724171632827014e-05,-0.0002445158099799727,1678317120470294938,325,1677825035843706846,camera_1,0,0.7038921130961829,0.7063033097534226,0.035145805508676416,0.06660555613083123,0.0037697582738474007,0.0006893742338230374,10667.514220969984
326,7.212167029806149e-05,-8.136859438234723e-05,0.0009497760063088556,1678317120478909903,326,1677825035850383758,camera_1,0,0.7040169811682132,0.70634838710466,0.035914259932313015,0.06436002015968835,0.002199928800109774,0.00040244206237061435,10662.49631134095
327,4.030460515674905e-05,-4.288783649158967e-05,0.0005091997278361404,1678317120483750966,327,1677825035857123613,camera_1,0,0.7039520743998763,0.7060800606275878,0.0343229331229274,0.06873398863802631,0.002169861865695566,0.0003972376655582991,10656.955426966078
328,-3.919082209884184e-05,0.00020649731045713215,-0.0012994449248577844,1678317120489662964,328,1677825035862987279,camera_1,0,0.7038628913178578,0.7061740509345796,0.03339767103902756,0.06913635499127943,0.0054409358999691895,0.0009947579318948638,10671.614358330262
329,5.417288828755973e-05,-3.0340776375981093e-05,0.0003795772131383046,1678317120498712686,329,1677825035869719266,camera_1,0,0.704047274084754,0.7060909008753127,0.033418451543082234,0.06809025371798359,0.003684221068397164,0.0006742906258288497,10660.763211770802
330,5.040184518136093e-05,-2.876567543480535e-05,0.0004851208208198621,1678317120504467194,330,1677825035877058506,camera_1,0,0.7040757322017708,0.7061576171807574,0.034589009462067964,0.06650100335008685,0.0020973573555238545,0.0003837511259588167,10662.589819129204
331,0.00011443951216347226,-0.00010571807720044513,0.0007924168324118241,1678317120510522784,331,1677825035883660554,camera_1,0,0.7039915351940442,0.7061047608829494,0.03569203300765425,0.06736515281171923,0.002026029513217509,0.0003708710513552314,10656.47812079615
332,0.00012267439417601445,-0.00011094019663437926,0.0006815351134785708,1678317120517516262,332,1677825035890463590,camera_1,0,0.7039611036266592,0.7062352260640142,0.03552005439188498,0.06639951643682472,0.004121195001062007,0.0007541134561476348,10660.030709577492
333,5.8504490584698754e-05,8.925713143009828e-05,-0.0006272824301918334,1678317120524775274,333,1677825035897118568,camera_1,0,0.7038847464709411,0.7061347164015904,0.03467833619724203,0.06868361505173932,0.0026008555432781573,0.0004757196540351017,10665.78550599702
334,0.0001068107343656921,-9.763173786059287e-05,0.0007506243980515137,1678317120530631679,334,1677825035903688669,camera_1,0,0.7040150401439994,0.7062880894713187,0.03411527499987081,0.0660008025230058,0.002914940705522895,0.0005333671950901184,10662.247019135391
335,-4.188684060560388e-05,0.00017851482403491437,-0.0010476876303004978,1678317120536544794,335,1677825035909736394,camera_1,0,0.7038460870182937,0.7060830745359681,0.03506579556537098,0.06941014064413885,0.007141495065297931,0.001306021188167038,10666.831142752666
336,0.00010780702001539355,-0.0002765780128822781,0.002581137459403582,1678317120543953614,336,1677825035916993856,camera_1,0,0.7044089298319637,0.7062530702561778,0.029643335498279064,0.0643112197617681,0.0026995801599696283,0.0004944593384676143,10656.734640786422
337,-5.541790723542772e-05,0.00012483935147400427,-0.0005165250526020237,1678317120550543344,337,1677825035923710823,camera_1,0,0.7037494769044855,0.7062177526460284,0.03593360382696725,0.06857066224168049,0.006087987392675132,0.0011135956630039473,10663.680044727756
338,2.993159361497355e-05,1.920865085752732e-05,-3.2928134072740534e-06,1678317120557007082,338,1677825035930354833,camera_1,0,0.7039336462300967,0.7060514000426517,0.03644449799204287,0.06812224870863079,0.004788146063219756,0.0008760834226997827,10659.992626158404
339,6.29510675058953e-05,-7.847339329070113e-06,-9.918817824861037e-07,1678317120563648913,339,1677825035936368942,camera_1,0,0.7038857726985377,0.7062985165073585,0.036155773732495525,0.06618145206847519,0.0032554548233747482,0.0005953530367213049,10665.284731708005
340,0.00019639575755418803,-0.00022012504713858627,0.0015486143346836734,1678317120570563192,340,1677825035943660020,camera_1,0,0.7041332953006461,0.7063649355322521,0.03322822089814114,0.06434878115018958,0.002144676516763866,0.000392524782120942,10660.930973941811
341,7.314349736511905e-05,3.09067362678217e-05,-0.0002471954129745768,1678317120577615895,341,1677825035950426340,camera_1,0,0.7038133439085158,0.706312400377436,0.03594567500985379,0.06691396309787452,0.0046719954116269955,0.0008544279996771227,10665.693569881845
342,9.914079277861809e-05,-0.00010506830447132298,0.0009013428208741736,1678317120584019849,342,1677825035957033634,camera_1,0,0.7038795374945476,0.706200033210752,0.03642550608122816,0.06714381800524293,0.002953325980342925,0.0005405897373118344,10655.23193576443
344,1.295583273647205e-05,2.500958853557389e-05,-3.8348954283229375e-06,1678317120606016114,343,1677825035977079868,camera_1,0,0.7039281257425454,0.7063002587268121,0.03277828090726465,0.0674590439584634,0.004639990453142673,0.0008488563187908259,10666.25171914208
345,8.711863655302965e-05,-0.00010894377649073306,0.0011642134054326014,1678317120610574812,344,1677825035983690738,camera_1,0,0.7040368758059805,0.7064334401772956,0.032922760469369365,0.06480712883396615,0.006283735565375536,0.001149879119779819,10663.34665512922
346,0.0001376008322454686,-7.290819803984494e-05,0.0006464995020567521,1678317120616903199,345,1677825035990382909,camera_1,0,0.7039260717881268,0.7063398161230933,0.03440030686593061,0.06624778112255005,0.004602078755851835,0.0008420385967028389,10662.121808569878
347,0.00011258870851915681,-9.103747305172494e-05,0.0007944106407533624,1678317120623521494,346,1677825035996399402,camera_1,0,0.7040799114147518,0.7062130816250818,0.03420487712794578,0.06606502905821672,0.006265645322855562,0.001146557522038073,10661.639876999776
348,8.808434312715385e-05,-3.3496939059740605e-06,0.00010039305276521304,1678317120630270251,347,1677825036003070354,camera_1,0,0.7038618990397904,0.7062131234766668,0.035325942632556465,0.06777557883597668,0.003509634989313781,0.0006421505385901928,10661.476391233156
349,2.2694753907329113e-05,2.9533806534753904e-05,0.00019255228550330017,1678317120637672296,348,1677825036010373115,camera_1,0,0.70400035825452,0.7062806785875869,0.0330606034118448,0.06676896834166204,0.005435879167634994,0.0009944069196702592,10666.13044107263
350,6.001368602986945e-05,-0.0001317068030859958,0.0013045050413200698,1678317120643968627,349,1677825036017042875,camera_1,0,0.7039790001779835,0.7064352220000295,0.03248862389669257,0.06563028069020338,0.008903518319129944,0.0016294916033478782,10660.674620400534
351,-2.6438938569434134e-06,-4.9966245159349665e-05,0.0006821220364012781,1678317120650836252,350,1677825036023743391,camera_1,0,0.7040218370744603,0.7063115134178926,0.033868786908617,0.06580428716251717,0.002326337504200637,0.00042563386999004335,10663.649579282857
352,5.594311795843743e-05,-1.0448208925650793e-05,0.00015532368937165586,1678317120657452941,351,1677825036030383825,camera_1,0,0.7038704140320271,0.7062940981838627,0.035542257558273435,0.06672207317438829,0.004558303742669523,0.0008338279920389282,10663.46858370956
353,7.824655585851603e-05,3.4223108591135976e-05,-0.00028969975403914106,1678317120662944219,352,1677825036036308288,camera_1,0,0.7038368430862274,0.7063918546425517,0.033850298487578326,0.06692087343550784,0.003157260827720165,0.0005773821519124622,10668.625734774627
354,7.8869417194663e-05,8.531873488676345e-05,-0.0008438450120316077,1678317120670421553,353,1677825036043712615,camera_1,0,0.7040782712330202,0.7060084770817909,0.035818565322341504,0.06740065759635422,0.0033493729424662892,0.000612317669318804,10669.3904125765
355,0.0001036114601096344,-0.00011387917911792611,0.0011101280495542376,1678317120678239707,354,1677825036050321340,camera_1,0,0.7042472208325462,0.7062382301604793,0.03155181049184566,0.06532914712527202,0.0034092303249053657,0.0006238814357498178,10664.023412222276
356,8.889607626749729e-05,-0.00011822569326763732,0.0009753896891040448,1678317120683002340,355,1677825036056557416,camera_1,0,0.7038361240439133,0.7062931715945522,0.03704583833617139,0.06627421905778942,0.0029862691299058497,0.0005465484068961264,10656.024165566314
357,1.4837958420887976e-05,3.916335019915618e-05,-7.648696360051943e-05,1678317120690749956,356,1677825036063668251,camera_1,0,0.7039402927985638,0.7062290975300969,0.03315944263292132,0.06788944940689405,0.004780547285918146,0.0008745865564964737,10665.283644591109
358,2.87230806793326e-06,7.752509422115361e-05,-0.0003786961312313153,1678317120698812133,357,1677825036070393562,camera_1,0,0.7039023485671351,0.7061265114734961,0.03465415836998558,0.06859972874297597,0.0015849251649342475,0.0002899520509293373,10664.064495115072
359,2.705344431665202e-05,1.0238499180359462e-05,0.00010011424217326592,1678317120703867328,358,1677825036076998233,camera_1,0,0.7040282461460442,0.7061827480343433,0.034665091656254594,0.06669697465141726,0.0028963233926333487,0.0005297927048138465,10665.095251957424
360,8.420019336639883e-05,-6.302849689016066e-05,0.00045747447987487533,1678317120710638224,359,1677825036083642482,camera_1,0,0.7038600119142464,0.7061405918211452,0.03554468895149333,0.06843334931085415,0.005372326530050486,0.0009833770278487722,10656.602788484312
361,0.00013344011197272132,-0.0001221667052531683,0.0009566649519241466,1678317120716324987,360,1677825036089705228,camera_1,0,0.7041858155071129,0.7061017486648041,0.03390613457478805,0.06627995028124747,0.003606766695156694,0.0006601130795051965,10660.135514691934
362,5.31406718030647e-05,-4.2519444898303504e-07,2.511453859144197e-05,1678317120723744143,361,1677825036096935272,camera_1,0,0.7038898441662935,0.7063436681282947,0.033468647206951085,0.06706384591382454,0.0044907969422638425,0.0008215051112111183,10666.194501673688
363,5.524631876799302e-05,5.6651964614407024e-05,-0.00012537345247576326,1678317120731017192,362,1677825036103609561,camera_1,0,0.7038075642631835,0.7062490814693471,0.033395151986822996,0.06893410791042237,0.0045493695652112365,0.0008324772881167254,10662.669552961828
364,-6.0693104237327655e-05,0.0002329398522670778,-0.0013632680736241909,1678317120737249619,363,1677825036110304355,camera_1,0,0.7037879699234595,0.7060078648737677,0.03613956430082083,0.07020911635639948,0.0025685623404569924,0.0004697618714804417,10665.880452428712
365,7.364635029231958e-05,-0.0001834808780698527,0.0016081416798874315,1678317120743517105,364,1677825036116938829,camera_1,0,0.7040593741118049,0.7064442170786093,0.03317713119353497,0.06431363655750995,0.0038647495093755424,0.0007072913356327124,10660.657631470824
366,4.3582560462288034e-05,-5.70397864535499e-05,0.0006761053000534645,1678317120750793227,365,1677825036123649120,camera_1,0,0.7040224010661037,0.7062439924461126,0.034912410797838564,0.0659773105179096,0.002877959341276437,0.0005265732054682041,10661.968730902998
367,3.586726986143374e-05,-8.215061112015754e-05,0.0006795468361837642,1678317120757141938,366,1677825036130313634,camera_1,0,0.7039538406778851,0.706203955960799,0.035683299252047926,0.06672079836648909,0.002473518194165081,0.0004526663022896013,10659.069598164991
368,4.8475316821061654e-05,2.580476595326342e-05,-6.160012544009774e-05,1678317120763882105,367,1677825036136999368,camera_1,0,0.7038279330424052,0.7061826029365414,0.03609327762850538,0.06804151151362023,0.004785682423971593,0.0008756235667496808,10661.129265376136
369,0.00013968934248589915,-0.0001658665627951028,0.0012164914106458369,1678317120770566259,368,1677825036143615245,camera_1,0,0.7040367802106603,0.7062015733170198,0.03696943887647956,0.06515221058667639,0.002684366772882641,0.0004912425419982472,10656.95729327749
370,6.966958971652004e-05,2.569672388774702e-05,-0.00017440229506782146,1678317120778832371,369,1677825036150329351,camera_1,0,0.7040177270037751,0.7061232518579033,0.03559543506296413,0.06694742902260534,0.005097661749459803,0.0009322705066598816,10665.470371662059
371,0.00010150440128996185,-0.00013619747644766367,0.0011448150175259464,1678317120783777008,370,1677825036156934738,camera_1,0,0.7039331901529878,0.7061359209311665,0.034865062644310045,0.06807754680171367,0.007039011805318295,0.0012890111489022367,10652.867886021968
372,5.6683180314584525e-05,-4.3080005840079316e-05,0.0006792754282907154,1678317120789563642,371,1677825036163053274,camera_1,0,0.7040625688395027,0.7062489940799329,0.0324597104589235,0.06674297503952238,0.0022627723519690326,0.00041411228148572005,10662.95207542274
373,8.699039197322678e-05,-0.0002395005969781372,0.0021382309057713655,1678317120797479085,372,1677825036170283317,camera_1,0,0.7040805406018028,0.7063716774100316,0.0329013285421882,0.06501652312274801,0.0029332751873880625,0.0005371383372804093,10655.002921185927
374,-8.995244916987222e-06,0.00010300314609451577,-0.00039387455689610107,1678317120804241042,373,1677825036176940202,camera_1,0,0.7038656952271394,0.7061968852078235,0.03440660095091955,0.068375640517571,0.0009880626457743347,0.00018075253712458754,10665.103834540116
375,8.613174006225077e-05,-0.00011962894463013463,0.001080363563549902,1678317120810413265,374,1677825036183572769,camera_1,0,0.7038730063773079,0.7062873395994528,0.0338378031038838,0.06764604863552894,0.00360394746530801,0.0006598801772209553,10655.768485673478
376,7.568592446652311e-05,-5.244161498479949e-05,0.000429886783128719,1678317120817442781,375,1677825036190279006,camera_1,0,0.7039835851452995,0.7061998210369229,0.03301523078088794,0.06781533123028713,0.002844106289558113,0.0005205208914895738,10661.525287765304
377,0.0001109793972920714,-5.7529133826228485e-05,0.00025985444584541995,1678317120824821569,376,1677825036196892023,camera_1,0,0.7038523631100451,0.7063402710709704,0.03400690413370036,0.06722204161608603,0.002868866315111518,0.0005249010067123245,10663.211723060347
378,8.91473290552669e-05,3.559710180917053e-05,-0.00031279955058538533,1678317120830333032,377,1677825036203581333,camera_1,0,0.7038528771171774,0.7062101987669469,0.037107928260181534,0.06694239457666643,0.0027706233086064462,0.0005067011856285258,10664.610564217895
379,0.00013502466382857292,-0.00018046202160759695,0.0014128993714042082,1678317120837043516,378,1677825036210235118,camera_1,0,0.7040274109224949,0.7064582876573322,0.03328403909605107,0.06445358959353045,0.004089945869054645,0.0007484661350004746,10661.737166488778
380,7.785505238362689e-05,-0.00012678511250846514,0.0013122312050226626,1678317120846453685,379,1677825036217001914,camera_1,0,0.7040486024355401,0.7063305296184246,0.03230939737228401,0.06609728571551611,0.00515200209338218,0.0009431466476472293,10659.654525215272
381,-1.8911345099570376e-05,3.8742249001633144e-05,0.00022920431231643335,1678317120850705505,380,1677825036223650932,camera_1,0,0.7039162723852784,0.7061624416183029,0.03458036826583328,0.06812257811835279,0.005275007744785397,0.0009652884053988533,10660.548985363448
382,-4.7884571416842436e-05,7.748184336353603e-05,-0.00035547752736242444,1678317120855971688,381,1677825036229637384,camera_1,0,0.7038713188306168,0.7062615626052398,0.032587474451294215,0.06854070486170492,0.0037638106732629244,0.0006885554415139183,10666.516000279693
383,-5.323450280050879e-06,0.00016372241143675081,-0.0009990745826633507,1678317120863344190,382,1677825036236335039,camera_1,0,0.7038886675007956,0.7060565214944929,0.03522353715927377,0.06916816210540959,0.0031787937623448674,0.0005813410971716892,10666.863508815295
384,0.00021243046613893257,-0.00028588292505099533,0.002251895018743788,1678317120870481819,383,1677825036243624925,camera_1,0,0.7040856274615795,0.7064707991578479,0.033594285740114256,0.06351270034345118,0.005519698082935065,0.0010104572500520216,10656.878179783464
385,0.0001238955627325955,-1.2523741830472446e-05,-0.00018943492234368975,1678317120877316829,384,1677825036250280618,camera_1,0,0.7038765410692854,0.7061503317983524,0.03698571264081764,0.06739125235419258,0.002204697695560753,0.0004032654905860009,10662.588228484616
386,0.0001264949203319543,-0.00015206848595589184,0.0009840123665263434,1678317120883614766,385,1677825036256946086,camera_1,0,0.7041314794952815,0.7063048894102025,0.03534610550039553,0.06389769639808986,0.0014722816413268447,0.00026934362405485625,10664.000977011867
387,2.8613712681521686e-05,0.00010328573425605336,-0.0006214390777734558,1678317120891919988,386,1677825036263598918,camera_1,0,0.7037419709522567,0.7062501049039848,0.036546779366290416,0.06798794423495677,0.0035408168914727867,0.0006475867162971468,10665.194217083625
388,5.1846587308265746e-05,-0.0001092366535209166,0.0011522473686680357,1678317120897016877,387,1677825036270290851,camera_1,0,0.7040136421101009,0.7062500692501503,0.03440433638227765,0.0662719627378262,0.0025325868045911197,0.0004636113499524212,10658.032572989578
389,-2.4306794440168145e-05,-8.41567129468701e-05,0.0009660495532246571,1678317120903039782,388,1677825036276323795,camera_1,0,0.7041158989610298,0.7060825820329049,0.034715177491179035,0.06680602242165756,0.0012639646884053946,0.00023136294651375616,10657.807330790905
390,1.8289071866128825e-06,-9.207019601614741e-05,0.0009570776311123019,1678317120910077679,389,1677825036283295154,camera_1,0,0.7037703929816859,0.7062781678361255,0.034793337053416536,0.06832135315650703,0.0035443113301880658,0.0006490390928052716,10653.875057433032
391,3.3794478950605056e-05,-2.7823468107313065e-05,0.000562866538497353,1678317120917414842,390,1677825036290279865,camera_1,0,0.7038188120158645,0.7063985833230658,0.035165814014793406,0.06635877377121907,0.0029289535013958816,0.0005359201342106856,10661.621703129615
392,9.211811333935394e-05,-3.434443138988774e-05,0.00010913751220664736,1678317120922927701,391,1677825036296329975,camera_1,0,0.7038681579621734,0.7062907255163284,0.03400543021139193,0.06757705211603872,0.005558551580179483,0.001016998264511904,10663.52664007723
393,0.00014844070269927345,-4.9230270514399876e-05,0.0003378897159169725,1678317120929926557,392,1677825036303261756,camera_1,0,0.7040638528121461,0.7062180907441223,0.034014859752600525,0.06628038009135308,0.004517077759373933,0.0008263237088231413,10664.977644049091
394,9.51621196288166e-05,-3.725418962596816e-06,0.0001127095495419006,1678317120938837297,393,1677825036310288190,camera_1,0,0.7041199762006612,0.7061928115389752,0.033118687535736345,0.06640726301970477,0.003105084877461195,0.0005679615271865688,10667.564327907754
395,9.312895227299445e-05,-0.00021034704286310157,0.0017324396566436029,1678317120943473099,394,1677825036316930294,camera_1,0,0.7041071378127834,0.7063234476197078,0.03430032921418316,0.06452761609961151,0.0036402467521838852,0.0006663228438449454,10657.782516402309
396,2.1757938157632162e-05,-7.655108257786924e-06,0.0003357064657878439,1678317120950378159,395,1677825036323622941,camera_1,0,0.7038612717797323,0.7062432135404959,0.034589959993914864,0.06784812513423541,0.0036461014533415437,0.000667213967372315,10660.348555317269
397,1.4276678799413078e-05,-6.797874891351086e-05,0.0008930657895156457,1678317120958464082,396,1677825036330287933,camera_1,0,0.703983036682888,0.7063604725005963,0.034494951877493886,0.0653671572461552,0.005269378190860152,0.000964188736585076,10662.288791630295
398,-1.2292952389900136e-05,8.262958468002735e-05,-0.00026930854752560407,1678317120962757597,397,1677825036336394548,camera_1,0,0.7039370312311918,0.7061586316491871,0.03411869395679828,0.06818033243866006,0.007069380430039018,0.001293279483235355,10664.964814724164
399,0.00012709962093525318,-0.0002246348309393742,0.0019089499679636468,1678317120970187159,398,1677825036343592405,camera_1,0,0.7041327477487912,0.7062312447007498,0.03293465232409533,0.0659530987327964,0.003981919144280255,0.0007291922285524631,10654.459225792896
400,4.951059460295282e-05,6.035035027712743e-05,-0.0004908927934632601,1678317120978966039,399,1677825036350285530,camera_1,0,0.7040372007763661,0.7061344551928986,0.03587197619107409,0.0664752016661442,0.004644748813007027,0.0008491991538055617,10668.869881671384
401,0.00017090486891123413,-0.00013962068974876507,0.0011042330760409058,1678317120983668959,400,1677825036356914520,camera_1,0,0.7039460420846501,0.7064397787674237,0.032836932637086445,0.06576127023847092,0.0023913787445053463,0.00043768557635258534,10661.507269114372
402,6.370431136702714e-05,3.8828632818954656e-05,-0.0001893377461481549,1678317120989569363,401,1677825036362918615,camera_1,0,0.7039827102324339,0.7062262474855343,0.033303477180690794,0.0674070431332889,0.004519403271842748,0.0008267270209420793,10667.247678186868
