%time,field.header.seq,field.header.stamp,field.header.frame_id,field.image_seq,field.transforms0.fiducial_id,field.transforms0.transform.translation.x,field.transforms0.transform.translation.y,field.transforms0.transform.translation.z,field.transforms0.transform.rotation.x,field.transforms0.transform.rotation.y,field.transforms0.transform.rotation.z,field.transforms0.transform.rotation.w,field.transforms0.image_error,field.transforms0.object_error,field.transforms0.fiducial_area
1678306494544504904,15,1677812865291141748,camera_1,16,0,0.12689877814934017,-0.3021069299474887,2.6451998301908333,0.7045548918651023,0.7060843416715221,0.028268410426034993,0.06517824611963999,0.0027996458811685443,0.0005125577304713675,10661.765824051103
1678306494550844189,16,1677812865298016786,camera_1,17,0,0.12683716415208907,-0.30201289312803303,2.644215715384301,0.7044476974621606,0.7059465890042945,0.027641768143849114,0.06803519432869688,0.002069866401143372,0.0003789334424580457,10663.075182148841
1678306494557673126,17,1677812865303883552,camera_1,18,0,0.12676399979117703,-0.3019483127572801,2.6440996557930077,0.7044072110498885,0.7058678705865191,0.027142898425760436,0.06945713325224447,0.0052270281012170025,0.0009570965614791855,10660.812626356605
1678306494564346598,18,1677812865310890913,camera_1,19,0,0.1267139860860057,-0.30195531301007383,2.6440998520578454,0.7044380415144198,0.7059597942147426,0.0257656028035813,0.06873098523791799,0.0038806101656518877,0.0007104570785390843,10663.924432770695
1678306494571672380,19,1677812865318351030,camera_1,20,0,0.12682420929643634,-0.3021513589906879,2.6459416706027246,0.704576698877684,0.7061934749574746,0.024231853681898643,0.06538553810477672,0.002863571688067168,0.0005245738048982879,10658.823357373825
1678306494576828357,20,1677812865323896646,camera_1,21,0,0.1267439846159329,-0.30191970127596046,2.643616724817762,0.7044093024856173,0.7059795282888054,0.027104143938158676,0.06830670238140188,0.00261322979349643,0.0004782210881397241,10667.7236734893
1678306494583601073,21,1677812865330454826,camera_1,22,0,0.1269575780673734,-0.3021492595783034,2.6454682817785518,0.7044832522137336,0.7063042790290267,0.02693192461623736,0.06412709421229992,0.0017879496444948018,0.00032733501194764166,10663.366826970134
1678306494590951439,22,1677812865337997674,camera_1,23,0,0.12683286540871216,-0.3019169444608064,2.643312396901175,0.7045485102347792,0.7057836235344885,0.02999876743475715,0.06768269667260673,0.0022321027936413884,0.000408323463409876,10668.950152296107
1678306494597788827,23,1677812865343929290,camera_1,24,0,0.12689432911039006,-0.3020613940480143,2.6449371707028253,0.7043006590728236,0.7059534995427642,0.0319898771033771,0.0675787383414472,0.005614761379547417,0.0010282725599244453,10654.055497092548
1678306494603823677,24,1677812865350754022,camera_1,25,0,0.1267788430496679,-0.3019891983506542,2.6444214056655198,0.7043868143600442,0.705976691173951,0.028556414745947622,0.06797542535097331,0.0046366347232833505,0.0008488972856833308,10660.76840030029
1678306494610960891,25,1677812865357875108,camera_1,26,0,0.12684593422730422,-0.30213812021072156,2.6460670603429057,0.7046020904586624,0.705954783989766,0.025843748711617973,0.06705100846204222,0.004590054915752262,0.0008412238726305684,10652.36826096196
1678306494618412316,26,1677812865364430427,camera_1,27,0,0.12676473241253408,-0.30198678088704,2.644528517548611,0.7044354106259653,0.706087607876657,0.026423733312571345,0.06717758984270022,0.0011478447122499347,0.0002101493335109467,10663.916115769418
1678306494624970621,27,1677812865371216297,camera_1,28,0,0.12680644082436557,-0.30198865250909823,2.6441987541020766,0.7044202428875647,0.7059648596388428,0.028484560492616856,0.06778176877948572,0.003815865027718246,0.0006984941696762431,10663.098612796168
1678306494631042836,28,1677812865378025054,camera_1,29,0,0.126882262575717,-0.3020944308964094,2.6449465819590054,0.7046162569721294,0.7061582040343676,0.02345349370653406,0.06562358507808272,0.002088173641823232,0.00038227740555332875,10666.758652966115
1678306494636903993,29,1677812865383815050,camera_1,30,0,0.1269402154128654,-0.3021108558999206,2.64532158589991,0.7044933348643163,0.7063172462937433,0.026770430602672687,0.06394085364714328,0.0015831378404982388,0.0002897985475129968,10665.158278251067
1678306494643897824,30,1677812865390633106,camera_1,31,0,0.12692925477413614,-0.3021817164316904,2.645982516004535,0.7044633748174233,0.7061036443897026,0.025873470658498317,0.0669295184243153,0.0035985762951895595,0.0006594730666960646,10653.26605251059
1678306494650956885,31,1677812865397804498,camera_1,32,0,0.12684689592097775,-0.30208775088567735,2.6451010738465675,0.7045572342242767,0.7061286649649233,0.026291615801720635,0.06549933706250523,0.004075162287335843,0.0007460532690443574,10663.576246573357
1678306494659024584,32,1677812865405600309,camera_1,33,0,0.1268481391539595,-0.30209005936643096,2.6452125018775847,0.7044874408645655,0.7061293283982308,0.024553543393945686,0.06690247190321649,0.005442433408461511,0.0009967514973095964,10660.617687036278
1678306494663381445,33,1677812865410429954,camera_1,34,0,0.12678930951441883,-0.30205035010415354,2.6448561095975305,0.7043405400416077,0.7063531156536835,0.02597469249896386,0.06553621143928687,0.002500802685972303,0.0004577734952780462,10665.752700610203
1678306494669721988,34,1677812865417115688,camera_1,35,0,0.12687765662918854,-0.3021568885104419,2.645857619185948,0.704484885123094,0.7060719242649118,0.02600899424228779,0.06698519699493605,0.004458478535525501,0.0008169752265414193,10654.035465859344
1678306494677771458,35,1677812865424472093,camera_1,36,0,0.12683041626989705,-0.30207726333756224,2.644911428044139,0.7045295668218644,0.7061900791132333,0.02589188521812721,0.06529373565429347,0.003039242292288691,0.0005563117422515677,10665.945918132784
1678306494685562029,36,1677812865432214498,camera_1,37,0,0.126910547292345,-0.30221299239066546,2.6461730507229984,0.7045423267405748,0.7062391679373861,0.0262756671056669,0.06446655582732523,0.0013395588612183928,0.00024539680911997614,10657.488997685492
1678306494690078546,37,1677812865437158823,camera_1,38,0,0.1267759584600907,-0.30191631153444926,2.6435086101933565,0.7044967410983173,0.7061206898738405,0.028138931924383825,0.06546841699703039,0.0018298098002560437,0.00033460486274206026,10674.806088743499
1678306494698759724,38,1677812865444384336,camera_1,39,0,0.1269041126297791,-0.3021809503299647,2.6459786843393456,0.7045806714841981,0.7060434205260231,0.027114909008570113,0.0658296848864333,0.0009048593346960843,0.00016579410248361535,10654.980033801872
1678306494704896751,39,1677812865451301336,camera_1,40,0,0.1268148409017128,-0.301985382483046,2.644498172072699,0.7045454354752192,0.7060796088724036,0.02592450956895293,0.06629656921166119,0.004296724626328796,0.0007863972403450232,10666.787384533323
1678306494709723640,40,1677812865457000732,camera_1,41,0,0.1268639542961153,-0.30211049620819397,2.645458136456448,0.7044529052952009,0.7061419448194306,0.025862425860213506,0.06663927457894606,0.005509138107299805,0.0010091051600285967,10658.242053624941
1678306494717692863,41,1677812865464205265,camera_1,42,0,0.12675709798257417,-0.3018815272241304,2.6432804357594955,0.7042386244214084,0.7061844670434357,0.02678695157582757,0.06807288450547193,0.0012428861809894443,0.00022738428166169824,10671.316440429771
1678306494726562750,42,1677812865471235990,camera_1,43,0,0.12685407468615253,-0.3019798114728823,2.6441127870666796,0.7044888036463707,0.7060305126268954,0.02643908066650681,0.06721172360696165,0.0011522972490638497,0.00021090164760348298,10667.098092215369
1678306494729958466,43,1677812865477185726,camera_1,44,0,0.12689558144185933,-0.30207280790566915,2.6451043170210875,0.7043993922388818,0.7061819043336833,0.02466046698431298,0.0672344820256863,0.001972071302589029,0.0003612127278621168,10660.556076954585
1678306494737772644,44,1677812865484624147,camera_1,45,0,0.1268863316048199,-0.30210434435474853,2.645033470144515,0.7044516516904857,0.7059729691437484,0.03016356137173058,0.06663480197524946,0.00100383983226493,0.00018383349912593256,10657.604455615165
1678306494743087787,45,1677812865490269899,camera_1,46,0,0.12675753466696676,-0.30196790462929396,2.643941043627952,0.7043116916568595,0.7061026602530124,0.028057111110954186,0.0676525882371053,0.0016129137366078792,0.00029519894907295395,10665.915858948607
1678306494749960025,46,1677812865496988773,camera_1,47,0,0.12677096727063725,-0.3020111114731731,2.644499305576731,0.7044145635499007,0.7060701922125164,0.02884069188302166,0.06658243626882052,0.0030525195179507136,0.0005587382842579733,10663.405607803381
1678306494757850189,47,1677812865504552602,camera_1,48,0,0.12685690798861105,-0.30211273510436665,2.6455910898695234,0.7046246771183347,0.7061867595906499,0.023498945260714936,0.0652083165430174,0.004402781487442553,0.0008062654820952691,10662.615101859206
1678306494766481710,48,1677812865511580944,camera_1,49,0,0.12675199859592243,-0.3019033230023625,2.6434943740085806,0.704369846892291,0.7059392809465392,0.026938768288415845,0.06918925616536711,0.001414114492945373,0.0002588208314335365,10666.554354189546
1678306494769984981,49,1677812865517229557,camera_1,50,0,0.1268993386962923,-0.30211241185285825,2.6454595257262605,0.7045840400327805,0.7060929750727969,0.02628662784015999,0.06559766978121087,0.0024595821159891784,0.00045043728038993033,10660.457423301414
1678306494777053611,50,1677812865523838281,camera_1,51,0,0.12686363091671365,-0.3020107212457673,2.6443753238586005,0.7044274334221977,0.7059195949886159,0.027476979085109165,0.06858959158414726,0.002786061493679881,0.0005101701980711982,10660.515708496216
1678306494784181116,51,1677812865531314611,camera_1,52,0,0.12691594241566026,-0.3021427894352009,2.645680742068371,0.7045441911650745,0.7063130206088613,0.025672776247750818,0.06387728996811211,0.0035900204675272107,0.0006572853744153482,10663.378626474301
1678306494790674050,52,1677812865537188291,camera_1,53,0,0.12679743868604879,-0.30195785301228745,2.643926113510725,0.7044948475853462,0.7059130745307871,0.02736075348166373,0.06800830905931228,0.002886761794798076,0.0005283553679643103,10665.75819002581
1678306494798154670,53,1677812865544668197,camera_1,54,0,0.1269220349672971,-0.3022509444672961,2.646618868264298,0.7046379910087492,0.7062999507740708,0.024179662928761548,0.06356905744424944,0.0052457162528298795,0.000961008977772467,10657.777608197648
1678306494806534416,54,1677812865551337003,camera_1,55,0,0.12678097844471664,-0.30201349863342675,2.644379838152155,0.7045053909851672,0.705965629510405,0.02868368453171261,0.06679768158027176,0.003930338658392429,0.0007193733746706226,10663.95861203293
1678306494810977460,55,1677812865558043241,camera_1,56,0,0.12685315747941145,-0.3021549699249551,2.645765641995877,0.7046037775258682,0.7061443461326161,0.027848496826274282,0.06417273833750595,0.0056489615817554295,0.0010343620473096205,10660.08151988382
1678306494816486342,56,1677812865563833951,camera_1,57,0,0.12680817089735563,-0.3019458369360591,2.643971409682647,0.7044354015592592,0.706053512686449,0.026655607698472174,0.06744390877904892,0.0019297607941552997,0.00035316958212650907,10667.482323192524
1678306494824178019,57,1677812865570647001,camera_1,58,0,0.12688693827353842,-0.30206049678097413,2.6449227832375475,0.7045980775932149,0.7060763507463341,0.025104212029627655,0.06608717354417028,0.0023695084964856505,0.000433820992811718,10664.5397364276
1678306494831165703,58,1677812865577972650,camera_1,59,0,0.12694222105741265,-0.3021187416595292,2.6453220769088572,0.7045850391764829,0.7060763611878649,0.0254968745649505,0.0660757453820772,0.0010459439945407212,0.000191564460251886,10661.014808270615
1678306494836750082,59,1677812865583884000,camera_1,60,0,0.12691043732323534,-0.3021027247279621,2.645079560543704,0.704538100067359,0.7059573295380348,0.027773738454560427,0.06692483752136133,0.0066197061678394675,0.0012122304760499132,10658.8281228753
1678306494844867298,60,1677812865591217517,camera_1,61,0,0.12688017676152266,-0.3021241241473668,2.645490982948399,0.7044610931664886,0.7061593636883368,0.02697928272786428,0.06592146534664865,0.0032494351034983993,0.00059512988245487,10658.794840294402
1678306494853471721,61,1677812865598098993,camera_1,62,0,0.1267801842269169,-0.3019886062983832,2.6443713830172997,0.7044873291319934,0.7059966029521224,0.02585309123665783,0.06780868223201693,0.0020624069147743285,0.0003775911586509151,10664.034027397865
1678306494857794710,62,1677812865604750394,camera_1,63,0,0.12680419608853688,-0.3020712987510671,2.6451934757724094,0.7045867824485479,0.7062002718380265,0.027148497375027107,0.06404374399563378,0.0028991299914196134,0.0005306251376193833,10665.658205662623
1678306494863225859,63,1677812865610595226,camera_1,64,0,0.12676836836509764,-0.30199351949300374,2.644584911939628,0.7045552971011505,0.7060017590111299,0.027568989384319387,0.06635736902731497,0.004151798028033227,0.0007599362265531617,10664.502946876342
1678306494871707153,64,1677812865617959022,camera_1,65,0,0.12687173387681933,-0.3021517285307126,2.645699063008025,0.7045351391900925,0.706213118832627,0.02474084507907598,0.06543056640335589,0.0030019008554518223,0.0005498199930227203,10660.226224562506
1678306494878169008,65,1677812865624730587,camera_1,66,0,0.12684637658511377,-0.3020866225834211,2.6451334873855807,0.7044660811807696,0.7061328469725066,0.02594305971330958,0.06656500991529946,2.1351617760956287e-05,3.910642951027126e-06,10660.971567780707
1678306494884917559,66,1677812865631350755,camera_1,67,0,0.1269517186572648,-0.3021466163820089,2.6457667372473934,0.7047335626933869,0.7061845126782911,0.0247757592661399,0.06356257876767693,0.002730102918576449,0.0004998627970678602,10664.164996032372
1678306494891204882,67,1677812865637240409,camera_1,68,0,0.12687854630875775,-0.30205217537522283,2.644675158319552,0.7046057363251906,0.7060372458084238,0.025695906413065888,0.06619580245380084,0.0017979195108637214,0.00032912013472071,10665.758194148311
1678306494897887224,68,1677812865644600629,camera_1,69,0,0.12690503812830028,-0.3021340870467092,2.6456109425561642,0.7044938317151627,0.7061447338776952,0.025324409736506185,0.06638320693959357,0.002220877504441887,0.00040684445480779555,10658.091481385178
1678306494904861918,69,1677812865651381015,camera_1,70,0,0.12686315795089387,-0.30209972581390354,2.6454754373382143,0.7045219953671544,0.7060415682330168,0.024720439185858305,0.06740149744185178,0.003925070283003151,0.000719101775181712,10657.119778225198
1678306494910542468,70,1677812865657352209,camera_1,71,0,0.12677353218948256,-0.30193324986765974,2.6440037182998393,0.7043545034568203,0.7058084347305241,0.02972522215508369,0.06953846483187955,0.004079424135852605,0.0007469445343426141,10658.904850878753
1678306494916398736,71,1677812865663665771,camera_1,72,0,0.1268267035013349,-0.3019902258891411,2.6446528201300823,0.7044176733286858,0.7062003269660923,0.02449381503878186,0.06690958615946906,0.0013479279587045312,0.0002467859449017129,10665.180609177332
1678306494924261801,72,1677812865671262502,camera_1,73,0,0.12681456450996048,-0.3019819043273773,2.6442365490513575,0.7043722282229978,0.706085749243176,0.025004018572689548,0.06839208930197133,0.0024419856490567327,0.0004471000939438821,10664.296608257922
1678306494933463012,73,1677812865678217887,camera_1,74,0,0.12688830058928502,-0.3021201246093725,2.6453371338893965,0.7044979523097512,0.7060364521690752,0.02809513738887099,0.06637640134093713,0.004258868866600096,0.0007799830205211499,10657.859757808033
1678306494937621107,74,1677812865684706211,camera_1,75,0,0.12688019321261262,-0.3020918732721881,2.6451147982335255,0.7044557263170026,0.7060486352912294,0.027540184442147526,0.06692527552031076,0.0036893931683152914,0.0006756735046141739,10658.78503598133
1678306494943297536,75,1677812865690626859,camera_1,76,0,0.1268626615243252,-0.3020993280046356,2.645265497158409,0.7044007886975333,0.7060896479101607,0.026519542680688457,0.06748075171784546,0.004213194479234517,0.0007717798252536751,10657.087472430194
1678306494951472929,76,1677812865697986125,camera_1,77,0,0.12677169131011146,-0.30198435253113454,2.644352982489495,0.70445089041453,0.7060752797268878,0.02642018776042408,0.06714622872118016,0.0020830739522352815,0.0003813067590566131,10665.392797515378
1678306494958143677,77,1677812865704635858,camera_1,78,0,0.1268092290706904,-0.3020270502379331,2.644659283357586,0.7044107593855411,0.7060055285201157,0.026388472920563975,0.06830317897315101,0.004231103870552033,0.0007748645085399304,10659.973346418003
1678306494964101982,78,1677812865710898637,camera_1,79,0,0.12680068188280272,-0.3020130081524114,2.6444227500077164,0.7044465142206571,0.7059724084278661,0.028566004939493142,0.06739473646154089,0.0022057535825297236,0.00040380820094807667,10662.21346802346
1678306494969956085,79,1677812865717213153,camera_1,80,0,0.12689985642735704,-0.30213043060600575,2.645411083621505,0.7046231519361055,0.7061806987219886,0.025765522417601622,0.0644295922903439,0.0026004809187725186,0.00047608995873161305,10664.128111293541
1678306494978369634,80,1677812865724632978,camera_1,81,0,0.1268553207544321,-0.30202379546793273,2.644453425179217,0.7044814136522051,0.7060094428793022,0.029149700538365426,0.06638448118628057,0.0006937198922969401,0.00012698014372965397,10663.934063591061
1678306494986422037,81,1677812865731332063,camera_1,82,0,0.1269581794906612,-0.30225481980120544,2.646715685180999,0.704729204139916,0.706206380520079,0.02309998037767077,0.06399756129417208,0.0010850056423805654,0.00019882636942379313,10656.780077531464
1678306494991166514,82,1677812865738085985,camera_1,83,0,0.12685601625494963,-0.3020999879167911,2.645355658162523,0.7043452151028452,0.7063387172225417,0.02495050892906955,0.06603716088931527,0.002221966104116291,0.0004069307873679443,10661.330638746156
1678306494996504146,83,1677812865743950128,camera_1,84,0,0.12680700561952515,-0.30208812607685415,2.645161881711906,0.7044395733934354,0.7061101384746463,0.02671411420586548,0.06678110423455602,0.005524325533770025,0.0010116970935923866,10659.538488095397
1678306495004662707,84,1677812865751063346,camera_1,85,0,0.126818804132949,-0.3020838543217436,2.645113059724602,0.7044588339533452,0.7060147224522466,0.026087023710273428,0.06782647078914072,0.004889651783742011,0.0008956720674281878,10657.809844105623
1678306495010932780,85,1677812865757992506,camera_1,86,0,0.1268304542754092,-0.3020990123290702,2.645273512054161,0.7043958439052146,0.7061126703240411,0.024805783519058325,0.06794162936608358,0.0026185306487604976,0.0004797416529558717,10657.28690274922
1678306495016659005,86,1677812865763868093,camera_1,87,0,0.12677564993436663,-0.3018960204888186,2.6435112024316667,0.7043293832624995,0.7060532799498125,0.02714320148225079,0.06835299816740259,0.0012961960746906698,0.00023719456305863648,10668.418927408286
1678306495025052161,87,1677812865771237373,camera_1,88,0,0.12695017466574451,-0.30210028136653816,2.6451227389478063,0.7044243001116043,0.7061967659768862,0.026213036685250244,0.06622242704553574,0.00081583799328655,0.0001494032103562247,10661.641722252361
1678306495032029299,88,1677812865777995824,camera_1,89,0,0.1269063345676187,-0.3020836479056743,2.6450239594067364,0.7045230280579307,0.7061854781820845,0.02314085934001537,0.06643699248032299,0.0013449449907056987,0.0002462829655872084,10664.348415926564
1678306495037610256,89,1677812865784575223,camera_1,90,0,0.12685978599371364,-0.30200544178401545,2.6444852609270084,0.7046216824456868,0.7059716726048543,0.02310234983931613,0.06766508360163175,0.0014132632059045136,0.0002587620717753212,10665.616782853846
1678306495043362671,90,1677812865790550947,camera_1,91,0,0.12682755521205225,-0.30207456574992453,2.6455226685019873,0.7044929536863046,0.7060214996794648,0.02631630244333389,0.06731101263847587,0.00663993286434561,0.0012164345947989238,10655.6809560681
1678306495051094996,91,1677812865797986030,camera_1,92,0,0.12675343243010806,-0.30200915741563256,2.6445188142893556,0.7044788367889061,0.7061052799863131,0.0250521133238281,0.06706186479669549,0.002559298533014953,0.0004685220888358723,10665.423809811004
1678306495057697579,92,1677812865804566383,camera_1,93,0,0.12677677673173882,-0.30203052980439676,2.644773647286201,0.7044168889701893,0.7060743137152173,0.02442531574835378,0.06825916785119927,0.003552282229065895,0.0006506246150906187,10660.806934412103
1678306495064423292,93,1677812865811246395,camera_1,94,0,0.1268155141895588,-0.30200668307324974,2.6443349626603485,0.7044845211137638,0.7062211970960688,0.026571624849242227,0.06517000104478679,0.004412726149894297,0.0008073166562435778,10670.306989349303
1678306495069902142,94,1677812865817200422,camera_1,95,0,0.12691921147222224,-0.30216566559765373,2.6456197507824877,0.7045255498778832,0.7060337990848591,0.028206877614139664,0.06606357676002945,0.0017535270890221,0.0003212142139075681,10656.249787339711
1678306495078450693,95,1677812865824606895,camera_1,96,0,0.12685789481565288,-0.3019090367241496,2.643468898621463,0.704452034669586,0.7059149583276269,0.025347337863581607,0.06920198640512237,0.0014839196228422225,0.0002715964324116139,10668.048672426145
1678306495086649691,96,1677812865831319332,camera_1,97,0,0.12694359579367273,-0.302201241196589,2.646091194541061,0.7045239892858095,0.7061718128065508,0.026389129199764,0.06535237699117226,0.0024223007494583726,0.0004437938927081639,10655.877122052712
1678306495090814003,97,1677812865837968826,camera_1,98,0,0.12687482654035437,-0.30208605316394727,2.6452194423669138,0.7044823733046708,0.7060302271823923,0.027010367253705574,0.06705478408449475,0.0031310204649344087,0.0005734896034293254,10658.112193730663
1678306495096657979,98,1677812865843866825,camera_1,99,0,0.12684036032633444,-0.3020870208320081,2.645386794160174,0.7044221659456172,0.7060311005265723,0.026746783253720256,0.06777984065561962,0.0042915845406241715,0.000786263762893554,10655.175960940658
1678306495105203666,99,1677812865851360321,camera_1,100,0,0.12680791904096328,-0.302099863707262,2.6452499858264775,0.7045556740204807,0.7060714025768141,0.025149981521319437,0.06657293067181273,0.0025860557216219604,0.00047362610331814283,10660.680944959166
1678306495111336503,100,1677812865857935190,camera_1,101,0,0.1268870551308741,-0.30222465336930504,2.646312338152853,0.7044153359958745,0.7063008882759932,0.02581615914548317,0.06535759757929649,0.0032949786400422454,0.000603789233702274,10654.597445092393
1678306495118417005,101,1677812865864510774,camera_1,102,0,0.12681474132566894,-0.30205454249655,2.6448546009100853,0.7045236226509297,0.7061767253849199,0.024793570326572086,0.06592553770659136,0.0013254018849693239,0.00024264458197191573,10665.761678762272
1678306495125142020,102,1677812865870456457,camera_1,103,0,0.1268910684739113,-0.3021318286959942,2.6455313444579898,0.7046047284876671,0.7061685464550211,0.024867013305152803,0.06511368703817197,0.0014141802676022053,0.0002589813019959596,10662.245263006305
1678306495130274740,103,1677812865877220153,camera_1,104,0,0.12687897214432967,-0.3021534674550651,2.645742678788251,0.7046631313655847,0.7061805464076673,0.028046983594360763,0.06302597782402934,0.001423928770236671,0.0002606824632890858,10662.811621982833
1678306495137667430,104,1677812865884555578,camera_1,105,0,0.126881946717636,-0.3021030382887168,2.6453782913721704,0.7046883923979812,0.7060126615433834,0.028688201635502137,0.06432245678530628,0.005139731627423316,0.0009408681685978996,10662.033703989586
1678306495144355498,105,1677812865890473365,camera_1,106,0,0.1268384455352439,-0.3020848099336264,2.6451300280547896,0.7044370709850625,0.7061649556225611,0.024778867374025113,0.06697369785395715,0.003336927446071059,0.0006111469149706108,10660.923835056015
1678306495150886356,106,1677812865897914886,camera_1,107,0,0.12682312180378283,-0.3020382477734262,2.6449090388771728,0.704514235409765,0.7062657661874061,0.022931563910881345,0.06574574505861067,0.0015132860280573368,0.00027703795232525283,10667.19597823359
1678306495157771585,107,1677812865904559373,camera_1,108,0,0.12683226463405903,-0.3020810157681944,2.645167422468861,0.7044057205262308,0.7062368104101552,0.02761233335234494,0.06541947384725133,0.0023255740525200963,0.0004257869402795013,10662.081593376352
1678306495164529354,108,1677812865911222457,camera_1,109,0,0.1268019017703269,-0.3019449645354883,2.643742977653955,0.7044538946579193,0.7060545770036963,0.026726451373520404,0.06721117013115767,0.003147117851767689,0.0005758089217276316,10669.830983315129
1678306495171302489,109,1677812865917260646,camera_1,110,0,0.1268489721759042,-0.3021112428950871,2.645219067227463,0.7045265946784629,0.7059856150436666,0.029218841596560977,0.06612751347162313,0.0025748098269104958,0.00047150833610888344,10658.356697947136
1678306495177810718,110,1677812865924595355,camera_1,111,0,0.12682429511270035,-0.3020169625347278,2.6445627762567767,0.7044306887605948,0.7060495808698372,0.025552701359566707,0.06795920496172835,0.0022380893933586776,0.00040982913097954336,10662.342446950268
1678306495184472108,111,1677812865931222438,camera_1,112,0,0.12684106479812632,-0.30214685579098927,2.645804226814371,0.7046389605835601,0.7060858783520804,0.02661736359060225,0.06494754479560239,0.005533639807254076,0.001013448661247388,10659.015691371867
1678306495191677066,112,1677812865937957525,camera_1,113,0,0.1267727177971815,-0.3019395470506242,2.6438351498559602,0.7044352430527319,0.706086641666992,0.027510403158195328,0.0667519327266359,0.0010807756334543228,0.00019775104655863634,10669.574081717055
1678306495197586553,113,1677812865944539070,camera_1,114,0,0.12689817302469464,-0.3021530066054381,2.645959045009206,0.7045761577484394,0.7061341809986694,0.023829374800073248,0.06617489897553445,0.002600496693048626,0.000476480470846358,10657.01296482049
1678306495205317620,114,1677812865951176166,camera_1,115,0,0.1268106630098935,-0.30201720986505637,2.64445030467546,0.7042616937477423,0.7061408669683004,0.02703912630194978,0.0681867169296619,0.0014450230519287288,0.00026460566032772415,10661.374322465039
1678306495210235161,115,1677812865957211494,camera_1,116,0,0.12689566798914523,-0.30212086814398087,2.6455152214792523,0.7046316151563753,0.7059510823589792,0.02659937080252562,0.06648179984938242,0.00361881370190531,0.0006628748512362943,10657.533549792128
1678306495217845544,116,1677812865964557170,camera_1,117,0,0.12686021886538915,-0.302079416298403,2.6451303171688174,0.7045917800298465,0.7060720437990662,0.023083828962166292,0.06693152710216276,0.003645203891210258,0.0006675834994688068,10662.313234061818
1678306495226012067,117,1677812865971196651,camera_1,118,0,0.12688874426266147,-0.3021553168455686,2.645934491336448,0.7044971913770767,0.7062448893311505,0.02538776896714371,0.0652481786896207,0.0016110436990857124,0.0002951265601191532,10658.274448439479
1678306495230412719,118,1677812865977349042,camera_1,119,0,0.12682793509666396,-0.3020265413256792,2.644705512237575,0.7044742959491663,0.7061102656836651,0.026252615041206837,0.06659624048374414,0.0012891042279079556,0.00023601159347201887,10664.07819981081
1678306495237213789,119,1677812865983877897,camera_1,120,0,0.12683829992755621,-0.30208204305237324,2.6450462976834994,0.7043224598556161,0.7061261225921885,0.02548728230498521,0.06830936961033511,0.005888006999157369,0.0010785986034097454,10657.595673081698
1678306495243864633,120,1677812865990620136,camera_1,121,0,0.12682336230697075,-0.3020236560751291,2.6445833592323877,0.7043618202550712,0.7060983546705881,0.028034233950981938,0.06718349071932045,0.002493704203516245,0.00045655210886227465,10661.964832651778
1678306495251713451,121,1677812865998098611,camera_1,122,0,0.126840766418971,-0.3020621568536994,2.6449989269241243,0.7044283996477569,0.7061297572067665,0.026585306098411428,0.06674291914852651,0.004181740921922028,0.0007657274834677882,10661.054177741287
1678306495258730399,122,1677812866004504919,camera_1,123,0,0.12686449031420233,-0.3021084144461104,2.6453887144864905,0.704480291107423,0.7061144648263664,0.028021495774967407,0.0657622823410804,0.0018677356420084834,0.0003420486477055488,10659.068293683817
1678306495264420587,123,1677812866011194467,camera_1,124,0,0.12686296209028178,-0.3020891243691195,2.64509940634994,0.7046664806685631,0.7060920690725968,0.02570291660318375,0.06494998916897937,0.002990606299135834,0.0005474437057749381,10665.433322577861
1678306495270890893,124,1677812866017945528,camera_1,125,0,0.12691078569742234,-0.3021193341154942,2.645387800819265,0.7045205796583002,0.7062006856175506,0.027453779676346504,0.06463462270886275,0.0025234625209122896,0.00046200471840827446,10662.343500614983
1678306495278272338,125,1677812866023852586,camera_1,126,0,0.12694021348910958,-0.3021890068571557,2.646116034020891,0.7046774639814797,0.7062326306445533,0.02544990426438132,0.06338332227359586,0.0015032172086648643,0.0002753004680449544,10661.241639276035
1678306495284316128,126,1677812866030735015,camera_1,127,0,0.12684964385670472,-0.30211387458487937,2.6453597398632938,0.7044733106232667,0.7059315064051768,0.027183284871181566,0.0681111731482049,0.0026393801672384143,0.0004836161357491192,10654.126964471074
1678306495291298155,127,1677812866037961006,camera_1,128,0,0.12675034788712483,-0.30201506955294616,2.644643797696419,0.7045319153916603,0.7060618313454133,0.025153326750999766,0.06692369285295721,0.0013782718451693654,0.0002523422662107395,10664.69413917954
1678306495298254063,128,1677812866044669628,camera_1,129,0,0.12688493087886543,-0.30228819592372724,2.6469127881153782,0.7044333484239943,0.7062830982000858,0.027284440453244872,0.0647564833371966,0.0051991791115142405,0.0009529886711832029,10649.972477642936
1678306495304805034,129,1677812866051297903,camera_1,130,0,0.126815634740636,-0.30208973169367737,2.645212618390086,0.7045776765284626,0.70611730741298,0.024293718003949423,0.06616994162866638,0.002402676793280989,0.0004399915510540168,10662.672398263941
1678306495311392044,130,1677812866058009147,camera_1,131,0,0.12678998386435258,-0.3020588571024696,2.6448403465632095,0.7045714381369409,0.7059392854577562,0.028833424009716047,0.06631325258884171,0.000995500828139484,0.00018226714257217505,10661.336325532871
1678306495316975375,131,1677812866063811063,camera_1,132,0,0.12689979791606398,-0.30211193225567295,2.64540812331893,0.704509637960258,0.7059976615728399,0.023835872981322323,0.06830317001432984,0.001138474908657372,0.00020863025118820805,10656.008441523532
1678306495323982755,132,1677812866070548057,camera_1,133,0,0.12688552968554073,-0.3019900768652665,2.6443479739153712,0.7044698055488336,0.7061371541311237,0.028211476518240682,0.06554941051029343,0.0034836012055166057,0.0006374512372804336,10667.774249253558
1678306495331927185,133,1677812866077997684,camera_1,134,0,0.1269225943858653,-0.3021621834376954,2.6454415003112377,0.7045726026910017,0.7062970650680501,0.0273461463281861,0.06304039732174764,0.0017870482406578958,0.0003270844658003885,10665.799157280711
1678306495337822494,134,1677812866084568500,camera_1,135,0,0.126922316082787,-0.3022239985196583,2.6462305582914154,0.7045455948815886,0.706183211852425,0.02506646047506179,0.06551678098009481,0.004056186007801443,0.0007432182656573463,10655.462311980547
1678306495343541665,135,1677812866090553998,camera_1,136,0,0.12677119490160085,-0.3020708300651943,2.6453855983825374,0.7044346486579753,0.7060991290294387,0.027659666449506355,0.06656416908431352,0.0021538660512305796,0.00039452554047773755,10657.482399353292
1678306495351257297,136,1677812866097723245,camera_1,137,0,0.1267942073937117,-0.30215702464612393,2.645884060592824,0.7043817506747407,0.7061534220572442,0.026289451255407076,0.0671011071884843,0.005082660121843219,0.0009313943083097611,10653.318594704033
1678306495358385780,137,1677812866104665279,camera_1,138,0,0.12672692372919817,-0.3019297093174253,2.6439859048411942,0.7043708007434548,0.7060491750003703,0.02598956824947968,0.06841695611123354,0.0016365373157896101,0.00029958083571086756,10665.476877675159
1678306495363438882,138,1677812866110572099,camera_1,139,0,0.12680262026688882,-0.30197776399865517,2.6440776213383237,0.7044865537091264,0.706086902048781,0.023397397275428288,0.0677683126463186,0.001840316806919873,0.0003368544398151237,10668.419666278642
1678306495371198933,139,1677812866117748975,camera_1,140,0,0.12692417286175964,-0.3021352809354238,2.6454282888353475,0.7044820541246504,0.7060435413677467,0.022925441577743032,0.06842497524785485,0.0008017671061679721,0.00014693688292993304,10656.18007123191
1678306495378627940,140,1677812866124569654,camera_1,141,0,0.12693958866458457,-0.3020625856021578,2.6447208144077337,0.7045488205883063,0.7058847749155683,0.027562499501649126,0.06766056880669567,0.0020629254286177456,0.0003777850182032883,10660.029379202864
1678306495383668750,141,1677812866130552053,camera_1,142,0,0.12689889937348114,-0.3020934369453463,2.645094300020984,0.704402650062999,0.7062086453149965,0.027402962057233766,0.06584324974567753,0.0016873256536200643,0.0003089489972986689,10661.778261435684
1678306495390956120,142,1677812866137655496,camera_1,143,0,0.1267591279201612,-0.3018667491073535,2.6434194625840632,0.704334370443923,0.705961709694277,0.028516571619091508,0.06868743844393595,0.0024673923617228866,0.0004515018753709279,10667.028843173288
1678306495398951325,143,1677812866144517898,camera_1,144,0,0.12690382471488126,-0.3023024072903506,2.6470498771908053,0.7046390597452934,0.7061940297422361,0.02672085544493167,0.06371643211905052,0.005798982630949467,0.0010627506907131057,10651.875053705535
1678306495403365176,144,1677812866150527238,camera_1,145,0,0.12673854387936995,-0.3020157911224215,2.644869777892166,0.7044157775885709,0.7061206114077624,0.025965620715999935,0.06721518407510034,0.0051482783746905625,0.000942721219263635,10661.483487922236
1678306495411109792,145,1677812866157947540,camera_1,146,0,0.12677476887524278,-0.30207094865771056,2.6452449084096963,0.704482481013261,0.7061695517910285,0.024685141582784256,0.06648038698515604,0.00590343406656757,0.001081115536598635,10661.356023878094
1678306495419023143,146,1677812866164574384,camera_1,147,0,0.12680630948627142,-0.3020164252961417,2.6444602793598797,0.7045336774033913,0.706082065762662,0.02549432489203279,0.06656164970225185,0.0027913899975828826,0.0005109241555493469,10666.766281050048
1678306495424413156,147,1677812866171311855,camera_1,148,0,0.12685451787692123,-0.3020611811588233,2.6446179081091943,0.7044559181492289,0.706017080116469,0.029556993480757868,0.06639372037113798,0.0012926174676977098,0.00023662750662782197,10662.17039771343
1678306495430169482,148,1677812866177249908,camera_1,149,0,0.12697321306625858,-0.30213880738699744,2.6456633857772935,0.7045993339516811,0.7061463006309083,0.023949204611681613,0.06575421126131949,0.005604989477433264,0.0010266689996085803,10660.30458352622
1678306495438034853,149,1677812866184526443,camera_1,150,0,0.12694945943195604,-0.3021815472335035,2.645975886695365,0.7046024120791372,0.7060876740954147,0.025789456480014242,0.06565471283354052,0.0011008778819814324,0.000201699791060975,10656.571448624603
1678306495445870401,150,1677812866191251516,camera_1,151,0,0.12691835252577185,-0.30217837074490855,2.646164801419692,0.7047111706905702,0.7060882529010664,0.023796436483094142,0.06523246607136511,0.0027153698611073196,0.0004974950514267343,10657.709106589195
1678306495450999210,151,1677812866198045969,camera_1,152,0,0.1267916711580604,-0.3019903236523066,2.644461797190434,0.7045441623328733,0.7058700539137769,0.02617138540975471,0.06841088287813259,0.0014374015154317021,0.0002632269207509349,10661.487975938826
1678306495456841161,152,1677812866203822374,camera_1,153,0,0.12681922824002323,-0.30201953265486514,2.644686259638701,0.7044878880315183,0.706181893367277,0.02482505595597135,0.0662394572281652,0.0010887616081163287,0.0001993123831392896,10666.317541091823
1678306495464452592,153,1677812866211061000,camera_1,154,0,0.12677552070306647,-0.30198883070205357,2.6443479334704434,0.7045294434418317,0.706188593337519,0.0230554787504164,0.06636549452168725,0.002199823909904808,0.0004026008708538935,10670.07611458307
1678306495470893565,154,1677812866218025922,camera_1,155,0,0.12684488282877757,-0.30209378915069046,2.645494589107001,0.7045646756579078,0.7062015474260235,0.02380290766357287,0.0655851645947198,0.00362736004171893,0.0006642894604269512,10662.246693334428
1678306495476847330,155,1677812866223836660,camera_1,156,0,0.12683555249121964,-0.3020287833767895,2.6449487278323556,0.7044726317869177,0.7062299324066765,0.022143181922988874,0.06683766251448692,0.0020948812016285956,0.00038361251589356027,10664.704413776286
1678306495484353441,156,1677812866231119394,camera_1,157,0,0.12681368288439337,-0.3020355486317051,2.6446588375477895,0.7045385590054968,0.7059608513369606,0.024291100294339174,0.06822490528056695,0.0026067601866088808,0.00047739647064630057,10661.897071932324
1678306495491261088,157,1677812866237945318,camera_1,158,0,0.12686134828738424,-0.30209582610917673,2.645274257379866,0.7045990638817003,0.7061528837137196,0.025143269755307632,0.06523863874914472,0.0012093120603822172,0.00022142864786418062,10663.795000249753
1678306495496659063,158,1677812866243841886,camera_1,159,0,0.12688795548436754,-0.3021387227106857,2.645673595422899,0.7044754647789173,0.7061127938156538,0.025742401246318908,0.06675605375135452,0.002427633968181908,0.00044477635196031525,10656.313015581805
1678306495504428053,159,1677812866251030683,camera_1,160,0,0.12694111630860871,-0.30209349558723925,2.645136482935544,0.7045562339933303,0.7060243222786351,0.0242440659487591,0.06739729043813128,0.0012843812000937762,0.00023526707996431205,10660.178314821795
1678306495511902526,160,1677812866257983446,camera_1,161,0,0.1269132289671386,-0.3021451455986529,2.645564610697862,0.7044665201198299,0.7061052720726305,0.02705743943760963,0.0664090487251097,0.0033953128731809556,0.000621960293343951,10656.89664839674
1678306495516656012,161,1677812866263867378,camera_1,162,0,0.1268886564542522,-0.30204067056315914,2.644746544902901,0.7045482862907224,0.7062117323562112,0.02455646911942581,0.0653733981955381,0.005084009491838515,0.0009304610892936517,10668.159781701397
1678306495524706879,162,1677812866271217823,camera_1,163,0,0.12674158902256447,-0.3020006997394644,2.6443319045266924,0.7043521439329504,0.7059757743564264,0.02865327987361124,0.06830265669346094,0.003032261680345982,0.0005551881151578822,10660.546541987329
1678306495533592899,163,1677812866277940034,camera_1,164,0,0.12681916940248242,-0.3021343882451885,2.6456719369487613,0.7045576115066927,0.706163596528324,0.02559560419481416,0.06539428149363878,0.004456790047697723,0.0008162634321634077,10659.861695211031
1678306495537752252,164,1677812866284552812,camera_1,165,0,0.12684663773245608,-0.3022018420553776,2.64640075221359,0.7045666119526235,0.7060208200922208,0.0248456598060789,0.06710576805841836,0.0027698405319824815,0.0005077876701485688,10650.356635170408
1678306495543458922,165,1677812866290554523,camera_1,166,0,0.12689944223034808,-0.30220721758899693,2.6463019412802584,0.7045058748149154,0.7062443551962576,0.024993365017020437,0.06531243993160171,0.0030689145787619054,0.0005623328765838093,10655.477192385935
1678306495551641787,166,1677812866297974348,camera_1,167,0,0.12684227119290636,-0.30202099988042824,2.644629587308569,0.7043912644824306,0.7061706565736026,0.026263120396988717,0.06682962533385288,0.0023284891503863037,0.000426285271696661,10664.08308814256
1678306495558247514,167,1677812866304534435,camera_1,168,0,0.12692285771859907,-0.30203548108427164,2.6447097300992937,0.7044456985170398,0.7060882836816841,0.024157758402039316,0.06791167938787847,0.0009144911891780796,0.00016748703136445725,10662.372446776488
1678306495564630938,168,1677812866311403036,camera_1,169,0,0.12688999231566417,-0.30200286209338667,2.644409805674316,0.7045706134228924,0.7062225415196588,0.02590190378526822,0.06449080500894447,0.0009304863051511348,0.00017024077627813162,10671.92882958625
1678306495570801768,169,1677812866317957878,camera_1,170,0,0.12685059354125602,-0.3020198186150796,2.6442518689394725,0.7044307153877379,0.7060195175420791,0.029628446728047472,0.06660302705172645,0.0038437728653661907,0.0007034335545616032,10664.513181565562
1678306495577100406,170,1677812866323857307,camera_1,171,0,0.12681449087806962,-0.3019984792080069,2.64442811093672,0.704442164250549,0.7060932119197023,0.025849756096894345,0.06727111874090011,0.0024471698561683297,0.0004479900211661233,10664.941806929068
1678306495584224489,171,1677812866330904006,camera_1,172,0,0.12676565621853814,-0.302070391540863,2.6451012238268077,0.7044458174286747,0.7061188882195608,0.026575158840410226,0.06667808440128421,0.0025840362650342286,0.0004732208759314752,10660.430903723698
1678306495590884552,172,1677812866338098764,camera_1,173,0,0.12672855453432716,-0.30199189728853704,2.64445907971834,0.7045377492897367,0.7060555057370552,0.027543521674037695,0.06598133870978448,0.0034379587159492075,0.0006291752704635183,10666.479498920376
1678306495596536467,173,1677812866343836307,camera_1,174,0,0.12681853337913093,-0.30213729976765474,2.645805135601194,0.7044319694302439,0.7060754513575076,0.026006339304508623,0.0675035388027823,0.005270188499707729,0.0009657852475120122,10653.170207116753
1678306495604400440,174,1677812866351249456,camera_1,175,0,0.1268804023868513,-0.3020914144471309,2.6452498789489516,0.7043934311810999,0.7062054243357208,0.025934243508264784,0.06656731751674959,0.003396237618289888,0.000621996102495953,10660.029566358076
1678306495612752879,175,1677812866357964992,camera_1,176,0,0.1268977520303545,-0.3020274243904205,2.6443384821904328,0.7044805520329278,0.7059201165045591,0.026577953250307228,0.06839264085115809,0.002410202636383474,0.00044131593827719716,10662.099852957765
1678306495617533323,176,1677812866364585876,camera_1,177,0,0.12693605604043567,-0.3020203896313905,2.644349831300163,0.7044658956062467,0.7061549792632741,0.02605639840111199,0.06628733884940913,0.0031158054480329156,0.0005702592971706254,10667.822237670069
1678306495623659315,177,1677812866370544672,camera_1,178,0,0.126925935665724,-0.3021083342650192,2.6451388708810857,0.7044670678786681,0.7061820922643817,0.025382829076359543,0.06624737600549108,0.0008825773256830871,0.00016162649652720293,10662.149921204775
1678306495630609356,178,1677812866377313852,camera_1,179,0,0.12684981293620282,-0.3020940980735693,2.6450729609822217,0.7044683308951637,0.7062316388972483,0.0240379169046808,0.06620741300770248,0.001206425775308162,0.0002209149236405463,10663.87541911332
1678306495639326641,179,1677812866384604692,camera_1,180,0,0.12672082742391463,-0.30191916858119944,2.6437294147478165,0.7042596978078449,0.705969880415651,0.029955588348751006,0.06875659034736098,0.003476627927739173,0.0006363401030852102,10662.92900489783
1678306495643261806,180,1677812866390445470,camera_1,181,0,0.12679602911375643,-0.30210700276309316,2.645851313323732,0.7046667915043405,0.7061462907839864,0.020862946567858684,0.06608227011462962,0.0029295618878677487,0.0005367133372588812,10660.219426280117
1678306495650627118,181,1677812866397848606,camera_1,182,0,0.1267423888781628,-0.3020192134546145,2.6448132687785577,0.7044250986002366,0.7059898614692169,0.024846738144313443,0.06889292828956145,0.0028019705787301064,0.000513284431686974,10658.532077195006
1678306495657726687,182,1677812866404656887,camera_1,183,0,0.12675903629016277,-0.3019761109380187,2.6443010581638333,0.7045262681609482,0.7059738071648196,0.025455935735463966,0.06779171338924914,0.002773526357486844,0.0005077443349604662,10664.984945374306
1678306495664513999,183,1677812866411339759,camera_1,184,0,0.126902249968032,-0.30205613936974596,2.6448087879409763,0.7045827405464884,0.7061042823507928,0.02703154933565005,0.06518588428782746,0.001487444096710533,0.00027225666463209607,10666.032690150774
1678306495669736185,184,1677812866417216539,camera_1,185,0,0.126971600522933,-0.302192501046738,2.6457999411971422,0.7044955226103456,0.7061313984793641,0.028124078767266948,0.06537234045868293,0.005040287913288921,0.0009231878036236112,10656.57090228249
1678306495678113347,185,1677812866424596309,camera_1,186,0,0.12693188759059543,-0.3021303127033813,2.645286079988849,0.704541940684527,0.7062092616034588,0.024492434138603608,0.06549239125230061,0.0017793121514841914,0.0003258208862324862,10663.552054536527
1678306495685894490,186,1677812866431256294,camera_1,187,0,0.12687588426008878,-0.30214953499843794,2.6455887610053153,0.704512086646199,0.7060647944655555,0.027440429862761732,0.06619855432468606,0.004434523812960833,0.0008123199193909287,10656.891948590524
1678306495690825441,187,1677812866437981367,camera_1,188,0,0.12678213198007313,-0.3020373586963504,2.644491895900402,0.7043681745605399,0.7062243553828647,0.026492739437936196,0.0664136227545519,0.0023241862072609365,0.00042542379975468947,10666.031604007589
1678306495696705385,188,1677812866443837165,camera_1,189,0,0.12687254130730216,-0.30214873226199984,2.6460500271478606,0.7044344523270746,0.706000915314329,0.025579883782078237,0.06841402996227855,0.0018064580508507788,0.00033119987605343657,10649.222957402935
1678306495704328130,189,1677812866450929880,camera_1,190,0,0.12677244291408868,-0.30200923605042673,2.644609899077899,0.7044063632434472,0.7062111547180766,0.026711837041506495,0.06606026139646855,0.003807761531788856,0.0006969341355437056,10665.806813451574
1678306495711144286,190,1677812866458034992,camera_1,191,0,0.12685728149914585,-0.3021806338966673,2.6459461462265343,0.7044051561740371,0.7061855552714423,0.027179024836432003,0.06615616441674929,0.0040824649622663856,0.000747989993898121,10654.381230655123
1678306495716880777,191,1677812866463856697,camera_1,192,0,0.1267781199241107,-0.3019495375414848,2.6439515228744597,0.7044597353075,0.7060173742943701,0.024334966896345817,0.06843798587863552,0.0019630285096354783,0.0003593376401028208,10667.011410594454
1678306495724361396,192,1677812866470721483,camera_1,193,0,0.12687723074863172,-0.30203633167613253,2.644724429550891,0.7046260394866691,0.7059670414952276,0.0256163119084793,0.0667569124811374,0.004013114375993609,0.000734702861337759,10664.03327226953
1678306495731567752,193,1677812866477931737,camera_1,194,0,0.12689671881784825,-0.30208740771727316,2.6450414003610057,0.70451896702632,0.7061157826027511,0.025654657736986566,0.06629755045150292,0.0033713303273543715,0.0006173029796279935,10662.595055067792
1678306495737695630,194,1677812866484559535,camera_1,195,0,0.12693575980381636,-0.3021703190638587,2.6458148985300656,0.7046002057476417,0.7059971271973633,0.025839472324852113,0.06662528138345124,0.0022639663657173514,0.0004148247179437845,10655.399277399643
1678306495743092556,195,1677812866490491867,camera_1,196,0,0.12690073107109376,-0.30214051027148014,2.6458443697300735,0.7044892820024115,0.7060093580382011,0.027495030224937492,0.06700493428952724,0.002753505657892674,0.0005045712182083647,10652.787579335274
1678306495750573594,196,1677812866497189998,camera_1,197,0,0.1268429772939008,-0.3020932241479273,2.6453869731660005,0.7045956523502976,0.7061960540023206,0.02695579512050291,0.06407405957196521,0.0012026994954794645,0.00022017554178064812,10664.193994658184
1678306495759129408,197,1677812866504554271,camera_1,198,0,0.1268330958479774,-0.30204676701044164,2.6451313386887203,0.7044151216903514,0.7060721868460403,0.0259178201045924,0.06774710250220203,0.004256263957358897,0.000779643234804839,10658.036071724491
1678306495763529781,198,1677812866510502815,camera_1,199,0,0.12679193087421486,-0.3020081076689239,2.644372530927419,0.7043475109615297,0.7060848045742233,0.0274063808289873,0.06773273094697704,0.0015926678897812963,0.0002915892812626622,10662.841217254987
1678306495771175992,199,1677812866517904281,camera_1,200,0,0.12684196303460243,-0.3021156518335116,2.6454487855925533,0.7045594006290368,0.7060527987610757,0.026395942673240174,0.06624764567360422,0.0041377892484888434,0.0007578542233328379,10658.845208979914
1678306495779065807,200,1677812866524583339,camera_1,201,0,0.12678677838193517,-0.3020175401429819,2.6446157525478715,0.7045974805372655,0.705936420888763,0.02832035154465705,0.06628814201415216,0.0017337704775854945,0.00031736889480704004,10663.709367105508
1678306495784601018,201,1677812866531282663,camera_1,202,0,0.1269231703278979,-0.30222658991781737,2.646650762650231,0.7048069698916212,0.7061659231357009,0.02419819132085788,0.06317651249391534,0.0011394207831472158,0.00020874810829169945,10658.460228531389
1678306495791311435,202,1677812866537880897,camera_1,203,0,0.1268446014814785,-0.3020782565620011,2.6451410923645793,0.7044661731808145,0.7060492221607801,0.02476212919080182,0.06788772855291457,0.0010080963256768882,0.00018468259687384576,10658.524992480525
1678306495796770520,203,1677812866543865203,camera_1,204,0,0.12691528992451193,-0.30209690620337676,2.6454219562964165,0.7047476425053548,0.7061943162820633,0.023097333713207595,0.06392856332966143,0.00021313939942047,3.9021163290154725e-05,10667.356400515997
1678306495804137090,204,1677812866550637722,camera_1,205,0,0.1268644250184587,-0.3020224991553931,2.644319148723144,0.7046122052053249,0.705987023416149,0.028387025009350066,0.06556020023469637,0.001985328155569732,0.00036327408934576865,10667.78613106883
1678306495811673092,205,1677812866557941436,camera_1,206,0,0.12693895845500267,-0.30220965893659313,2.6461128006252292,0.7047323016043057,0.7063060598738253,0.026129970392915865,0.061655149892573785,0.0003411538200452924,6.245846330309736e-05,10664.723737665103
1678306495816496978,206,1677812866563796520,camera_1,207,0,0.1268458153838081,-0.3020309228856813,2.6445019628568427,0.7044867293153281,0.7061492692215581,0.026154880468987625,0.06608766922886848,0.003153791942168027,0.0005772124024390229,10667.041255427645
1678306495824260521,207,1677812866570569276,camera_1,208,0,0.1267483121728228,-0.3019803949180689,2.64457230065456,0.7044256045373799,0.7062611259764552,0.024480046635892656,0.06618547365790382,0.0010232057538814843,0.0001872936045653951,10667.683959517624
1678306495845273022,208,1677812866584612369,camera_1,210,0,0.126775761717581,-0.3020893278727986,2.6455214579663466,0.7045136697820664,0.7060915956198595,0.025054054862045972,0.0668389259352377,0.0018169821705669165,0.00033287128144594163,10657.950974429034
1678306495848436239,209,1677812866591197252,camera_1,211,0,0.12688165460395184,-0.3021261553053022,2.6455380358712777,0.7045078260204527,0.7060879152480319,0.026188833780767078,0.06650356382801584,0.0057722433703020215,0.0010573106488127521,10657.653122797601
1678306495851525495,210,1677812866597968339,camera_1,212,0,0.1268083782086065,-0.3019737851591514,2.6439665324159742,0.7043270356097654,0.7060572194884912,0.026089703896552904,0.06874559671667017,0.0018070389633066952,0.0003308149869458545,10664.632273184252
1678306495856704938,211,1677812866603835821,camera_1,213,0,0.126865744784092,-0.30189030879839773,2.6432611092607656,0.7043844934036708,0.70601934455914,0.0252699206634705,0.06885202735140379,0.0020750099210999906,0.0003796812025317662,10670.694418194707
1678306495864543211,212,1677812866611215353,camera_1,214,0,0.12689804957815387,-0.3020478736743824,2.644556864192699,0.7045048505754455,0.706055680609116,0.026221117614774376,0.06686362528534594,0.0012030474608764052,0.00022024641619106922,10664.574641152754
1678306495871564628,213,1677812866617956876,camera_1,215,0,0.12693573581883077,-0.30217110435174765,2.645774313226257,0.7044092941317438,0.7061167916631197,0.028794677241116222,0.06616259845850235,0.004251603444572538,0.0007788799887344586,10654.202730060324
1678306495877956434,214,1677812866624584913,camera_1,216,0,0.12678748690531041,-0.3020304662566798,2.644800420880417,0.7043794176831821,0.7061531519505665,0.025815533540149028,0.06731211007403236,0.003596438735257834,0.0006585531018658378,10661.892971219615
1678306495883323399,215,1677812866630506992,camera_1,217,0,0.1267322213879862,-0.30204997348104107,2.644983968844804,0.7044831631759975,0.7060963066430299,0.027448010033842157,0.06616710127998221,0.006522882089484483,0.0011942119981854554,10661.884438273846
1678306495891566188,216,1677812866637928962,camera_1,218,0,0.12672180465042865,-0.30201240271185203,2.6446009513182247,0.7043267348941644,0.7060678478093529,0.026208842514767294,0.06859403310223139,0.005469050840474665,0.001001567738939565,10659.877328109698
1678306495898957132,217,1677812866644519329,camera_1,219,0,0.1268180012863273,-0.3021222010020174,2.6456526401756344,0.7044254253832954,0.7061270658668306,0.02613989392088142,0.066978301483907,0.003202003368642181,0.0005866723332575192,10655.614708042705
1678306495904828066,218,1677812866651237964,camera_1,220,0,0.12690399659930415,-0.30200943966535443,2.644494463242676,0.7044496977263518,0.7061445586709924,0.02530557964247557,0.06685890570118254,0.002529091958422214,0.00046296485394380196,10665.876213886895
1678306495909851835,219,1677812866657231330,camera_1,221,0,0.12701579447468847,-0.3022194320763302,2.6463263661492324,0.7046974307211744,0.7060893801812183,0.02323225638319456,0.06557118722140395,0.004881726228632033,0.0008945639786361984,10655.950078342228
1678306495918025202,220,1677812866664552211,camera_1,222,0,0.12690887873531592,-0.30198464038553924,2.6439342730531368,0.7042965752651714,0.7061766038555171,0.0244132975272388,0.06844654221131599,0.0033089574426412582,0.0006057262976606251,10667.000598041694
1678306495924855746,221,1677812866671277999,camera_1,223,0,0.12682256626145563,-0.3019070299694599,2.6435773582250794,0.7044287446148613,0.7058258058310626,0.029138260076856545,0.0688551914016315,0.0029859189526177943,0.0005464783220560176,10664.682082317537
1678306495931146282,222,1677812866677932739,camera_1,224,0,0.12680392227367715,-0.3020538763979559,2.6450096135625913,0.704456158880328,0.7061198462013529,0.024444563809423205,0.0673702183187724,0.0015484938048757613,0.00028361215646516936,10661.174605668059
1678306495936674300,223,1677812866683850288,camera_1,225,0,0.12683094788665897,-0.30212412259551874,2.6457329343789704,0.7046777857413673,0.7059021357752377,0.026259969301372046,0.0666468829195517,0.005478754930663854,0.0010037279642459796,10655.700117386063
1678306495944940415,224,1677812866691128253,camera_1,226,0,0.12674526350127094,-0.30202582743819967,2.644905475350195,0.7042855041389573,0.7061257895439846,0.02855095939308614,0.06747696435342505,0.005073128850199282,0.0009290348790854526,10658.18772751465
1678306495953098767,225,1677812866697943449,camera_1,227,0,0.12675948717136373,-0.30202145065006186,2.644713130575577,0.7043242000500433,0.7060402021198836,0.025262450131778948,0.06925650025607699,0.0029634168604388833,0.0005428802300989644,10658.030866668441
1678306495956629625,226,1677812866703832149,camera_1,228,0,0.12678391524177676,-0.3020168433813467,2.6443191812752267,0.7043076798127778,0.7060362723175462,0.02893448843328745,0.06801668698039795,0.0019649952300824225,0.0003597690703227668,10661.0881811016
1678306495964790560,227,1677812866711093425,camera_1,229,0,0.1268532457818467,-0.30203487361301723,2.6444158811153193,0.7045147113784541,0.7060898792398794,0.026378363465314615,0.0663346502759903,0.002611865638755262,0.00047802948438213156,10666.911313113289
1678306495970936666,228,1677812866717939138,camera_1,230,0,0.12700106036364703,-0.3022387222835471,2.6464641775962208,0.7046832245987577,0.7061813346368988,0.022084001271212385,0.06512889118815532,0.0008401118102483451,0.00015396293454502985,10656.747048892077
1678306495976493249,229,1677812866723842144,camera_1,231,0,0.12691479960870475,-0.30206985315897955,2.644975405037805,0.7044152254737005,0.7060420814093527,0.027212702024939556,0.06755174496995969,0.0019925254164263606,0.000364941811753686,10658.603747206738
1678306495984269712,230,1677812866731087684,camera_1,232,0,0.12689363789299002,-0.3021656982749127,2.6456479300283804,0.7045318103743344,0.7060691179854592,0.028231547977619394,0.06560722899716145,0.0031239540548995137,0.0005721819690528989,10657.140705663944
1678306495993234093,231,1677812866737941026,camera_1,233,0,0.1267592560432031,-0.30192069472050204,2.643840177851494,0.7043923736554419,0.7060709316622982,0.025573883268343,0.06812635240612722,0.0026067342841997743,0.00047708310395035093,10667.732616060064
1678306495996419101,232,1677812866743848085,camera_1,234,0,0.12678496094661282,-0.30204975333075085,2.6448963406396757,0.7044977363139561,0.7059933131144018,0.026248353002685323,0.06758258156439648,0.0029591867933049794,0.0005419557181958628,10660.055732274894
1678306496004185647,233,1677812866751066207,camera_1,235,0,0.12672927606808662,-0.30186956786169794,2.6435673646445,0.7043150605028955,0.7059507127180037,0.027983957137305646,0.06921549613116043,0.004686169675551355,0.0008576721795134495,10664.979423627723
1678306496011416726,234,1677812866757917165,camera_1,236,0,0.12684056055844917,-0.30210853725563946,2.6455381552931065,0.7043711568724628,0.7061253371945924,0.026648089280964266,0.06736587322707015,0.006373594340402633,0.0011676846902312608,10655.10304244689
1678306496016921347,235,1677812866763875484,camera_1,237,0,0.12680069502694308,-0.3020670184168934,2.6448220905181667,0.7045863966425377,0.70598432693196,0.02611357828575221,0.06679985645063859,0.0029844091623090208,0.0005464499343508448,10662.731107055444
1678306496024471457,236,1677812866771216392,camera_1,238,0,0.12689381772762473,-0.3021597542325224,2.645716770578844,0.7045831415399146,0.7060838441857203,0.027591432733100916,0.06516835487715587,0.001844738028012216,0.00033787708823093167,10658.27540126804
1678306496031779081,237,1677812866778169870,camera_1,239,0,0.12682569389026926,-0.30193591540234416,2.6438187022604778,0.7043406708863343,0.7059713549559667,0.02901014393710308,0.06831600739046095,0.001993495272472501,0.0003648720969342924,10664.270559163298
1678306496038028761,238,1677812866784652948,camera_1,240,0,0.12697100727956814,-0.3022516850268819,2.6462376961995915,0.7046155065895321,0.7060458084356457,0.02623501291763058,0.06578775236504147,0.0023769799736328423,0.0004355927722008066,10653.727974564767
1678306496043279651,239,1677812866790556430,camera_1,241,0,0.1269652793315567,-0.3022532155871262,2.6466886718182674,0.7045703863232652,0.7062064875381018,0.02548200424522796,0.06483544659388092,0.00377508660312742,0.0006918429089479346,10653.120139150415
1678306496051410486,240,1677812866797940254,camera_1,242,0,0.1268654481584271,-0.30211256699979294,2.6454046231727655,0.7045332625449167,0.7061528275736847,0.025075102706794,0.06597200392400776,0.0012060409062542021,0.00022088758340909403,10660.989301244732
1678306496058171189,241,1677812866804595708,camera_1,243,0,0.12679728643635274,-0.3020142273800348,2.644558243453437,0.7044119036381008,0.7059564995710268,0.02554667399104415,0.06911337189260275,0.0054967174073681235,0.0010067362944478665,10659.391827965035
1678306496064459420,242,1677812866811217308,camera_1,244,0,0.12679502288051325,-0.30207949056759165,2.6451783735381906,0.7044964275218312,0.7062827655670858,0.023799822631436318,0.06544468744365967,0.0019831655081361532,0.00036309994592344,10665.137409743154
1678306496071333684,243,1677812866817968368,camera_1,245,0,0.1267997185337288,-0.302063999699923,2.645080367044711,0.704496354825049,0.706045699649749,0.02713001281793679,0.06669571537073476,0.0013810580712743104,0.0002529210052984029,10660.056920208506
1678306496076565578,244,1677812866823876142,camera_1,246,0,0.1267545036591147,-0.3019359146042356,2.6439844962463406,0.7045330938403738,0.7060680984998796,0.024860646546406677,0.06695452350491381,0.0008351160795427859,0.0001528254800658714,10670.154323923634
1678306496084734405,245,1677812866830922842,camera_1,247,0,0.12693453472390917,-0.30219751846102716,2.6462256144371494,0.7046675793606859,0.7061678254770452,0.027261149831240585,0.06346207189220725,0.003043853852432221,0.0005574741015791833,10658.613961983474
