%time,field.header.seq,field.header.stamp,field.header.frame_id,field.image_seq,field.transforms0.fiducial_id,field.transforms0.transform.translation.x,field.transforms0.transform.translation.y,field.transforms0.transform.translation.z,field.transforms0.transform.rotation.x,field.transforms0.transform.rotation.y,field.transforms0.transform.rotation.z,field.transforms0.transform.rotation.w,field.transforms0.image_error,field.transforms0.object_error,field.transforms0.fiducial_area
1678317023606696364,178,1677825034783750057,camera_1,179,0,0.12245047688406757,-0.33710185010404903,2.642598627547902,0.7043614617127044,0.7063493972777842,0.030512634341990065,0.06335960357171942,0.003166327194776386,0.0005800685869298889,10653.177287101513
1678317023612566038,179,1677825034790502548,camera_1,180,0,0.12238691367289481,-0.3367508966592362,2.639378620928087,0.7041701452443353,0.706090904198865,0.034779855696394135,0.06610902504150996,0.005565377359744161,0.0010177072040884595,10667.398171124856
1678317023619077686,180,1677825034797252416,camera_1,181,0,0.12243006869912634,-0.3367274297437348,2.6391705302315507,0.7040454794942497,0.7062446385630294,0.03255553349211887,0.06692242183104079,0.004211605119053274,0.0007702386292881104,10669.660389925237
1678317023625599321,181,1677825034803693056,camera_1,182,0,0.12246762879918739,-0.33681175994270424,2.639618909473241,0.7039397669884285,0.7061748094206971,0.03499065259404603,0.06753959744447666,0.004277343978174031,0.0007826366336302259,10661.512412707089
1678317023632624855,182,1677825034810343265,camera_1,183,0,0.12235632976257027,-0.3366861559366434,2.6387334067004202,0.7037766221524316,0.7061359163456931,0.0355148401933027,0.06934861126501436,0.007122525072190911,0.0013029573965065836,10663.294148788322
1678317023638857629,183,1677825034817142486,camera_1,184,0,0.12243771840245979,-0.3368786886227231,2.6404620649402424,0.7039215534662857,0.7063590694398495,0.03563649675092435,0.0654320386737445,0.005521907820366323,0.0010104135152781057,10659.285598137998
1678317023651399933,184,1677825034829753398,camera_1,186,0,0.12231435466708877,-0.336844909039913,2.640424309929696,0.7039643892419252,0.7062436262966547,0.03339037928996958,0.0673733000933327,0.004008125222753733,0.000733768781424281,10657.508224002198
1678317023659386263,185,1677825034837048768,camera_1,187,0,0.12233122472775379,-0.3367592522305178,2.6397790825824505,0.7041172169384596,0.7062061554626036,0.03269698858052972,0.06650351671401987,0.00556400022469461,0.0010179191559338157,10665.729518700857
1678317023666927429,186,1677825034843797206,camera_1,188,0,0.12244753121359439,-0.3369357113557171,2.641054145824113,0.7039911415963893,0.7063719195581202,0.03338744768767093,0.06573022250450992,0.00600951787782833,0.0011002258782956294,10656.561050061253
1678317023671454630,187,1677825034849773168,camera_1,189,0,0.12242082353215858,-0.33675105031030556,2.6389526838241886,0.7038270427327836,0.7061468005736037,0.036146917342845,0.06839291136000378,0.00582843495067209,0.001066166418746637,10663.180345010833
1678317023678464938,188,1677825034856790065,camera_1,190,0,0.12246220571881888,-0.33686017501931814,2.6399360719579796,0.7039328991821661,0.7062809898621286,0.03592889050844681,0.06599054201318963,0.0025998298660852015,0.00047565211246846387,10661.701291244244
1678317023685951769,189,1677825034863768100,camera_1,191,0,0.12241469806793209,-0.3366743570757943,2.6387590970641472,0.7039979111213012,0.7061894502899112,0.034803734128945336,0.06687377308601127,0.004394082468934357,0.0008033077350638525,10670.414616959399
1678317023692470052,190,1677825034870501995,camera_1,192,0,0.12231435800548855,-0.33675778525462163,2.639401559561917,0.7039368175833797,0.7062321640627842,0.03610733321999155,0.06637279398609794,0.0034804932656697925,0.0006365725141357541,10664.881819907223
1678317023698433661,191,1677825034876345157,camera_1,193,0,0.12229116903859263,-0.33668914430524693,2.639229148937332,0.7038883257641458,0.7060985761673628,0.03470415085683816,0.06900469187436811,0.0032960835960693657,0.0006031488054263505,10661.301590561512
1678317023705775223,192,1677825034883761644,camera_1,194,0,0.12238836809570444,-0.33694748583528217,2.64106426861109,0.7041914960707545,0.7062712097280425,0.03411580865169273,0.06427617576490574,0.006686621985863894,0.0012236999467177942,10659.189551701307
1678317023712505681,193,1677825034890496969,camera_1,195,0,0.12234707723060365,-0.33677245546480733,2.6398591373403995,0.7038434353224087,0.706314970042345,0.03367814421880785,0.06774484666458855,0.004547352727968246,0.0008322283595223015,10660.752089198912
1678317023717697134,194,1677825034896349191,camera_1,196,0,0.12236479997686615,-0.3368138039152027,2.639798951190256,0.7038727592947067,0.7062128272688961,0.03490520058178181,0.06788378522205238,0.003396115789655596,0.0006215551872633809,10659.328924388861
1678317023725965829,195,1677825034903126478,camera_1,197,0,0.12239028109709886,-0.3367236567038254,2.639032141806229,0.7038681379459806,0.7061183077799704,0.034351459976479225,0.06918494778413307,0.003169419476762414,0.0005799047906137551,10662.761355633262
1678317023734532463,196,1677825034910499572,camera_1,198,0,0.12241164280505469,-0.3367611619145727,2.6393669068925356,0.7040540005899686,0.7062455480088639,0.03474185184032232,0.0657129660084319,0.00415496074128896,0.0007598384181122079,10668.52353097382
1678317023738885272,197,1677825034917077779,camera_1,199,0,0.1224887494474899,-0.3369240412251079,2.640877874519084,0.7040571378057943,0.7062420144181006,0.033617512057240624,0.0662995223094224,0.003503789252135903,0.0006415233708542401,10656.257913698675
1678317023745497490,198,1677825034923938274,camera_1,200,0,0.122362678809455,-0.336699669487954,2.639137048465969,0.7038659805582852,0.7062918942802313,0.03471273547347626,0.06722698478077767,0.002200111746788025,0.0004024083123385196,10666.618690301546
1678317023752817122,199,1677825034930506706,camera_1,201,0,0.12239900433474474,-0.3368658145379219,2.640482265163805,0.7040743772511442,0.7062439657046781,0.03335927655324171,0.06622605885893722,0.004086848173756152,0.000748014180802899,10659.96107619151
1678317023757674109,200,1677825034936291694,camera_1,202,0,0.12232316328946156,-0.3367391427168244,2.639409189424736,0.7038729619391038,0.7063514196752618,0.03461466068462676,0.06657590134202923,0.0030875058146193624,0.0005647185754789325,10666.213265242288
1678317023765039347,201,1677825034943076372,camera_1,203,0,0.12243388469431259,-0.3369562371223572,2.641315401369379,0.7041550587241161,0.7064218383754394,0.028520007855883156,0.06573012012313348,0.008080620900727808,0.001479638961502846,10659.711719778012
1678317023774910951,202,1677825034950578927,camera_1,204,0,0.12235996085970116,-0.3367566233075411,2.639645394297406,0.7039401257699003,0.706411965130101,0.033748392315733323,0.06566186768733659,0.007275325478985906,0.0013306361147557499,10667.670033357805
1678317023779037686,203,1677825034957170009,camera_1,205,0,0.12237757872941472,-0.33676034242755376,2.63968774179619,0.7039089286626279,0.706295615419116,0.03318654019423786,0.06750835014055567,0.004974343697540462,0.000910218094193955,10663.307652567048
1678317023785415030,204,1677825034963759183,camera_1,206,0,0.12231580378393041,-0.3366116810478311,2.6381809359777035,0.7038218792967393,0.7062510734593533,0.0364623316793068,0.06719138210533718,0.005382216942962259,0.0009836135573508575,10672.16040625644
1678317023791883866,205,1677825034969747304,camera_1,207,0,0.12233967849740061,-0.33667467453522354,2.63877322750209,0.7039136157174544,0.7061587966157352,0.03688836905492381,0.06696733381481473,0.0031644537230022256,0.0005785849548917037,10667.401825492965
1678317023798582896,206,1677825034976616382,camera_1,208,0,0.12237193535399353,-0.3367554054296768,2.6395523855202727,0.7039449695317473,0.7063285679732151,0.032517428337286096,0.06711222534072414,0.005204763438086957,0.0009522077151750347,10666.18104686088
1678317023805925087,207,1677825034983732461,camera_1,209,0,0.12243153626278816,-0.33691048657353656,2.64065272384997,0.7039161145462088,0.706297496037236,0.03570867075164804,0.06611234080600925,0.0026865600957535207,0.0004917745596664329,10655.954070650045
1678317023811393876,208,1677825034989924907,camera_1,210,0,0.12236395055887342,-0.33677691822560074,2.639695790297045,0.7040255919215828,0.7061558260780401,0.0350352800828635,0.06681649770095144,0.0024534271215088665,0.0004488584061578276,10662.755437282263
1678317023818302008,209,1677825034996572017,camera_1,211,0,0.12242289173273606,-0.33695286915603095,2.6412014248343794,0.7041196636135596,0.7062841863287407,0.03349215026371464,0.06524127010864478,0.003772341297008097,0.0006906749088932787,10656.475874980566
1678317023824611538,210,1677825035003214836,camera_1,212,0,0.12238776799943445,-0.33683281437170914,2.640396983642935,0.7040830065934026,0.7062846915755324,0.03258680651258936,0.06608444835027914,0.003414947830606252,0.0006250112351122513,10661.928222855204
1678317023831687706,211,1677825035009919881,camera_1,213,0,0.12236062536562296,-0.33673472538267124,2.639290015908927,0.7038079180997334,0.7062478082824676,0.03562295595260814,0.0678192651503119,0.0038665124448016286,0.000707351443443837,10662.701150066912
1678317023838133005,212,1677825035016564369,camera_1,214,0,0.1224209669745617,-0.33683659987826187,2.6402075439081076,0.703960241926209,0.7061303874774985,0.035110210412625464,0.06772833079924931,0.003550402063410729,0.0006499811164095579,10656.199778720036
1678317023845094496,213,1677825035023276329,camera_1,215,0,0.122370805663447,-0.3366843579748899,2.6388552287281715,0.7039058252777501,0.7062293541366396,0.03465610938544439,0.0674955004282401,0.007626964128576217,0.0013946209947079042,10668.246959297452
1678317023851588823,214,1677825035029927730,camera_1,216,0,0.12236738000812931,-0.33673099151271235,2.6391202313788,0.7039028159935147,0.7060375010072321,0.03675151104460031,0.0684192899977915,0.003252432041335851,0.0005950331883153871,10661.016982762376
1678317023859323308,215,1677825035037101984,camera_1,217,0,0.12235211188819722,-0.336717573324978,2.6392614912238113,0.7037827034214377,0.7062939822501103,0.03543293194376006,0.06769951503491446,0.0034753383370116353,0.0006357491301344851,10663.496594786524
1678317023865573752,216,1677825035043729066,camera_1,218,0,0.12234754241335336,-0.33670778896017783,2.6391052509043775,0.7040170303820056,0.7060883573504811,0.03376418173826974,0.06825857145990283,0.0029610662604682148,0.0005416771778181801,10665.352040034139
1678317023871394538,217,1677825035049594640,camera_1,219,0,0.12233145330978115,-0.3366985109274043,2.6391530670532255,0.7039254194968165,0.7062557995393937,0.03205014137499419,0.06829742192092977,0.003952760132960975,0.0007231115557135955,10666.877319742227
1678317023878097828,218,1677825035056460380,camera_1,220,0,0.12237532274080268,-0.33680826469200537,2.6400867711376317,0.704040480485138,0.7061752866837269,0.03466603180079127,0.06664632438926192,0.005218663194682449,0.0009549795803262243,10660.516861925953
1678317023885802701,219,1677825035063745260,camera_1,221,0,0.1224061649176571,-0.33687781002743056,2.640470252683515,0.7041015020043273,0.7062086722093615,0.03356809615501552,0.06620852733650451,0.0037740725674666464,0.0006908107171448229,10659.843842025966
1678317023892852539,220,1677825035070535659,camera_1,222,0,0.12232947207012931,-0.3366812906799862,2.6390035366255553,0.7040109822791529,0.7060272313496716,0.034580206958827055,0.06854410776824148,0.004111080546863377,0.0007520493309871516,10664.451538035879
1678317023899212843,221,1677825035077146768,camera_1,223,0,0.12238116736484995,-0.3368544527324213,2.6401292391818107,0.7040912431590464,0.7061331319278625,0.033237128983697795,0.06728160638256006,0.004101029073353857,0.0007506233152721337,10660.238627300012
1678317023905325492,222,1677825035083746671,camera_1,224,0,0.12235309549952907,-0.3367338937711437,2.6395639119152285,0.7039113418572274,0.7059857405271173,0.035659004744624474,0.06943624671422353,0.002578220854047686,0.0004719682785564244,10656.242155512797
1678317023911399170,223,1677825035089646100,camera_1,225,0,0.12237957671763962,-0.33685048641045173,2.640288781019875,0.7039537492543053,0.7062021827746439,0.032658805613474874,0.06827150482475483,0.004452223074622452,0.000815143519281387,10657.086439613366
1678317023918249195,224,1677825035096402168,camera_1,226,0,0.12235818760463123,-0.3367941242691604,2.6397769556201798,0.703882991192553,0.7062639008411344,0.03487705626114281,0.06725792165273625,0.0017004915280267596,0.00031116778150664634,10661.168261038838
1678317023926615526,225,1677825035103788137,camera_1,227,0,0.12236764072177461,-0.336768487138606,2.639576881577387,0.7039368682467276,0.7063246299502286,0.03496718623501942,0.06599771613826873,0.004336079640779644,0.0007930446258617404,10665.862996301847
1678317023933943679,226,1677825035110538482,camera_1,228,0,0.12235407236474427,-0.33665484461882195,2.6385562309653063,0.7038704339262432,0.7062244840604308,0.0352162784592861,0.06762546923710382,0.0033973765675909817,0.0006211867657971013,10669.620777102886
1678317023938933154,227,1677825035117165327,camera_1,229,0,0.12241324372447689,-0.3367444987884759,2.639158709348211,0.7039924386288596,0.7062558547212029,0.0323554680711989,0.06745693227021424,0.0034345315070822835,0.000628178446151038,10668.598498041974
1678317023946085797,228,1677825035123746395,camera_1,230,0,0.12245216645245156,-0.3368894470299391,2.6403525108576296,0.704041938066714,0.7063006643985865,0.03416403758383601,0.06555257012010192,0.005954951862804592,0.0010896907604552905,10661.682295838142
1678317023953103998,229,1677825035130510568,camera_1,231,0,0.12235159679528555,-0.3367664056805137,2.6398583047363853,0.7038696132658071,0.7062585914710465,0.03299394957951614,0.06839421602387803,0.005704368639271706,0.0010441194073620072,10659.882167506497
1678317023959951090,230,1677825035137161731,camera_1,232,0,0.1223320119958107,-0.33678345348526534,2.639938369927365,0.7039576638226658,0.7062506929773184,0.03386211877395304,0.06713362143167366,0.005211102426983416,0.0009536404817215087,10661.470117542658
1678317023965192828,231,1677825035142889976,camera_1,233,0,0.12235713027935938,-0.3368102244762865,2.6401814832716664,0.7040081649590982,0.7063812697120373,0.03397253273433913,0.06514501124834812,0.002621783991344273,0.00047964939015462683,10664.375282886667
1678317023971861268,232,1677825035149996757,camera_1,234,0,0.12238661684754722,-0.33676989734467844,2.6397131965853737,0.7037795892075337,0.7062923672302481,0.03705184086229654,0.06687707302119797,0.005085676850285381,0.000930427854084687,10659.853800123436
1678317023980309662,233,1677825035157121181,camera_1,235,0,0.12239234762728687,-0.33678395445253334,2.639742728129971,0.7040324700637574,0.7060637964302449,0.036132165973023295,0.06713168438622896,0.006827477889601141,0.0012493318874477071,10660.17400442611
1678317023984885401,234,1677825035162902355,camera_1,236,0,0.12237425629707441,-0.33671753360559664,2.6389609490753343,0.7038548645492726,0.7062098943343876,0.035795403893927415,0.0676358178379538,0.0025765469763427973,0.00047121834442073306,10665.574575707202
1678317023992626172,235,1677825035169990301,camera_1,237,0,0.1223920706815039,-0.3367388548598371,2.639165865327654,0.7039249978506261,0.7062102364928733,0.03477670597012786,0.06743352278758234,0.0034865786437876523,0.0006377105764444591,10665.733421031618
1678317023999204796,236,1677825035177170276,camera_1,238,0,0.12238989762677406,-0.3367865503426417,2.639717988569268,0.703890195198601,0.7062330624615791,0.032753475759249355,0.06856139157793686,0.005472525139339268,0.0010016198194538663,10660.806441303339
1678317024004985354,237,1677825035182896375,camera_1,239,0,0.12238845570320558,-0.3368722606757312,2.6404831639707926,0.7040238798281498,0.7063156607090358,0.03394741680554869,0.06569731319549836,0.004253904975485057,0.0007785192419573333,10660.577710372629
1678317024011936508,238,1677825035189406871,camera_1,240,0,0.12234044627389955,-0.33675319811571364,2.639501004911091,0.7039113059247678,0.7061747443720027,0.03727202535366695,0.06661005876337461,0.004426198138389736,0.0008095973356677104,10661.94527874747
1678317024020115667,239,1677825035197112321,camera_1,241,0,0.12239508314855944,-0.3368631950792987,2.640581405402131,0.7041027561648342,0.7063320924463425,0.031907382886799326,0.06569781471838083,0.0029265411430969834,0.0005356313381506102,10662.17096034263
1678317024026620960,240,1677825035203797817,camera_1,242,0,0.12237565867067232,-0.3367649200541912,2.6396246203086986,0.7040054778170427,0.7062941555591555,0.033331145616984,0.0664370962522916,0.004667988221626729,0.0008538698764275813,10666.365691981511
1678317024033372370,241,1677825035210479021,camera_1,243,0,0.12240882391351394,-0.33674344662013705,2.639134345071727,0.7039022249662817,0.7061660624825524,0.03394760329640482,0.06854713791133772,0.00328591390280053,0.0006011892221240252,10664.100378496461
1678317024039496054,242,1677825035217265844,camera_1,244,0,0.1224664302362282,-0.3368821628953817,2.6404015970169135,0.703923492146852,0.7062441026439317,0.034674153508566924,0.06714676286250133,0.0022656777291558683,0.0004147824395110423,10656.643964499235
1678317024045242459,243,1677825035223191499,camera_1,245,0,0.12242872561984441,-0.33681564674036363,2.639773176251711,0.704175553294259,0.7061393061957545,0.03397507805701517,0.06595274413640859,0.00278171815443784,0.000508851440057103,10665.57621858548
1678317024051816055,244,1677825035229886770,camera_1,246,0,0.12231379613513092,-0.33661954241831715,2.63840588412798,0.7038444644738683,0.7061207103648067,0.03714515109532094,0.06794667006925352,0.0039930533384904265,0.0007300458467685279,10667.511602616873
1678317024058801780,245,1677825035236518383,camera_1,247,0,0.12232404303881449,-0.3367409880413192,2.6396017663881945,0.7039840854305344,0.7061655810409424,0.03428946382080837,0.06753378624454387,0.0026076166541315615,0.0004771259187110022,10662.633018477587
1678317024065093989,246,1677825035243291378,camera_1,248,0,0.1223220137326248,-0.3367617845979607,2.639638962644613,0.703908476231704,0.7061202156141245,0.03643502109596248,0.06767264903903016,0.0028944219811819494,0.0005296498689004099,10659.244240322263
1678317024071480623,247,1677825035249891042,camera_1,249,0,0.12227085700590927,-0.3366041166837032,2.6383246835678325,0.7037920741303386,0.7059525854465291,0.038170751449744335,0.06964665983691426,0.005911086744163185,0.001081040265563256,10662.302223189039
1678317024078609381,248,1677825035256554603,camera_1,250,0,0.12240711355295153,-0.33684273098226747,2.6400039720756228,0.7038690899672265,0.7063024832339095,0.03429088114798566,0.06729964217152885,0.0031984401284717023,0.0005853721544425263,10659.927965403076
1678317024084870581,249,1677825035263068437,camera_1,251,0,0.12230481355093967,-0.33660185576236445,2.6384011786603483,0.7039770911563823,0.7059876029852595,0.03584086769262511,0.06865268939499827,0.0033984823967330158,0.0006214463974418388,10667.439664804026
1678317024091589096,250,1677825035269887208,camera_1,252,0,0.1223249426153154,-0.3366452940625991,2.6385442840824407,0.7038263222218729,0.7061292030323241,0.03578287194620764,0.06877239888100903,0.0011569199268706143,0.00021158566481702945,10666.014355747726
1678317024099619076,251,1677825035277042627,camera_1,253,0,0.12241049230300088,-0.3368562279482087,2.6402482550763535,0.7038555524584256,0.7062837455261224,0.03489563683498318,0.0673270124758052,0.002957414137199521,0.0005413617650242887,10657.161007894782
1678317024106345344,252,1677825035283699512,camera_1,254,0,0.1224666637850461,-0.33694583111880627,2.6410378279068096,0.7042615680586232,0.7061951982885835,0.0321280186029796,0.0653588256504384,0.003394783940166235,0.0006214772253109235,10659.050188281108
1678317024112438996,253,1677825035290376901,camera_1,255,0,0.12240043565432052,-0.33689968420987726,2.6407632216051775,0.7042984907655768,0.7060810458900645,0.032820819663901685,0.06584820678433945,0.0030763757531531155,0.0005631356858389484,10659.276188180893
1678317024119494212,254,1677825035297504425,camera_1,256,0,0.12234939421241503,-0.3367556196183515,2.639543160606632,0.7038335972405645,0.7061800174017306,0.03678551759952463,0.06763783048585724,0.005357570247724652,0.0009803203883368278,10659.634287575493
1678317024126078843,255,1677825035303963899,camera_1,257,0,0.12234127313877756,-0.33674910229341176,2.6395194123704235,0.7038266248352301,0.706240052468481,0.03469104057282319,0.06818799136461245,0.00660499488003552,0.0012086179538944824,10661.089778879073
1678317024131578991,256,1677825035309730768,camera_1,258,0,0.12238631861418743,-0.33678527039399336,2.6397273624981654,0.7041182459389475,0.7061842553654598,0.03573579155130667,0.06514788110132423,0.0037251199246384203,0.000681260373507377,10665.792699413496
1678317024139087752,257,1677825035316989421,camera_1,259,0,0.12247399659889276,-0.33696029845062214,2.6410129537388705,0.7041384421952263,0.7061610887246416,0.03368859393331666,0.06626197727886732,0.002443752659019083,0.00044746210415919557,10655.162094258587
1678317024146589668,258,1677825035323693037,camera_1,260,0,0.12238099477212155,-0.33675224735048126,2.639097157181976,0.7039286375864673,0.7061043155812436,0.036998199742251964,0.0673223730942115,0.003030322666745633,0.0005542113508500722,10663.687072675908
1678317024152415622,259,1677825035330392837,camera_1,261,0,0.12244416422569669,-0.3368566062235439,2.6401678602556933,0.7038090125717659,0.7063822809541269,0.033551955833632185,0.06746268032430232,0.007738468644674867,0.0014164424014425315,10659.079561139455
1678317024157528295,260,1677825035336114168,camera_1,262,0,0.12233427225270303,-0.33670377180277067,2.639241869224397,0.7039592956003194,0.7063586478774104,0.033662645991207475,0.06607266432927654,0.005542508792132139,0.0010134781581807297,10669.999839709373
1678317024165555062,261,1677825035343665838,camera_1,263,0,0.1223130998769243,-0.33671668605620114,2.639262698927847,0.703924605059074,0.7060589431324156,0.03488220915696147,0.06895034952408322,0.004961714614182711,0.0009079691401215027,10660.928535807177
1678317024173748678,262,1677825035350376844,camera_1,264,0,0.12235791131131873,-0.3368137337608519,2.6400283387810863,0.7040158180849214,0.7062118882991933,0.032814105258536536,0.06745169536185598,0.0030777899082750078,0.0005633241744276131,10661.13932249357
1678317024179241493,263,1677825035357006788,camera_1,265,0,0.1223465263759329,-0.3367938952591237,2.6398824762318243,0.7039681045046796,0.7061771120278986,0.03432824379975559,0.06756009151599687,0.0031645121634937823,0.0005791608067837136,10660.238269468071
1678317024184700575,264,1677825035363012313,camera_1,266,0,0.12232848292459633,-0.33665612927068245,2.6388531343235226,0.7038978750316419,0.7062321791223161,0.033257211240260855,0.06824843293882009,0.0070223689544945955,0.0012843615299768646,10668.040597206687
1678317024191665767,265,1677825035369699478,camera_1,267,0,0.1223715080158335,-0.3367347525282394,2.639329121022039,0.70403173646758,0.7060570466812998,0.03422452295272738,0.06820148757016437,0.003259588615037501,0.0005963991687142571,10663.139088599593
1678317024198938187,266,1677825035377024412,camera_1,268,0,0.12249547864632541,-0.3370024293216098,2.641375569062555,0.7040949605279487,0.7063049020267375,0.03502017454232408,0.06447681216664208,0.004764882731251419,0.0008723631777632382,10655.052629461507
1678317024206124214,267,1677825035383746147,camera_1,269,0,0.1224258987547714,-0.3368464342052053,2.6401151571946158,0.7040544565182959,0.7061212568429408,0.03481288853023691,0.0669936988339488,0.005925067875068634,0.0010843811642686609,10659.178845447019
1678317024212315783,268,1677825035390368700,camera_1,270,0,0.12234728009280121,-0.33677302117988556,2.6395683591388366,0.703970722491521,0.7062215666149372,0.0354719608717569,0.06646849415040465,0.004469730833079666,0.0008175441600077032,10664.104571399392
1678317024218943366,269,1677825035397015571,camera_1,271,0,0.12236558368858556,-0.33678758133350917,2.64004594158958,0.7039697751858804,0.7062107731525271,0.03566558200956149,0.06648959142580255,0.0031303431605920196,0.0005728067592133831,10660.001101324222
1678317024226340102,270,1677825035402904510,camera_1,272,0,0.12233682003338837,-0.3367175994708872,2.6394552294068863,0.7038447540728129,0.7062650112321238,0.03352129063721102,0.06832729430824143,0.004018646781332791,0.0007353165228375464,10662.678675393692
1678317024232563030,271,1677825035409975528,camera_1,273,0,0.12237555209662832,-0.33672324313923313,2.639386368362385,0.704120872366702,0.7061157925463314,0.03276592023003521,0.0673845611820684,0.005161268752999604,0.0009441551761691862,10666.539086652101
1678317024238904197,272,1677825035417053222,camera_1,274,0,0.12236057207521638,-0.3366360517896918,2.6384514664950163,0.7037731476290926,0.7062199289643508,0.03626248308077309,0.06813076346734503,0.0035996236256323755,0.0006581596613204711,10667.812625797347
1678317024245673765,273,1677825035423679590,camera_1,275,0,0.12235211144623767,-0.3366466422546113,2.6383580064271874,0.7038779169100928,0.7060429310309915,0.036848868119420446,0.06856689103198896,0.004256104642990977,0.0007782166217650448,10666.63275023131
1678317024252359875,274,1677825035430486440,camera_1,276,0,0.12246570501693411,-0.3369303737187448,2.6408180580093696,0.7040983573829034,0.7063340966999461,0.03341884563141776,0.06496789766055244,0.0033941580913960934,0.0006212051753520624,10660.284941323573
1678317024259592486,275,1677825035437006950,camera_1,277,0,0.12234673412736104,-0.336743425514213,2.639515021771052,0.7038841198721744,0.70623558039605,0.03389855887325532,0.06803924221172247,0.003733278950676322,0.0006831301005624529,10662.481329245958
1678317024264014646,276,1677825035443045377,camera_1,278,0,0.1223247784191425,-0.336840744779676,2.640303411112567,0.704036796114329,0.7064251318628175,0.035183332502822795,0.06370130221327844,0.0024595543509349227,0.00044985104192981734,10665.41748386878
1678317024271575437,277,1677825035449673652,camera_1,279,0,0.12234055463643997,-0.33680325637950337,2.6401882313818557,0.7039420699800975,0.7065590473441414,0.031148108077405198,0.06534271261183788,0.005789381102658809,0.0010592073124888076,10667.084654459151
1678317024280713646,278,1677825035457026004,camera_1,280,0,0.12239682224496566,-0.33688748909379673,2.6407202855062377,0.7038797443757145,0.7064095146709284,0.03219618027242966,0.06709924750567335,0.004994509858079255,0.000914489715586437,10657.184923656632
1678317024286342091,279,1677825035463811874,camera_1,281,0,0.12230833668227728,-0.33661111252484455,2.638418386574895,0.7036775007547091,0.7061098486511218,0.035675605318804635,0.070527354655007,0.003981645742896944,0.0007284012720217713,10662.504995052004
1678317024292174261,280,1677825035470443964,camera_1,282,0,0.12246081804138476,-0.3368700145649725,2.6402287254127454,0.7039542382198575,0.7062458014638681,0.0350191329733685,0.06662551112563776,0.004825667187105864,0.0008831528345539339,10658.924992395796
1678317024297818350,281,1677825035476294517,camera_1,283,0,0.12239160134509751,-0.3367683229459636,2.6392691830627215,0.7038387671237601,0.7061503550140058,0.03695711532314398,0.06779998255376554,0.007709439087193459,0.0014103047046893028,10661.134929535916
1678317024304700711,282,1677825035483033418,camera_1,284,0,0.12240777468232217,-0.33681333255110835,2.6397280977791624,0.703849843196668,0.7062157338273723,0.037400143512327434,0.06675301335482142,0.0029197119874879718,0.0005341624413729889,10659.532815195736
1678317024312725174,283,1677825035490359306,camera_1,285,0,0.12238945394467013,-0.3368606729872661,2.640336901679436,0.7039152937457589,0.7062395813973761,0.03600080244134369,0.06657969001174768,0.0021271876175887883,0.0003893335520310001,10656.957438200716
1678317024318654701,284,1677825035497017621,camera_1,286,0,0.12229866116541159,-0.3367581586349643,2.6397388362454928,0.7039944170803153,0.7062800337935711,0.033113068302802924,0.06681241869497723,0.002994578506331891,0.0005479119380850833,10664.79281166487
1678317024326260051,285,1677825035503709554,camera_1,287,0,0.12237988267493795,-0.33686339732447573,2.640760004827473,0.7040531432289707,0.706357020610302,0.03180890590673068,0.0660085180030625,0.006336647435091436,0.0011600715801133282,10660.097220172644
1678317024333367578,286,1677825035510363340,camera_1,288,0,0.12237707401429479,-0.33671764357659223,2.6393771710708966,0.7041185496780128,0.7060998969697988,0.03236280645367126,0.06776910990276899,0.003976750711444765,0.0007275372099108887,10666.086283212993
1678317024337692101,287,1677825035516306400,camera_1,289,0,0.12239120309902457,-0.3367712461872856,2.6395962227190797,0.7039412242953295,0.7061908078063727,0.034830288567204645,0.06743994888566303,0.0028189157019369304,0.0005157582305350073,10662.2040870632
1678317024344583681,288,1677825035523036956,camera_1,290,0,0.12239488265909056,-0.3367939222013978,2.639862801984686,0.7041041913890244,0.7060976495843568,0.03429943705720546,0.06698466643504263,0.00157724239397794,0.0002886252758777341,10661.889767186254
1678317024352929898,289,1677825035530386924,camera_1,291,0,0.12243982859436821,-0.33689858325434274,2.6404259383054,0.7038777434195715,0.7063738246290239,0.03561340358361384,0.0657558186225957,0.0053251347853802145,0.0009745030525105491,10658.780132640037
1678317024359588770,290,1677825035537023782,camera_1,292,0,0.12231299584931324,-0.33663459480966096,2.6385049075218663,0.7038341890421371,0.7060317435800552,0.037066193158089254,0.06901238089989113,0.004258357104845345,0.0007787787389616529,10664.023410668946
1678317024366126189,291,1677825035543740272,camera_1,293,0,0.12236263975617517,-0.3367986342979525,2.6399341025395033,0.703862264109926,0.7061933834848033,0.03415407648655847,0.06857344488710303,0.004152596928179264,0.0007601802315525528,10657.398333784666
1678317024372190997,292,1677825035550420522,camera_1,294,0,0.12232219602635573,-0.33680623957066236,2.640136788573545,0.7039976581432855,0.7062536049902637,0.033559888889994435,0.06683469626412424,0.007064333593007177,0.0012929685644416477,10661.006101718176
1678317024377952558,293,1677825035556342601,camera_1,295,0,0.12238153168693978,-0.3368526196797113,2.64047734890414,0.7041970125392392,0.7061447777506173,0.03348233785052397,0.06591701933799424,0.0032310205278918147,0.0005913129244568344,10660.642872144817
1678317024385554556,294,1677825035563626527,camera_1,296,0,0.12230886932449841,-0.33665410138776847,2.6387938469024643,0.7039929916377807,0.7061507590044092,0.033440223049578936,0.06802003208451723,0.005241771345026791,0.0009585972680906511,10668.894244670862
1678317024392716139,295,1677825035570414543,camera_1,297,0,0.12231226437254195,-0.3366986507559322,2.6389173915307333,0.7039085908615641,0.7060436768975175,0.03613724331843175,0.06862304037031293,0.003352117259055376,0.0006132124474833356,10662.944993642162
1678317024397837263,296,1677825035576356649,camera_1,298,0,0.12238329275436051,-0.3367807222925374,2.639572713185112,0.7038719173852631,0.7062380257822457,0.03533724978547348,0.06740514545039178,0.004948027548380196,0.0009052996877980683,10661.842190957861
1678317024405792723,297,1677825035583664894,camera_1,299,0,0.12244132480758545,-0.33685526154226614,2.640093600067233,0.7038097877081787,0.7065311315624881,0.03411837398967843,0.0655856647103549,0.0059061916545033455,0.001080534897226146,10663.74341859598
1678317024412748416,298,1677825035590401887,camera_1,300,0,0.12245484000505512,-0.33688869426651297,2.6402760173496396,0.7038199182754293,0.7063830581210357,0.035940874395585166,0.06609653081684372,0.0022894417634233832,0.00041898730545765744,10658.699814304251
1678317024419225772,299,1677825035597009420,camera_1,301,0,0.12230007193168713,-0.3365808944739859,2.638073868281799,0.7038025542482572,0.7060932199005213,0.03577351275090557,0.06938721229163024,0.005077555717434734,0.0009284143884759058,10668.207598314617
1678317024425464903,300,1677825035603729724,camera_1,302,0,0.12233060591011302,-0.3367400470513183,2.6393462949030058,0.7039148535569918,0.7061388068128941,0.032676240451658775,0.06931181547648534,0.005746909126173705,0.0010517293645394058,10661.923925620504
1678317024432774548,301,1677825035610400676,camera_1,303,0,0.12233236036540802,-0.33672595821940765,2.6396097955666513,0.7040529266534642,0.7062375224163366,0.033797978090637365,0.06630033996074869,0.00405393575783819,0.0007415497071448622,10666.322443228799
1678317024438720627,302,1677825035617014169,camera_1,304,0,0.12235971823331715,-0.33681994240437124,2.6402211309809935,0.7039507151534721,0.7062933226598358,0.03438281924109588,0.06649026050541776,0.002465293335262686,0.0004511628572737064,10660.184813099564
1678317024446113522,303,1677825035623694896,camera_1,305,0,0.1223766869662309,-0.3368001916691473,2.6398273430875734,0.7039231425323804,0.706280532766772,0.03412226843702719,0.06704990110905629,0.002733460976742208,0.0005001733519076929,10662.219687333913
1678317024452613088,304,1677825035630375146,camera_1,306,0,0.12247417867335213,-0.33689875070857833,2.640308707529526,0.7040391391323112,0.706132113820908,0.03397631397330372,0.0674680553257469,0.0052084276103414595,0.0009534361902331512,10657.387778538283
1678317024459434688,305,1677825035637262821,camera_1,307,0,0.12237506010474089,-0.3366952968191602,2.6386745277306063,0.7037043346949282,0.7060468569145325,0.036658844521580684,0.07038589554037634,0.0037531479028984904,0.0006867519780626451,10659.480287931628
1678317024465723824,306,1677825035643690347,camera_1,308,0,0.12234051147597098,-0.33665617134684506,2.638659628139101,0.7036468142481631,0.7061629980160385,0.03637274907691551,0.06994286351014907,0.0056747543858364224,0.0010382219008531366,10661.21695224219
1678317024473529895,307,1677825035650347948,camera_1,309,0,0.12233633752354915,-0.33675647242729984,2.639809431507612,0.7041577149857579,0.7061428671577344,0.03416289051819858,0.066008033599949,0.0041510434239171445,0.0007593555015984652,10665.002023314359
1678317024478614003,308,1677825035657071828,camera_1,310,0,0.12236702346993561,-0.3368681216229053,2.6403966260994967,0.7039364654553495,0.7063131275054415,0.03304942115251931,0.06710405559424307,0.005847239983268082,0.0010703459582337284,10658.783612427305
1678317024485540015,309,1677825035663634061,camera_1,311,0,0.12226228480265242,-0.33664311730437313,2.63884406120204,0.7038455292509741,0.7061668680434475,0.035318928860982035,0.06842805488421842,0.002925398002844304,0.0005350989008560876,10665.154012591232
1678317024491486443,310,1677825035669648408,camera_1,312,0,0.12234752213466298,-0.3367009470296524,2.6390834720393355,0.7037583480271975,0.7061814484330193,0.033930317411199604,0.06986188539860658,0.005578316457103938,0.001020852219326252,10661.099324426152
1678317024499086555,311,1677825035676990509,camera_1,313,0,0.12237190243664402,-0.336713640971895,2.638994132380089,0.7038407373778165,0.7061727577906709,0.03663917067387487,0.06771871036944542,0.0066450092708691955,0.0012152724802023031,10664.002798540285
1678317024505603790,312,1677825035683659791,camera_1,314,0,0.1224632731510879,-0.33685861594952393,2.6402030412738977,0.7038644588146156,0.7063817837767123,0.036634275240703555,0.06524974362881905,0.006802050571423024,0.0012444324472302092,10660.514896178265
1678317024512680447,313,1677825035690332174,camera_1,315,0,0.12238226276874217,-0.3367460990884827,2.6393579327067003,0.7040010471875406,0.7061694972978492,0.03571094388784265,0.06657248028719287,0.005019504984375089,0.0009180278866607149,10665.227209834618
1678317024519041100,314,1677825035696966171,camera_1,316,0,0.12237216415630348,-0.33673934356042245,2.6392817912203834,0.7037705208619922,0.7064248599306123,0.03605103598818159,0.06611576243101233,0.005484132387209684,0.0010028088545214807,10666.555769691593
1678317024524868032,315,1677825035703012466,camera_1,317,0,0.12237077626621433,-0.33683415536752226,2.640271168487047,0.7041236519979234,0.7060979107123024,0.03388606288941969,0.06698774460065963,0.003225910884793848,0.0005904407397583812,10659.109149967087
1678317024532317567,316,1677825035709858894,camera_1,318,0,0.1223072265660628,-0.3367455615609166,2.6397516465266158,0.703899268896472,0.7063469375863533,0.03224476501929685,0.0675284987116048,0.006002042267937213,0.0010982983051465855,10663.867605576987
1678317024538711883,317,1677825035716956615,camera_1,319,0,0.12236850833104314,-0.33677176659025526,2.639850210496754,0.7040262713436081,0.706348419596546,0.03511874289400408,0.06469616131597775,0.00453056552214548,0.0008285340858564336,10666.731381590947
1678317024544774666,318,1677825035723027944,camera_1,320,0,0.12233850343947393,-0.3366310916022385,2.638493919020162,0.7039083579192285,0.7060856177071405,0.03587205713792321,0.06833242008940331,0.0028343070880509913,0.000518252901191601,10667.461852222683
1678317024552320093,319,1677825035730298519,camera_1,321,0,0.12244036139247028,-0.3368534131836601,2.6401401266950666,0.7038645879733433,0.7064926162839815,0.03588873340216361,0.06445792230687326,0.003139260516036302,0.0005742012747815316,10663.941215224912
1678317024559326351,320,1677825035736937999,camera_1,322,0,0.12233853619512508,-0.3366858980599716,2.638730108580154,0.7038956875992707,0.7061948446685392,0.03566171259499043,0.06743845043830826,0.0031446065986528993,0.0005749857546595052,10668.127798734702
1678317024565572884,321,1677825035743620872,camera_1,323,0,0.12251619667309999,-0.3370338277289412,2.6417589208441017,0.7040609419555641,0.7065989494999699,0.03213866657913449,0.06311276169443027,0.003411709680221975,0.0006245928898934906,10658.692763303872
1678317024572079573,322,1677825035750428915,camera_1,324,0,0.12228221892681204,-0.33664696728212257,2.6389999670347404,0.7039202668142686,0.7062397328400106,0.03499635873312321,0.06705932151179203,0.006352858152240515,0.0011617938060690912,10667.857683152195
1678317024579801766,323,1677825035757591724,camera_1,325,0,0.12242593195101711,-0.3369634252295633,2.6413211046512832,0.7041574015885922,0.7062805895553274,0.03497620898901709,0.064083909135897,0.004738321586046368,0.0008673566612175944,10656.545753826385
1678317024584574805,324,1677825035763080120,camera_1,326,0,0.12234334456435203,-0.33680491074469443,2.640100850058953,0.7041216880470309,0.7061434235191524,0.03557860101279145,0.065637466377241,0.006092845113016665,0.001114644060982283,10661.805547222375
1678317024592137203,325,1677825035769843101,camera_1,327,0,0.12241152176453278,-0.33682042481777663,2.6399540948716558,0.7040211127228965,0.7064051577947557,0.03397581351291515,0.06474310756765463,0.0015950686647556722,0.00029174025870678995,10667.141692884614
1678317024600480976,326,1677825035777068376,camera_1,328,0,0.12234140124438223,-0.33661698069559937,2.6382327279784388,0.703663336953829,0.7062565416458806,0.03595518637258767,0.06904223477202365,0.008078463026322424,0.0014772099035100226,10667.58722480899
1678317024605710352,327,1677825035783717870,camera_1,329,0,0.12243981202598417,-0.33690772912307015,2.6403123121391676,0.7039225512174945,0.7062503454299466,0.036945333268983506,0.06586754752667684,0.002410203276667744,0.000441081264785367,10657.653991756382
1678317024611865744,328,1677825035790408372,camera_1,330,0,0.12242317101151386,-0.3368826288143636,2.640633335799985,0.7041578427422789,0.706180111761637,0.03478501741865755,0.06527928323783803,0.001433424069546163,0.00026234295952914016,10659.378331693359
1678317024619654914,329,1677825035797030210,camera_1,331,0,0.12235177314071269,-0.3367981357447171,2.6398094126405085,0.704040169834,0.7061376670654103,0.03419819505346128,0.06728683278783135,0.0005065718432888389,9.270184479896392e-05,10661.668353686575
1678317024625486944,330,1677825035803778648,camera_1,332,0,0.12233851458681935,-0.3367371231726856,2.63958026985962,0.7040571723358926,0.706195631199071,0.03421726473548282,0.06648614405840318,0.008530514198355377,0.0015603467133295734,10665.569711825457
1678317024632931870,331,1677825035810540437,camera_1,333,0,0.12234887483323052,-0.336816597912012,2.640166186632389,0.7039436251808595,0.7062327325282878,0.03439367847997606,0.0671995160211259,0.00202710967278108,0.0003710457896021839,10658.811769501188
1678317024638514080,332,1677825035817027568,camera_1,334,0,0.12238130302415885,-0.336832443321737,2.6403086703463687,0.7040530343383538,0.7062704079883416,0.034903390150916355,0.06536963358403856,0.0027794393245130777,0.0005085476122666674,10661.638028204441
1678317024649291166,333,1677825035823714494,camera_1,335,0,0.12233875154698484,-0.33665488914864566,2.6389434061298163,0.7039008600636136,0.706160286440475,0.03489587784861092,0.06814328114484958,0.003019448195118457,0.0005522722559980727,10665.605147857215
1678317024652106157,334,1677825035830425262,camera_1,336,0,0.12249308049244848,-0.3369514775912689,2.641113546728846,0.7041568946128847,0.7062701133138211,0.03114669856509344,0.06614739584682494,0.0025986432447098196,0.000475845995674855,10657.552343290536
1678317024658038548,335,1677825035836252689,camera_1,337,0,0.1223789458831694,-0.3366913973827572,2.638974932951199,0.7038966115511454,0.7063110891596224,0.03533178152307293,0.06637673381065015,0.005652749561704695,0.0010334663367820424,10669.29752234137
1678317024665359926,336,1677825035843706846,camera_1,338,0,0.12236300922655984,-0.3366905173306804,2.6391568234575424,0.703892113096183,0.7063033097534226,0.03514580550867641,0.06660555613083123,0.003769758273847401,0.0006893742338230374,10667.514220969984
1678317024673820962,337,1677825035850383758,camera_1,339,0,0.12239081379369136,-0.3368391738459897,2.6403509947915587,0.7040169811682132,0.70634838710466,0.035914259932313015,0.06436002015968835,0.002199928800109774,0.0004024420623706144,10662.49631134095
1678317024679088960,338,1677825035857123613,camera_1,340,0,0.12235698600088524,-0.33680068330721874,2.6399105691901523,0.7039520743998763,0.7060800606275878,0.0343229331229274,0.06873398863802631,0.002169861865695566,0.00039723766555829906,10656.955426966078
1678317024685280878,339,1677825035862987279,camera_1,341,0,0.1222692074966491,-0.3365512422601233,2.6381023153218006,0.7038628913178578,0.7061740509345796,0.033397671039027556,0.06913635499127944,0.00544093589996919,0.0009947579318948636,10671.614358330262
1678317024691719472,340,1677825035869719266,camera_1,342,0,0.12237026208757085,-0.3367881262114835,2.639780885655423,0.704047274084754,0.7060909008753127,0.03341845154308223,0.06809025371798359,0.0036842210683971643,0.0006742906258288498,10660.763211770802
1678317024700337719,341,1677825035877058506,camera_1,343,0,0.12236696952458746,-0.3367865569649062,2.63988644536045,0.7040757322017708,0.7061576171807574,0.034589009462067964,0.06650100335008685,0.0020973573555238545,0.00038375112595881667,10662.589819129204
1678317024705848203,342,1677825035883660554,camera_1,344,0,0.12243242464600583,-0.33686350329161735,2.6401934440958805,0.7039915351940442,0.7061047608829494,0.03569203300765425,0.06736515281171923,0.002026029513217509,0.0003708710513552314,10656.47812079615
1678317024713240609,343,1677825035890463590,camera_1,345,0,0.12244015790200548,-0.33686871794366724,2.640082525911789,0.7039611036266592,0.7062352260640142,0.03552005439188498,0.06639951643682472,0.004121195001062006,0.0007541134561476347,10660.030709577492
1678317024719328954,344,1677825035897118568,camera_1,346,0,0.12236998797984848,-0.33666848221181794,2.638774022207925,0.7038847464709411,0.7061347164015904,0.03467833619724203,0.06868361505173932,0.0026008555432781577,0.0004757196540351017,10665.785505997019
1678317024725899826,345,1677825035903688669,camera_1,347,0,0.12242460381508245,-0.3368554174454558,2.640151687079706,0.7040150401439994,0.7062880894713187,0.03411527499987081,0.0660008025230058,0.002914940705522895,0.0005333671950901183,10662.247019135393
1678317024731721241,346,1677825035909736394,camera_1,348,0,0.1222676625243329,-0.3365792367685664,2.638354080974705,0.7038460870182937,0.7060830745359681,0.03506579556537098,0.06941014064413885,0.007141495065297931,0.001306021188167038,10666.831142752666
1678317024740111807,347,1677825035916993856,camera_1,349,0,0.12243396153094104,-0.33703444478559885,2.6419821685667313,0.7044089298319637,0.7062530702561778,0.02964333549827906,0.0643112197617681,0.002699580159969628,0.0004944593384676144,10656.734640786422
1678317024745932523,348,1677825035923710823,camera_1,350,0,0.12225655838775175,-0.3366329400224758,2.6388852970218424,0.7037494769044855,0.7062177526460284,0.03593360382696725,0.06857066224168049,0.0060879873926751316,0.0011135956630039473,10663.680044727756
1678317024752480837,349,1677825035930354833,camera_1,351,0,0.12234426843252925,-0.336738567234949,2.639398131842801,0.7039336462300967,0.7060514000426517,0.03644449799204287,0.06812224870863079,0.004788146063219756,0.0008760834226997826,10659.992626158404
1678317024759356493,350,1677825035936368942,camera_1,352,0,0.12237730633756136,-0.3367656131512411,2.6394002816777626,0.7038857726985377,0.7062985165073585,0.036155773732495525,0.06618145206847519,0.0032554548233747482,0.0005953530367213049,10665.284731708005
1678317024765912839,351,1677825035943660020,camera_1,353,0,0.12251784667862899,-0.3369779186203405,2.6409492566733546,0.7041332953006461,0.7063649355322521,0.03322822089814114,0.06434878115018958,0.002144676516763866,0.000392524782120942,10660.930973941813
1678317024772335999,352,1677825035950426340,camera_1,354,0,0.12238636952802251,-0.3367268449910517,2.6391540362085513,0.7038133439085158,0.706312400377436,0.03594567500985379,0.06691396309787452,0.004671995411626995,0.0008544279996771228,10665.693569881843
1678317024779033143,353,1677825035957033634,camera_1,355,0,0.12241762015918041,-0.3368628630758088,2.6403024384135114,0.7038795374945476,0.706200033210752,0.03642550608122816,0.06714381800524293,0.0029533259803429246,0.0005405897373118344,10655.23193576443
1678317024784994168,354,1677825035963065385,camera_1,356,0,0.12228940499254562,-0.3367150715969746,2.6393879345915474,0.7039387054703043,0.7063438160811387,0.032899999272497815,0.06683040081127918,0.005323927383869886,0.0009738345578988617,10667.824903768138
1678317024793080370,355,1677825035970426082,camera_1,357,0,0.12226338231762401,-0.33664657261848485,2.63865849709694,0.7038838257392005,0.7062487499937868,0.03374954827845428,0.06797963655360897,0.003570692031644285,0.0006529409368762182,10669.725255998086
1678317024799173324,356,1677825035977079868,camera_1,358,0,0.12232728860106101,-0.3367327715044955,2.639397667063192,0.7039281257425454,0.7063002587268121,0.03277828090726465,0.0674590439584634,0.004639990453142673,0.0008488563187908259,10666.25171914208
1678317024805526294,357,1677825035983690738,camera_1,359,0,0.12240679215089519,-0.33686675393891974,2.6405653606666015,0.7040368758059805,0.7064334401772956,0.032922760469369365,0.06480712883396615,0.006283735565375536,0.001149879119779819,10663.346655129219
1678317024812606793,358,1677825035990382909,camera_1,360,0,0.12245491349260627,-0.33683067978975684,2.6400474246734733,0.7039260717881268,0.7063398161230933,0.03440030686593061,0.06624778112255005,0.004602078755851835,0.0008420385967028389,10662.121808569878
1678317024818371217,359,1677825035996399402,camera_1,361,0,0.12243057838803834,-0.3368488233471417,2.6401954469552664,0.7040799114147518,0.7062130816250818,0.03420487712794578,0.06606502905821672,0.006265645322855562,0.001146557522038073,10661.639876999776
1678317024825312035,360,1677825036003070354,camera_1,362,0,0.12240289802352732,-0.3367611122686357,2.639501551727512,0.7038618990397904,0.7062131234766668,0.035325942632556465,0.06777557883597668,0.0035096349893137813,0.0006421505385901928,10661.476391233155
1678317024834802100,361,1677825036010373115,camera_1,363,0,0.1223379171761478,-0.3367282530166535,2.6395940082372427,0.70400035825452,0.7062806785875869,0.0330606034118448,0.06676896834166204,0.005435879167634994,0.0009944069196702592,10666.13044107263
1678317024838707091,362,1677825036017042875,camera_1,364,0,0.12238033109302186,-0.33688953155381623,2.6407057728081655,0.7039790001779835,0.7064352220000295,0.03248862389669257,0.06563028069020338,0.008903518319129944,0.0016294916033478782,10660.674620400534
1678317024845736047,363,1677825036023743391,camera_1,365,0,0.12231482479691426,-0.33680778263779404,2.640083684280833,0.7040218370744603,0.7063115134178926,0.033868786908617,0.06580428716251717,0.002326337504200637,0.0004256338699900434,10663.649579282857
1678317024852237708,364,1677825036030383825,camera_1,366,0,0.12237100857596298,-0.3367682231296604,2.639556627320095,0.7038704140320271,0.7062940981838627,0.035542257558273435,0.06672207317438829,0.004558303742669523,0.0008338279920389283,10663.468583709559
1678317024858035726,365,1677825036036308288,camera_1,367,0,0.1223912786401586,-0.33672352515673837,2.639111509301082,0.7038368430862274,0.7063918546425517,0.033850298487578326,0.06692087343550784,0.0031572608277201653,0.0005773821519124622,10668.625734774629
1678317024865976240,366,1677825036043712615,camera_1,368,0,0.12238937121068795,-0.33667240470484205,2.6385573692654876,0.7040782712330202,0.7060084770817909,0.035818565322341504,0.06740065759635423,0.003349372942466289,0.000612317669318804,10669.3904125765
1678317024873977096,367,1677825036050321340,camera_1,369,0,0.12242304090009377,-0.33687168185455846,2.640511200801892,0.7042472208325462,0.7062382301604793,0.03155181049184566,0.06532914712527202,0.0034092303249053657,0.0006238814357498177,10664.023412222276
1678317024877835225,368,1677825036056557416,camera_1,370,0,0.12240771560348107,-0.3368760269128237,2.6403765304033775,0.7038361240439133,0.7062931715945522,0.03704583833617139,0.06627421905778942,0.0029862691299058497,0.0005465484068961264,10656.024165566314
1678317024885771479,369,1677825036063668251,camera_1,371,0,0.12232883667479744,-0.33671861393358543,2.639325007851596,0.7039402927985638,0.7062290975300969,0.03315944263292132,0.06788944940689405,0.004780547285918146,0.0008745865564964737,10665.283644591109
1678317024892473023,370,1677825036070393562,camera_1,372,0,0.12231548799776923,-0.33668024244302136,2.6390228578512227,0.7039023485671351,0.7061265114734961,0.03465415836998558,0.06859972874297598,0.0015849251649342477,0.0002899520509293373,10664.064495115072
1678317024899161018,371,1677825036076998233,camera_1,373,0,0.1223418623064028,-0.336747542870349,2.6395015504824872,0.7040282461460442,0.7061827480343433,0.034665091656254594,0.06669697465141726,0.0028963233926333487,0.0005297927048138465,10665.095251957424
1678317024904996121,372,1677825036083642482,camera_1,374,0,0.12240065262314709,-0.336820808140716,2.6398586443664245,0.7038600119142464,0.7061405918211452,0.03554468895149333,0.06843334931085415,0.005372326530050486,0.0009833770278487722,10656.602788484312
1678317024912820071,373,1677825036089705228,camera_1,375,0,0.12245217542467451,-0.33687995336600923,2.640357603551033,0.704185815507113,0.706101748664804,0.033906134574788055,0.06627995028124747,0.0036067666951566935,0.0006601130795051965,10660.135514691934
1678317024918525690,374,1677825036096935272,camera_1,376,0,0.12236761222106378,-0.3367581951904095,2.6394264326862644,0.7038898441662935,0.7063436681282947,0.03346864720695109,0.06706384591382454,0.004490796942263842,0.0008215051112111182,10666.194501673688
1678317024926413544,375,1677825036103609561,camera_1,377,0,0.12236901739905968,-0.3367011106948794,2.63927593930722,0.7038075642631835,0.706249081469347,0.033395151986823,0.06893410791042237,0.0045493695652112365,0.0008324772881167254,10662.669552961828
1678317024932025926,376,1677825036110304355,camera_1,378,0,0.12224740768324772,-0.3365248035080314,2.6380385916135234,0.7037879699234595,0.7060078648737677,0.03613956430082083,0.07020911635639948,0.0025685623404569924,0.0004697618714804417,10665.880452428712
1678317024938688499,377,1677825036116938829,camera_1,379,0,0.12239535737439715,-0.3369413149244679,2.6410093420853458,0.7040593741118049,0.7064442170786093,0.03317713119353497,0.06431363655750995,0.0038647495093755424,0.0007072913356327124,10660.657631470824
1678317024946644309,378,1677825036123649120,camera_1,380,0,0.12236102564916837,-0.3368148416666742,2.640077457520527,0.7040224010661037,0.7062439924461126,0.03491241079783856,0.0659773105179096,0.002877959341276437,0.0005265732054682041,10661.968730902998
1678317024952597791,379,1677825036130313634,camera_1,381,0,0.12235333378775425,-0.33683995502057706,2.640080932879381,0.7039538406778851,0.706203955960799,0.035683299252047926,0.06672079836648909,0.002473518194165081,0.00045266630228960134,10659.069598164991
1678317024958482760,380,1677825036136999368,camera_1,382,0,0.12236254535110871,-0.33673196281374407,2.639339741287837,0.7038279330424052,0.7061826029365414,0.03609327762850538,0.06804151151362023,0.004785682423971593,0.0008756235667496807,10661.129265376136
1678317024966128478,381,1677825036143615245,camera_1,383,0,0.12245961706442869,-0.3369236628470898,2.6406173969734765,0.7040367802106603,0.7062015733170198,0.036969438876479556,0.06515221058667639,0.0026843667728826404,0.0004912425419982472,10656.95729327749
1678317024972289107,382,1677825036150329351,camera_1,384,0,0.12238322757466417,-0.3367320593098866,2.6392268441015716,0.704017727003775,0.7061232518579033,0.03559543506296413,0.06694742902260534,0.005097661749459803,0.0009322705066598815,10665.47037166206
1678317024979351098,383,1677825036156934738,camera_1,385,0,0.12242109813518876,-0.33689400234220224,2.6405458959504795,0.7039331901529878,0.7061359209311665,0.034865062644310045,0.06807754680171368,0.007039011805318296,0.0012890111489022367,10652.867886021968
1678317024984351956,384,1677825036163053274,camera_1,386,0,0.12237413621982655,-0.3368008779907474,2.640080568809643,0.7040625688395027,0.7062489940799329,0.0324597104589235,0.06674297503952238,0.0022627723519690335,0.00041411228148572005,10662.952075422741
1678317024992573439,385,1677825036170283317,camera_1,387,0,0.12241112391949696,-0.3369973540953869,2.6415393627331802,0.7040805406018028,0.7063716774100316,0.0329013285421882,0.06501652312274801,0.0029332751873880625,0.0005371383372804093,10655.002921185926
1678317024999755765,386,1677825036176940202,camera_1,388,0,0.12230354384646802,-0.3366547673745418,2.6390077346014906,0.7038656952271394,0.7061968852078235,0.03440660095091955,0.068375640517571,0.0009880626457743347,0.00018075253712458754,10665.103834540116
1678317025005802834,387,1677825036183572769,camera_1,389,0,0.12240542806886526,-0.336877435682862,2.6404815156763335,0.703873006377308,0.7062873395994528,0.0338378031038838,0.06764604863552894,0.0036039474653080106,0.0006598801772209552,10655.768485673478
1678317025011947121,388,1677825036190279006,camera_1,390,0,0.12239200999721916,-0.33681022265648536,2.639831096074358,0.7039835851452995,0.706199821036923,0.03301523078088794,0.06781533123028713,0.0028441062895581126,0.0005205208914895738,10661.525287765304
1678317025019262283,389,1677825036196892023,camera_1,391,0,0.12242653311443585,-0.3368152917401912,2.639660905103498,0.703852363110045,0.7063402710709704,0.03400690413370036,0.06722204161608603,0.002868866315111518,0.0005249010067123245,10663.211723060349
1678317025026199260,390,1677825036203581333,camera_1,392,0,0.12240207405734793,-0.33672214677756906,2.6390883603410034,0.7038528771171774,0.7062101987669469,0.03710792826018154,0.06694239457666643,0.002770623308606446,0.0005067011856285258,10664.610564217897
1678317025032021372,391,1677825036210235118,camera_1,393,0,0.12245584817072297,-0.33693826847449404,2.640813823409535,0.7040274109224949,0.7064582876573322,0.03328403909605107,0.06445358959353045,0.004089945869054645,0.0007484661350004746,10661.737166488778
1678317025039160397,392,1677825036217001914,camera_1,394,0,0.1223982058183264,-0.3368846047091888,2.6407134181593266,0.7040486024355401,0.7063305296184246,0.03230939737228401,0.06609728571551611,0.00515200209338218,0.0009431466476472292,10659.654525215272
1678317025045611982,393,1677825036223650932,camera_1,395,0,0.12229647498801877,-0.336719059024933,2.6396308491047145,0.7039162723852784,0.706162441618303,0.03458036826583328,0.06812257811835279,0.005275007744785398,0.0009652884053988533,10660.548985363448
1678317025050886825,394,1677825036229637384,camera_1,396,0,0.12226483701583878,-0.3366803023667477,2.6390463065332725,0.7038713188306168,0.7062615626052398,0.03258747445129422,0.06854070486170492,0.003763810673262924,0.0006885554415139182,10666.516000279691
1678317025058766857,395,1677825036236335039,camera_1,397,0,0.12230445068356177,-0.3365940200747546,2.6384025269299727,0.7038886675007956,0.706056521494493,0.03522353715927377,0.06916816210540959,0.0031787937623448674,0.0005813410971716891,10666.863508815295
1678317025065729605,396,1677825036243624925,camera_1,398,0,0.12253709275400922,-0.3370437028204,2.6416524543401336,0.7040856274615795,0.7064707991578479,0.033594285740114256,0.06351270034345118,0.005519698082935065,0.0010104572500520216,10656.878179783465
1678317025072571179,397,1677825036250280618,camera_1,399,0,0.12243739654286283,-0.3367702623958194,2.639211563815528,0.7038765410692854,0.7061503317983524,0.03698571264081764,0.06739125235419258,0.0022046976955607533,0.0004032654905860009,10662.588228484616
1678317025079625767,398,1677825036256946086,camera_1,400,0,0.1224453636075121,-0.3369098585012173,2.6403849808280473,0.7041314794952815,0.7063048894102025,0.03534610550039553,0.06389769639808986,0.0014722816413268447,0.00026934362405485625,10664.000977011867
1678317025085547472,399,1677825036263598918,camera_1,401,0,0.12234011970652521,-0.3366544630802322,2.6387800017787004,0.7037419709522567,0.7062501049039848,0.03654677936629042,0.06798794423495677,0.0035408168914727867,0.0006475867162971469,10665.194217083625
1678317025092329542,400,1677825036270290851,camera_1,402,0,0.12237146625826328,-0.3368670571529547,2.6405535547934136,0.7040136421101009,0.7062500692501503,0.034404336382277655,0.0662719627378262,0.0025325868045911193,0.0004636113499524212,10658.032572989578
1678317025097927397,401,1677825036276323795,camera_1,403,0,0.12229446102949885,-0.33684199240212526,2.640367705606018,0.7041158989610298,0.7060825820329049,0.034715177491179035,0.06680602242165756,0.0012639646884053946,0.00023136294651375616,10657.807330790904
1678317025104704578,402,1677825036283295154,camera_1,404,0,0.1223205581857381,-0.33684989743227944,2.6403586148175657,0.703770392981686,0.7062781678361255,0.034793337053416536,0.06832135315650703,0.0035443113301880658,0.0006490390928052716,10653.875057433032
1678317025112631893,403,1677825036290279865,camera_1,405,0,0.12235071482740809,-0.33678562333156015,2.639964265679991,0.7038188120158645,0.7063985833230658,0.035165814014793406,0.06635877377121908,0.0029289535013958816,0.0005359201342106855,10661.621703129615
1678317025117953179,404,1677825036296329975,camera_1,406,0,0.12240698097643826,-0.33679210615038047,2.6395102763716114,0.7038681579621734,0.7062907255163284,0.03400543021139193,0.06757705211603872,0.005558551580179483,0.001016998264511904,10663.526640077233
1678317025125188863,405,1677825036303261756,camera_1,407,0,0.1224643455781439,-0.3368069848029487,2.6397387699626598,0.7040638528121461,0.7062180907441223,0.034014859752600525,0.06628038009135308,0.004517077759373933,0.0008263237088231413,10664.977644049093
1678317025132376008,406,1677825036310288190,camera_1,408,0,0.1224100317312025,-0.3367614863602387,2.639513835963453,0.7041199762006612,0.7061928115389752,0.033118687535736345,0.06640726301970477,0.003105084877461195,0.0005679615271865688,10667.564327907754
1678317025138779263,407,1677825036316930294,camera_1,409,0,0.12241541207614265,-0.33696818061046746,2.641133549144203,0.7041071378127834,0.7063234476197078,0.03430032921418316,0.06452761609961151,0.0036402467521838844,0.0006663228438449454,10657.782516402309
