%time,field.header.seq,field.header.stamp,field.header.frame_id,field.image_seq,field.transforms0.fiducial_id,field.transforms0.transform.translation.x,field.transforms0.transform.translation.y,field.transforms0.transform.translation.z,field.transforms0.transform.rotation.x,field.transforms0.transform.rotation.y,field.transforms0.transform.rotation.z,field.transforms0.transform.rotation.w,field.transforms0.image_error,field.transforms0.object_error,field.transforms0.fiducial_area
1678320262742425158,193,1677825034829753398,camera_1,194,0,0.11317784915062108,-0.32572557437017463,2.6422262308958904,0.7039643892419252,0.7062436262966547,0.03339037928996958,0.0673733000933327,0.004008125222753733,0.000733768781424281,10657.508224002198
1678320262750316854,194,1677825034837048768,camera_1,195,0,0.1131969513057143,-0.3256426303607969,2.641580711402339,0.7041172169384596,0.7062061554626036,0.03269698858052972,0.06650351671401987,0.00556400022469461,0.0010179191559338157,10665.729518700857
1678320262758315335,195,1677825034843797206,camera_1,196,0,0.11330884651877465,-0.3258137144336647,2.6428569014324905,0.7039911415963893,0.7063719195581202,0.03338744768767093,0.06573022250450992,0.00600951787782833,0.0011002258782956294,10656.561050061253
1678320262763036273,196,1677825034849773168,camera_1,197,0,0.11328941662124016,-0.32563789565451157,2.6407546013171297,0.7038270427327836,0.7061468005736037,0.036146917342845,0.06839291136000378,0.00582843495067209,0.001066166418746637,10663.180345010833
1678320262770404513,197,1677825034856790065,camera_1,198,0,0.11332739477241088,-0.3257428796645352,2.6417385773975526,0.7039328991821661,0.7062809898621286,0.03592889050844681,0.06599054201318963,0.0025998298660852015,0.00047565211246846387,10661.701291244244
1678320262777618547,198,1677825034863768100,camera_1,199,0,0.11328395685610286,-0.3255620178433609,2.640560673609118,0.7039979111213012,0.7061894502899112,0.034803734128945336,0.06687377308601127,0.004394082468934357,0.0008033077350638525,10670.414616959399
1678320262786126514,199,1677825034870501995,camera_1,200,0,0.11318139461894852,-0.3256427527352177,2.6412031293001514,0.7039368175833797,0.7062321640627842,0.03610733321999155,0.06637279398609794,0.0034804932656697925,0.0006365725141357541,10664.881819907223
1678320262790387273,200,1677825034876345157,camera_1,201,0,0.11315879861140615,-0.3255748396853695,2.64103035207454,0.7038883257641458,0.7060985761673628,0.03470415085683816,0.06900469187436811,0.0032960835960693657,0.0006031488054263505,10661.301590561512
1678320262797473219,201,1677825034883761644,camera_1,202,0,0.11324964956763318,-0.3258254518104704,2.642866868310886,0.7041914960707545,0.7062712097280425,0.03411580865169273,0.06427617576490574,0.006686621985863894,0.0012236999467177942,10659.189551701307
1678320262803618762,202,1677825034890496969,camera_1,203,0,0.11321252696476186,-0.32565549529833077,2.641660875507399,0.7038434353224087,0.706314970042345,0.03367814421880785,0.06774484666458855,0.004547352727968246,0.0008322283595223015,10660.752089198912
1678320262809613171,203,1677825034896349191,camera_1,204,0,0.11323046175024189,-0.32569709483768455,2.6416009256571105,0.7038727592947067,0.7062128272688961,0.03490520058178181,0.06788378522205238,0.003396115789655596,0.0006215551872633809,10659.328924388861
1678320262817258399,204,1677825034903126478,camera_1,205,0,0.11325859645986985,-0.32561017099205164,2.6408338369257276,0.7038681379459806,0.7061183077799704,0.034351459976479225,0.06918494778413307,0.003169419476762414,0.0005799047906137551,10662.761355633262
1678320262823856858,205,1677825034910499572,camera_1,206,0,0.11327879935033104,-0.32564626593702906,2.641168828902608,0.7040540005899686,0.7062455480088639,0.03474185184032232,0.0657129660084319,0.00415496074128896,0.0007598384181122079,10668.52353097382
1678320262829673872,206,1677825034917077779,camera_1,207,0,0.11335067525786119,-0.3258027818663822,2.6426807266803567,0.7040571378057943,0.7062420144181006,0.033617512057240624,0.0662995223094224,0.003503789252135903,0.0006415233708542401,10656.257913698675
1678320262836880502,207,1677825034923938274,camera_1,208,0,0.11323062838946626,-0.32558574538354823,2.6409385453626055,0.7038659805582852,0.7062918942802313,0.03471273547347626,0.06722698478077767,0.002200111746788025,0.0004024083123385196,10666.618690301546
1678320262843578065,208,1677825034930506706,camera_1,209,0,0.11326229886142744,-0.3257462279645975,2.6422845669107016,0.7040743772511442,0.7062439657046781,0.03335927655324171,0.06622605885893722,0.004086848173756152,0.000748014180802899,10659.96107619151
1678320262848876094,209,1677825034936291694,camera_1,210,0,0.11319017188875233,-0.3256240774437712,2.64121071119122,0.7038729619391038,0.7063514196752618,0.03461466068462676,0.06657590134202923,0.0030875058146193624,0.0005647185754789325,10666.213265242288
1678320262855506470,210,1677825034943076372,camera_1,211,0,0.1132942951277847,-0.3258331425424988,2.6431181920755003,0.7041550587241161,0.7064218383754394,0.028520007855883156,0.06573012012313348,0.008080620900727808,0.001479638961502846,10659.711719778012
1678320262863718105,211,1677825034950578927,camera_1,212,0,0.1132261509697819,-0.32564056100596317,2.6414471137546713,0.7039401257699003,0.706411965130101,0.033748392315733323,0.06566186768733659,0.007275325478985906,0.0013306361147557499,10667.670033357805
1678320262870725061,212,1677825034957170009,camera_1,213,0,0.11324362207856992,-0.32564410033215824,2.641489537396288,0.7039089286626279,0.706295615419116,0.03318654019423786,0.06750835014055567,0.004974343697540462,0.000910218094193955,10663.307652567048
1678320262876678124,213,1677825034963759183,camera_1,214,0,0.11318706446587964,-0.3255017832598274,2.6399819143625995,0.7038218792967393,0.7062510734593533,0.0364623316793068,0.06719138210533718,0.005382216942962259,0.0009836135573508575,10672.16040625644
1678320262882237567,214,1677825034969747304,camera_1,215,0,0.1132088887284391,-0.3255622829405559,2.6405745448726585,0.7039136157174544,0.7061587966157352,0.03688836905492381,0.06696733381481473,0.0031644537230022256,0.0005785849548917037,10667.401825492965
1678320262889381410,215,1677825034976616382,camera_1,216,0,0.11323844804670331,-0.3256397331774229,2.6413541427862834,0.7039449695317473,0.7063285679732151,0.032517428337286096,0.06711222534072414,0.005204763438086957,0.0009522077151750347,10666.18104686088
1678320262897384291,216,1677825034983732461,camera_1,217,0,0.11329424263856329,-0.3257901796416699,2.642455323831446,0.7039161145462088,0.706297496037236,0.03570867075164804,0.06611234080600925,0.0026865600957535207,0.0004917745596664329,10655.954070650045
1678320262902714866,217,1677825034989924907,camera_1,218,0,0.11322996738084355,-0.325660643418121,2.6414976082088883,0.7040255919215828,0.7061558260780401,0.0350352800828635,0.06681649770095144,0.0024534271215088665,0.0004488584061578276,10662.755437282263
1678320262908683085,218,1677825034996572017,camera_1,219,0,0.11328369747664027,-0.3258302549927655,2.643004164926195,0.7041196636135596,0.7062841863287407,0.03349215026371464,0.06524127010864478,0.003772341297008097,0.0006906749088932787,10656.475874980566
1678320262916236543,219,1677825035003214836,camera_1,220,0,0.11325135590310911,-0.32571358781752957,2.6421991088714907,0.7040830065934026,0.7062846915755324,0.03258680651258936,0.06608444835027914,0.003414947830606252,0.0006250112351122513,10661.928222855204
1678320262922716692,220,1677825035009919881,camera_1,221,0,0.11322804693403901,-0.32562015782661424,2.641091650851865,0.7038079180997334,0.7062478082824676,0.03562295595260814,0.0678192651503119,0.0038665124448016286,0.000707351443443837,10662.701150066912
1678320262929330167,221,1677825035016564369,camera_1,222,0,0.1132852123585765,-0.32571816688873495,2.6420098030668493,0.703960241926209,0.7061303874774985,0.035110210412625464,0.06772833079924931,0.003550402063410729,0.0006499811164095579,10656.199778720036
1678320262936074872,222,1677825035023276329,camera_1,223,0,0.1132397319238925,-0.3255716184890535,2.640656693612011,0.7039058252777501,0.7062293541366396,0.03465610938544439,0.0674955004282401,0.007626964128576217,0.0013946209947079042,10668.246959297452
1678320262942696518,223,1677825035029927730,camera_1,224,0,0.11323539041144501,-0.3256171374157709,2.640921876577875,0.7039028159935147,0.7060375010072321,0.03675151104460031,0.0684192899977915,0.003252432041335851,0.0005950331883153871,10661.016982762376
1678320262949968868,224,1677825035037101984,camera_1,225,0,0.11321963112613652,-0.32560312668912383,2.641063024909521,0.7037827034214377,0.7062939822501103,0.03543293194376006,0.06769951503491446,0.0034753383370116353,0.0006357491301344851,10663.496594786524
1678320262956234328,225,1677825035043729066,camera_1,226,0,0.11321560307253035,-0.3255939999411571,2.6409067299045863,0.7040170303820056,0.7060883573504811,0.03376418173826974,0.06825857145990283,0.0029610662604682148,0.0005416771778181801,10665.352040034139
1678320262961918784,226,1677825035049594640,camera_1,227,0,0.11319934739919364,-0.3255845224062142,2.640954450493983,0.7039254194968165,0.7062557995393937,0.03205014137499419,0.06829742192092977,0.003952760132960975,0.0007231115557135955,10666.877319742227
1678320262969724995,227,1677825035056460380,camera_1,228,0,0.11323998523951956,-0.3256903441880268,2.6418887545395093,0.704040480485138,0.7061752866837269,0.03466603180079127,0.06664632438926192,0.005218663194682449,0.0009549795803262243,10660.516861925953
1678320262977266650,228,1677825035063745260,camera_1,229,0,0.1132695020412149,-0.3257582731941092,2.642272629907481,0.7041015020043273,0.7062086722093615,0.03356809615501552,0.06620852733650451,0.0037740725674666464,0.0006908107171448229,10659.843842025966
1678320262984197899,229,1677825035070535659,camera_1,230,0,0.11319788368890152,-0.32556793137775936,2.6408048429862907,0.7040109822791529,0.7060272313496716,0.034580206958827055,0.06854410776824148,0.004111080546863377,0.0007520493309871516,10664.451538035879
1678320262989617451,230,1677825035077146768,camera_1,231,0,0.11324568613721667,-0.3257363526612326,2.6419314364987287,0.7040912431590464,0.7061331319278625,0.033237128983697795,0.06728160638256006,0.004101029073353857,0.0007506233152721337,10660.238627300012
1678320262996767300,231,1677825035083746671,camera_1,232,0,0.11321956659468715,-0.3256181750079317,2.641365513162166,0.7039113418572274,0.7059857405271173,0.035659004744624474,0.06943624671422353,0.002578220854047686,0.0004719682785564244,10656.242155512797
1678320263001917687,232,1677825035089646100,camera_1,233,0,0.11324354155418823,-0.32573171553936486,2.6420909537637063,0.7039537492543053,0.7062021827746439,0.032658805613474874,0.06827150482475483,0.004452223074622452,0.000815143519281387,10657.086439613366
1678320263009856734,233,1677825035096402168,camera_1,234,0,0.1132239241779746,-0.3256775084955834,2.641578824698085,0.703882991192553,0.7062639008411344,0.03487705626114281,0.06725792165273625,0.0017004915280267596,0.00031116778150664634,10661.168261038838
1678320263016829678,234,1677825035103788137,camera_1,235,0,0.11323406947780906,-0.3256527121522419,2.6413786785996107,0.7039368682467276,0.7063246299502286,0.03496718623501942,0.06599771613826873,0.004336079640779644,0.0007930446258617404,10665.862996301847
1678320263023329313,235,1677825035110538482,camera_1,236,0,0.11322403393426936,-0.3255433644653344,2.640357518100086,0.7038704339262432,0.7062244840604308,0.0352162784592861,0.06762546923710382,0.0033973765675909817,0.0006211867657971013,10669.620777102886
1678320263029886636,236,1677825035117165327,camera_1,237,0,0.11328112140391669,-0.3256304784236341,2.640960569922813,0.7039924386288596,0.7062558547212029,0.0323554680711989,0.06745693227021424,0.0034345315070822835,0.000628178446151038,10668.598498041974
1678320263037279042,237,1677825035123746395,camera_1,238,0,0.11331591280402177,-0.32577040094564674,2.6421550983911466,0.704041938066714,0.7063006643985865,0.03416403758383601,0.06555257012010192,0.005954951862804592,0.0010896907604552905,10661.682295838142
1678320263043029148,238,1677825035130510568,camera_1,239,0,0.11321704890968758,-0.32564944864338063,2.641660033152153,0.7038696132658071,0.7062585914710465,0.03299394957951614,0.06839421602387803,0.005704368639271706,0.0010441194073620072,10659.882167506497
1678320263050850794,239,1677825035137161731,camera_1,240,0,0.11319718774984058,-0.3256661614126629,2.6417401009015684,0.7039576638226658,0.7062506929773184,0.03386211877395304,0.06713362143167366,0.005211102426983416,0.0009536404817215087,10661.470117542658
1678320263055885594,240,1677825035142889976,camera_1,241,0,0.11322146438113018,-0.3256919073385195,2.6419834103851096,0.7040081649590982,0.7063812697120373,0.03397253273433913,0.06514501124834812,0.002621783991344273,0.00047964939015462683,10664.375282886667
1678320263063877092,241,1677825035149996757,camera_1,242,0,0.11325257257194142,-0.3256535472579239,2.6415150633551336,0.7037795892075337,0.7062923672302481,0.03705184086229654,0.06687707302119797,0.005085676850285381,0.000930427854084687,10659.853800123436
1678320263070251503,242,1677825035157121181,camera_1,243,0,0.11325820195853387,-0.3256674795006218,2.6415446734693506,0.7040324700637574,0.7060637964302449,0.036132165973023295,0.06713168438622896,0.006827477889601141,0.0012493318874477071,10660.17400442611
1678320263075975489,243,1677825035162902355,camera_1,244,0,0.11324281831619372,-0.32560434887315115,2.6407625638972134,0.7038548645492726,0.7062098943343876,0.035795403893927415,0.0676358178379538,0.0025765469763427973,0.00047121834442073306,10665.574575707202
1678320263083414758,244,1677825035169990301,camera_1,245,0,0.11325992320692668,-0.32562480644413433,2.6409676285922297,0.7039249978506261,0.7062102364928733,0.03477670597012786,0.06743352278758234,0.0034865786437876523,0.0006377105764444591,10665.733421031618
1678320263089780299,245,1677825035177170276,camera_1,246,0,0.1132558380287796,-0.3256701796457536,2.6415199366938107,0.703890195198601,0.7062330624615791,0.032753475759249355,0.06856139157793686,0.005472525139339268,0.0010016198194538663,10660.806441303339
1678320263096527937,246,1677825035182896375,camera_1,247,0,0.11325174768779467,-0.3257526712592329,2.64228545621561,0.7040238798281498,0.7063156607090358,0.03394741680554869,0.06569731319549836,0.004253904975485057,0.0007785192419573333,10660.577710372629
1678320263104025174,247,1677825035189406871,camera_1,248,0,0.11320713727747643,-0.3256377449414948,2.64130264439749,0.7039113059247678,0.7061747443720027,0.03727202535366695,0.06661005876337461,0.004426198138389736,0.0008095973356677104,10661.94527874747
1678320263110371020,248,1677825035197112321,camera_1,249,0,0.11325803346160321,-0.3257431919446808,2.6423836810523125,0.7041027561648342,0.7063320924463425,0.031907382886799326,0.06569781471838083,0.0029265411430969834,0.0005356313381506102,10662.17096034263
1678320263117082760,249,1677825035203797817,camera_1,250,0,0.11324192143515248,-0.3256489435691624,2.6414264294384564,0.7040054778170427,0.7062941555591555,0.033331145616984,0.0664370962522916,0.004667988221626729,0.0008538698764275813,10666.365691981511
1678320263124234216,250,1677825035210479021,camera_1,251,0,0.11327678608278816,-0.3256295291498771,2.640936186247418,0.7039022249662817,0.7061660624825524,0.03394760329640482,0.06854713791133772,0.00328591390280053,0.0006011892221240252,10664.100378496461
1678320263129992215,251,1677825035217265844,camera_1,252,0,0.1133300055868775,-0.325762909089907,2.642204202675543,0.703923492146852,0.7062441026439317,0.034674153508566924,0.06714676286250133,0.0022656777291558683,0.0004147824395110423,10656.643964499235
1678320263135884237,252,1677825035223191499,camera_1,253,0,0.11329447659704525,-0.3256990400245815,2.6415753806590008,0.704175553294259,0.7061393061957545,0.03397507805701517,0.06595274413640859,0.00278171815443784,0.000508851440057103,10665.57621858548
1678320263142845239,253,1677825035229886770,camera_1,254,0,0.11318427685781374,-0.32550869868581933,2.640206885267912,0.7038444644738683,0.7061207103648067,0.03714515109532094,0.06794667006925352,0.0039930533384904265,0.0007300458467685279,10667.511602616873
1678320263150266977,254,1677825035236518383,camera_1,255,0,0.11319038351431288,-0.32562511274838446,2.641403296105986,0.7039840854305344,0.7061655810409424,0.03428946382080837,0.06753378624454387,0.0026076166541315615,0.0004771259187110022,10662.633018477587
1678320263156011986,255,1677825035243291378,camera_1,256,0,0.1131882268009303,-0.32564575287598463,2.6414405722386087,0.703908476231704,0.7061202156141245,0.03643502109596248,0.06767264903903016,0.0028944219811819494,0.0005296498689004099,10659.244240322263
1678320263163329872,256,1677825035249891042,camera_1,257,0,0.11314161853465256,-0.32549361863884146,2.6401254720458707,0.7037920741303386,0.7059525854465291,0.038170751449744335,0.06964665983691426,0.005911086744163185,0.001081040265563256,10662.302223189039
1678320263169693667,257,1677825035256554603,camera_1,258,0,0.11327206592763624,-0.32572515540562985,2.6418062119798806,0.7038690899672265,0.7063024832339095,0.03429088114798566,0.06729964217152885,0.0031984401284717023,0.0005853721544425263,10659.927965403076
1678320263176651525,258,1677825035263068437,camera_1,259,0,0.11317530924782315,-0.32549103282255437,2.640202074312775,0.7039770911563823,0.7059876029852595,0.03584086769262511,0.06865268939499827,0.0033984823967330158,0.0006214463974418388,10667.439664804026
1678320263182887442,259,1677825035269887208,camera_1,260,0,0.11319494505690712,-0.3255338669834422,2.6403454301520517,0.7038263222218729,0.7061292030323241,0.03578287194620764,0.06877239888100903,0.0011569199268706143,0.00021158566481702945,10666.014355747726
1678320263190488182,260,1677825035277042627,camera_1,261,0,0.1132745980404764,-0.32573762455310923,2.6420505598410404,0.7038555524584256,0.7062837455261224,0.03489563683498318,0.0673270124758052,0.002957414137199521,0.0005413617650242887,10657.161007894782
1678320263197054794,261,1677825035283699512,camera_1,262,0,0.11332803640599949,-0.32582390093262886,2.642840692706828,0.7042615680586232,0.7061951982885835,0.0321280186029796,0.0653588256504384,0.003394783940166235,0.0006214772253109235,10659.050188281108
1678320263207515711,262,1677825035290376901,camera_1,263,0,0.11326275791658931,-0.3257789155838907,2.642565666597852,0.7042984907655768,0.7060810458900645,0.032820819663901685,0.06584820678433945,0.0030763757531531155,0.0005631356858389484,10659.276188180893
1678320263212011273,263,1677825035297504425,camera_1,264,0,0.11321593906954092,-0.3256399882854129,2.6413448406983915,0.7038335972405645,0.7061800174017306,0.03678551759952463,0.06763783048585724,0.005357570247724652,0.0009803203883368278,10659.634287575493
1678320263217262859,264,1677825035303963899,camera_1,265,0,0.11320789993508898,-0.3256335716612957,2.6413210372251865,0.7038266248352301,0.706240052468481,0.03469104057282319,0.06818799136461245,0.00660499488003552,0.0012086179538944824,10661.089778879073
1678320263224083061,265,1677825035309730768,camera_1,266,0,0.11325222640715475,-0.3256688606217545,2.6415292926816014,0.7041182459389475,0.7061842553654598,0.03573579155130667,0.06514788110132423,0.0037251199246384203,0.000681260373507377,10665.792699413496
1678320263229972849,266,1677825035316989421,camera_1,267,0,0.11333545664414342,-0.325838472058728,2.6428159052013154,0.7041384421952263,0.7061610887246416,0.03368859393331666,0.06626197727886732,0.002443752659019083,0.00044746210415919557,10655.162094258587
1678320263238032232,267,1677825035323693037,camera_1,268,0,0.11324908685636763,-0.32563848882568447,2.640898939366011,0.7039286375864673,0.7061043155812436,0.036998199742251964,0.0673223730942115,0.003030322666745633,0.0005542113508500722,10663.687072675908
1678320263244181128,268,1677825035330392837,camera_1,269,0,0.11330854877024199,-0.32573833776864336,2.641970284639818,0.7038090125717659,0.7063822809541269,0.033551955833632185,0.06746268032430232,0.007738468644674867,0.0014164424014425315,10659.079561139455
1678320263249072336,269,1677825035336114168,camera_1,270,0,0.11320185858976242,-0.3255894094942443,2.641043283253403,0.7039592956003194,0.7063586478774104,0.033662645991207475,0.06607266432927654,0.005542508792132139,0.0010134781581807297,10669.999839709373
1678320263257270701,270,1677825035343665838,camera_1,271,0,0.11318061508833811,-0.32560223802497895,2.6410640935015994,0.703924605059074,0.7060589431324156,0.03488220915696147,0.06895034952408322,0.004961714614182711,0.0009079691401215027,10660.928535807177
1678320263264510924,271,1677825035350376844,camera_1,272,0,0.11322277711781677,-0.3256960605980005,2.641830285641053,0.7040158180849214,0.7062118882991933,0.032814105258536536,0.06745169536185598,0.0030777899082750078,0.0005633241744276131,10661.13932249357
1678320263270282123,272,1677825035357006788,camera_1,273,0,0.11321189683195425,-0.3256768367985027,2.6416843023163405,0.7039681045046796,0.7061771120278986,0.03432824379975559,0.06756009151599687,0.0031645121634937823,0.0005791608067837136,10660.238269468071
1678320263276289103,273,1677825035363012313,camera_1,274,0,0.1131974144598771,-0.32554340283104344,2.6406543336589916,0.7038978750316419,0.7062321791223161,0.033257211240260855,0.06824843293882009,0.0070223689544945955,0.0012843615299768646,10668.040597206687
1678320263283513542,274,1677825035369699478,camera_1,275,0,0.11323879382136351,-0.32562001948217534,2.641130793257995,0.70403173646758,0.7060570466812998,0.03422452295272738,0.06820148757016437,0.003259588615037501,0.0005963991687142571,10663.139088599593
1678320263290206146,275,1677825035377024412,camera_1,276,0,0.11335568359801039,-0.3258790754819737,2.643178766874658,0.7040949605279487,0.7063049020267375,0.03502017454232408,0.06447681216664208,0.004764882731251419,0.0008723631777632382,10655.052629461507
1678320263296315513,276,1677825035383746147,camera_1,277,0,0.11329046548533324,-0.32572838921461583,2.6419174762019333,0.7040544565182959,0.7061212568429408,0.03481288853023691,0.0669936988339488,0.005925067875068634,0.0010843811642686609,10659.178845447019
1678320263304016613,277,1677825035390368700,camera_1,278,0,0.11321373890644851,-0.3256572839147492,2.6413701047115143,0.703970722491521,0.7062215666149372,0.0354719608717569,0.06646849415040465,0.004469730833079666,0.0008175441600077032,10664.104571399392
1678320263310007390,278,1677825035397015571,camera_1,279,0,0.11323038628236609,-0.3256698336470074,2.641847804812043,0.7039697751858804,0.7062107731525271,0.03566558200956149,0.06648959142580255,0.0031303431605920196,0.0005728067592133831,10660.001101324222
1678320263316606338,279,1677825035402904510,camera_1,280,0,0.11320366707051294,-0.3256023394713252,2.641256707263659,0.7038447540728129,0.7062650112321238,0.03352129063721102,0.06832729430824143,0.004018646781332791,0.0007353165228375464,10662.678675393692
1678320263322828288,280,1677825035409975528,camera_1,281,0,0.11324263830603955,-0.32560826904888746,2.6411880053708425,0.704120872366702,0.7061157925463314,0.03276592023003521,0.0673845611820684,0.005161268752999604,0.0009441551761691862,10666.539086652101
1678320263330160630,281,1677825035417053222,camera_1,282,0,0.11323089565447395,-0.3255250117978181,2.640252698696877,0.7037731476290926,0.7062199289643508,0.03626248308077309,0.06813076346734503,0.0035996236256323755,0.0006581596613204711,10667.812625797347
1678320263336927265,282,1677825035423679590,camera_1,283,0,0.11322276023760289,-0.3255359960311278,2.640159255205507,0.7038779169100928,0.7060429310309915,0.036848868119420446,0.06856689103198896,0.004256104642990977,0.0007782166217650448,10666.63275023131
1678320263343221150,283,1677825035430486440,camera_1,284,0,0.11332783904095739,-0.3258093680456232,2.642620857735734,0.7040983573829034,0.7063340966999461,0.03341884563141776,0.06496789766055244,0.0033941580913960934,0.0006212051753520624,10660.284941323573
1678320263350025150,284,1677825035437006950,camera_1,285,0,0.11321337567462472,-0.3256279128832874,2.641316641762843,0.7038841198721744,0.70623558039605,0.03389855887325532,0.06803924221172247,0.003733278950676322,0.0006831301005624529,10662.481329245958
1678320263355412505,285,1677825035443045377,camera_1,286,0,0.11318869204183889,-0.32572191762855657,2.642105352528909,0.704036796114329,0.7064251318628175,0.035183332502822795,0.06370130221327844,0.0024595543509349227,0.00044985104192981734,10665.41748386878
1678320263362581561,286,1677825035449673652,camera_1,287,0,0.11320486486640609,-0.325684912484764,2.6419900715737388,0.7039420699800975,0.7065590473441414,0.031148108077405198,0.06534271261183788,0.005789381102658809,0.0010592073124888076,10667.084654459151
1678320263369746915,287,1677825035457026004,camera_1,288,0,0.11325929255133485,-0.32576690149249093,2.6425226673068463,0.7038797443757145,0.7064095146709284,0.03219618027242966,0.06709924750567335,0.004994509858079255,0.000914489715586437,10657.184923656632
1678320263377710616,288,1677825035463811874,camera_1,289,0,0.11317877338153542,-0.32550021679984803,2.6402193331298776,0.7036775007547091,0.7061098486511218,0.035675605318804635,0.070527354655007,0.003981645742896944,0.0007284012720217713,10662.504995052004
1678320263383698530,289,1677825035470443964,camera_1,290,0,0.11332499234387886,-0.32575148844167207,2.642031263072274,0.7039542382198575,0.7062458014638681,0.0350191329733685,0.06662551112563776,0.004825667187105864,0.0008831528345539339,10658.924992395796
1678320263389577353,290,1677825035476294517,camera_1,291,0,0.11325909769491818,-0.3256538397904904,2.64107106710578,0.7038387671237601,0.7061503550140058,0.03695711532314398,0.06779998255376554,0.007709439087193459,0.0014103047046893028,10661.134929535916
1678320263396577115,291,1677825035483033418,camera_1,292,0,0.11327368202921757,-0.3256969174164329,2.6415302204284234,0.703849843196668,0.7062157338273723,0.037400143512327434,0.06675301335482142,0.0029197119874879718,0.0005341624413729889,10659.532815195736
1678320263403742190,292,1677825035490359306,camera_1,293,0,0.11325325254838241,-0.32574169871434533,2.6421391508242666,0.7039152937457589,0.7062395813973761,0.03600080244134369,0.06657969001174768,0.0021271876175887883,0.0003893335520310001,10656.957438200716
1678320263410440451,293,1677825035497017621,camera_1,294,0,0.11316452751212518,-0.3256417091072773,2.641540348076368,0.7039944170803153,0.7062800337935711,0.033113068302802924,0.06681241869497723,0.002994578506331891,0.0005479119380850833,10664.79281166487
1678320263417139900,294,1677825035503709554,camera_1,295,0,0.11324221333396718,-0.3257426444850327,2.6425622259314983,0.7040531432289707,0.706357020610302,0.03180890590673068,0.0660085180030625,0.006336647435091436,0.0011600715801133282,10660.097220172644
1678320263423830339,295,1677825035510363340,camera_1,296,0,0.11324419168434172,-0.32560270807342223,2.641178789944993,0.7041185496780128,0.7060998969697988,0.03236280645367126,0.06776910990276899,0.003976750711444765,0.0007275372099108887,10666.086283212993
1678320263429324201,296,1677825035516306400,camera_1,297,0,0.11325756481672149,-0.32565538761326307,2.6413981128140525,0.7039412242953295,0.7061908078063727,0.034830288567204645,0.06743994888566303,0.0028189157019369304,0.0005157582305350073,10662.2040870632
1678320263436517352,297,1677825035523036956,camera_1,298,0,0.11326032109798236,-0.32567694192797975,2.641664796259471,0.7041041913890244,0.7060976495843568,0.03429943705720546,0.06698466643504263,0.00157724239397794,0.0002886252758777341,10661.889767186254
1678320263443294393,298,1677825035530386924,camera_1,299,0,0.11330332094565616,-0.325779229438069,2.6422285203650304,0.7038777434195715,0.7063738246290239,0.03561340358361384,0.0657558186225957,0.0053251347853802145,0.0009745030525105491,10658.780132640037
1678320263451548351,299,1677825035537023782,camera_1,300,0,0.1131831341522969,-0.3255233345568382,2.6403059677233873,0.7038341890421371,0.7060317435800552,0.037066193158089254,0.06901238089989113,0.004258357104845345,0.0007787787389616529,10664.023410668946
1678320263456233670,300,1677825035543740272,camera_1,301,0,0.1132278313429607,-0.3256813571523809,2.6417360036984907,0.703862264109926,0.7061933834848033,0.03415407648655847,0.06857344488710303,0.004152596928179264,0.0007601802315525528,10657.398333784666
1678320263463149554,301,1677825035550420522,camera_1,302,0,0.11318668511726815,-0.3256881137323643,2.6419385783775313,0.7039976581432855,0.7062536049902637,0.033559888889994435,0.06683469626412424,0.007064333593007177,0.0012929685644416477,10661.006101718176
1678320263469136210,302,1677825035556342601,camera_1,303,0,0.11324484232814046,-0.32573305554585785,2.6422795346007195,0.7041970125392392,0.7061447777506173,0.03348233785052397,0.06591701933799424,0.0032310205278918147,0.0005913129244568344,10660.642872144817
1678320263476868879,303,1677825035563626527,camera_1,304,0,0.11317800655099357,-0.32554162615924237,2.6405949705355587,0.7039929916377807,0.7061507590044092,0.033440223049578936,0.06802003208451723,0.005241771345026791,0.0009585972680906511,10668.894244670862
1678320263482867827,304,1677825035570414543,camera_1,305,0,0.11318097641135987,-0.3255856552218418,2.640718712481984,0.7039085908615641,0.7060436768975175,0.03613724331843175,0.06862304037031293,0.003352117259055376,0.0006132124474833356,10662.944993642162
1678320263488667102,305,1677825035576356649,camera_1,306,0,0.11324973685526474,-0.3256649632540545,2.641374616039089,0.7038719173852631,0.7062380257822457,0.03533724978547348,0.06740514545039178,0.004948027548380196,0.0009052996877980683,10661.842190957861
1678320263497364407,306,1677825035583664894,camera_1,307,0,0.113305966954023,-0.3257373056827833,2.641896010047413,0.7038097877081787,0.7065311315624881,0.03411837398967843,0.0655856647103549,0.0059061916545033455,0.001080534897226146,10663.74341859598
1678320263503492142,307,1677825035590401887,camera_1,308,0,0.11331885172233364,-0.32576996964559396,2.6420786121306787,0.7038199182754293,0.7063830581210357,0.035940874395585166,0.06609653081684372,0.0022894417634233832,0.00041898730545765744,10658.699814304251
1678320263510260942,308,1677825035597009420,camera_1,309,0,0.11317170179465863,-0.3254714487352281,2.639874664184228,0.7038025542482572,0.7060932199005213,0.03577351275090557,0.06938721229163024,0.005077555717434734,0.0009284143884759058,10668.207598314617
1678320263516306404,309,1677825035603729724,camera_1,310,0,0.11319783278821062,-0.3256252455843595,2.6411478472321197,0.7039148535569918,0.7061388068128941,0.032676240451658775,0.06931181547648534,0.005746909126173705,0.0010517293645394058,10661.923925620504
1678320263523771164,310,1677825035610400676,camera_1,311,0,0.11319867173169709,-0.3256100485074348,2.641411290808748,0.7040529266534642,0.7062375224163366,0.033797978090637365,0.06630033996074869,0.00405393575783819,0.0007415497071448622,10666.322443228799
1678320263529509677,311,1677825035617014169,camera_1,312,0,0.11322391551100836,-0.32570145819044466,2.6420231073582516,0.7039507151534721,0.7062933226598358,0.03438281924109588,0.06649026050541776,0.002465293335262686,0.0004511628572737064,10660.184813099564
1678320263537382237,312,1677825035623694896,camera_1,313,0,0.11324224906067379,-0.3256833621842286,2.6416293011242242,0.7039231425323804,0.706280532766772,0.03412226843702719,0.06704990110905629,0.002733460976742208,0.0005001733519076929,10662.219687333913
1678320263542869813,313,1677825035630375146,camera_1,314,0,0.11333807763607272,-0.32577988669139113,2.642111411222482,0.7040391391323112,0.706132113820908,0.03397631397330372,0.0674680553257469,0.0052084276103414595,0.0009534361902331512,10657.387778538283
1678320263550869691,314,1677825035637262821,camera_1,315,0,0.11324461426505805,-0.3255833168095689,2.6404760560712073,0.7037043346949282,0.7060468569145325,0.036658844521580684,0.07038589554037634,0.0037531479028984904,0.0006867519780626451,10659.480287931628
1678320263556244056,315,1677825035643690347,camera_1,316,0,0.11321011443209412,-0.32554425760208816,2.6404608722641343,0.7036468142481631,0.7061629980160385,0.03637274907691551,0.06994286351014907,0.0056747543858364224,0.0010382219008531366,10661.21695224219
1678320263563073687,316,1677825035650347948,camera_1,317,0,0.11320195853488893,-0.32563972246197714,2.6416110659246654,0.7041577149857579,0.7061428671577344,0.03416289051819858,0.066008033599949,0.0041510434239171445,0.0007593555015984652,10665.002023314359
1678320263570194204,317,1677825035657071828,camera_1,318,0,0.11323061555094487,-0.3257488982147455,2.642198827857221,0.7039364654553495,0.7063131275054415,0.03304942115251931,0.06710405559424307,0.005847239983268082,0.0010703459582337284,10658.783612427305
1678320263577059663,318,1677825035663634061,camera_1,319,0,0.11313124718535593,-0.32553043537639403,2.640644976252731,0.7038455292509741,0.7061668680434475,0.035318928860982035,0.06842805488421842,0.002925398002844304,0.0005350989008560876,10665.154012591232
1678320263582801250,319,1677825035669648408,camera_1,320,0,0.11321565782441921,-0.325587249668424,2.6408849225157622,0.7037583480271975,0.7061814484330193,0.033930317411199604,0.06986188539860658,0.005578316457103938,0.001020852219326252,10661.099324426152
1678320263590657257,320,1677825035676990509,camera_1,321,0,0.11324034900986196,-0.3256003169367158,2.6407957221689613,0.7038407373778165,0.7061727577906709,0.03663917067387487,0.06771871036944542,0.0066450092708691955,0.0012152724802023031,10664.002798540285
1678320263595974981,321,1677825035683659791,camera_1,322,0,0.1133275356581576,-0.32574019771548907,2.642005539891272,0.7038644588146156,0.7063817837767123,0.036634275240703555,0.06524974362881905,0.006802050571423024,0.0012444324472302092,10660.514896178265
1678320263603906625,322,1677825035690332174,camera_1,323,0,0.11324944943301052,-0.325631243755361,2.641159689554373,0.7040010471875406,0.7061694972978492,0.03571094388784265,0.06657248028719287,0.005019504984375089,0.0009180278866607149,10665.227209834618
1678320263609753321,323,1677825035696966171,camera_1,324,0,0.11323961456363976,-0.3256248094667864,2.6410834857464227,0.7037705208619922,0.7064248599306123,0.03605103598818159,0.06611576243101233,0.005484132387209684,0.0010028088545214807,10666.555769691593
1678320263615244459,324,1677825035703012466,camera_1,325,0,0.1132348009729022,-0.3257154595431913,2.6420732422689,0.7041236519979234,0.7060979107123024,0.03388606288941969,0.06698774460065963,0.003225910884793848,0.0005904407397583812,10659.109149967087
1678320263623339321,325,1677825035709858894,camera_1,326,0,0.11317304740479481,-0.3256290574614134,2.64155313490362,0.703899268896472,0.7063469375863533,0.03224476501929685,0.0675284987116048,0.006002042267937213,0.0010982983051465855,10663.867605576987
1678320263629390230,326,1677825035716956615,camera_1,327,0,0.11323398885847266,-0.3256548419540799,2.6416520202597282,0.7040262713436081,0.706348419596546,0.03511874289400408,0.06469616131597775,0.00453056552214548,0.0008285340858564336,10666.731381590947
1678320263635565386,327,1677825035723027944,camera_1,328,0,0.11320867944125973,-0.3255198751912125,2.6402950531556435,0.7039083579192285,0.7060856177071405,0.03587205713792321,0.06833242008940331,0.0028343070880509913,0.000518252901191601,10667.461852222683
1678320263642921475,328,1677825035730298519,camera_1,329,0,0.11330484194447264,-0.32573526175434164,2.6419425248666197,0.7038645879733433,0.7064926162839815,0.03588873340216361,0.06445792230687326,0.003139260516036302,0.0005742012747815316,10663.941215224912
1678320263650757996,329,1677825035736937999,camera_1,330,0,0.11320789695471027,-0.3255736878188177,2.6405314698343196,0.7038956875992707,0.7061948446685392,0.03566171259499043,0.06743845043830826,0.0031446065986528993,0.0005749857546595052,10668.127798734702
1678320263656648832,330,1677825035743620872,camera_1,331,0,0.1133750737231291,-0.3259088593972298,2.643562316905907,0.7040609419555641,0.7065989494999699,0.03213866657913449,0.06311276169443027,0.003411709680221975,0.0006245928898934906,10658.692763303872
1678320263663110264,331,1677825035750428915,camera_1,332,0,0.11315064048385229,-0.3255336277487916,2.640800965127452,0.7039202668142686,0.7062397328400106,0.03499635873312321,0.06705932151179203,0.006352858152240515,0.0011617938060690912,10667.857683152195
1678320263670984988,332,1677825035757591724,camera_1,333,0,0.11328632321373243,-0.32584030734918723,2.643123897911729,0.7041574015885922,0.7062805895553274,0.03497620898901709,0.064083909135897,0.004738321586046368,0.0008673566612175944,10656.545753826385
1678320263676291538,333,1677825035763080120,camera_1,334,0,0.11320795813305369,-0.3256869340719307,2.6419027081883826,0.7041216880470309,0.7061434235191524,0.03557860101279145,0.065637466377241,0.006092845113016665,0.001114644060982283,10661.805547222375
1678320263685617966,334,1677825035769843101,camera_1,335,0,0.11327664541629148,-0.3257030587916215,2.64175625699302,0.7040211127228965,0.7064051577947557,0.03397581351291515,0.06474310756765463,0.0015950686647556722,0.00029174025870678995,10667.141692884614
1678320263690340510,335,1677825035777068376,camera_1,336,0,0.11321248246963138,-0.32550686262716444,2.6400338167007065,0.703663336953829,0.7062565416458806,0.03595518637258767,0.06904223477202365,0.008078463026322424,0.0014772099035100226,10667.58722480899
1678320263697736268,336,1677825035783717870,camera_1,337,0,0.11330369940228335,-0.3257888531048338,2.6421149342978807,0.7039225512174945,0.7062503454299466,0.036945333268983506,0.06586754752667684,0.002410203276667744,0.000441081264785367,10657.653991756382
1678320263704050616,337,1677825035790408372,camera_1,338,0,0.11328594249815092,-0.32576240445752813,2.6424357898745434,0.7041578427422789,0.706180111761637,0.03478501741865755,0.06527928323783803,0.001433424069546163,0.00026234295952914016,10659.378331693359
1678320263710504715,338,1677825035797030210,camera_1,339,0,0.1132173974423451,-0.32568138403562297,2.641611275851586,0.704040169834,0.7061376670654103,0.03419819505346128,0.06728683278783135,0.0005065718432888389,9.270184479896392e-05,10661.668353686575
1678320263717353971,339,1677825035803778648,camera_1,340,0,0.11320492926293017,-0.32562133695824436,2.6413818338540547,0.7040571723358926,0.706195631199071,0.03421726473548282,0.06648614405840318,0.008530514198355377,0.0015603467133295734,10665.569711825457
1678320263724579808,340,1677825035810540437,camera_1,341,0,0.11321326257346864,-0.32569834582879725,2.641968112135505,0.7039436251808595,0.7062327325282878,0.03439367847997606,0.0671995160211259,0.00202710967278108,0.0003710457896021839,10658.811769501188
1678320263730518693,341,1677825035817027568,camera_1,342,0,0.11324519739509152,-0.32571358879912515,2.642110772895174,0.7040530343383538,0.7062704079883416,0.034903390150916355,0.06536963358403856,0.0027794393245130777,0.0005085476122666674,10661.638028204441
1678320263737248802,342,1677825035823714494,camera_1,343,0,0.11320736966752401,-0.325541782096384,2.64074463453706,0.7039008600636136,0.706160286440475,0.03489587784861092,0.06814328114484958,0.003019448195118457,0.0005522722559980727,10665.605147857215
1678320263743569994,343,1677825035830425262,camera_1,344,0,0.1133541906504108,-0.325829226415398,2.6429165258118967,0.7041568946128847,0.7062701133138211,0.03114669856509344,0.06614739584682494,0.0025986432447098196,0.000475845995674855,10657.552343290536
1678320263749602955,344,1677825035836252689,camera_1,345,0,0.11324745726696572,-0.3255781536277199,2.6407764539079683,0.7038966115511454,0.7063110891596224,0.03533178152307293,0.06637673381065015,0.005652749561704695,0.0010334663367820424,10669.29752234137
1678320263757156133,345,1677825035843706846,camera_1,346,0,0.11323088945413842,-0.32557651010846883,2.6409582827127167,0.703892113096183,0.7063033097534226,0.03514580550867641,0.06660555613083123,0.003769758273847401,0.0006893742338230374,10667.514220969984
1678320263763660517,346,1677825035850383758,camera_1,347,0,0.11325456177234436,-0.32572014036378566,2.6421531580198474,0.7040169811682132,0.70634838710466,0.035914259932313015,0.06436002015968835,0.002199928800109774,0.0004024420623706144,10662.49631134095
1678320263769979684,347,1677825035857123613,camera_1,348,0,0.11322225944847894,-0.3256835056504314,2.641712459699945,0.7039520743998763,0.7060800606275878,0.0343229331229274,0.06873398863802631,0.002169861865695566,0.00039723766555829906,10656.955426966078
1678320263775721061,348,1677825035862987279,camera_1,349,0,0.11314073646955014,-0.3254416800523572,2.639902878992097,0.7038628913178578,0.7061740509345796,0.033397671039027556,0.06913635499127944,0.00544093589996919,0.0009947579318948636,10671.614358330262
1678320263782785845,349,1677825035869719266,camera_1,350,0,0.11323598447282951,-0.32567149282468316,2.641582771342583,0.704047274084754,0.7060909008753127,0.03341845154308223,0.06809025371798359,0.0036842210683971643,0.0006742906258288498,10660.763211770802
1678320263789954691,350,1677825035877058506,camera_1,351,0,0.1132323254997239,-0.32566947994994394,2.641688311453832,0.7040757322017708,0.7061576171807574,0.034589009462067964,0.06650100335008685,0.0020973573555238545,0.00038375112595881667,10662.589819129204
1678320263797597615,351,1677825035883660554,camera_1,352,0,0.11329672103147909,-0.32574512828396496,2.6419958563752983,0.7039915351940442,0.7061047608829494,0.03569203300765425,0.06736515281171923,0.002026029513217509,0.0003708710513552314,10656.47812079615
1678320263803494666,352,1677825035890463590,camera_1,353,0,0.11330483955572018,-0.325750808649631,2.6418849886053355,0.7039611036266592,0.7062352260640142,0.03552005439188498,0.06639951643682472,0.004121195001062006,0.0007541134561476347,10660.030709577492
1678320263809608293,353,1677825035897118568,camera_1,354,0,0.1132391947774571,-0.32555608447365036,2.640575418688269,0.7038847464709411,0.7061347164015904,0.03467833619724203,0.06868361505173932,0.0026008555432781577,0.0004757196540351017,10665.785505997019
1678320263816660785,354,1677825035903688669,camera_1,355,0,0.11328904450567812,-0.32573721886371343,2.6419540388343954,0.7040150401439994,0.7062880894713187,0.03411527499987081,0.0660008025230058,0.002914940705522895,0.0005333671950901183,10662.247019135393
1678320263822503919,355,1677825035909736394,camera_1,356,0,0.11313832007846794,-0.32546861560823054,2.6401547532867538,0.7038460870182937,0.7060830745359681,0.03506579556537098,0.06941014064413885,0.007141495065297931,0.001306021188167038,10666.831142752666
1678320263829800364,356,1677825035916993856,camera_1,357,0,0.1132920644287974,-0.3259085452846491,2.643785278569455,0.7044089298319637,0.7062530702561778,0.02964333549827906,0.0643112197617681,0.002699580159969628,0.0004944593384676144,10656.734640786422
1678320263836932265,357,1677825035923710823,camera_1,358,0,0.11312537690119538,-0.32552008529871007,2.640686148784655,0.7037494769044855,0.7062177526460284,0.03593360382696725,0.06857066224168049,0.0060879873926751316,0.0011135956630039473,10663.680044727756
1678320263843063770,358,1677825035930354833,camera_1,359,0,0.11321131523000534,-0.3256235464831507,2.6411997245828704,0.7039336462300967,0.7060514000426517,0.03644449799204287,0.06812224870863079,0.004788146063219756,0.0008760834226997826,10659.992626158404
1678320263848649123,359,1677825035936368942,camera_1,360,0,0.11324434762959479,-0.3256505800054786,2.641202102774467,0.7038857726985377,0.7062985165073585,0.036155773732495525,0.06618145206847519,0.0032554548233747482,0.0005953530367213049,10665.284731708005
1678320263856425792,360,1677825035943660020,camera_1,361,0,0.11337952889943491,-0.32585635583129047,2.642752435342157,0.7041332953006461,0.7063649355322521,0.03322822089814114,0.06434878115018958,0.002144676516763866,0.000392524782120942,10660.930973941813
1678320263863612936,361,1677825035950426340,camera_1,362,0,0.11325426217987776,-0.32561284696853415,2.6409557293538453,0.7038133439085158,0.706312400377436,0.03594567500985379,0.06691396309787452,0.004671995411626995,0.0008544279996771228,10665.693569881843
1678320263869356618,362,1677825035957033634,camera_1,363,0,0.11328153835933945,-0.32574403107157335,2.642104795012034,0.7038795374945476,0.706200033210752,0.03642550608122816,0.06714381800524293,0.0029533259803429246,0.0005405897373118344,10655.23193576443
1678320263876666891,363,1677825035963065385,camera_1,364,0,0.11315648563517625,-0.3256000991093078,2.641189238297802,0.7039387054703043,0.7063438160811387,0.032899999272497815,0.06683040081127918,0.005323927383869886,0.0009738345578988617,10667.824903768138
1678320263883560845,364,1677825035970426082,camera_1,365,0,0.11313298889884862,-0.3255346709832031,2.64045943324719,0.7038838257392005,0.7062487499937868,0.03374954827845428,0.06797963655360897,0.003570692031644285,0.0006529409368762182,10669.725255998086
1678320263890412476,365,1677825035977079868,camera_1,366,0,0.11319433665213048,-0.32561775435867724,2.6411991765174587,0.7039281257425454,0.7063002587268121,0.03277828090726465,0.0674590439584634,0.004639990453142673,0.0008488563187908259,10666.25171914208
1678320263896926288,366,1677825035983690738,camera_1,367,0,0.11326979835398877,-0.3257468171488178,2.6423676921512302,0.7040368758059805,0.7064334401772956,0.032922760469369365,0.06480712883396615,0.006283735565375536,0.001149879119779819,10663.346655129219
1678320263903674555,367,1677825035990382909,camera_1,368,0,0.11331971383386963,-0.32571291706713723,2.64184977909861,0.7039260717881268,0.7063398161230933,0.03440030686593061,0.06624778112255005,0.004602078755851835,0.0008420385967028389,10662.121808569878
1678320263909646825,368,1677825035996399402,camera_1,369,0,0.11329486666544918,-0.32573044021993003,2.6419977910549988,0.7040799114147518,0.7062130816250818,0.03420487712794578,0.06606502905821672,0.006265645322855562,0.001146557522038073,10661.639876999776
1678320263916735774,369,1677825036003070354,camera_1,370,0,0.11326958738360546,-0.3256456508399463,2.6413034411850314,0.7038618990397904,0.7062131234766668,0.035325942632556465,0.06777557883597668,0.0035096349893137813,0.0006421505385901928,10661.476391233155
1678320263923790501,370,1677825036010373115,camera_1,371,0,0.11320428347565534,-0.32561240915751705,2.6413955326467105,0.70400035825452,0.7062806785875869,0.0330606034118448,0.06676896834166204,0.005435879167634994,0.0009944069196702592,10666.13044107263
1678320263931142329,371,1677825036017042875,camera_1,372,0,0.11324285202220773,-0.3257690065243979,2.6425081061948212,0.7039790001779835,0.7064352220000295,0.03248862389669257,0.06563028069020338,0.008903518319129944,0.0016294916033478782,10660.674620400534
1678320263937261263,372,1677825036023743391,camera_1,373,0,0.11317949833345443,-0.32568988082106465,2.641885455787986,0.7040218370744603,0.7063115134178926,0.033868786908617,0.06580428716251717,0.002326337504200637,0.0004256338699900434,10663.649579282857
1678320263943729610,373,1677825036030383825,camera_1,374,0,0.11323750757541699,-0.32565253301158703,2.641358435218607,0.7038704140320271,0.7062940981838627,0.035542257558273435,0.06672207317438829,0.004558303742669523,0.0008338279920389283,10663.468583709559
1678320263949664165,374,1677825036036308288,camera_1,375,0,0.11325931857160206,-0.3256097055563739,2.6409132061487326,0.7038368430862274,0.7063918546425517,0.033850298487578326,0.06692087343550784,0.0031572608277201653,0.0005773821519124622,10668.625734774629
1678320263957728017,375,1677825036043712615,camera_1,376,0,0.1132593300159065,-0.3255609162824915,2.6403588527194466,0.7040782712330202,0.7060084770817909,0.035818565322341504,0.06740065759635423,0.003349372942466289,0.000612317669318804,10669.3904125765
1678320263963549850,376,1677825036050321340,camera_1,377,0,0.11328623533903816,-0.3257519712698311,2.642313610197609,0.7042472208325462,0.7062382301604793,0.03155181049184566,0.06532914712527202,0.0034092303249053657,0.0006238814357498177,10664.023412222276
1678320263969675978,377,1677825036056557416,camera_1,378,0,0.11327137780339165,-0.3257568841168201,2.6421789069012402,0.7038361240439133,0.7062931715945522,0.03704583833617139,0.06627421905778942,0.0029862691299058497,0.0005465484068961264,10656.024165566314
1678320263977304375,378,1677825036063668251,camera_1,379,0,0.11319613572540599,-0.32560390234990866,2.641126464210629,0.7039402927985638,0.7062290975300969,0.03315944263292132,0.06788944940689405,0.004780547285918146,0.0008745865564964737,10665.283644591109
1678320263983780962,379,1677825036070393562,camera_1,380,0,0.11318383257030853,-0.32556680320850884,2.6408241109945485,0.7039023485671351,0.7061265114734961,0.03465415836998558,0.06859972874297598,0.0015849251649342477,0.0002899520509293373,10664.064495115072
1678320263990439415,380,1677825036076998233,camera_1,381,0,0.11320855095790196,-0.3256320873182316,2.6413031710881003,0.7040282461460442,0.7061827480343433,0.034665091656254594,0.06669697465141726,0.0028963233926333487,0.0005297927048138465,10665.095251957424
1678320263996826746,381,1677825036083642482,camera_1,382,0,0.1132661075957488,-0.3257038445713971,2.6416607718056446,0.7038600119142464,0.7061405918211452,0.03554468895149333,0.06843334931085415,0.005372326530050486,0.0009833770278487722,10656.602788484312
1678320264002586141,382,1677825036089705228,camera_1,383,0,0.11331590334791011,-0.3257608859465422,2.642160151109626,0.704185815507113,0.706101748664804,0.033906134574788055,0.06627995028124747,0.0036067666951566935,0.0006601130795051965,10660.135514691934
1678320264010510732,383,1677825036096935272,camera_1,384,0,0.11323456223360069,-0.32564305304048197,2.641228188558074,0.7038898441662935,0.7063436681282947,0.03346864720695109,0.06706384591382454,0.004490796942263842,0.0008215051112111182,10666.194501673688
1678320264017288052,384,1677825036103609561,camera_1,385,0,0.11323648508757456,-0.3255866018474393,2.6410774621943287,0.7038075642631835,0.706249081469347,0.033395151986823,0.06893410791042237,0.0045493695652112365,0.0008324772881167254,10662.669552961828
1678320264024030034,385,1677825036110304355,camera_1,386,0,0.11311915581105898,-0.3254155115910651,2.6398389693896434,0.7037879699234595,0.7060078648737677,0.03613956430082083,0.07020911635639948,0.0025685623404569924,0.0004697618714804417,10665.880452428712
1678320264030018506,386,1677825036116938829,camera_1,387,0,0.11325682891452188,-0.3258195113000837,2.642811940897859,0.7040593741118049,0.7064442170786093,0.03317713119353497,0.06431363655750995,0.0038647495093755424,0.0007072913356327124,10660.657631470824
1678320264036852747,387,1677825036123649120,camera_1,388,0,0.11322572107714306,-0.3256969616219507,2.641879419116191,0.7040224010661037,0.7062439924461126,0.03491241079783856,0.0659773105179096,0.002877959341276437,0.0005265732054682041,10661.968730902998
1678320264043435352,388,1677825036130313634,camera_1,389,0,0.11321801920201882,-0.3257220608621162,2.641882973361275,0.7039538406778851,0.706203955960799,0.035683299252047926,0.06672079836648909,0.002473518194165081,0.00045266630228960134,10659.069598164991
1678320264050148629,389,1677825036136999368,camera_1,390,0,0.11322979413486323,-0.3256171859712612,2.641141370534126,0.7038279330424052,0.7061826029365414,0.03609327762850538,0.06804151151362023,0.004785682423971593,0.0008756235667496807,10661.129265376136
1678320264056981333,390,1677825036143615245,camera_1,391,0,0.11332244690886986,-0.3258035017268319,2.642420150333017,0.7040367802106603,0.7062015733170198,0.036969438876479556,0.06515221058667639,0.0026843667728826404,0.0004912425419982472,10656.95729327749
1678320264063908950,391,1677825036150329351,camera_1,392,0,0.11325086800845462,-0.32561775532924003,2.6410285471941966,0.704017727003775,0.7061232518579033,0.03559543506296413,0.06694742902260534,0.005097661749459803,0.0009322705066598815,10665.47037166206
1678320264070423392,392,1677825036156934738,camera_1,393,0,0.11328417396692307,-0.3257741458257002,2.6423483919695108,0.7039331901529878,0.7061359209311665,0.034865062644310045,0.06807754680171368,0.007039011805318296,0.0012890111489022367,10652.867886021968
1678320264076777549,393,1677825036163053274,camera_1,394,0,0.11323881966029141,-0.3256829837490548,2.641882517118313,0.7040625688395027,0.7062489940799329,0.0324597104589235,0.06674297503952238,0.0022627723519690335,0.00041411228148572005,10662.952075422741
1678320264084226944,394,1677825036170283317,camera_1,395,0,0.11327076059125828,-0.32587331938242464,2.643342244073798,0.7040805406018028,0.7063716774100316,0.0329013285421882,0.06501652312274801,0.0029332751873880625,0.0005371383372804093,10655.002921185926
1678320264090475852,395,1677825036176940202,camera_1,396,0,0.11317193894179674,-0.3255413930947455,2.6408088393781908,0.7038656952271394,0.7061968852078235,0.03440660095091955,0.068375640517571,0.0009880626457743347,0.00018075253712458754,10665.103834540116
1678320264096968014,396,1677825036183572769,camera_1,397,0,0.11326872608309894,-0.3257578515535321,2.6422838886016975,0.703873006377308,0.7062873395994528,0.0338378031038838,0.06764604863552894,0.0036039474653080106,0.0006598801772209552,10655.768485673478
1678320264104623648,397,1677825036190279006,camera_1,398,0,0.11325755977484063,-0.32569337585501995,2.641633149412731,0.7039835851452995,0.706199821036923,0.03301523078088794,0.06781533123028713,0.0028441062895581126,0.0005205208914895738,10661.525287765304
1678320264110354130,398,1677825036196892023,camera_1,399,0,0.11329267367108897,-0.3256991574127509,2.6414631020791015,0.703852363110045,0.7063402710709704,0.03400690413370036,0.06722204161608603,0.002868866315111518,0.0005249010067123245,10663.211723060349
1678320264117865753,399,1677825036203581333,camera_1,400,0,0.11327019414369548,-0.32560842352971947,2.6408900891927596,0.7038528771171774,0.7062101987669469,0.03710792826018154,0.06694239457666643,0.002770623308606446,0.0005067011856285258,10664.610564217897
1678320264123883349,400,1677825036210235118,camera_1,401,0,0.1133179975773891,-0.32581728146975664,2.642616622203341,0.7040274109224949,0.7064582876573322,0.03328403909605107,0.06445358959353045,0.004089945869054645,0.0007484661350004746,10661.737166488778
1678320264131182937,401,1677825036217001914,camera_1,402,0,0.11326069971719398,-0.325764045885025,2.6425157927309564,0.7040486024355401,0.7063305296184246,0.03230939737228401,0.06609728571551611,0.00515200209338218,0.0009431466476472292,10659.654525215272
1678320264139079940,402,1677825036223650932,camera_1,403,0,0.11316271296274165,-0.32560306421057666,2.6414321905023423,0.7039162723852784,0.706162441618303,0.03458036826583328,0.06812257811835279,0.005275007744785398,0.0009652884053988533,10660.548985363448
1678320264143751361,403,1677825036229637384,camera_1,404,0,0.11313310052850109,-0.3255667692863528,2.6408473838335365,0.7038713188306168,0.7062615626052398,0.03258747445129422,0.06854070486170492,0.003763810673262924,0.0006885554415139182,10666.516000279691
1678320264151107519,404,1677825036236335039,camera_1,405,0,0.11317494107998667,-0.3254831915680546,2.6402033883463925,0.7038886675007956,0.706056521494493,0.03522353715927377,0.06916816210540959,0.0031787937623448674,0.0005813410971716891,10666.863508815295
1678320264157632297,405,1677825036243624925,camera_1,406,0,0.11339633991624395,-0.3259191801983371,2.6434559660234904,0.7040856274615795,0.7064707991578479,0.033594285740114256,0.06351270034345118,0.005519698082935065,0.0010104572500520216,10656.878179783465
1678320264163883788,406,1677825036250280618,camera_1,407,0,0.11330509271703917,-0.32565601723718396,2.6410136157705715,0.7038765410692854,0.7061503317983524,0.03698571264081764,0.06739125235419258,0.0022046976955607533,0.0004032654905860009,10662.588228484616
1678320264170269723,407,1677825036256946086,camera_1,408,0,0.1133089989507659,-0.32579067631842584,2.6421876301253424,0.7041314794952815,0.7063048894102025,0.03534610550039553,0.06389769639808986,0.0014722816413268447,0.00026934362405485625,10664.000977011867
1678320264177079170,408,1677825036263598918,camera_1,409,0,0.11320930481782943,-0.3255420431322647,2.640581235570074,0.7037419709522567,0.7062501049039848,0.03654677936629042,0.06798794423495677,0.0035408168914727867,0.0006475867162971469,10665.194217083625
1678320264183790492,409,1677825036270290851,camera_1,410,0,0.11323451366612149,-0.3257471733407984,2.642355765156634,0.7040136421101009,0.7062500692501503,0.034404336382277655,0.0662719627378262,0.0025325868045911193,0.0004636113499524212,10658.032572989578
1678320264189505678,410,1677825036276323795,camera_1,411,0,0.113158151824484,-0.3257228976934525,2.6421695461201886,0.7041158989610298,0.7060825820329049,0.034715177491179035,0.06680602242165756,0.0012639646884053946,0.00023136294651375616,10657.807330790904
1678320264196600284,411,1677825036283295154,camera_1,412,0,0.11318428099915924,-0.325730838427695,2.6421605792661875,0.703770392981686,0.7062781678361255,0.034793337053416536,0.06832135315650703,0.0035443113301880658,0.0006490390928052716,10653.875057433032
1678320264203759842,412,1677825036290279865,camera_1,413,0,0.11321580078015855,-0.3256682205677,2.641766070289887,0.7038188120158645,0.7063985833230658,0.035165814014793406,0.06635877377121908,0.0029289535013958816,0.0005359201342106855,10661.621703129615
1678320264209585516,413,1677825036296329975,camera_1,414,0,0.11327364250450553,-0.32567660736949283,2.641312310226561,0.7038681579621734,0.7062907255163284,0.03400543021139193,0.06757705211603872,0.005558551580179483,0.001016998264511904,10663.526640077233
1678320264216827206,414,1677825036303261756,camera_1,415,0,0.11333021504498539,-0.325690519509897,2.641541062041842,0.7040638528121461,0.7062180907441223,0.034014859752600525,0.06628038009135308,0.004517077759373933,0.0008263237088231413,10664.977644049093
1678320264223406459,415,1677825036310288190,camera_1,416,0,0.11327667845030702,-0.3256459725922516,2.6413157515640204,0.7041199762006612,0.7061928115389752,0.033118687535736345,0.06640726301970477,0.003105084877461195,0.0005679615271865688,10667.564327907754
1678320264230657717,416,1677825036316930294,camera_1,417,0,0.11327645462129875,-0.325845852481204,2.6429363286923846,0.7041071378127834,0.7063234476197078,0.03430032921418316,0.06452761609961151,0.0036402467521838844,0.0006663228438449454,10657.782516402309
1678320264237115168,417,1677825036323622941,camera_1,418,0,0.11320351391122445,-0.32564900235254784,2.641538841258413,0.7038612717797323,0.7062432135404959,0.034589959993914864,0.06784812513423541,0.0036461014533415437,0.000667213967372315,10660.348555317267
1678320264243620111,418,1677825036330287933,camera_1,419,0,0.11319665108267055,-0.32570700881320486,2.6420964544565315,0.703983036682888,0.7063604725005963,0.034494951877493886,0.0653671572461552,0.005269378190860152,0.0009641887365850759,10662.288791630297
1678320264249865876,419,1677825036336394548,camera_1,420,0,0.11316878212256354,-0.32556124934515107,2.6409334925425396,0.7039370312311918,0.7061586316491871,0.034118693956798285,0.06818033243866006,0.007069380430039018,0.001293279483235355,10664.964814724164
1678320264256729100,420,1677825036343592405,camera_1,421,0,0.11331061925020354,-0.32585939255418295,2.6431128605075775,0.7041327477487912,0.7062312447007498,0.03293465232409533,0.0659530987327964,0.003981919144280255,0.0007291922285524631,10654.459225792896
1678320264263915965,421,1677825036350285530,camera_1,422,0,0.11323035770490503,-0.3255844268470462,2.640711936969783,0.7040372007763661,0.7061344551928986,0.03587197619107409,0.0664752016661442,0.004644748813007027,0.0008491991538055617,10668.869881671384
1678320264269696802,422,1677825036356914520,camera_1,423,0,0.11335353239181843,-0.325777711295587,2.642307750444065,0.7039460420846501,0.7064397787674237,0.032836932637086445,0.06576127023847093,0.002391378744505346,0.0004376855763525854,10661.507269114372
1678320264276380257,423,1677825036362918615,camera_1,424,0,0.1132448816971887,-0.32560468797716013,2.641013563614384,0.7039827102324339,0.7062262474855343,0.033303477180690794,0.0674070431332889,0.004519403271842748,0.0008267270209420792,10667.247678186868
