field.image_seq,field.transforms0.transform.translation.x,field.transforms0.transform.translation.y,field.transforms0.transform.translation.z,%time,field.header.seq,field.header.stamp,field.header.frame_id,field.transforms0.fiducial_id,field.transforms0.transform.rotation.x,field.transforms0.transform.rotation.y,field.transforms0.transform.rotation.z,field.transforms0.transform.rotation.w,field.transforms0.image_error,field.transforms0.object_error,field.transforms0.fiducial_area
179,0.0,0.0,0.0,1678323534436501956,176,1677825034770545005,camera_1,0,0.7038093425930093,0.7062736356411355,0.03390680595485867,0.06841264054973975,0.0015356981311924756,0.00028106063999981066,10660.50733399484
180,5.394128878642712e-05,-0.00011375382031653114,0.0009170592094132068,1678323534443115449,177,1677825034777125358,camera_1,0,0.7041289383228756,0.7061511666395078,0.032474114885685315,0.06707011206456692,0.003310047439299524,0.0006060232430805273,10658.268209366126
181,0.00011229596271687681,-0.00035568532254970364,0.002959179537251888,1678323534450574014,178,1677825034783750057,camera_1,0,0.7043614617127044,0.7063493972777842,0.03051263434199006,0.06335960357171942,0.003166327194776386,0.0005800685869298889,10653.177287101513
182,5.929068066415355e-05,-1.089134732717989e-05,-0.00026168351302180426,1678323534456432110,179,1677825034790502548,camera_1,0,0.7041701452443353,0.706090904198865,0.03477985569639413,0.06610902504150996,0.005565377359744161,0.0010177072040884595,10667.398171124856
183,0.00010312785462390783,1.2171735176591536e-05,-0.00046967675041642565,1678323534462553226,180,1677825034797252416,camera_1,0,0.7040454794942497,0.7062446385630294,0.03255553349211887,0.06692242183104079,0.004211605119053274,0.0007702386292881104,10669.660389925235
184,0.0001392130732945085,-7.130421617074223e-05,-2.1016622374858684e-05,1678323534469913665,181,1677825034803693056,camera_1,0,0.7039397669884285,0.7061748094206971,0.03499065259404603,0.06753959744447666,0.004277343978174032,0.0007826366336302258,10661.512412707087
185,3.082171077672946e-05,5.2617354167672215e-05,-0.0009071169324421646,1678323534476049657,182,1677825034810343265,camera_1,0,0.7037766221524316,0.7061359163456931,0.0355148401933027,0.06934861126501436,0.007122525072190911,0.0013029573965065836,10663.294148788322
186,0.00010654155164650791,-0.00013661439783813067,0.0008221632952110092,1678323534483119070,183,1677825034817142486,camera_1,0,0.7039215534662857,0.7063590694398495,0.03563649675092435,0.0654320386737445,0.005521907820366323,0.0010104135152781057,10659.285598137998
187,-1.4451706353238447e-05,-1.2411689360558587e-05,-8.961637833859726e-05,1678323534489194510,184,1677825034823866367,camera_1,0,0.704027413627186,0.7061021755871432,0.03398669010115952,0.06789715302195054,0.00186523114098236,0.00034132675520213144,10662.458306749348
188,-1.6693922754315582e-05,-0.00010289209438463232,0.0007839410982581896,1678323534494886595,185,1677825034829753398,camera_1,0,0.7039643892419252,0.7062436262966547,0.03339037928996958,0.0673733000933327,0.0040081252227537325,0.000733768781424281,10657.508224002198
189,2.293556632324001e-06,-1.8473173204358595e-05,0.0001386094479043365,1678323534502427572,186,1677825034837048768,camera_1,0,0.7041172169384596,0.7062061554626036,0.03269698858052972,0.06650351671401987,0.0055640002246946105,0.0010179191559338157,10665.729518700855
190,0.00011441399174973166,-0.00019250433874606898,0.0014143811567932651,1678323534511976189,187,1677825034843797206,camera_1,0,0.7039911415963893,0.7063719195581202,0.03338744768767093,0.06573022250450992,0.00600951787782833,0.0011002258782956294,10656.561050061253
191,9.459091186027335e-05,-1.1864852350829125e-05,-0.0006875065567935046,1678323534515009299,188,1677825034849773168,camera_1,0,0.7038270427327836,0.7061468005736037,0.036146917342845,0.06839291136000378,0.00582843495067209,0.0010661664187466369,10663.180345010833
192,0.00013274834602715335,-0.00011911114625118291,0.00029621858359618614,1678323534522588200,189,1677825034856790065,camera_1,0,0.7039328991821661,0.7062809898621286,0.03592889050844681,0.06599054201318963,0.002599829866085201,0.000475652112468464,10661.701291244244
193,8.910734904191142e-05,6.445825433615271e-05,-0.0008812587725728349,1678323534530811869,190,1677825034863768100,camera_1,0,0.7039979111213012,0.7061894502899112,0.034803734128945336,0.06687377308601128,0.004394082468934357,0.0008033077350638525,10670.414616959399
194,-1.3340373604842082e-05,-1.77271271766255e-05,-0.00023896874666196055,1678323534536179195,191,1677825034870501995,camera_1,0,0.7039368175833797,0.7062321640627842,0.03610733321999155,0.06637279398609794,0.0034804932656697925,0.0006365725141357541,10664.881819907225
195,-3.5957517643694925e-05,5.058635018506674e-05,-0.00041158527308038373,1678323534541648279,192,1677825034876345157,camera_1,0,0.7038883257641458,0.7060985761673628,0.03470415085683816,0.06900469187436811,0.0032960835960693657,0.0006031488054263505,10661.301590561512
196,5.521662781007852e-05,-0.00020425217512637373,0.0014243332493690808,1678323534549654744,193,1677825034883761644,camera_1,0,0.7041914960707545,0.7062712097280425,0.03411580865169273,0.06427617576490574,0.006686621985863893,0.0012236999467177944,10659.189551701309
197,1.788291986710988e-05,-3.1525009967559026e-05,0.00021874067043059497,1678323534556999818,194,1677825034890496969,camera_1,0,0.7038434353224087,0.7063149700423449,0.03367814421880785,0.06774484666458855,0.004547352727968246,0.0008322283595223014,10660.752089198912
198,3.579674819607914e-05,-7.299081346062719e-05,0.00015869198477025392,1678323534561387837,195,1677825034896349191,camera_1,0,0.7038727592947067,0.7062128272688961,0.034905200581781815,0.06788378522205238,0.003396115789655596,0.0006215551872633809,10659.32892438886
199,6.379275181482569e-05,1.5684607991062194e-05,-0.000608201314231227,1678323534568329511,196,1677825034903126478,camera_1,0,0.7038681379459806,0.7061183077799704,0.034351459976479225,0.06918494778413307,0.003169419476762414,0.000579904790613755,10662.761355633262
200,8.40566044912755e-05,-2.1182041474610003e-05,-0.000273297069942835,1678323534577154789,197,1677825034910499572,camera_1,0,0.7040540005899686,0.7062455480088639,0.034741851840322316,0.0657129660084319,0.00415496074128896,0.0007598384181122079,10668.52353097382
201,0.00015620898529870864,-0.00018117684560542413,0.0012382233464527381,1678323534582304840,198,1677825034917077779,camera_1,0,0.7040571378057943,0.7062420144181006,0.033617512057240624,0.0662995223094224,0.003503789252135903,0.0006415233708542402,10656.257913698675
202,3.585120236135331e-05,3.987606088984297e-05,-0.0005034314545997454,1678323534589670028,199,1677825034923938274,camera_1,0,0.7038659805582852,0.7062918942802313,0.03471273547347626,0.06722698478077767,0.002200111746788025,0.0004024083123385196,10666.618690301546
203,6.776339709828327e-05,-0.00012369691691410667,0.0008422123237883383,1678323534595938787,200,1677825034930506706,camera_1,0,0.7040743772511442,0.7062439657046781,0.03335927655324171,0.06622605885893723,0.004086848173756152,0.000748014180802899,10659.961076191508
204,-4.557649649392093e-06,9.289112956056833e-07,-0.0002313458839156013,1678323534601420093,201,1677825034936291694,camera_1,0,0.7038729619391038,0.7063514196752618,0.034614660684626763,0.06657590134202923,0.0030875058146193624,0.0005647185754789325,10666.213265242288
205,9.991197606278035e-05,-0.0002125280712275135,0.001675629575343951,1678323534608398922,202,1677825034943076372,camera_1,0,0.7041550587241161,0.7064218383754394,0.028520007855883163,0.06573012012313348,0.008080620900727808,0.001479638961502846,10659.711719778012
206,3.146633025311041e-05,-1.6103794281796535e-05,5.010909752023451e-06,1678323534616831066,203,1677825034950578927,camera_1,0,0.7039401257699003,0.706411965130101,0.033748392315733323,0.06566186768733659,0.0072753254789859065,0.00133063611475575,10667.670033357805
207,4.894537439027735e-05,-1.9743962860641062e-05,4.7422748063574716e-05,1678323534622401070,204,1677825034957170009,camera_1,0,0.7039089286626279,0.706295615419116,0.03318654019423786,0.06750835014055567,0.004974343697540462,0.0009102180941939551,10663.307652567048
208,-7.890806208069034e-06,0.00012603903184527088,-0.001459858609668352,1678323534631315254,205,1677825034963759183,camera_1,0,0.7038218792967393,0.7062510734593533,0.0364623316793068,0.06719138210533718,0.005382216942962259,0.0009836135573508577,10672.16040625644
209,1.4042005955186565e-05,6.417703119898643e-05,-0.0008673727652088736,1678323534634585055,206,1677825034969747304,camera_1,0,0.7039136157174544,0.7061587966157352,0.03688836905492381,0.06696733381481472,0.0031644537230022256,0.0005785849548917037,10667.401825492963
210,4.3744566396386464e-05,-1.5065503125410995e-05,-8.796043654646368e-05,1678323534642477819,207,1677825034976616382,camera_1,0,0.7039449695317473,0.7063285679732151,0.032517428337286096,0.06711222534072414,0.005204763438086957,0.0009522077151750348,10666.18104686088
211,9.973290615915287e-05,-0.00016804640539974658,0.0010128615375535333,1678323534649556171,208,1677825034983732461,camera_1,0,0.7039161145462088,0.706297496037236,0.03570867075164804,0.06611234080600925,0.002686560095753521,0.0004917745596664329,10655.954070650045
212,3.528886954988486e-05,-3.630265011261846e-05,5.545843292775743e-05,1678323534655154600,209,1677825034989924907,camera_1,0,0.7040255919215828,0.7061558260780401,0.0350352800828635,0.06681649770095144,0.0024534271215088665,0.00044885840615782764,10662.755437282265
213,8.929160953577431e-05,-0.00020937704182383277,0.001561611516421646,1678323534661592653,210,1677825034996572017,camera_1,0,0.7041196636135596,0.7062841863287407,0.03349215026371464,0.06524127010864478,0.0037723412970080967,0.0006906749088932787,10656.475874980566
214,5.68097856445543e-05,-9.085875893510842e-05,0.0007568315426960126,1678323534670503485,211,1677825035003214836,camera_1,0,0.7040830065934026,0.7062846915755324,0.03258680651258936,0.06608444835027914,0.003414947830606252,0.0006250112351122513,10661.928222855204
215,3.32938646025599e-05,5.113428009240195e-06,-0.0003504046910247638,1678323534674756572,212,1677825035009919881,camera_1,0,0.7038079180997334,0.7062478082824676,0.035622955952608136,0.0678192651503119,0.003866512444801629,0.000707351443443837,10662.701150066912
216,9.062656788517975e-05,-9.501111247267602e-05,0.0005675088067671474,1678323534681781916,213,1677825035016564369,camera_1,0,0.703960241926209,0.7061303874774985,0.035110210412625464,0.06772833079924931,0.0035504020634107287,0.0006499811164095579,10656.199778720036
217,4.490004861637531e-05,5.464684219036453e-05,-0.0007852519563411597,1678323534688463224,214,1677825035023276329,camera_1,0,0.7039058252777501,0.7062293541366396,0.03465610938544439,0.0674955004282401,0.007626964128576217,0.0013946209947079042,10668.246959297452
218,4.060325290056177e-05,8.521312654163893e-06,-0.0005201731003832144,1678323534698337089,215,1677825035029927730,camera_1,0,0.7039028159935147,0.7060375010072321,0.03675151104460031,0.0684192899977915,0.0032524320413358514,0.0005950331883153871,10661.016982762376
219,2.487576309427586e-05,2.2211868003552127e-05,-0.00037898980880868294,1678323534702472285,216,1677825035037101984,camera_1,0,0.7037827034214377,0.7062939822501103,0.035432931943760064,0.06769951503491446,0.0034753383370116357,0.0006357491301344851,10663.496594786524
220,2.0817653981652917e-05,3.169755961451859e-05,-0.0005352626622312506,1678323534709406487,217,1677825035043729066,camera_1,0,0.7040170303820056,0.7060883573504811,0.033764181738269734,0.06825857145990283,0.0029610662604682148,0.0005416771778181801,10665.352040034139
221,4.573721809605913e-06,4.1069115101433074e-05,-0.00048751715090444847,1678323534714494589,218,1677825035049594640,camera_1,0,0.7039254194968165,0.7062557995393937,0.032050141374994186,0.06829742192092977,0.003952760132960975,0.0007231115557135955,10666.877319742227
222,4.538051155847378e-05,-6.690168675316244e-05,0.0004465336212255977,1678323534722310669,219,1677825035056460380,camera_1,0,0.704040480485138,0.7061752866837269,0.03466603180079127,0.06664632438926192,0.005218663194682449,0.0009549795803262244,10660.516861925953
223,7.496161737448326e-05,-0.00013571626501440726,0.0008302462761942131,1678323534729436024,220,1677825035063745260,camera_1,0,0.7041015020043273,0.7062086722093615,0.03356809615501552,0.06620852733650451,0.003774072567466647,0.0006908107171448228,10659.843842025966
224,3.082883915830892e-06,5.800320914056689e-05,-0.0006370859474236212,1678323534736172646,221,1677825035070535659,camera_1,0,0.7040109822791529,0.7060272313496716,0.03458020695882705,0.06854410776824148,0.004111080546863377,0.0007520493309871516,10664.45153803588
225,5.108051998820029e-05,-0.0001130090268507411,0.0004891088790306419,1678323534742339717,222,1677825035077146768,camera_1,0,0.7040912431590464,0.7061331319278625,0.033237128983697795,0.06728160638256006,0.004101029073353857,0.0007506233152721338,10660.238627300012
226,2.486994714022417e-05,6.470493921495457e-06,-7.653682376895787e-05,1678323534749595255,223,1677825035083746671,camera_1,0,0.7039113418572274,0.7059857405271173,0.035659004744624474,0.06943624671422352,0.002578220854047686,0.0004719682785564244,10656.242155512795
227,4.896952897143203e-05,-0.00010873698094621131,0.0006486367866274101,1678323534754498769,224,1677825035089646100,camera_1,0,0.7039537492543053,0.7062021827746439,0.032658805613474874,0.06827150482475483,0.004452223074622452,0.000815143519281387,10657.086439613366
228,2.925875080575513e-05,-5.3352518438909424e-05,0.00013663730280288888,1678323534762520739,225,1677825035096402168,camera_1,0,0.703882991192553,0.7062639008411344,0.03487705626114281,0.06725792165273625,0.0017004915280267596,0.00031116778150664634,10661.168261038838
229,3.9368302273898315e-05,-2.809975063483572e-05,-6.345352950454242e-05,1678323534769661878,226,1677825035103788137,camera_1,0,0.7039368682467276,0.7063246299502286,0.03496718623501942,0.06599771613826873,0.004336079640779643,0.0007930446258617404,10665.862996301848
230,2.9146782235825452e-05,8.358958323356758e-05,-0.0010843587199036442,1678323534776281517,227,1677825035110538482,camera_1,0,0.7038704339262432,0.7062244840604308,0.0352162784592861,0.06762546923710383,0.0033973765675909817,0.0006211867657971013,10669.620777102886
231,8.633936764848582e-05,-4.91785852679838e-06,-0.00048151980050459287,1678323534782644700,228,1677825035117165327,camera_1,0,0.7039924386288596,0.7062558547212029,0.0323554680711989,0.06745693227021424,0.0034345315070822835,0.000628178446151038,10668.598498041974
232,0.00012134580682165996,-0.00014758435794010039,0.0007126777687904706,1678323534790026720,229,1677825035123746395,camera_1,0,0.7040419380667141,0.7063006643985865,0.034164037583836016,0.06555257012010192,0.0059549518628045925,0.0010896907604552905,10661.682295838142
233,2.2405956351903566e-05,-2.5477384052730034e-05,0.00021791124526249206,1678323534796004872,230,1677825035130510568,camera_1,0,0.7038696132658071,0.7062585914710465,0.03299394957951614,0.06839421602387802,0.005704368639271706,0.0010441194073620072,10659.882167506497
234,2.5576781333830345e-06,-4.2369430341915315e-05,0.00029794455987541824,1678323534802924058,231,1677825035137161731,camera_1,0,0.7039576638226658,0.7062506929773184,0.03386211877395304,0.06713362143167366,0.005211102426983415,0.0009536404817215088,10661.470117542658
235,2.6878685069078867e-05,-6.867786044240098e-05,0.0005411894312152832,1678323534807861305,232,1677825035142889976,camera_1,0,0.7040081649590982,0.7063812697120373,0.03397253273433913,0.06514501124834812,0.002621783991344273,0.0004796493901546268,10664.375282886667
236,5.789911281217641e-05,-2.9251219558434904e-05,7.29251587610058e-05,1678323534816128275,233,1677825035149996757,camera_1,0,0.7037795892075337,0.7062923672302481,0.037051840862296535,0.06687707302119797,0.005085676850285381,0.0009304278540846869,10659.853800123436
237,6.35316422079868e-05,-4.3252446872643624e-05,0.00010250211753382032,1678323534822949195,234,1677825035157121181,camera_1,0,0.7040324700637574,0.7060637964302449,0.036132165973023295,0.06713168438622896,0.00682747788960114,0.0012493318874477071,10660.17400442611
238,4.800124999272681e-05,2.1673314365644458e-05,-0.0006794575795416868,1678323534828503624,235,1677825035162902355,camera_1,0,0.7038548645492726,0.7062098943343876,0.035795403893927415,0.0676358178379538,0.002576546976342797,0.000471218344420733,10665.574575707202
239,6.514380081612536e-05,7.423534529871212e-07,-0.00047444380813521647,1678323534835524777,236,1677825035169990301,camera_1,0,0.7039249978506261,0.7062102364928733,0.034776705970127865,0.06743352278758234,0.0034865786437876523,0.0006377105764444591,10665.733421031617
240,6.116208923577504e-05,-4.589541101651662e-05,7.7759705142455e-05,1678323534843060865,237,1677825035177170276,camera_1,0,0.7038901951986009,0.7062330624615791,0.032753475759249355,0.06856139157793686,0.005472525139339268,0.0010016198194538663,10660.806441303339
241,5.721105885039823e-05,-0.00013014003149325326,0.0008430890255786139,1678323534847352504,238,1677825035182896375,camera_1,0,0.7040238798281498,0.7063156607090358,0.033947416805548684,0.06569731319549836,0.004253904975485057,0.0007785192419573332,10660.577710372629
242,1.2423682306750283e-05,-1.295274060864049e-05,-0.00013944771511464893,1678323534854788860,239,1677825035189406871,camera_1,0,0.7039113059247678,0.7061747443720027,0.03727202535366695,0.06661005876337461,0.0044261981383897355,0.0008095973356677103,10661.945278747471
243,6.351890175355923e-05,-0.00012088712125463141,0.0009413340339601284,1678323534864368137,240,1677825035197112321,camera_1,0,0.7041027561648342,0.7063320924463425,0.031907382886799326,0.06569781471838082,0.0029265411430969834,0.0005356313381506101,10662.17096034263
244,4.723081251151173e-05,-2.4442229473842225e-05,-1.5695791547809534e-05,1678323534869724358,241,1677825035203797817,camera_1,0,0.7040054778170427,0.7062941555591555,0.033331145616984,0.0664370962522916,0.004667988221626729,0.0008538698764275813,10666.365691981513
245,8.199925848957623e-05,-3.91181133624352e-06,-0.0005059003476119983,1678323534875758383,242,1677825035210479021,camera_1,0,0.7039022249662817,0.7061660624825524,0.03394760329640482,0.06854713791133772,0.00328591390280053,0.0006011892221240252,10664.10037849646
246,0.00013545019742534914,-0.00014020797688413245,0.0007617962006185586,1678323534882695308,243,1677825035217265844,camera_1,0,0.703923492146852,0.7062441026439317,0.034674153508566924,0.06714676286250132,0.0022656777291558683,0.00041478243951104235,10656.643964499235
247,9.980596147507459e-05,-7.489081442824119e-05,0.0001331294750444023,1678323534888312454,244,1677825035223191499,camera_1,0,0.704175553294259,0.7061393061957545,0.03397507805701517,0.06595274413640859,0.00278171815443784,0.000508851440057103,10665.57621858548
248,-1.0633851441038678e-05,0.00011860871693314401,-0.0012349035736378688,1678323534895590969,245,1677825035229886770,camera_1,0,0.7038444644738683,0.7061207103648067,0.03714515109532094,0.06794667006925352,0.0039930533384904265,0.0007300458467685278,10667.511602616873
249,-4.306855369923257e-06,-5.47715503673718e-07,-3.87638943326607e-05,1678323534901925309,246,1677825035236518383,camera_1,0,0.7039840854305344,0.7061655810409424,0.03428946382080837,0.06753378624454387,0.002607616654131561,0.00047712591871100214,10662.633018477587
250,-6.460260101689985e-06,-2.1272751559830994e-05,-1.5347112651831196e-06,1678323534910766859,247,1677825035243291378,camera_1,0,0.703908476231704,0.7061202156141245,0.03643502109596248,0.06767264903903017,0.002894421981181949,0.0005296498689004098,10659.244240322265
251,-5.3305670028966357e-05,0.00013388416823023608,-0.001316273282749858,1678323534914945287,248,1677825035249891042,camera_1,0,0.7037920741303386,0.7059525854465291,0.038170751449744335,0.06964665983691426,0.005911086744163185,0.001081040265563256,10662.30222318904
252,7.74370405920849e-05,-0.00010153036899041012,0.0003639049404671191,1678323534922307192,249,1677825035256554603,camera_1,0,0.7038690899672265,0.7063024832339095,0.03429088114798566,0.06729964217152885,0.0031984401284717023,0.0005853721544425263,10659.927965403076
253,-1.9598751972715878e-05,0.00013628742747745504,-0.0012396721997625093,1678323534927934675,250,1677825035263068437,camera_1,0,0.7039770911563823,0.7059876029852595,0.035840867692625115,0.06865268939499827,0.003398482396733016,0.0006214463974418388,10667.439664804026
254,5.741943336079469e-08,9.312080501794329e-05,-0.0010964189114122114,1678323534935541022,251,1677825035269887208,camera_1,0,0.7038263222218729,0.7061292030323241,0.03578287194620764,0.06877239888100903,0.0011569199268706145,0.00021158566481702945,10666.014355747726
255,8.001651780414898e-05,-0.00011455989977604553,0.000608223065280189,1678323534942381218,252,1677825035277042627,camera_1,0,0.7038555524584256,0.7062837455261224,0.03489563683498318,0.0673270124758052,0.002957414137199521,0.0005413617650242887,10657.161007894782
256,0.0001335984339070756,-0.0002026576733113461,0.0013981451998841266,1678323534949459082,253,1677825035283699512,camera_1,0,0.7042615680586232,0.7061951982885835,0.0321280186029796,0.0653588256504384,0.003394783940166235,0.0006214772253109235,10659.050188281108
257,6.827310619927918e-05,-0.0001570286451605396,0.0011232362754207692,1678323534956097019,254,1677825035290376901,camera_1,0,0.7042984907655768,0.7060810458900645,0.032820819663901685,0.06584820678433945,0.0030763757531531155,0.0005631356858389483,10659.276188180893
258,2.1233634516309996e-05,-1.5294601215076753e-05,-9.725847032138191e-05,1678323534963220348,255,1677825035297504425,camera_1,0,0.7038335972405645,0.7061800174017306,0.03678551759952463,0.06763783048585724,0.005357570247724652,0.0009803203883368278,10659.634287575493
259,1.319097376870082e-05,-8.821775061396142e-06,-0.00012104553012459718,1678323534969044851,256,1677825035303963899,camera_1,0,0.7038266248352301,0.7062400524684809,0.034691040572823184,0.06818799136461245,0.0066049948800355205,0.0012086179538944824,10661.089778879072
260,5.755265687447386e-05,-4.459707512077804e-05,8.711943080763618e-05,1678323534975164780,257,1677825035309730768,camera_1,0,0.7041182459389475,0.7061842553654598,0.03573579155130667,0.06514788110132423,0.0037251199246384203,0.000681260373507377,10665.792699413496
261,0.00014101055647497418,-0.00021717351149835862,0.0013733228518835183,1678323534982114765,258,1677825035316989421,camera_1,0,0.7041384421952263,0.7061610887246416,0.03368859393331666,0.06626197727886733,0.002443752659019083,0.0004474621041591956,10655.162094258587
262,5.429054299657676e-05,-1.2780340146734126e-05,-0.000543161981927831,1678323534988932123,259,1677825035323693037,camera_1,0,0.7039286375864673,0.7061043155812436,0.03699819974225197,0.0673223730942115,0.003030322666745633,0.0005542113508500722,10663.687072675908
263,0.00011395068010437714,-0.00011509625557115655,0.0005279394828323625,1678323534995696053,260,1677825035330392837,camera_1,0,0.7038090125717659,0.7063822809541269,0.03355195583363218,0.06746268032430232,0.007738468644674867,0.0014164424014425315,10659.079561139455
264,7.1020576600244745e-06,3.5977968671829785e-05,-0.000398696339157123,1678323535001021125,261,1677825035336114168,camera_1,0,0.7039592956003194,0.7063586478774104,0.033662645991207475,0.06607266432927654,0.005542508792132139,0.0010134781581807297,10669.999839709373
265,-1.4139868729626248e-05,2.3106219059987332e-05,-0.00037791118559038495,1678323535010287166,262,1677825035343665838,camera_1,0,0.7039246050590742,0.7060589431324156,0.03488220915696147,0.06895034952408323,0.004961714614182711,0.0009079691401215027,10660.928535807176
266,2.8159238249975127e-05,-7.248051928548938e-05,0.00038805530682273215,1678323535016153713,263,1677825035350376844,camera_1,0,0.7040158180849214,0.7062118882991933,0.032814105258536536,0.06745169536185598,0.0030777899082750078,0.0005633241744276131,10661.139322493571
267,1.7253116729551432e-05,-5.292000140200148e-05,0.00024211864646916936,1678323535022127046,264,1677825035357006788,camera_1,0,0.7039681045046796,0.7061771120278986,0.03432824379975559,0.06756009151599687,0.0031645121634937823,0.0005791608067837136,10660.238269468073
268,2.5880021135848974e-06,8.287665939710198e-05,-0.0007875385776703325,1678323535028230842,265,1677825035363012313,camera_1,0,0.7038978750316419,0.7062321791223161,0.03325721124026085,0.06824843293882009,0.007022368954494596,0.0012843615299768644,10668.040597206687
269,4.404878532228429e-05,5.159841319546388e-06,-0.00031126427444450044,1678323535035776359,266,1677825035369699478,camera_1,0,0.7040317364675799,0.7060570466812998,0.03422452295272738,0.06820148757016438,0.0032595886150375013,0.0005963991687142571,10663.139088599592
270,0.00016130322965837718,-0.0002586124917410837,0.0017360863836155538,1678323535042575418,267,1677825035377024412,camera_1,0,0.7040949605279487,0.7063049020267375,0.03502017454232408,0.06447681216664207,0.004764882731251419,0.0008723631777632383,10655.052629461508
271,9.585867591367647e-05,-0.00010502295316422439,0.0004751576867740859,1678323535048805905,268,1677825035383746147,camera_1,0,0.7040544565182959,0.7061212568429408,0.03481288853023691,0.0669936988339488,0.005925067875068635,0.0010843811642686607,10659.17884544702
272,1.903502265163115e-05,-3.264761474364164e-05,-7.203370276709364e-05,1678323535055966040,269,1677825035390368700,camera_1,0,0.7039707224915209,0.7062215666149372,0.0354719608717569,0.06646849415040465,0.004469730833079666,0.0008175441600077032,10664.104571399392
273,3.57774678880346e-05,-4.629536747274843e-05,0.00040563296586570985,1678323535063667092,270,1677825035397015571,camera_1,0,0.7039697751858804,0.7062107731525271,0.035665582009561485,0.06648959142580255,0.00313034316059202,0.0005728067592133831,10660.001101324222
274,8.951482305008529e-06,2.2558618017642917e-05,-0.00018530289099061292,1678323535067730981,271,1677825035402904510,camera_1,0,0.7038447540728129,0.7062650112321238,0.033521290637211015,0.06832729430824143,0.004018646781332791,0.0007353165228375463,10662.678675393692
275,4.790742653303093e-05,1.677834826629976e-05,-0.0002540261771164509,1678323535075179629,272,1677825035409975528,camera_1,0,0.704120872366702,0.7061157925463314,0.03276592023003521,0.0673845611820684,0.005161268752999604,0.0009441551761691864,10666.5390866521
276,3.5990902268981384e-05,0.00010218094965519509,-0.0011891372005847778,1678323535085788078,273,1677825035417053222,camera_1,0,0.7037731476290926,0.7062199289643508,0.03626248308077309,0.06813076346734502,0.003599623625632376,0.0006581596613204711,10667.812625797347
277,2.783407961047535e-05,9.141255466349474e-05,-0.0012826039453761595,1678323535088995092,274,1677825035423679590,camera_1,0,0.7038779169100928,0.7060429310309915,0.03684886811942045,0.06856689103198896,0.0042561046429909774,0.0007782166217650447,10666.63275023131
278,0.00013335914888867872,-0.0001876210632146269,0.0011783441503561143,1678323535095978391,275,1677825035430486440,camera_1,0,0.7040983573829034,0.7063340966999461,0.03341884563141776,0.06496789766055244,0.003394158091396093,0.0006212051753520624,10660.284941323573
279,1.8666997100430516e-05,-3.1540825632392355e-06,-0.0001254291372521088,1678323535102152097,276,1677825035437006950,camera_1,0,0.7038841198721744,0.7062355803960501,0.03389855887325532,0.06803924221172247,0.003733278950676322,0.0006831301005624528,10662.481329245958
280,-5.8749881692160555e-06,-9.896064851860897e-05,0.0006630692072282507,1678323535110260460,277,1677825035443045377,camera_1,0,0.7040367961143291,0.7064251318628175,0.035183332502822795,0.06370130221327844,0.002459554350934923,0.0004498510419298173,10665.41748386878
281,1.028199555777598e-05,-6.169482611051436e-05,0.0005478700323022778,1678323535114870364,278,1677825035449673652,camera_1,0,0.7039420699800975,0.7065590473441414,0.0311481080774052,0.06534271261183787,0.005789381102658809,0.0010592073124888076,10667.084654459151
282,6.480145887614863e-05,-0.00014491533604565898,0.001080265336605546,1678323535122675897,279,1677825035457026004,camera_1,0,0.7038797443757145,0.7064095146709284,0.03219618027242966,0.06709924750567335,0.004994509858079255,0.0009144897155864369,10657.184923656632
283,-1.613300870396961e-05,0.00012706320584865427,-0.0012224351818059809,1678323535130798507,280,1677825035463811874,camera_1,0,0.7036775007547091,0.7061098486511218,0.035675605318804635,0.07052735465500701,0.003981645742896943,0.0007284012720217713,10662.504995052004
284,0.00013040397453667474,-0.0001283900468739274,0.0005888842509009784,1678323535136059745,281,1677825035470443964,camera_1,0,0.7039542382198575,0.7062458014638681,0.0350191329733685,0.06662551112563776,0.004825667187105864,0.0008831528345539338,10658.924992395796
285,6.433337357927837e-05,-2.852775843165123e-05,-0.00037107192359187025,1678323535141178857,282,1677825035476294517,camera_1,0,0.7038387671237601,0.7061503550140058,0.03695711532314398,0.06779998255376554,0.007709439087193459,0.0014103047046893028,10661.134929535916
286,7.900260262870551e-05,-7.266039645154043e-05,8.797849013131298e-05,1678323535148710615,283,1677825035483033418,camera_1,0,0.703849843196668,0.7062157338273723,0.037400143512327434,0.06675301335482142,0.0029197119874879718,0.0005341624413729889,10659.532815195736
287,5.8688292504785466e-05,-0.00011883259164824356,0.0006968088544416773,1678323535156136425,284,1677825035490359306,camera_1,0,0.7039152937457589,0.7062395813973761,0.03600080244134369,0.06657969001174767,0.0021271876175887887,0.00038933355203100013,10656.957438200716
288,-3.013829760964426e-05,-1.745267252600824e-05,9.825498605620098e-05,1678323535162660382,285,1677825035497017621,camera_1,0,0.7039944170803153,0.7062800337935711,0.033113068302802924,0.06681241869497723,0.002994578506331891,0.0005479119380850833,10664.79281166487
289,4.773540309099822e-05,-0.00012074547341750508,0.0011198829380170139,1678323535168827383,286,1677825035503709554,camera_1,0,0.7040531432289707,0.7063570206103019,0.03180890590673068,0.0660085180030625,0.006336647435091436,0.0011600715801133284,10660.097220172644
290,4.9460082632749036e-05,2.23601008456642e-05,-0.00026322915506060696,1678323535175712277,287,1677825035510363340,camera_1,0,0.7041185496780128,0.7060998969697988,0.03236280645367126,0.06776910990276899,0.0039767507114447645,0.0007275372099108888,10666.086283212991
291,6.286705534287729e-05,-3.082463584908046e-05,-4.4030313035126056e-05,1678323535180923508,288,1677825035516306400,camera_1,0,0.7039412242953295,0.7061908078063727,0.034830288567204645,0.06743994888566303,0.0028189157019369304,0.0005157582305350074,10662.204087063199
292,6.567336956581071e-05,-5.2990535376995496e-05,0.0002226024740115129,1678323535188661855,289,1677825035523036956,camera_1,0,0.7041041913890244,0.7060976495843568,0.034299437057205465,0.06698466643504263,0.00157724239397794,0.0002886252758777341,10661.889767186254
293,0.00010876711882533419,-0.0001565784365924472,0.0007860819007037279,1678323535196721050,290,1677825035530386924,camera_1,0,0.7038777434195715,0.7063738246290239,0.03561340358361384,0.0657558186225957,0.0053251347853802145,0.0009745030525105492,10658.780132640035
294,-1.1759353306189935e-05,0.00010374608971980281,-0.0011358546814821402,1678323535202892591,291,1677825035537023782,camera_1,0,0.7038341890421371,0.7060317435800552,0.03706619315808925,0.06901238089989112,0.004258357104845345,0.0007787787389616529,10664.023410668946
295,3.319725544433105e-05,-5.7562133186139786e-05,0.0002938062679036513,1678323535208659894,292,1677825035543740272,camera_1,0,0.7038622641099259,0.7061933834848033,0.034154076486558466,0.06857344488710303,0.004152596928179264,0.0007601802315525527,10657.398333784666
296,-7.908952776219946e-06,-6.477428409312758e-05,0.0004963733638869705,1678323535218840080,293,1677825035550420522,camera_1,0,0.7039976581432855,0.7062536049902637,0.033559888889994435,0.06683469626412424,0.007064333593007176,0.0012929685644416475,10661.006101718176
297,5.0308589033834505e-05,-0.00011050936121692612,0.000837213787624691,1678323535222107646,294,1677825035556342601,camera_1,0,0.7041970125392392,0.7061447777506173,0.03348233785052397,0.06591701933799424,0.0032310205278918147,0.0005913129244568344,10660.642872144816
298,-1.6831674769041127e-05,8.47933966163783e-05,-0.000846893494752532,1678323535229579760,295,1677825035563626527,camera_1,0,0.7039929916377807,0.7061507590044092,0.033440223049578936,0.06802003208451722,0.00524177134502679,0.0009585972680906512,10668.894244670862
299,-1.3845712353494077e-05,4.048029414666088e-05,-0.0007232533689558451,1678323535236170415,296,1677825035570414543,camera_1,0,0.7039085908615641,0.7060436768975175,0.03613724331843175,0.06862304037031293,0.003352117259055376,0.0006132124474833357,10662.944993642162
300,5.5032287206310815e-05,-4.0344779074552584e-05,-6.754736200020872e-05,1678323535241835681,297,1677825035576356649,camera_1,0,0.7038719173852631,0.7062380257822457,0.03533724978547348,0.06740514545039178,0.004948027548380196,0.0009052996877980683,10661.84219095786
301,0.00011135389000060947,-0.00011389344433454518,0.0004536679810338562,1678323535249031226,298,1677825035583664894,camera_1,0,0.7038097877081787,0.7065311315624881,0.03411837398967843,0.0655856647103549,0.005906191654503346,0.001080534897226146,10663.743418595981
302,0.00012426917311780805,-0.00014697841468935824,0.0006361920965161083,1678323535256001326,299,1677825035590401887,camera_1,0,0.7038199182754293,0.7063830581210357,0.035940874395585166,0.06609653081684372,0.002289441763423383,0.00041898730545765744,10658.699814304251
303,-2.326906902001824e-05,0.00015662242887215516,-0.0015670358491814973,1678323535262615028,300,1677825035597009420,camera_1,0,0.7038025542482572,0.7060932199005213,0.03577351275090557,0.06938721229163024,0.005077555717434734,0.0009284143884759057,10668.207598314615
304,3.0901491061552377e-06,-9.678030604698407e-08,-0.0002942139236319363,1678323535269942153,301,1677825035603729724,camera_1,0,0.7039148535569918,0.7061388068128941,0.032676240451658775,0.06931181547648534,0.005746909126173705,0.0010517293645394058,10661.923925620504
305,3.986145739348634e-06,1.449643813539181e-05,-3.073639478801127e-05,1678323535275712250,302,1677825035610400676,camera_1,0,0.7040529266534642,0.7062375224163366,0.033797978090637365,0.06630033996074869,0.00405393575783819,0.0007415497071448622,10666.3224432288
306,2.9335936635954685e-05,-7.83201582690296e-05,0.0005808639128654924,1678323535282480509,303,1677825035617014169,camera_1,0,0.7039507151534721,0.7062933226598358,0.03438281924109588,0.06649026050541776,0.002465293335262686,0.00045116285727370636,10660.184813099564
307,4.7592731871229366e-05,-5.9325673222310193e-05,0.00018709642638592427,1678323535290889955,304,1677825035623694896,camera_1,0,0.7039231425323804,0.7062805327667719,0.03412226843702719,0.06704990110905629,0.002733460976742208,0.0005001733519076929,10662.219687333913
308,0.00014349972060558047,-0.00015697459871910624,0.0006689644374104908,1678323535295945442,305,1677825035630375146,camera_1,0,0.7040391391323112,0.7061321138209079,0.033976313973303716,0.0674680553257469,0.00520842761034146,0.0009534361902331512,10657.387778538283
309,4.9743002282373605e-05,4.3361439390599e-05,-0.0009659168245064187,1678323535302632477,306,1677825035637262821,camera_1,0,0.7037043346949282,0.7060468569145325,0.036658844521580684,0.07038589554037633,0.00375314790289849,0.0006867519780626451,10659.480287931628
310,1.524823070217507e-05,8.246253082705435e-05,-0.0009810040224866867,1678323535309350871,307,1677825035643690347,camera_1,0,0.7036468142481631,0.7061629980160385,0.03637274907691551,0.06994286351014907,0.005674754385836422,0.0010382219008531366,10661.216952242192
311,7.30760121568641e-06,-1.5635879513198336e-05,0.00016896952640577112,1678323535315658881,308,1677825035650347948,camera_1,0,0.7041577149857579,0.7061428671577344,0.03416289051819858,0.066008033599949,0.004151043423917145,0.0007593555015984652,10665.00202331436
312,3.6061995447977946e-05,-0.00012616409285409746,0.0007564738734457954,1678323535322918609,309,1677825035657071828,camera_1,0,0.7039364654553495,0.7063131275054415,0.03304942115251931,0.06710405559424308,0.005847239983268082,0.0010703459582337284,10658.783612427304
313,-6.357847246546422e-05,9.587932175336711e-05,-0.0007968526832637934,1678323535329651110,310,1677825035663634061,camera_1,0,0.7038455292509741,0.7061668680434475,0.035318928860982035,0.06842805488421842,0.002925398002844304,0.0005350989008560876,10665.154012591232
314,2.0869357191408144e-05,3.849777157266532e-05,-0.000557054537578594,1678323535335511092,311,1677825035669648408,camera_1,0,0.7037583480271975,0.7061814484330193,0.033930317411199604,0.06986188539860658,0.005578316457103938,0.0010208522193262519,10661.099324426152
315,4.553956775263379e-05,2.562977772863073e-05,-0.0006462896509247251,1678323535342592099,312,1677825035676990509,camera_1,0,0.7038407373778165,0.7061727577906709,0.03663917067387487,0.06771871036944542,0.006645009270869196,0.0012152724802023034,10664.002798540285
316,0.00013294438837663236,-0.0001170409400594874,0.0005631864872213121,1678323535349834437,313,1677825035683659791,camera_1,0,0.7038644588146156,0.7063817837767123,0.03663427524070356,0.06524974362881905,0.006802050571423024,0.0012444324472302092,10660.514896178263
317,5.470795966278086e-05,-6.132836386063545e-06,-0.00028239595712120646,1678323535355567378,314,1677825035690332174,camera_1,0,0.7040010471875406,0.7061694972978492,0.03571094388784265,0.06657248028719287,0.005019504984375089,0.0009180278866607149,10665.227209834618
318,4.4858851478951633e-05,4.780965966455497e-07,-0.00035858280443745727,1678323535362695876,315,1677825035696966171,camera_1,0,0.7037705208619922,0.7064248599306123,0.03605103598818159,0.06611576243101233,0.0054841323872096845,0.0010028088545214807,10666.555769691591
319,4.0228724146024186e-05,-9.243862137281456e-05,0.0006309643779820462,1678323535368502989,316,1677825035703012466,camera_1,0,0.7041236519979234,0.7060979107123024,0.033886062889419685,0.06698774460065962,0.0032259108847938482,0.0005904407397583812,10659.109149967087
320,-2.1613145537238698e-05,-4.832136376642371e-06,0.00011106902190727297,1678323535376191749,317,1677825035709858894,camera_1,0,0.703899268896472,0.7063469375863533,0.03224476501929685,0.0675284987116048,0.006002042267937213,0.0010982983051465855,10663.867605576988
321,3.934313826940705e-05,-3.085585333773011e-05,0.00020988254381126836,1678323535382117590,318,1677825035716956615,camera_1,0,0.7040262713436081,0.7063484195965458,0.03511874289400408,0.06469616131597775,0.00453056552214548,0.0008285340858564336,10666.73138159095
322,1.3784425609911222e-05,0.00010722512723815303,-0.0011467665302884456,1678323535388700912,319,1677825035723027944,camera_1,0,0.7039083579192285,0.7060856177071405,0.03587205713792321,0.06833242008940331,0.0028343070880509913,0.000518252901191601,10667.461852222685
323,0.00011023882042263122,-0.00011195586870860197,0.0005001875910530806,1678323535395571209,320,1677825035730298519,camera_1,0,0.7038645879733433,0.7064926162839815,0.035888733402163614,0.06445792230687326,0.003139260516036302,0.0005742012747815316,10663.941215224912
324,1.3039038950724002e-05,5.287109027379833e-05,-0.0009104736184277762,1678323535402886740,321,1677825035736937999,camera_1,0,0.7038956875992707,0.7061948446685392,0.03566171259499043,0.06743845043830826,0.0031446065986528997,0.0005749857546595053,10668.127798734702
325,0.0001807655668239344,-0.00028927922250354676,0.0021195631809418636,1678323535408681770,322,1677825035743620872,camera_1,0,0.7040609419555641,0.7065989494999699,0.03213866657913449,0.06311276169443028,0.003411709680221975,0.0006245928898934906,10658.692763303872
326,-4.4153941176294786e-05,9.232548664378504e-05,-0.000640875511392025,1678323535416243071,323,1677825035750428915,camera_1,0,0.7039202668142686,0.7062397328400106,0.03499635873312321,0.06705932151179203,0.006352858152240515,0.0011617938060690912,10667.857683152197
327,9.193973147597623e-05,-0.00021970427031303696,0.0016813206137857861,1678323535423097444,324,1677825035757591724,camera_1,0,0.7041574015885922,0.7062805895553274,0.034976208989017085,0.064083909135897,0.004738321586046368,0.0008673566612175944,10656.545753826384
328,1.3356972961287017e-05,-6.351687240413462e-05,0.0004605016119469951,1678323535428317406,325,1677825035763080120,camera_1,0,0.7041216880470309,0.7061434235191524,0.03557860101279145,0.065637466377241,0.006092845113016665,0.001114644060982283,10661.805547222375
329,8.201093203667742e-05,-7.932030393176248e-05,0.0003139997773438097,1678323535435009958,326,1677825035769843101,camera_1,0,0.7040211127228965,0.7064051577947557,0.03397581351291515,0.06474310756765463,0.0015950686647556722,0.00029174025870678995,10667.141692884614
330,1.7536749084751113e-05,0.00012083544959584636,-0.0014079732576721682,1678323535442572516,327,1677825035777068376,camera_1,0,0.7036633369538289,0.7062565416458806,0.03595518637258767,0.06904223477202365,0.008078463026322423,0.0014772099035100224,10667.58722480899
331,0.00010912033440257929,-0.00016594189059454534,0.0006724740056878176,1678323535449064626,328,1677825035783717870,camera_1,0,0.7039225512174945,0.7062503454299466,0.03694533326898351,0.06586754752667684,0.0024102032766677444,0.000441081264785367,10657.653991756382
332,9.143457750510064e-05,-0.00014022480430231354,0.0009933929754288862,1678323535456358506,329,1677825035790408372,camera_1,0,0.7041578427422789,0.7061801117616371,0.03478501741865755,0.06527928323783802,0.001433424069546163,0.00026234295952914016,10659.37833169336
333,2.2737841814432502e-05,-5.7301044079804964e-05,0.00016908082824818038,1678323535462211015,330,1677825035797030210,camera_1,0,0.704040169834,0.7061376670654103,0.034198195053461285,0.06728683278783135,0.0005065718432888389,9.270184479896392e-05,10661.668353686577
334,1.0235292732183043e-05,3.274208435988246e-06,-6.022041963271718e-05,1678323535469154156,331,1677825035803778648,camera_1,0,0.7040571723358926,0.7061956311990709,0.03421726473548282,0.06648614405840317,0.008530514198355377,0.0015603467133295734,10665.569711825456
335,1.8672403212155464e-05,-7.50795692310291e-05,0.0005258781507473387,1678323535476309124,332,1677825035810540437,camera_1,0,0.7039436251808595,0.7062327325282878,0.03439367847997606,0.0671995160211259,0.00202710967278108,0.0003710457896021839,10658.811769501188
336,5.063321227258277e-05,-9.065604675934091e-05,0.0006684970602841567,1678323535482372342,333,1677825035817027568,camera_1,0,0.7040530343383538,0.7062704079883416,0.034903390150916355,0.06536963358403856,0.0027794393245130773,0.0005085476122666674,10661.63802820444
337,1.2562015391334724e-05,8.428840180796371e-05,-0.0006972362656156861,1678323535489324003,334,1677825035823714494,camera_1,0,0.7039008600636136,0.706160286440475,0.034895877848610916,0.06814328114484958,0.003019448195118457,0.0005522722559980727,10665.605147857215
338,0.00015976707241187327,-0.00020816235783271964,0.00147396054067217,1678323535496226078,335,1677825035830425262,camera_1,0,0.7041568946128847,0.7062701133138211,0.031146698565093438,0.06614739584682494,0.00259864324470982,0.000475845995674855,10657.552343290536
339,5.264851716033081e-05,4.7835695915987575e-05,-0.0006655085349236423,1678323535501081611,336,1677825035836252689,camera_1,0,0.7038966115511454,0.7063110891596224,0.03533178152307293,0.06637673381065015,0.005652749561704695,0.0010334663367820424,10669.29752234137
340,3.611823405287595e-05,4.906603175791613e-05,-0.00048367304931229427,1678323535509332449,337,1677825035843706846,camera_1,0,0.7038921130961829,0.7063033097534226,0.035145805508676416,0.06660555613083123,0.0037697582738474007,0.0006893742338230374,10667.514220969984
341,6.000488765189882e-05,-9.730666670881849e-05,0.0007108651415403955,1678323535516149317,338,1677825035850383758,camera_1,0,0.7040169811682132,0.70634838710466,0.035914259932313015,0.06436002015968835,0.002199928800109774,0.00040244206237061435,10662.49631134095
342,2.762009713309921e-05,-5.965551568393179e-05,0.0002702585509353206,1678323535522827832,339,1677825035857123613,camera_1,0,0.7039520743998763,0.7060800606275878,0.0343229331229274,0.06873398863802631,0.002169861865695566,0.0003972376655582991,10656.955426966078
343,-5.422239966709763e-05,0.00018633284135960437,-0.0015387465590923632,1678323535527859643,340,1677825035862987279,camera_1,0,0.7038628913178578,0.7061740509345796,0.03339767103902756,0.06913635499127943,0.0054409358999691895,0.0009947579318948638,10671.614358330262
344,4.132110980903381e-05,-4.734842211501222e-05,0.0001405952484527795,1678323535535273091,341,1677825035869719266,camera_1,0,0.704047274084754,0.7060909008753127,0.033418451543082234,0.06809025371798359,0.003684221068397164,0.0006742906258288497,10660.763211770802
345,3.768414143608123e-05,-4.5576619600973256e-05,0.0002461404426035152,1678323535542642120,342,1677825035877058506,camera_1,0,0.7040757322017708,0.7061576171807574,0.034589009462067964,0.06650100335008685,0.0020973573555238545,0.0003837511259588167,10662.589819129204
346,0.00010212675195048204,-0.00012194287991657005,0.0005534980159707104,1678323535549423440,343,1677825035883660554,camera_1,0,0.7039915351940442,0.7061047608829494,0.03569203300765425,0.06736515281171923,0.002026029513217509,0.0003708710513552314,10656.47812079615
347,0.00011022141505015459,-0.00012737088623526738,0.0004426158596815277,1678323535555737945,344,1677825035890463590,camera_1,0,0.7039611036266592,0.7062352260640142,0.03552005439188498,0.06639951643682472,0.004121195001062007,0.0007541134561476348,10660.030709577492
348,4.434952813585358e-05,7.036715837482888e-05,-0.000866490961605404,1678323535562555233,345,1677825035897118568,camera_1,0,0.7038847464709411,0.7061347164015904,0.03467833619724203,0.06868361505173932,0.0026008555432781573,0.0004757196540351017,10665.78550599702
349,9.444332787872378e-05,-0.00011393606055165595,0.0005117002822694339,1678323535569290737,346,1677825035903688669,camera_1,0,0.7040150401439994,0.7062880894713187,0.03411527499987081,0.0660008025230058,0.002914940705522895,0.0005333671950901184,10662.247019135391
350,-5.659291107525111e-05,0.0001588207268620745,-0.0012869341534091916,1678323535575279575,347,1677825035909736394,camera_1,0,0.7038460870182937,0.7060830745359681,0.03506579556537098,0.06941014064413885,0.007141495065297931,0.001306021188167038,10666.831142752666
351,9.780193914593616e-05,-0.00028945868181046164,0.0023425419900275912,1678323535582115650,348,1677825035916993856,camera_1,0,0.7044089298319637,0.7062530702561778,0.029643335498279064,0.0643112197617681,0.0026995801599696283,0.0004944593384676143,10656.734640786422
352,-6.943817263509178e-05,0.00010613625547106764,-0.0007556553416772083,1678323535589621148,349,1677825035923710823,camera_1,0,0.7037494769044855,0.7062177526460284,0.03593360382696725,0.06857066224168049,0.006087987392675132,0.0011135956630039473,10663.680044727756
353,1.6583554844823434e-05,1.480634769290834e-06,-0.0002423355806948635,1678323535595909812,350,1677825035930354833,camera_1,0,0.7039336462300967,0.7060514000426517,0.03644449799204287,0.06812224870863079,0.004788146063219756,0.0008760834226997827,10659.992626158404
354,4.9610788167786524e-05,-2.556515503843171e-05,-0.00024002610887974285,1678323535602249669,351,1677825035936368942,camera_1,0,0.7038857726985377,0.7062985165073585,0.036155773732495525,0.06618145206847519,0.0032554548233747482,0.0005953530367213049,10665.284731708005
355,0.00018506609128195184,-0.00023492099701272195,0.0013098031491152184,1678323535609031199,352,1677825035943660020,camera_1,0,0.7041332953006461,0.7063649355322521,0.03322822089814114,0.06434878115018958,0.002144676516763866,0.000392524782120942,10660.930973941811
356,5.948284058437947e-05,1.2730243551806186e-05,-0.00048631445168378917,1678323535616423555,353,1677825035950426340,camera_1,0,0.7038133439085158,0.706312400377436,0.03594567500985379,0.06691396309787452,0.0046719954116269955,0.0008544279996771227,10665.693569881845
357,8.696658864755513e-05,-0.00012109212100014366,0.0006624419907468315,1678323535623879466,354,1677825035957033634,camera_1,0,0.7038795374945476,0.706200033210752,0.03642550608122816,0.06714381800524293,0.002953325980342925,0.0005405897373118344,10655.23193576443
358,-3.824328062071447e-05,2.4963410481637638e-05,-0.00025275687339121333,1678323535628316164,355,1677825035963065385,camera_1,0,0.7039387054703043,0.7063438160811387,0.032899999272497815,0.06683040081127918,0.0053239273838698855,0.0009738345578988617,10667.824903768138
359,-6.187558950439265e-05,9.206850813536782e-05,-0.0009824052599780586,1678323535635550122,356,1677825035970426082,camera_1,0,0.7038838257392005,0.7062487499937868,0.033749548278454285,0.06797963655360897,0.003570692031644285,0.0006529409368762183,10669.725255998086
360,-3.939235751204695e-07,7.2775410404068985e-06,-0.0002428668927008104,1678323535642856783,357,1677825035977079868,camera_1,0,0.7039281257425454,0.7063002587268121,0.03277828090726465,0.0674590439584634,0.004639990453142673,0.0008488563187908259,10666.25171914208
361,7.527976594857988e-05,-0.00012447813338439806,0.0009253344570598898,1678323535649259567,358,1677825035983690738,camera_1,0,0.7040368758059805,0.7064334401772956,0.032922760469369365,0.06480712883396615,0.006283735565375536,0.001149879119779819,10663.34665512922
362,0.00012509641297077378,-8.940182889860537e-05,0.00040749021861863355,1678323535656276669,359,1677825035990382909,camera_1,0,0.7039260717881268,0.7063398161230933,0.03440030686593061,0.06624778112255005,0.004602078755851835,0.0008420385967028389,10662.121808569878
363,0.00010027585211848378,-0.00010725890102608604,0.0005554667256406631,1678323535661416663,360,1677825035996399402,camera_1,0,0.7040799114147518,0.7062130816250818,0.03420487712794578,0.06606502905821672,0.006265645322855562,0.001146557522038073,10661.639876999776
364,7.487229602898271e-05,-2.0873469420812363e-05,-0.000138681846004296,1678323535668963088,361,1677825036003070354,camera_1,0,0.7038618990397904,0.7062131234766668,0.035325942632556465,0.06777557883597668,0.003509634989313781,0.0006421505385901928,10661.476391233156
365,9.594173306398668e-06,1.2170731403526869e-05,-4.650107445103302e-05,1678323535676578585,362,1677825036010373115,camera_1,0,0.70400035825452,0.7062806785875869,0.0330606034118448,0.06676896834166204,0.005435879167634994,0.0009944069196702592,10666.13044107263
366,4.835751254272935e-05,-0.00014698356858361405,0.00106570280990681,1678323535683339441,363,1677825036017042875,camera_1,0,0.7039790001779835,0.7064352220000295,0.03248862389669257,0.06563028069020338,0.008903518319129944,0.0016294916033478782,10660.674620400534
367,-1.5106969676770277e-05,-6.641814631341836e-05,0.00044324833914588524,1678323535688900505,364,1677825036023743391,camera_1,0,0.7040218370744603,0.7063115134178926,0.033868786908617,0.06580428716251717,0.002326337504200637,0.00042563386999004335,10663.649579282857
368,4.280229725014961e-05,-2.7874942745031994e-05,-8.3697151239015e-05,1678323535695926407,365,1677825036030383825,camera_1,0,0.7038704140320271,0.7062940981838627,0.035542257558273435,0.06672207317438829,0.004558303742669523,0.0008338279920389282,10663.46858370956
369,6.453119245287964e-05,1.5968028599766537e-05,-0.0005288313828062385,1678323535701299250,366,1677825036036308288,camera_1,0,0.7038368430862274,0.7063918546425517,0.033850298487578326,0.06692087343550784,0.003157260827720165,0.0005773821519124622,10668.625734774627
370,6.443946619055785e-05,6.602739254724099e-05,-0.0010830715560206094,1678323535710027588,367,1677825036043712615,camera_1,0,0.7040782712330202,0.7060084770817909,0.035818565322341504,0.06740065759635422,0.0033493729424662892,0.000612317669318804,10669.3904125765
371,9.170461266230778e-05,-0.00012951174804631815,0.0008712374674737511,1678323535717043573,368,1677825036050321340,camera_1,0,0.7042472208325462,0.7062382301604793,0.03155181049184566,0.06532914712527202,0.0034092303249053657,0.0006238814357498178,10664.023412222276
372,7.681850274708635e-05,-0.00013411282977660033,0.0007365263162575353,1678323535721517567,369,1677825036056557416,camera_1,0,0.7038361240439133,0.7062931715945522,0.03704583833617139,0.06627421905778942,0.0029862691299058497,0.0005465484068961264,10656.024165566314
373,1.3931750643819685e-06,2.1295747752225758e-05,-0.0003155476366103471,1678323535728925148,370,1677825036063668251,camera_1,0,0.7039402927985638,0.7062290975300969,0.03315944263292132,0.06788944940689405,0.004780547285918146,0.0008745865564964737,10665.283644591109
374,-1.096405777704923e-05,5.909015623906111e-05,-0.000617812524871475,1678323535735989253,371,1677825036070393562,camera_1,0,0.7039023485671351,0.7061265114734961,0.03465415836998558,0.06859972874297597,0.0015849251649342475,0.0002899520509293373,10664.064495115072
375,1.3838653080133767e-05,-7.296634015940828e-06,-0.0001389083522909118,1678323535742484086,372,1677825036076998233,camera_1,0,0.7040282461460442,0.7061827480343433,0.034665091656254594,0.06669697465141726,0.0028963233926333487,0.0005297927048138465,10665.095251957424
376,7.145342019827805e-05,-7.988509304679425e-05,0.00021851520227134102,1678323535749547702,373,1677825036083642482,camera_1,0,0.7038600119142464,0.7061405918211452,0.03554468895149333,0.06843334931085415,0.005372326530050486,0.0009833770278487722,10656.602788484312
377,0.00012133937309130594,-0.00013808095963030453,0.0007177522776911083,1678323535754904273,374,1677825036089705228,camera_1,0,0.7041858155071129,0.7061017486648041,0.03390613457478805,0.06627995028124747,0.003606766695156694,0.0006601130795051965,10660.135514691934
378,3.98323008149043e-05,-1.8095940813200873e-05,-0.00021392114178198085,1678323535762260521,375,1677825036096935272,camera_1,0,0.7038898441662935,0.7063436681282947,0.033468647206951085,0.06706384591382454,0.0044907969422638425,0.0008215051112111183,10666.194501673688
379,4.1736130781358516e-05,3.870006965162043e-05,-0.0003645181534319697,1678323535769105815,376,1677825036103609561,camera_1,0,0.7038075642631835,0.7062490814693471,0.033395151986822996,0.06893410791042237,0.0045493695652112365,0.0008324772881167254,10662.669552961828
380,-7.581065688269661e-05,0.00021265217429566885,-0.0016025916085271597,1678323535776475752,377,1677825036110304355,camera_1,0,0.7037879699234595,0.7060078648737677,0.03613956430082083,0.07020911635639948,0.0025685623404569924,0.0004697618714804417,10665.880452428712
381,6.238598312907628e-05,-0.0001981873195889272,0.0013694181215915258,1678323535782211767,378,1677825036116938829,camera_1,0,0.7040593741118049,0.7064442170786093,0.03317713119353497,0.06431363655750995,0.0038647495093755424,0.0007072913356327124,10660.657631470824
382,3.1113057284148926e-05,-7.349473721918187e-05,0.000437185983949373,1678323535789646726,379,1677825036123649120,camera_1,0,0.7040224010661037,0.7062439924461126,0.034912410797838564,0.0659773105179096,0.002877959341276437,0.0005265732054682041,10661.968730902998
383,2.340666249897594e-05,-9.860044857090688e-05,0.00044068428816324,1678323535795938183,380,1677825036130313634,camera_1,0,0.7039538406778851,0.706203955960799,0.035683299252047926,0.06672079836648909,0.002473518194165081,0.0004526663022896013,10659.069598164991
384,3.505185467456151e-05,7.970985532346209e-06,-0.00030067868902472483,1678323535802498178,381,1677825036136999368,camera_1,0,0.7038279330424052,0.7061826029365414,0.03609327762850538,0.06804151151362023,0.004785682423971593,0.0008756235667496808,10661.129265376136
385,0.0001279271970877488,-0.00018129374297853884,0.0009776518256203737,1678323535809450049,382,1677825036143615245,camera_1,0,0.7040367802106603,0.7062015733170198,0.03696943887647956,0.06515221058667639,0.002684366772882641,0.0004912425419982472,10656.95729327749
386,5.610253506968532e-05,7.655752112978309e-06,-0.0004135073548510171,1678323535815960177,383,1677825036150329351,camera_1,0,0.7040177270037751,0.7061232518579033,0.03559543506296413,0.06694742902260534,0.005097661749459803,0.0009322705066598816,10665.470371662059
387,8.964571831328316e-05,-0.00015176551272494399,0.000905968761019782,1678323535822445862,384,1677825036156934738,camera_1,0,0.7039331901529878,0.7061359209311665,0.034865062644310045,0.06807754680171367,0.007039011805318295,0.0012890111489022367,10652.867886021968
388,4.4215195438110366e-05,-5.952673199388636e-05,0.0004403133205403975,1678323535828180759,385,1677825036163053274,camera_1,0,0.7040625688395027,0.7062489940799329,0.0324597104589235,0.06674297503952238,0.0022627723519690326,0.00041411228148572005,10662.95207542274
389,7.641486221210414e-05,-0.00025321327918853553,0.001899593747280548,1678323535835330908,386,1677825036170283317,camera_1,0,0.7040805406018028,0.7063716774100316,0.0329013285421882,0.06501652312274801,0.0029332751873880625,0.0005371383372804093,10655.002921185927
390,-2.2855497099474875e-05,8.453767618815666e-05,-0.0006330234402316393,1678323535843246091,387,1677825036176940202,camera_1,0,0.7038656952271394,0.7061968852078235,0.03440660095091955,0.068375640517571,0.0009880626457743347,0.00018075253712458754,10665.103834540116
391,7.418804992630201e-05,-0.00013532026139495557,0.0008415060657913642,1678323535849337245,388,1677825036183572769,camera_1,0,0.7038730063773079,0.7062873395994528,0.0338378031038838,0.06764604863552894,0.00360394746530801,0.0006598801772209553,10655.768485673478
392,6.290213908483056e-05,-6.935132875091066e-05,0.00019091862175457663,1678323535855699870,389,1677825036190279006,camera_1,0,0.7039835851452995,0.7061998210369229,0.03301523078088794,0.06781533123028713,0.002844106289558113,0.0005205208914895738,10661.525287765304
393,9.798004919038539e-05,-7.475055593419988e-05,2.085129284479237e-05,1678323535862341160,390,1677825036196892023,camera_1,0,0.7038523631100451,0.7063402710709704,0.03400690413370036,0.06722204161608603,0.002868866315111518,0.0005249010067123245,10663.211723060347
394,7.540230447995733e-05,1.7300752681082e-05,-0.0005519475694284459,1678323535871959618,391,1677825036203581333,camera_1,0,0.7038528771171774,0.7062101987669469,0.037107928260181534,0.06694239457666643,0.0027706233086064462,0.0005067011856285258,10664.610564217895
395,0.00012351516528208428,-0.00019552270859701792,0.0011740925143968184,1678323535876233238,392,1677825036210235118,camera_1,0,0.7040274109224949,0.7064582876573322,0.03328403909605107,0.06445358959353045,0.004089945869054645,0.0007484661350004746,10661.737166488778
396,6.620781571890777e-05,-0.00014204427753122806,0.0010733970335508047,1678323535882778287,393,1677825036217001914,camera_1,0,0.7040486024355401,0.7063305296184246,0.03230939737228401,0.06609728571551611,0.00515200209338218,0.0009431466476472293,10659.654525215272
397,-3.1966887494322416e-05,2.1440327966359973e-05,-9.813382217505051e-06,1678323535888829912,394,1677825036223650932,camera_1,0,0.7039162723852784,0.7061624416183029,0.03458036826583328,0.06812257811835279,0.005275007744785397,0.0009652884053988533,10660.548985363448
398,-6.169133084243938e-05,5.908133338466959e-05,-0.0005945292703581906,1678323535896156199,395,1677825036229637384,camera_1,0,0.7038713188306168,0.7062615626052398,0.032587474451294215,0.06854070486170492,0.0037638106732629244,0.0006885554415139183,10666.516000279693
399,-1.996501189081845e-05,0.00014412572709282534,-0.0012383401273745598,1678323535901430846,396,1677825036236335039,camera_1,0,0.7038886675007956,0.7060565214944929,0.03522353715927377,0.06916816210540959,0.0031787937623448674,0.0005813410971716892,10666.863508815295
400,0.00020200785191649973,-0.00029936074406400337,0.002013184572458915,1678323535909184278,397,1677825036243624925,camera_1,0,0.7040856274615795,0.7064707991578479,0.033594285740114256,0.06351270034345118,0.005519698082935065,0.0010104572500520216,10656.878179783464
