field.image_seq,field.transforms0.transform.translation.x,field.transforms0.transform.translation.y,field.transforms0.transform.translation.z,%time,field.header.seq,field.header.stamp,field.header.frame_id,field.transforms0.fiducial_id,field.transforms0.transform.rotation.x,field.transforms0.transform.rotation.y,field.transforms0.transform.rotation.z,field.transforms0.transform.rotation.w,field.transforms0.image_error,field.transforms0.object_error,field.transforms0.fiducial_area
194,0.0,0.0,0.0,1678320262742425158,193,1677825034829753398,camera_1,0,0.7039643892419252,0.7062436262966547,0.03339037928996958,0.0673733000933327,0.0040081252227537325,0.000733768781424281,10657.508224002198
195,1.9102155093236872e-05,8.294400937775004e-05,-0.0006455194935517383,1678320262750316854,194,1677825034837048768,camera_1,0,0.7041172169384596,0.7062061554626036,0.03269698858052972,0.06650351671401987,0.0055640002246946105,0.0010179191559338157,10665.729518700855
196,0.00013099736815358476,-8.814006349006087e-05,0.000630670536600153,1678320262758315335,195,1677825034843797206,camera_1,0,0.7039911415963893,0.7063719195581202,0.03338744768767093,0.06573022250450992,0.00600951787782833,0.0011002258782956294,10656.561050061253
197,0.00011156747061907835,8.767871566300878e-05,-0.0014716295787606803,1678320262763036273,196,1677825034849773168,camera_1,0,0.7038270427327836,0.7061468005736037,0.036146917342845,0.06839291136000378,0.00582843495067209,0.0010661664187466369,10663.180345010833
198,0.00014954562178980113,-1.7305294360558943e-05,-0.00048765349833779226,1678320262770404513,197,1677825034856790065,camera_1,0,0.7039328991821661,0.7062809898621286,0.03592889050844681,0.06599054201318963,0.002599829866085201,0.000475652112468464,10661.701291244244
199,0.00010610770548177828,0.0001635565268137129,-0.0016655572867723123,1678320262777618547,198,1677825034863768100,camera_1,0,0.7039979111213012,0.7061894502899112,0.034803734128945336,0.06687377308601128,0.004394082468934357,0.0008033077350638525,10670.414616959399
200,3.545468327453838e-06,8.282163495693107e-05,-0.001023101595738929,1678320262786126514,199,1677825034870501995,camera_1,0,0.7039368175833797,0.7062321640627842,0.03610733321999155,0.06637279398609794,0.0034804932656697925,0.0006365725141357541,10664.881819907225
201,-1.9050539214915396e-05,0.00015073468480514274,-0.0011958788213504157,1678320262790387273,200,1677825034876345157,camera_1,0,0.7038883257641458,0.7060985761673628,0.03470415085683816,0.06900469187436811,0.0032960835960693657,0.0006031488054263505,10661.301590561512
202,7.180041701210227e-05,-9.987744029577028e-05,0.0006406374149952043,1678320262797473219,201,1677825034883761644,camera_1,0,0.7041914960707545,0.7062712097280425,0.03411580865169273,0.06427617576490574,0.006686621985863893,0.0012236999467177944,10659.189551701309
203,3.467781414077942e-05,7.007907184380935e-05,-0.0005653553884914508,1678320262803618762,202,1677825034890496969,camera_1,0,0.7038434353224087,0.7063149700423449,0.03367814421880785,0.06774484666458855,0.004547352727968246,0.0008322283595223014,10660.752089198912
204,5.261259962080489e-05,2.847953249013324e-05,-0.0006253052387799052,1678320262809613171,203,1677825034896349191,camera_1,0,0.7038727592947067,0.7062128272688961,0.034905200581781815,0.06788378522205238,0.003396115789655596,0.0006215551872633809,10659.32892438886
205,8.074730924878537e-05,0.00011540337812299128,-0.0013923939701623311,1678320262817258399,204,1677825034903126478,camera_1,0,0.7038681379459806,0.7061183077799704,0.034351459976479225,0.06918494778413307,0.003169419476762414,0.000579904790613755,10662.761355633262
206,0.00010095019970998709,7.930843314557512e-05,-0.0010574019932825252,1678320262823856858,205,1677825034910499572,camera_1,0,0.7040540005899686,0.7062455480088639,0.034741851840322316,0.0657129660084319,0.00415496074128896,0.0007598384181122079,10668.52353097382
207,0.00017282610724013436,-7.720749620754308e-05,0.00045449578446632444,1678320262829673872,206,1677825034917077779,camera_1,0,0.7040571378057943,0.7062420144181006,0.033617512057240624,0.0662995223094224,0.003503789252135903,0.0006415233708542402,10656.257913698675
208,5.277923884518254e-05,0.0001398289866264002,-0.0012876855332852877,1678320262836880502,207,1677825034923938274,camera_1,0,0.7038659805582852,0.7062918942802313,0.03471273547347626,0.06722698478077767,0.002200111746788025,0.0004024083123385196,10666.618690301546
209,8.44497108063863e-05,-2.0653594422881394e-05,5.833601481119999e-05,1678320262843578065,208,1677825034930506706,camera_1,0,0.7040743772511442,0.7062439657046781,0.03335927655324171,0.06622605885893723,0.004086848173756152,0.000748014180802899,10659.961076191508
210,1.2322738131259614e-05,0.00010149692640343266,-0.0010155197046701758,1678320262848876094,209,1677825034936291694,camera_1,0,0.7038729619391038,0.7063514196752618,0.034614660684626763,0.06657590134202923,0.0030875058146193624,0.0005647185754789325,10666.213265242288
211,0.00011644597716363447,-0.00010756817232415727,0.0008919611796098792,1678320262855506470,210,1677825034943076372,camera_1,0,0.7041550587241161,0.7064218383754394,0.028520007855883163,0.06573012012313348,0.008080620900727808,0.001479638961502846,10659.711719778012
212,4.830181916083698e-05,8.501336421140593e-05,-0.0007791171412185882,1678320262863718105,211,1677825034950578927,camera_1,0,0.7039401257699003,0.706411965130101,0.033748392315733323,0.06566186768733659,0.0072753254789859065,0.00133063611475575,10667.670033357805
213,6.577292794886225e-05,8.147403801639364e-05,-0.0007366934996020369,1678320262870725061,212,1677825034957170009,camera_1,0,0.7039089286626279,0.706295615419116,0.03318654019423786,0.06750835014055567,0.004974343697540462,0.0009102180941939551,10663.307652567048
214,9.215315258576107e-06,0.00022379111034720456,-0.0022443165332908244,1678320262876678124,213,1677825034963759183,camera_1,0,0.7038218792967393,0.7062510734593533,0.0364623316793068,0.06719138210533718,0.005382216942962259,0.0009836135573508577,10672.16040625644
215,3.103957781802613e-05,0.00016329142961873933,-0.0016516860232318464,1678320262882237567,214,1677825034969747304,camera_1,0,0.7039136157174544,0.7061587966157352,0.03688836905492381,0.06696733381481472,0.0031644537230022256,0.0005785849548917037,10667.401825492963
216,6.059889608225899e-05,8.584119275173441e-05,-0.0008720881096069277,1678320262889381410,215,1677825034976616382,camera_1,0,0.7039449695317473,0.7063285679732151,0.032517428337286096,0.06711222534072414,0.005204763438086957,0.0009522077151750348,10666.18104686088
217,0.00011639348794220683,-6.460527149526607e-05,0.0002290929355552862,1678320262897384291,216,1677825034983732461,camera_1,0,0.7039161145462088,0.706297496037236,0.03570867075164804,0.06611234080600925,0.002686560095753521,0.0004917745596664329,10655.954070650045
218,5.211823022248374e-05,6.49309520535657e-05,-0.0007286226870020229,1678320262902714866,217,1677825034989924907,camera_1,0,0.7040255919215828,0.7061558260780401,0.0350352800828635,0.06681649770095144,0.0024534271215088665,0.00044885840615782764,10662.755437282265
219,0.00010584832601920335,-0.00010468062259089139,0.0007779340303044613,1678320262908683085,218,1677825034996572017,camera_1,0,0.7041196636135596,0.7062841863287407,0.03349215026371464,0.06524127010864478,0.0037723412970080967,0.0006906749088932787,10656.475874980566
220,7.350675248805894e-05,1.19865526450047e-05,-2.712202439969502e-05,1678320262916236543,219,1677825035003214836,camera_1,0,0.7040830065934026,0.7062846915755324,0.03258680651258936,0.06608444835027914,0.003414947830606252,0.0006250112351122513,10661.928222855204
221,5.0197783417929576e-05,0.00010541654356038821,-0.001134580044025224,1678320262922716692,220,1677825035009919881,camera_1,0,0.7038079180997334,0.7062478082824676,0.035622955952608136,0.0678192651503119,0.003866512444801629,0.000707351443443837,10662.701150066912
222,0.00010736320795542986,7.407481439736241e-06,-0.00021642782904107705,1678320262929330167,221,1677825035016564369,camera_1,0,0.703960241926209,0.7061303874774985,0.035110210412625464,0.06772833079924931,0.0035504020634107287,0.0006499811164095579,10656.199778720036
223,6.188277327143221e-05,0.00015395588112110392,-0.0015695372838795407,1678320262936074872,222,1677825035023276329,camera_1,0,0.7039058252777501,0.7062293541366396,0.03465610938544439,0.0674955004282401,0.007626964128576217,0.0013946209947079042,10668.246959297452
224,5.754126082392619e-05,0.00010843695440371226,-0.001304354318015566,1678320262942696518,223,1677825035029927730,camera_1,0,0.7039028159935147,0.7060375010072321,0.03675151104460031,0.0684192899977915,0.0032524320413358514,0.0005950331883153871,10661.016982762376
225,4.178197551545082e-05,0.00012244768105079684,-0.00116320598636932,1678320262949968868,224,1677825035037101984,camera_1,0,0.7037827034214377,0.7062939822501103,0.035432931943760064,0.06769951503491446,0.0034753383370116357,0.0006357491301344851,10663.496594786524
226,3.77539219092865e-05,0.00013157442901751137,-0.0013195009913040678,1678320262956234328,225,1677825035043729066,camera_1,0,0.7040170303820056,0.7060883573504811,0.033764181738269734,0.06825857145990283,0.0029610662604682148,0.0005416771778181801,10665.352040034139
227,2.1498248572587864e-05,0.00014105196396041464,-0.0012717804019071188,1678320262961918784,226,1677825035049594640,camera_1,0,0.7039254194968165,0.7062557995393937,0.032050141374994186,0.06829742192092977,0.003952760132960975,0.0007231115557135955,10666.877319742227
228,6.213608889847622e-05,3.5230182147849565e-05,-0.000337476356381039,1678320262969724995,227,1677825035056460380,camera_1,0,0.704040480485138,0.7061752866837269,0.03466603180079127,0.06664632438926192,0.005218663194682449,0.0009549795803262244,10660.516861925953
229,9.165289059383241e-05,-3.26988239345849e-05,4.639901159064763e-05,1678320262977266650,228,1677825035063745260,camera_1,0,0.7041015020043273,0.7062086722093615,0.03356809615501552,0.06620852733650451,0.003774072567466647,0.0006908107171448228,10659.843842025966
230,2.0034538280450098e-05,0.00015764299241527446,-0.0014213879095996695,1678320262984197899,229,1677825035070535659,camera_1,0,0.7040109822791529,0.7060272313496716,0.03458020695882705,0.06854410776824148,0.004111080546863377,0.0007520493309871516,10664.45153803588
231,6.783698659561244e-05,-1.0778291057944589e-05,-0.00029479439716162403,1678320262989617451,230,1677825035077146768,camera_1,0,0.7040912431590464,0.7061331319278625,0.033237128983697795,0.06728160638256006,0.004101029073353857,0.0007506233152721338,10660.238627300012
232,4.171744406608613e-05,0.00010739936224291036,-0.0008607177337243144,1678320262996767300,231,1677825035083746671,camera_1,0,0.7039113418572274,0.7059857405271173,0.035659004744624474,0.06943624671422352,0.002578220854047686,0.0004719682785564244,10656.242155512795
233,6.569240356718575e-05,-6.141169190287954e-06,-0.0001352771321840862,1678320263001917687,232,1677825035089646100,camera_1,0,0.7039537492543053,0.7062021827746439,0.032658805613474874,0.06827150482475483,0.004452223074622452,0.000815143519281387,10657.086439613366
234,4.607502735352875e-05,4.8065874591218805e-05,-0.0006474061978054557,1678320263009856734,233,1677825035096402168,camera_1,0,0.703882991192553,0.7062639008411344,0.03487705626114281,0.06725792165273625,0.0017004915280267596,0.00031116778150664634,10661.168261038838
235,5.6220327187980756e-05,7.286221793273429e-05,-0.0008475522962796411,1678320263016829678,234,1677825035103788137,camera_1,0,0.7039368682467276,0.7063246299502286,0.03496718623501942,0.06599771613826873,0.004336079640779643,0.0007930446258617404,10665.862996301848
236,4.618478364827594e-05,0.00018220990484024702,-0.0018687127958045835,1678320263023329313,235,1677825035110538482,camera_1,0,0.7038704339262432,0.7062244840604308,0.0352162784592861,0.06762546923710383,0.0033973765675909817,0.0006211867657971013,10669.620777102886
237,0.00010327225329560819,9.509594654055764e-05,-0.0012656609730776758,1678320263029886636,236,1677825035117165327,camera_1,0,0.7039924386288596,0.7062558547212029,0.0323554680711989,0.06745693227021424,0.0034345315070822835,0.000628178446151038,10668.598498041974
238,0.0001380636534006885,-4.482657547211222e-05,-7.113250474377608e-05,1678320263037279042,237,1677825035123746395,camera_1,0,0.7040419380667141,0.7063006643985865,0.034164037583836016,0.06555257012010192,0.0059549518628045925,0.0010896907604552905,10661.682295838142
239,3.9199759066507744e-05,7.612572679399632e-05,-0.0005661977437370069,1678320263043029148,238,1677825035130510568,camera_1,0,0.7038696132658071,0.7062585914710465,0.03299394957951614,0.06839421602387802,0.005704368639271706,0.0010441194073620072,10659.882167506497
240,1.9338599219501096e-05,5.941295751171749e-05,-0.0004861299943219599,1678320263050850794,239,1677825035137161731,camera_1,0,0.7039576638226658,0.7062506929773184,0.03386211877395304,0.06713362143167366,0.005211102426983415,0.0009536404817215088,10661.470117542658
241,4.361523050910865e-05,3.366703165513796e-05,-0.00024282051078072797,1678320263055885594,240,1677825035142889976,camera_1,0,0.7040081649590982,0.7063812697120373,0.03397253273433913,0.06514501124834812,0.002621783991344273,0.0004796493901546268,10664.375282886667
242,7.472342132035237e-05,7.202711225073877e-05,-0.0007111675407567297,1678320263063877092,241,1677825035149996757,camera_1,0,0.7037795892075337,0.7062923672302481,0.037051840862296535,0.06687707302119797,0.005085676850285381,0.0009304278540846869,10659.853800123436
243,8.035280791281185e-05,5.8094869552827166e-05,-0.0006815574265401914,1678320263070251503,242,1677825035157121181,camera_1,0,0.7040324700637574,0.7060637964302449,0.036132165973023295,0.06713168438622896,0.00682747788960114,0.0012493318874477071,10660.17400442611
244,6.496916557265087e-05,0.00012122549702348051,-0.001463666998676949,1678320263075975489,243,1677825035162902355,camera_1,0,0.7038548645492726,0.7062098943343876,0.035795403893927415,0.0676358178379538,0.002576546976342797,0.000471218344420733,10665.574575707202
245,8.20740563056005e-05,0.0001007679260403016,-0.0012586023036607052,1678320263083414758,244,1677825035169990301,camera_1,0,0.7039249978506261,0.7062102364928733,0.034776705970127865,0.06743352278758234,0.0034865786437876523,0.0006377105764444591,10665.733421031617
246,7.798887815853306e-05,5.539472442100957e-05,-0.0007062942020796825,1678320263089780299,245,1677825035177170276,camera_1,0,0.7038901951986009,0.7062330624615791,0.032753475759249355,0.06856139157793686,0.005472525139339268,0.0010016198194538663,10660.806441303339
247,7.389853717360007e-05,-2.7096889058275675e-05,5.922531971958023e-05,1678320263096527937,246,1677825035182896375,camera_1,0,0.7040238798281498,0.7063156607090358,0.033947416805548684,0.06569731319549836,0.004253904975485057,0.0007785192419573332,10660.577710372629
248,2.928812685537574e-05,8.78294286798531e-05,-0.0009235864983998532,1678320263104025174,247,1677825035189406871,camera_1,0,0.7039113059247678,0.7061747443720027,0.03727202535366695,0.06661005876337461,0.0044261981383897355,0.0008095973356677103,10661.945278747471
249,8.018431098212597e-05,-1.761757450619017e-05,0.00015745015642210092,1678320263110371020,248,1677825035197112321,camera_1,0,0.7041027561648342,0.7063320924463425,0.031907382886799326,0.06569781471838082,0.0029265411430969834,0.0005356313381506101,10662.17096034263
250,6.407228453141067e-05,7.663080101222297e-05,-0.0007998014574339685,1678320263117082760,249,1677825035203797817,camera_1,0,0.7040054778170427,0.7062941555591555,0.033331145616984,0.0664370962522916,0.004667988221626729,0.0008538698764275813,10666.365691981513
251,9.893693216708743e-05,9.604522029754703e-05,-0.0012900446484724881,1678320263124234216,250,1677825035210479021,camera_1,0,0.7039022249662817,0.7061660624825524,0.03394760329640482,0.06854713791133772,0.00328591390280053,0.0006011892221240252,10664.10037849646
252,0.00015215643625643427,-3.733471973238478e-05,-2.202822034735874e-05,1678320263129992215,251,1677825035217265844,camera_1,0,0.703923492146852,0.7062441026439317,0.034674153508566924,0.06714676286250132,0.0022656777291558683,0.00041478243951104235,10656.643964499235
253,0.00011662744642418343,2.653434559313217e-05,-0.0006508502368895996,1678320263135884237,252,1677825035223191499,camera_1,0,0.704175553294259,0.7061393061957545,0.03397507805701517,0.06595274413640859,0.00278171815443784,0.000508851440057103,10665.57621858548
254,6.427707192682708e-06,0.00021687568435535542,-0.0020193456279780087,1678320263142845239,253,1677825035229886770,camera_1,0,0.7038444644738683,0.7061207103648067,0.03714515109532094,0.06794667006925352,0.0039930533384904265,0.0007300458467685278,10667.511602616873
255,1.2534363691807382e-05,0.00010046162179011553,-0.0008229347899044726,1678320263150266977,254,1677825035236518383,camera_1,0,0.7039840854305344,0.7061655810409424,0.03428946382080837,0.06753378624454387,0.002607616654131561,0.00047712591871100214,10662.633018477587
256,1.0377650309228992e-05,7.982149419000217e-05,-0.0007856586572816404,1678320263156011986,255,1677825035243291378,camera_1,0,0.703908476231704,0.7061202156141245,0.03643502109596248,0.06767264903903017,0.002894421981181949,0.0005296498689004098,10659.244240322265
257,-3.623061596852439e-05,0.0002319557313331666,-0.0021007588500197016,1678320263163329872,256,1677825035249891042,camera_1,0,0.7037920741303386,0.7059525854465291,0.038170751449744335,0.06964665983691426,0.005911086744163185,0.001081040265563256,10662.30222318904
258,9.42167770151825e-05,4.189645447794099e-07,-0.0004200189160097345,1678320263169693667,257,1677825035256554603,camera_1,0,0.7038690899672265,0.7063024832339095,0.03429088114798566,0.06729964217152885,0.0031984401284717023,0.0005853721544425263,10659.927965403076
259,-2.5399027979156052e-06,0.00023454154762020396,-0.0020241565831153885,1678320263176651525,258,1677825035263068437,camera_1,0,0.7039770911563823,0.7059876029852595,0.035840867692625115,0.06865268939499827,0.003398482396733016,0.0006214463974418388,10667.439664804026
260,1.709590628605484e-05,0.00019170738673240928,-0.001880800743838229,1678320263182887442,259,1677825035269887208,camera_1,0,0.7038263222218729,0.7061292030323241,0.03578287194620764,0.06877239888100903,0.0011569199268706145,0.00021158566481702945,10666.014355747726
261,9.674888985533592e-05,-1.2050182934597586e-05,-0.00017567105484994627,1678320263190488182,260,1677825035277042627,camera_1,0,0.7038555524584256,0.7062837455261224,0.03489563683498318,0.0673270124758052,0.002957414137199521,0.0005413617650242887,10657.161007894782
262,0.00015018725537840893,-9.832656245428728e-05,0.0006144618109376054,1678320263197054794,261,1677825035283699512,camera_1,0,0.7042615680586232,0.7061951982885835,0.0321280186029796,0.0653588256504384,0.003394783940166235,0.0006214772253109235,10659.050188281108
263,8.49087659682557e-05,-5.334121371608491e-05,0.00033943570196193207,1678320263207515711,262,1677825035290376901,camera_1,0,0.7042984907655768,0.7060810458900645,0.032820819663901685,0.06584820678433945,0.0030763757531531155,0.0005631356858389483,10659.276188180893
264,3.808991891986191e-05,8.558608476172402e-05,-0.000881390197498888,1678320263212011273,263,1677825035297504425,camera_1,0,0.7038335972405645,0.7061800174017306,0.03678551759952463,0.06763783048585724,0.005357570247724652,0.0009803203883368278,10659.634287575493
265,3.0050784467910985e-05,9.200270887893547e-05,-0.0009051936707038521,1678320263217262859,264,1677825035303963899,camera_1,0,0.7038266248352301,0.7062400524684809,0.034691040572823184,0.06818799136461245,0.0066049948800355205,0.0012086179538944824,10661.089778879072
266,7.437725653368366e-05,5.6713748420145205e-05,-0.0006969382142889557,1678320263224083061,265,1677825035309730768,camera_1,0,0.7041182459389475,0.7061842553654598,0.03573579155130667,0.06514788110132423,0.0037251199246384203,0.000681260373507377,10665.792699413496
267,0.00015760749352235204,-0.00011289768855338167,0.0005896743054254472,1678320263229972849,266,1677825035316989421,camera_1,0,0.7041384421952263,0.7061610887246416,0.03368859393331666,0.06626197727886733,0.002443752659019083,0.0004474621041591956,10655.162094258587
268,7.123770574658794e-05,8.708554449010641e-05,-0.0013272915298796484,1678320263238032232,267,1677825035323693037,camera_1,0,0.7039286375864673,0.7061043155812436,0.03699819974225197,0.0673223730942115,0.003030322666745633,0.0005542113508500722,10663.687072675908
269,0.0001306996196209359,-1.2763398468729203e-05,-0.0002559462560718373,1678320263244181128,268,1677825035330392837,camera_1,0,0.7038090125717659,0.7063822809541269,0.03355195583363218,0.06746268032430232,0.007738468644674867,0.0014164424014425315,10659.079561139455
270,2.4009439141353672e-05,0.00013616487593032245,-0.0011829476424871643,1678320263249072336,269,1677825035336114168,camera_1,0,0.7039592956003194,0.7063586478774104,0.033662645991207475,0.06607266432927654,0.005542508792132139,0.0010134781581807297,10669.999839709373
271,2.7659377170585753e-06,0.00012333634519573478,-0.0011621373942909408,1678320263257270701,270,1677825035343665838,camera_1,0,0.7039246050590742,0.7060589431324156,0.03488220915696147,0.06895034952408323,0.004961714614182711,0.0009079691401215027,10660.928535807176
272,4.4927967195684815e-05,2.9513772174138975e-05,-0.00039594525483721554,1678320263264510924,271,1677825035350376844,camera_1,0,0.7040158180849214,0.7062118882991933,0.032814105258536536,0.06745169536185598,0.0030777899082750078,0.0005633241744276131,10661.139322493571
273,3.40476813331797e-05,4.873757167195292e-05,-0.0005419285795498219,1678320263270282123,272,1677825035357006788,camera_1,0,0.7039681045046796,0.7061771120278986,0.03432824379975559,0.06756009151599687,0.0031645121634937823,0.0005791608067837136,10660.238269468073
274,1.956530925603661e-05,0.00018217153913119288,-0.001571897236898323,1678320263276289103,273,1677825035363012313,camera_1,0,0.7038978750316419,0.7062321791223161,0.03325721124026085,0.06824843293882009,0.007022368954494596,0.0012843615299768644,10668.040597206687
275,6.094467074245491e-05,0.00010555488799934842,-0.0010954376378951025,1678320263283513542,274,1677825035369699478,camera_1,0,0.7040317364675799,0.7060570466812998,0.03422452295272738,0.06820148757016438,0.0032595886150375013,0.0005963991687142571,10663.139088599592
276,0.00017783444738933563,-0.00015350111179907033,0.0009525359787678767,1678320263290206146,275,1677825035377024412,camera_1,0,0.7040949605279487,0.7063049020267375,0.03502017454232408,0.06447681216664207,0.004764882731251419,0.0008723631777632383,10655.052629461508
277,0.00011261633471218446,-2.8148444412012807e-06,-0.00030875469395708066,1678320263296315513,276,1677825035383746147,camera_1,0,0.7040544565182959,0.7061212568429408,0.03481288853023691,0.0669936988339488,0.005925067875068635,0.0010843811642686607,10659.17884544702
278,3.588975582745346e-05,6.829045542544598e-05,-0.0008561261843760271,1678320263304016613,277,1677825035390368700,camera_1,0,0.7039707224915209,0.7062215666149372,0.0354719608717569,0.06646849415040465,0.004469730833079666,0.0008175441600077032,10664.104571399392
279,5.253713174500907e-05,5.574072316721912e-05,-0.00037842608384730525,1678320263310007390,278,1677825035397015571,camera_1,0,0.7039697751858804,0.7062107731525271,0.035665582009561485,0.06648959142580255,0.00313034316059202,0.0005728067592133831,10660.001101324222
280,2.5817919891882313e-05,0.0001232348988494114,-0.0009695236322313505,1678320263316606338,279,1677825035402904510,camera_1,0,0.7038447540728129,0.7062650112321238,0.033521290637211015,0.06832729430824143,0.004018646781332791,0.0007353165228375463,10662.678675393692
281,6.47891554184793e-05,0.00011730532128717552,-0.0010382255250478423,1678320263322828288,280,1677825035409975528,camera_1,0,0.704120872366702,0.7061157925463314,0.03276592023003521,0.0673845611820684,0.005161268752999604,0.0009441551761691864,10666.5390866521
282,5.3046503852877125e-05,0.00020056257235651076,-0.001973532199013306,1678320263330160630,281,1677825035417053222,camera_1,0,0.7037731476290926,0.7062199289643508,0.03626248308077309,0.06813076346734502,0.003599623625632376,0.0006581596613204711,10667.812625797347
283,4.491108698180535e-05,0.0001895783390468142,-0.002066975690383277,1678320263336927265,282,1677825035423679590,camera_1,0,0.7038779169100928,0.7060429310309915,0.03684886811942045,0.06856689103198896,0.0042561046429909774,0.0007782166217650447,10666.63275023131
284,0.00014998989033633559,-8.379367544858463e-05,0.0003946268398435926,1678320263343221150,283,1677825035430486440,camera_1,0,0.7040983573829034,0.7063340966999461,0.03341884563141776,0.06496789766055244,0.003394158091396093,0.0006212051753520624,10660.284941323573
285,3.552652400365397e-05,9.766148688722387e-05,-0.0009095891330472838,1678320263350025150,284,1677825035437006950,camera_1,0,0.7038841198721744,0.7062355803960501,0.03389855887325532,0.06803924221172247,0.003733278950676322,0.0006831301005624528,10662.481329245958
286,1.0842891217804906e-05,3.656741618063286e-06,-0.00012087836698126964,1678320263355412505,285,1677825035443045377,camera_1,0,0.7040367961143291,0.7064251318628175,0.035183332502822795,0.06370130221327844,0.002459554350934923,0.0004498510419298173,10665.41748386878
287,2.7015715785005945e-05,4.0661885410631093e-05,-0.00023615932215159674,1678320263362581561,286,1677825035449673652,camera_1,0,0.7039420699800975,0.7065590473441414,0.0311481080774052,0.06534271261183787,0.005789381102658809,0.0010592073124888076,10667.084654459151
288,8.144340071378209e-05,-4.132712231624813e-05,0.00029643641095589146,1678320263369746915,287,1677825035457026004,camera_1,0,0.7038797443757145,0.7064095146709284,0.03219618027242966,0.06709924750567335,0.004994509858079255,0.0009144897155864369,10657.184923656632
289,9.242309143564498e-07,0.00022535757032660086,-0.0020068977660128162,1678320263377710616,288,1677825035463811874,camera_1,0,0.7036775007547091,0.7061098486511218,0.035675605318804635,0.07052735465500701,0.003981645742896943,0.0007284012720217713,10662.504995052004
290,0.00014714319325778713,-2.5914071497490365e-05,-0.00019496782361638765,1678320263383698530,289,1677825035470443964,camera_1,0,0.7039542382198575,0.7062458014638681,0.0350191329733685,0.06662551112563776,0.004825667187105864,0.0008831528345539338,10658.924992395796
291,8.124854429711337e-05,7.173457968423502e-05,-0.0011551637901106027,1678320263389577353,290,1677825035476294517,camera_1,0,0.7038387671237601,0.7061503550140058,0.03695711532314398,0.06779998255376554,0.007709439087193459,0.0014103047046893028,10661.134929535916
292,9.583287859647738e-05,2.865695374171251e-05,-0.0006960104674669232,1678320263396577115,291,1677825035483033418,camera_1,0,0.703849843196668,0.7062157338273723,0.037400143512327434,0.06675301335482142,0.0029197119874879718,0.0005341624413729889,10659.532815195736
293,7.540339776132554e-05,-1.612434417064268e-05,-8.70800716241682e-05,1678320263403742190,292,1677825035490359306,camera_1,0,0.7039152937457589,0.7062395813973761,0.03600080244134369,0.06657969001174767,0.0021271876175887887,0.00038933355203100013,10656.957438200716
294,-1.3321638495891741e-05,8.386526289733132e-05,-0.0006858828195221989,1678320263410440451,293,1677825035497017621,camera_1,0,0.7039944170803153,0.7062800337935711,0.033113068302802924,0.06681241869497723,0.002994578506331891,0.0005479119380850833,10664.79281166487
295,6.436418334611338e-05,-1.7070114858075414e-05,0.00033599503560788335,1678320263417139900,294,1677825035503709554,camera_1,0,0.7040531432289707,0.7063570206103019,0.03180890590673068,0.0660085180030625,0.006336647435091436,0.0011600715801133284,10660.097220172644
296,6.63425337206619e-05,0.00012286629675239968,-0.0010474409508969273,1678320263423830339,295,1677825035510363340,camera_1,0,0.7041185496780128,0.7060998969697988,0.03236280645367126,0.06776910990276899,0.0039767507114447645,0.0007275372099108888,10666.086283212991
297,7.971566610040504e-05,7.018675691150555e-05,-0.0008281180818379141,1678320263429324201,296,1677825035516306400,camera_1,0,0.7039412242953295,0.7061908078063727,0.034830288567204645,0.06743994888566303,0.0028189157019369304,0.0005157582305350074,10662.204087063199
298,8.247194736128727e-05,4.863244219494023e-05,-0.0005614346364199996,1678320263436517352,297,1677825035523036956,camera_1,0,0.7041041913890244,0.7060976495843568,0.034299437057205465,0.06698466643504263,0.00157724239397794,0.0002886252758777341,10661.889767186254
299,0.00012547179503508143,-5.36550678943426e-05,2.2894691400487943e-06,1678320263443294393,298,1677825035530386924,camera_1,0,0.7038777434195715,0.7063738246290239,0.03561340358361384,0.0657558186225957,0.0053251347853802145,0.0009745030525105492,10658.780132640035
300,5.285001675833789e-06,0.0002022398133364467,-0.001920263172502601,1678320263451548351,299,1677825035537023782,camera_1,0,0.7038341890421371,0.7060317435800552,0.03706619315808925,0.06901238089989112,0.004258357104845345,0.0007787787389616529,10664.023410668946
301,4.99821923396343e-05,4.421721779374055e-05,-0.0004902271973996619,1678320263456233670,300,1677825035543740272,camera_1,0,0.7038622641099259,0.7061933834848033,0.034154076486558466,0.06857344488710303,0.004152596928179264,0.0007601802315525527,10657.398333784666
302,8.835966647080529e-06,3.746063781034925e-05,-0.0002876525183586054,1678320263463149554,301,1677825035550420522,camera_1,0,0.7039976581432855,0.7062536049902637,0.033559888889994435,0.06683469626412424,0.007064333593007176,0.0012929685644416475,10661.006101718176
303,6.69931775193755e-05,-7.481175683221597e-06,5.330370482914404e-05,1678320263469136210,302,1677825035556342601,camera_1,0,0.7041970125392392,0.7061447777506173,0.03348233785052397,0.06591701933799424,0.0032310205278918147,0.0005913129244568344,10660.642872144816
304,1.574003724857942e-07,0.00018394821093220548,-0.0016312603603316767,1678320263476868879,303,1677825035563626527,camera_1,0,0.7039929916377807,0.7061507590044092,0.033440223049578936,0.06802003208451722,0.00524177134502679,0.0009585972680906512,10668.894244670862
305,3.1272607388110885e-06,0.00013991914833283436,-0.0015075184139066167,1678320263482867827,304,1677825035570414543,camera_1,0,0.7039085908615641,0.7060436768975175,0.03613724331843175,0.06862304037031293,0.003352117259055376,0.0006132124474833357,10662.944993642162
306,7.188770464368333e-05,6.061111612015724e-05,-0.0008516148568014081,1678320263488667102,305,1677825035576356649,camera_1,0,0.7038719173852631,0.7062380257822457,0.03533724978547348,0.06740514545039178,0.004948027548380196,0.0009052996877980683,10661.84219095786
307,0.0001281178034019531,-1.1731312608675992e-05,-0.0003302208484772251,1678320263497364407,306,1677825035583664894,camera_1,0,0.7038097877081787,0.7065311315624881,0.03411837398967843,0.0655856647103549,0.005906191654503346,0.001080534897226146,10663.743418595981
308,0.00014100257171258124,-4.439527541938437e-05,-0.0001476187652116323,1678320263503492142,307,1677825035590401887,camera_1,0,0.7038199182754293,0.7063830581210357,0.035940874395585166,0.06609653081684372,0.002289441763423383,0.00041898730545765744,10658.699814304251
309,-6.147355962424217e-06,0.00025412563494653373,-0.0023515667116624783,1678320263510260942,308,1677825035597009420,camera_1,0,0.7038025542482572,0.7060932199005213,0.03577351275090557,0.06938721229163024,0.005077555717434734,0.0009284143884759057,10668.207598314615
310,1.9983637589551795e-05,0.00010032878581511806,-0.0010783836637702215,1678320263516306404,309,1677825035603729724,camera_1,0,0.7039148535569918,0.7061388068128941,0.032676240451658775,0.06931181547648534,0.005746909126173705,0.0010517293645394058,10661.923925620504
311,2.0822581076010427e-05,0.00011552586273982923,-0.0008149400871424461,1678320263523771164,310,1677825035610400676,camera_1,0,0.7040529266534642,0.7062375224163366,0.033797978090637365,0.06630033996074869,0.00405393575783819,0.0007415497071448622,10666.3224432288
312,4.606636038728684e-05,2.41161797299716e-05,-0.0002031235376382945,1678320263529509677,311,1677825035617014169,camera_1,0,0.7039507151534721,0.7062933226598358,0.03438281924109588,0.06649026050541776,0.002465293335262686,0.00045116285727370636,10660.184813099564
313,6.439991005273427e-05,4.2212185946022274e-05,-0.0005969297716665878,1678320263537382237,312,1677825035623694896,camera_1,0,0.7039231425323804,0.7062805327667719,0.03412226843702719,0.06704990110905629,0.002733460976742208,0.0005001733519076929,10662.219687333913
314,0.00016022848545166335,-5.431232121649865e-05,-0.00011481967340820631,1678320263542869813,313,1677825035630375146,camera_1,0,0.7040391391323112,0.7061321138209079,0.033976313973303716,0.0674680553257469,0.00520842761034146,0.0009534361902331512,10657.387778538283
315,6.676511443698407e-05,0.0001422575606057075,-0.0017501748246826487,1678320263550869691,314,1677825035637262821,camera_1,0,0.7037043346949282,0.7060468569145325,0.036658844521580684,0.07038589554037633,0.00375314790289849,0.0006867519780626451,10659.480287931628
316,3.226528147305674e-05,0.00018131676808647024,-0.0017653586317560865,1678320263556244056,315,1677825035643690347,camera_1,0,0.7036468142481631,0.7061629980160385,0.03637274907691551,0.06994286351014907,0.005674754385836422,0.0010382219008531366,10661.216952242192
317,2.410938426786191e-05,8.585190819748734e-05,-0.0006151649712253793,1678320263563073687,316,1677825035650347948,camera_1,0,0.7041577149857579,0.7061428671577344,0.03416289051819858,0.066008033599949,0.004151043423917145,0.0007593555015984652,10665.00202331436
318,5.2766400323811524e-05,-2.3323844570877217e-05,-2.7403038669771007e-05,1678320263570194204,317,1677825035657071828,camera_1,0,0.7039364654553495,0.7063131275054415,0.03304942115251931,0.06710405559424308,0.005847239983268082,0.0010703459582337284,10658.783612427304
319,-4.6601965265138934e-05,0.00019513899378059696,-0.00158125464315928,1678320263577059663,318,1677825035663634061,camera_1,0,0.7038455292509741,0.7061668680434475,0.035318928860982035,0.06842805488421842,0.002925398002844304,0.0005350989008560876,10665.154012591232
320,3.780867379812869e-05,0.00013832470175062506,-0.0013413083801281367,1678320263582801250,319,1677825035669648408,camera_1,0,0.7037583480271975,0.7061814484330193,0.033930317411199604,0.06986188539860658,0.005578316457103938,0.0010208522193262519,10661.099324426152
321,6.249985924088042e-05,0.00012525743345881413,-0.0014305087269290695,1678320263590657257,320,1677825035676990509,camera_1,0,0.7038407373778165,0.7061727577906709,0.03663917067387487,0.06771871036944542,0.006645009270869196,0.0012152724802023034,10664.002798540285
322,0.00014968650753653667,-1.462334531449061e-05,-0.00022069100461852287,1678320263595974981,321,1677825035683659791,camera_1,0,0.7038644588146156,0.7063817837767123,0.03663427524070356,0.06524974362881905,0.006802050571423024,0.0012444324472302092,10660.514896178263
323,7.160028238945015e-05,9.433061481362026e-05,-0.0010665413415171798,1678320263603906625,322,1677825035690332174,camera_1,0,0.7040010471875406,0.7061694972978492,0.03571094388784265,0.06657248028719287,0.005019504984375089,0.0009180278866607149,10665.227209834618
324,6.17654130186801e-05,0.00010076490338822852,-0.001142745149467661,1678320263609753321,323,1677825035696966171,camera_1,0,0.7037705208619922,0.7064248599306123,0.03605103598818159,0.06611576243101233,0.0054841323872096845,0.0010028088545214807,10666.555769691591
325,5.69518222811316e-05,1.0114826983320668e-05,-0.0001529886269904246,1678320263615244459,324,1677825035703012466,camera_1,0,0.7041236519979234,0.7060979107123024,0.033886062889419685,0.06698774460065962,0.0032259108847938482,0.0005904407397583812,10659.109149967087
326,-4.801745826274462e-06,9.651690876122387e-05,-0.0006730959922700563,1678320263623339321,325,1677825035709858894,camera_1,0,0.703899268896472,0.7063469375863533,0.03224476501929685,0.0675284987116048,0.006002042267937213,0.0010982983051465855,10663.867605576988
327,5.613970785157962e-05,7.073241609473202e-05,-0.0005742106361625865,1678320263629390230,326,1677825035716956615,camera_1,0,0.7040262713436081,0.7063484195965458,0.03511874289400408,0.06469616131597775,0.00453056552214548,0.0008285340858564336,10666.73138159095
328,3.0830290638661495e-05,0.00020569917896212653,-0.00193117774024687,1678320263635565386,327,1677825035723027944,camera_1,0,0.7039083579192285,0.7060856177071405,0.03587205713792321,0.06833242008940331,0.0028343070880509913,0.000518252901191601,10667.461852222685
329,0.00012699279385158802,-9.687384167011981e-06,-0.00028370602927019206,1678320263642921475,328,1677825035730298519,camera_1,0,0.7038645879733433,0.7064926162839815,0.035888733402163614,0.06445792230687326,0.003139260516036302,0.0005742012747815316,10663.941215224912
330,3.0047804089203267e-05,0.00015188655135695006,-0.0016947610615702935,1678320263650757996,329,1677825035736937999,camera_1,0,0.7038956875992707,0.7061948446685392,0.03566171259499043,0.06743845043830826,0.0031446065986528997,0.0005749857546595053,10668.127798734702
331,0.00019722457250803682,-0.00018328502705516891,0.0013360860100162242,1678320263656648832,330,1677825035743620872,camera_1,0,0.7040609419555641,0.7065989494999699,0.03213866657913449,0.06311276169443028,0.003411709680221975,0.0006245928898934906,10658.692763303872
332,-2.7208666768793743e-05,0.00019194662138305452,-0.0014252657684385994,1678320263663110264,331,1677825035750428915,camera_1,0,0.7039202668142686,0.7062397328400106,0.03499635873312321,0.06705932151179203,0.006352858152240515,0.0011617938060690912,10667.857683152197
333,0.00010847406311138841,-0.00011473297901259949,0.0008976670158387101,1678320263670984988,332,1677825035757591724,camera_1,0,0.7041574015885922,0.7062805895553274,0.034976208989017085,0.064083909135897,0.004738321586046368,0.0008673566612175944,10656.545753826384
334,3.01089824326084e-05,3.8640298243908244e-05,-0.0003235227075077951,1678320263676291538,333,1677825035763080120,camera_1,0,0.7041216880470309,0.7061434235191524,0.03557860101279145,0.065637466377241,0.006092845113016665,0.001114644060982283,10661.805547222375
335,9.879626567040056e-05,2.251557855315056e-05,-0.000469973902870624,1678320263685617966,334,1677825035769843101,camera_1,0,0.7040211127228965,0.7064051577947557,0.03397581351291515,0.06474310756765463,0.0015950686647556722,0.00029174025870678995,10667.141692884614
336,3.4633319010310415e-05,0.00021871174301019147,-0.0021924141951839005,1678320263690340510,335,1677825035777068376,camera_1,0,0.7036633369538289,0.7062565416458806,0.03595518637258767,0.06904223477202365,0.008078463026322423,0.0014772099035100224,10667.58722480899
337,0.00012585025166228503,-6.327873465916678e-05,-0.00011129659800968028,1678320263697736268,336,1677825035783717870,camera_1,0,0.7039225512174945,0.7062503454299466,0.03694533326898351,0.06586754752667684,0.0024102032766677444,0.000441081264785367,10657.653991756382
338,0.00010809334752985567,-3.6830087353445506e-05,0.00020955897865304607,1678320263704050616,337,1677825035790408372,camera_1,0,0.7041578427422789,0.7061801117616371,0.03478501741865755,0.06527928323783802,0.001433424069546163,0.00026234295952914016,10659.37833169336
339,3.954829172403418e-05,4.419033455166366e-05,-0.0006149550443046436,1678320263710504715,338,1677825035797030210,camera_1,0,0.704040169834,0.7061376670654103,0.034198195053461285,0.06728683278783135,0.0005065718432888389,9.270184479896392e-05,10661.668353686577
340,2.7080112309077475e-05,0.00010423741193021918,-0.0008443970418356983,1678320263717353971,339,1677825035803778648,camera_1,0,0.7040571723358926,0.7061956311990709,0.03421726473548282,0.06648614405840317,0.008530514198355377,0.0015603467133295734,10665.569711825456
341,3.5413422847588305e-05,2.7228541377377624e-05,-0.0002581187603856172,1678320263724579808,340,1677825035810540437,camera_1,0,0.7039436251808595,0.7062327325282878,0.03439367847997606,0.0671995160211259,0.00202710967278108,0.0003710457896021839,10658.811769501188
342,6.734824447045262e-05,1.1985571049477617e-05,-0.00011545800071655066,1678320263730518693,341,1677825035817027568,camera_1,0,0.7040530343383538,0.7062704079883416,0.034903390150916355,0.06536963358403856,0.0027794393245130773,0.0005085476122666674,10661.63802820444
343,2.952051690292834e-05,0.00018379227379067276,-0.0014815963588303838,1678320263737248802,342,1677825035823714494,camera_1,0,0.7039008600636136,0.706160286440475,0.034895877848610916,0.06814328114484958,0.003019448195118457,0.0005522722559980727,10665.605147857215
344,0.0001763414997897339,-0.00010365204522339022,0.0006902949160063621,1678320263743569994,343,1677825035830425262,camera_1,0,0.7041568946128847,0.7062701133138211,0.031146698565093438,0.06614739584682494,0.00259864324470982,0.000475845995674855,10657.552343290536
345,6.960811634465491e-05,0.00014742074245471803,-0.0014497769879220357,1678320263749602955,344,1677825035836252689,camera_1,0,0.7038966115511454,0.7063110891596224,0.03533178152307293,0.06637673381065015,0.005652749561704695,0.0010334663367820424,10669.29752234137
346,5.304030351735434e-05,0.00014906426170580023,-0.0012679481831736616,1678320263757156133,345,1677825035843706846,camera_1,0,0.7038921130961829,0.7063033097534226,0.035145805508676416,0.06660555613083123,0.0037697582738474007,0.0006893742338230374,10667.514220969984
347,7.671262172327664e-05,5.43400638891578e-06,-7.307287604296775e-05,1678320263763660517,346,1677825035850383758,camera_1,0,0.7040169811682132,0.70634838710466,0.035914259932313015,0.06436002015968835,0.002199928800109774,0.00040244206237061435,10662.49631134095
348,4.441029785788586e-05,4.206871974321569e-05,-0.0005137711959455338,1678320263769979684,347,1677825035857123613,camera_1,0,0.7039520743998763,0.7060800606275878,0.0343229331229274,0.06873398863802631,0.002169861865695566,0.0003972376655582991,10656.955426966078
349,-3.711268107091381e-05,0.0002838943178174458,-0.0023233519037937356,1678320263775721061,348,1677825035862987279,camera_1,0,0.7038628913178578,0.7061740509345796,0.03339767103902756,0.06913635499127943,0.0054409358999691895,0.0009947579318948638,10671.614358330262
350,5.813532220845519e-05,5.408154549141342e-05,-0.0006434595533075793,1678320263782785845,349,1677825035869719266,camera_1,0,0.704047274084754,0.7060909008753127,0.033418451543082234,0.06809025371798359,0.003684221068397164,0.0006742906258288497,10660.763211770802
351,5.4476349102827726e-05,5.609442023069011e-05,-0.0005379194420584987,1678320263789954691,350,1677825035877058506,camera_1,0,0.7040757322017708,0.7061576171807574,0.034589009462067964,0.06650100335008685,0.0020973573555238545,0.0003837511259588167,10662.589819129204
352,0.00011887188085800415,-1.955391379032667e-05,-0.0002303745205920471,1678320263797597615,351,1677825035883660554,camera_1,0,0.7039915351940442,0.7061047608829494,0.03569203300765425,0.06736515281171923,0.002026029513217509,0.0003708710513552314,10656.47812079615
353,0.00012699040509910053,-2.5234279456387565e-05,-0.0003412422905548773,1678320263803494666,352,1677825035890463590,camera_1,0,0.7039611036266592,0.7062352260640142,0.03552005439188498,0.06639951643682472,0.004121195001062007,0.0007541134561476348,10660.030709577492
354,6.134562683603184e-05,0.00016948989652421087,-0.0016508122076213105,1678320263809608293,353,1677825035897118568,camera_1,0,0.7038847464709411,0.7061347164015904,0.03467833619724203,0.06868361505173932,0.0026008555432781573,0.0004757196540351017,10665.78550599702
355,0.00011119535505706157,-1.1644493538798262e-05,-0.0002721920614949802,1678320263816660785,354,1677825035903688669,camera_1,0,0.7040150401439994,0.7062880894713187,0.03411527499987081,0.0660008025230058,0.002914940705522895,0.0005333671950901184,10662.247019135391
356,-3.95290721531133e-05,0.00025695876194414824,-0.0020714776091366183,1678320263822503919,355,1677825035909736394,camera_1,0,0.7038460870182937,0.7060830745359681,0.03506579556537098,0.06941014064413885,0.007141495065297931,0.001306021188167038,10666.831142752666
357,0.00011421527817633004,-0.00018297091447444513,0.0015590476735649617,1678320263829800364,356,1677825035916993856,camera_1,0,0.7044089298319637,0.7062530702561778,0.029643335498279064,0.0643112197617681,0.0026995801599696283,0.0004944593384676143,10656.734640786422
358,-5.247224942568629e-05,0.00020548907146450412,-0.0015400821112354635,1678320263836932265,357,1677825035923710823,camera_1,0,0.7037494769044855,0.7062177526460284,0.03593360382696725,0.06857066224168049,0.006087987392675132,0.0011135956630039473,10663.680044727756
359,3.3466079384286695e-05,0.00010202788702390331,-0.001026506313019926,1678320263843063770,358,1677825035930354833,camera_1,0,0.7039336462300967,0.7060514000426517,0.03644449799204287,0.06812224870863079,0.004788146063219756,0.0008760834226997827,10659.992626158404
360,6.649847897373384e-05,7.499436469604603e-05,-0.0010241281214233844,1678320263848649123,359,1677825035936368942,camera_1,0,0.7038857726985377,0.7062985165073585,0.036155773732495525,0.06618145206847519,0.0032554548233747482,0.0005953530367213049,10665.284731708005
361,0.00020167974881385442,-0.00013078146111589195,0.0005262044462663873,1678320263856425792,360,1677825035943660020,camera_1,0,0.7041332953006461,0.7063649355322521,0.03322822089814114,0.06434878115018958,0.002144676516763866,0.000392524782120942,10660.930973941811
362,7.641302925667781e-05,0.0001127274016405333,-0.0012705015420451105,1678320263863612936,361,1677825035950426340,camera_1,0,0.7038133439085158,0.706312400377436,0.03594567500985379,0.06691396309787452,0.0046719954116269955,0.0008544279996771227,10665.693569881845
363,0.00010368920871837994,-1.84567013986614e-05,-0.000121435883856158,1678320263869356618,362,1677825035957033634,camera_1,0,0.7038795374945476,0.706200033210752,0.03642550608122816,0.06714381800524293,0.002953325980342925,0.0005405897373118344,10655.23193576443
364,-2.136351544482218e-05,0.00012547526086681415,-0.0010369925980886485,1678320263876666891,363,1677825035963065385,camera_1,0,0.7039387054703043,0.7063438160811387,0.032899999272497815,0.06683040081127918,0.0053239273838698855,0.0009738345578988617,10667.824903768138
365,-4.4860251772443904e-05,0.00019090338697153042,-0.0017667976487003578,1678320263883560845,364,1677825035970426082,camera_1,0,0.7038838257392005,0.7062487499937868,0.033749548278454285,0.06797963655360897,0.003570692031644285,0.0006529409368762183,10669.725255998086
366,1.6487501509412916e-05,0.00010782001149739484,-0.0010270543784316466,1678320263890412476,365,1677825035977079868,camera_1,0,0.7039281257425454,0.7063002587268121,0.03277828090726465,0.0674590439584634,0.004639990453142673,0.0008488563187908259,10666.25171914208
367,9.194920336767776e-05,-2.124277864318236e-05,0.00014146125533986975,1678320263896926288,366,1677825035983690738,camera_1,0,0.7040368758059805,0.7064334401772956,0.032922760469369365,0.06480712883396615,0.006283735565375536,0.001149879119779819,10663.34665512922
368,0.00014186468324858814,1.265730303739998e-05,-0.0003764517972801862,1678320263903674555,367,1677825035990382909,camera_1,0,0.7039260717881268,0.7063398161230933,0.03440030686593061,0.06624778112255005,0.004602078755851835,0.0008420385967028389,10662.121808569878
369,0.00011701751482810774,-4.865849755397722e-06,-0.0002284398408916033,1678320263909646825,368,1677825035996399402,camera_1,0,0.7040799114147518,0.7062130816250818,0.03420487712794578,0.06606502905821672,0.006265645322855562,0.001146557522038073,10661.639876999776
370,9.173823298437578e-05,7.992353022834298e-05,-0.0009227897108585736,1678320263916735774,369,1677825036003070354,camera_1,0,0.7038618990397904,0.7062131234766668,0.035325942632556465,0.06777557883597668,0.003509634989313781,0.0006421505385901928,10661.476391233156
371,2.6434325034283e-05,0.00011316521265758439,-0.0008306982491799175,1678320263923790501,370,1677825036010373115,camera_1,0,0.70400035825452,0.7062806785875869,0.0330606034118448,0.06676896834166204,0.005435879167634994,0.0009944069196702592,10666.13044107263
372,6.500287158665852e-05,-4.343215422325519e-05,0.00028187529893042296,1678320263931142329,371,1677825036017042875,camera_1,0,0.7039790001779835,0.7064352220000295,0.03248862389669257,0.06563028069020338,0.008903518319129944,0.0016294916033478782,10660.674620400534
373,1.6491828333797809e-06,3.5693549109983014e-05,-0.000340775107904534,1678320263937261263,372,1677825036023743391,camera_1,0,0.7040218370744603,0.7063115134178926,0.033868786908617,0.06580428716251717,0.002326337504200637,0.00042563386999004335,10663.649579282857
374,5.9658424795938636e-05,7.304135858759997e-05,-0.0008677956772835671,1678320263943729610,373,1677825036030383825,camera_1,0,0.7038704140320271,0.7062940981838627,0.035542257558273435,0.06672207317438829,0.004558303742669523,0.0008338279920389282,10663.46858370956
375,8.146942098098686e-05,0.00011586881380071246,-0.001313024747157776,1678320263949664165,374,1677825036036308288,camera_1,0,0.7038368430862274,0.7063918546425517,0.033850298487578326,0.06692087343550784,0.003157260827720165,0.0005773821519124622,10668.625734774627
376,8.148086528543541e-05,0.00016465808768312273,-0.0018673781764437791,1678320263957728017,375,1677825036043712615,camera_1,0,0.7040782712330202,0.7060084770817909,0.035818565322341504,0.06740065759635422,0.0033493729424662892,0.000612317669318804,10669.3904125765
377,0.00010838618841707559,-2.639689965644454e-05,8.737930171820452e-05,1678320263963549850,376,1677825036050321340,camera_1,0,0.7042472208325462,0.7062382301604793,0.03155181049184566,0.06532914712527202,0.0034092303249053657,0.0006238814357498178,10664.023412222276
378,9.352865277058309e-05,-3.1309746645447056e-05,-4.732399465057213e-05,1678320263969675978,377,1677825036056557416,camera_1,0,0.7038361240439133,0.7062931715945522,0.03704583833617139,0.06627421905778942,0.0029862691299058497,0.0005465484068961264,10656.024165566314
379,1.828657478493423e-05,0.00012167202026597268,-0.0010997666852614607,1678320263977304375,378,1677825036063668251,camera_1,0,0.7039402927985638,0.7062290975300969,0.03315944263292132,0.06788944940689405,0.004780547285918146,0.0008745865564964737,10665.283644591109
380,5.983419687452529e-06,0.00015877116166579386,-0.0014021199013418695,1678320263983780962,379,1677825036070393562,camera_1,0,0.7039023485671351,0.7061265114734961,0.03465415836998558,0.06859972874297597,0.0015849251649342475,0.0002899520509293373,10664.064495115072
381,3.0701807280875126e-05,9.348705194300866e-05,-0.0009230598077900609,1678320263990439415,380,1677825036076998233,camera_1,0,0.7040282461460442,0.7061827480343433,0.034665091656254594,0.06669697465141726,0.0028963233926333487,0.0005297927048138465,10665.095251957424
382,8.825844512773406e-05,2.1729798777514464e-05,-0.0005654590902457457,1678320263996826746,381,1677825036083642482,camera_1,0,0.7038600119142464,0.7061405918211452,0.03554468895149333,0.06843334931085415,0.005372326530050486,0.0009833770278487722,10656.602788484312
383,0.00013805419728905866,-3.5311576367547115e-05,-6.607978626416156e-05,1678320264002586141,382,1677825036089705228,camera_1,0,0.7041858155071129,0.7061017486648041,0.03390613457478805,0.06627995028124747,0.003606766695156694,0.0006601130795051965,10660.135514691934
384,5.67130829796092e-05,8.252132969260861e-05,-0.0009980423378159742,1678320264010510732,383,1677825036096935272,camera_1,0,0.7038898441662935,0.7063436681282947,0.033468647206951085,0.06706384591382454,0.0044907969422638425,0.0008215051112111183,10666.194501673688
385,5.8635936953488343e-05,0.00013897252273531446,-0.0011487687015616643,1678320264017288052,384,1677825036103609561,camera_1,0,0.7038075642631835,0.7062490814693471,0.033395151986822996,0.06893410791042237,0.0045493695652112365,0.0008324772881167254,10662.669552961828
386,-5.869333956209921e-05,0.0003100627791095545,-0.002387261506246574,1678320264024030034,385,1677825036110304355,camera_1,0,0.7037879699234595,0.7060078648737677,0.03613956430082083,0.07020911635639948,0.0025685623404569924,0.0004697618714804417,10665.880452428712
387,7.897976390081052e-05,-9.393692990905533e-05,0.000585710001968387,1678320264030018506,386,1677825036116938829,camera_1,0,0.7040593741118049,0.7064442170786093,0.03317713119353497,0.06431363655750995,0.0038647495093755424,0.0007072913356327124,10660.657631470824
388,4.787192652197514e-05,2.861274822391069e-05,-0.00034681177969941857,1678320264036852747,387,1677825036123649120,camera_1,0,0.7040224010661037,0.7062439924461126,0.034912410797838564,0.0659773105179096,0.002877959341276437,0.0005265732054682041,10661.968730902998
389,4.0170051397753204e-05,3.5135080584391964e-06,-0.0003432575346153932,1678320264043435352,388,1677825036130313634,camera_1,0,0.7039538406778851,0.706203955960799,0.035683299252047926,0.06672079836648909,0.002473518194165081,0.0004526663022896013,10659.069598164991
390,5.1944984242185965e-05,0.00010838839891341712,-0.0010848603617645836,1678320264050148629,389,1677825036136999368,camera_1,0,0.7038279330424052,0.7061826029365414,0.03609327762850538,0.06804151151362023,0.004785682423971593,0.0008756235667496808,10661.129265376136
391,0.00014459775824877952,-7.792735665729245e-05,0.00019391943712676607,1678320264056981333,390,1677825036143615245,camera_1,0,0.7040367802106603,0.7062015733170198,0.03696943887647956,0.06515221058667639,0.002684366772882641,0.0004912425419982472,10656.95729327749
392,7.301885783356221e-05,0.00010781904093459804,-0.001197683701693375,1678320264063908950,391,1677825036150329351,camera_1,0,0.7040177270037751,0.7061232518579033,0.03559543506296413,0.06694742902260534,0.005097661749459803,0.0009322705066598816,10665.470371662059
393,0.00010632481630200308,-4.857145552555897e-05,0.00012216107362039708,1678320264070423392,392,1677825036156934738,camera_1,0,0.7039331901529878,0.7061359209311665,0.034865062644310045,0.06807754680171367,0.007039011805318295,0.0012890111489022367,10652.867886021968
394,6.0970509670327244e-05,4.259062111983125e-05,-0.0003437137775774701,1678320264076777549,393,1677825036163053274,camera_1,0,0.7040625688395027,0.7062489940799329,0.0324597104589235,0.06674297503952238,0.0022627723519690326,0.00041411228148572005,10662.95207542274
395,9.291144063720835e-05,-0.00014774501225001124,0.0011160131779077709,1678320264084226944,394,1677825036170283317,camera_1,0,0.7040805406018028,0.7063716774100316,0.0329013285421882,0.06501652312274801,0.0029332751873880625,0.0005371383372804093,10655.002921185927
396,-5.910208824316809e-06,0.00018418127542912943,-0.0014173915176995955,1678320264090475852,395,1677825036176940202,camera_1,0,0.7038656952271394,0.7061968852078235,0.03440660095091955,0.068375640517571,0.0009880626457743347,0.00018075253712458754,10665.103834540116
397,9.087693247787632e-05,-3.227718335746532e-05,5.7657705806679616e-05,1678320264096968014,396,1677825036183572769,camera_1,0,0.7038730063773079,0.7062873395994528,0.0338378031038838,0.06764604863552894,0.00360394746530801,0.0006598801772209553,10655.768485673478
398,7.971062421957553e-05,3.2198515154679974e-05,-0.0005930814831596187,1678320264104623648,397,1677825036190279006,camera_1,0,0.7039835851452995,0.7061998210369229,0.03301523078088794,0.06781533123028713,0.002844106289558113,0.0005205208914895738,10661.525287765304
399,0.00011482452046787661,2.6416957423724963e-05,-0.0007631288167893047,1678320264110354130,398,1677825036196892023,camera_1,0,0.7038523631100451,0.7063402710709704,0.03400690413370036,0.06722204161608603,0.002868866315111518,0.0005249010067123245,10663.211723060347
400,9.234499307440858e-05,0.00011715084045510471,-0.0013361417031303446,1678320264117865753,399,1677825036203581333,camera_1,0,0.7038528771171774,0.7062101987669469,0.037107928260181534,0.06694239457666643,0.0027706233086064462,0.0005067011856285258,10664.610564217895
401,0.0001401484267680303,-9.170709958200574e-05,0.0003903913074503329,1678320264123883349,400,1677825036210235118,camera_1,0,0.7040274109224949,0.7064582876573322,0.03328403909605107,0.06445358959353045,0.004089945869054645,0.0007484661350004746,10661.737166488778
402,8.285056657290901e-05,-3.847151485042444e-05,0.0002895618350660101,1678320264131182937,401,1677825036217001914,camera_1,0,0.7040486024355401,0.7063305296184246,0.03230939737228401,0.06609728571551611,0.00515200209338218,0.0009431466476472293,10659.654525215272
403,-1.5136187879419283e-05,0.00012251015959796607,-0.0007940403935480234,1678320264139079940,402,1677825036223650932,camera_1,0,0.7039162723852784,0.7061624416183029,0.03458036826583328,0.06812257811835279,0.005275007744785397,0.0009652884053988533,10660.548985363448
404,-4.4748622119991643e-05,0.00015880508382182246,-0.0013788470623539162,1678320264143751361,403,1677825036229637384,camera_1,0,0.7038713188306168,0.7062615626052398,0.032587474451294215,0.06854070486170492,0.0037638106732629244,0.0006885554415139183,10666.516000279693
405,-2.9080706343970197e-06,0.0002423828021200225,-0.0020228425494979163,1678320264151107519,404,1677825036236335039,camera_1,0,0.7038886675007956,0.7060565214944929,0.03522353715927377,0.06916816210540959,0.0031787937623448674,0.0005813410971716892,10666.863508815295
406,0.00021849076562288627,-0.00019360582816246863,0.0012297351276000512,1678320264157632297,405,1677825036243624925,camera_1,0,0.7040856274615795,0.7064707991578479,0.033594285740114256,0.06351270034345118,0.005519698082935065,0.0010104572500520216,10656.878179783464
407,0.0001272435664180782,6.955713299061639e-05,-0.0012126151253188944,1678320264163883788,406,1677825036250280618,camera_1,0,0.7038765410692854,0.7061503317983524,0.03698571264081764,0.06739125235419258,0.002204697695560753,0.0004032654905860009,10662.588228484616
408,0.00013114980014483635,-6.510194825121163e-05,-3.860077054795852e-05,1678320264170269723,407,1677825036256946086,camera_1,0,0.7041314794952815,0.7063048894102025,0.03534610550039553,0.06389769639808986,0.0014722816413268447,0.00026934362405485625,10664.000977011867
409,3.145566720838544e-05,0.00018353123790992854,-0.0016449953258161898,1678320264177079170,408,1677825036263598918,camera_1,0,0.7037419709522567,0.7062501049039848,0.036546779366290416,0.06798794423495677,0.0035408168914727867,0.0006475867162971468,10665.194217083625
410,5.666451550040419e-05,-2.1598970623759595e-05,0.00012953426074391317,1678320264183790492,409,1677825036270290851,camera_1,0,0.7040136421101009,0.7062500692501503,0.03440433638227765,0.0662719627378262,0.0025325868045911197,0.0004636113499524212,10658.032572989578
411,-1.9697326137060878e-05,2.676676722157545e-06,-5.668477570175412e-05,1678320264189505678,410,1677825036276323795,camera_1,0,0.7041158989610298,0.7060825820329049,0.034715177491179035,0.06680602242165756,0.0012639646884053946,0.00023136294651375616,10657.807330790905
412,6.431848538185347e-06,-5.2640575203821705e-06,-6.565162970284533e-05,1678320264196600284,411,1677825036283295154,camera_1,0,0.7037703929816859,0.7062781678361255,0.034793337053416536,0.06832135315650703,0.0035443113301880658,0.0006490390928052716,10653.875057433032
413,3.795162953748599e-05,5.7353802474624516e-05,-0.0004601606060039565,1678320264203759842,412,1677825036290279865,camera_1,0,0.7038188120158645,0.7063985833230658,0.035165814014793406,0.06635877377121907,0.0029289535013958816,0.0005359201342106856,10661.621703129615
414,9.57933538844602e-05,4.896700068179882e-05,-0.0009139206693293822,1678320264209585516,413,1677825036296329975,camera_1,0,0.7038681579621734,0.7062907255163284,0.03400543021139193,0.06757705211603872,0.005558551580179483,0.001016998264511904,10663.52664007723
415,0.00015236589436433412,3.505486027766125e-05,-0.0006851688540487899,1678320264216827206,414,1677825036303261756,camera_1,0,0.7040638528121461,0.7062180907441223,0.034014859752600525,0.06628038009135308,0.004517077759373933,0.0008263237088231413,10664.977644049091
416,9.882929968595133e-05,7.960177792304401e-05,-0.00091047933186994,1678320264223406459,415,1677825036310288190,camera_1,0,0.7041199762006612,0.7061928115389752,0.033118687535736345,0.06640726301970477,0.003105084877461195,0.0005679615271865688,10667.564327907754
