%time,field.header.seq,field.header.stamp,field.header.frame_id,field.image_seq,field.transforms0.fiducial_id,field.transforms0.transform.translation.x,field.transforms0.transform.translation.y,field.transforms0.transform.translation.z,field.transforms0.transform.rotation.x,field.transforms0.transform.rotation.y,field.transforms0.transform.rotation.z,field.transforms0.transform.rotation.w,field.transforms0.image_error,field.transforms0.object_error,field.transforms0.fiducial_area
1678312451087767103,178,1678248324280356407,camera_1,179,0,0.14416537120489753,-0.31212839638030726,2.6422759039346144,0.7040166711237635,0.7062269032476554,0.032420952248562396,0.06747569758318751,0.0035950802266597748,0.0006580996218289487,10658.96038846486
1678312451093148679,179,1678248324286642313,camera_1,180,0,0.14418953904354279,-0.312210559592509,2.6429757044977835,0.7041863799661995,0.7062088411012528,0.029305193731887075,0.06731879856965269,0.0006335689686238766,0.00011604610475586546,10657.086428670911
1678312451101845664,180,1678248324294155836,camera_1,181,0,0.14411398040339224,-0.31210655506165896,2.6419343202800567,0.7040325615799848,0.7063128894393369,0.03137813525652722,0.06690042656667462,0.003673464816529304,0.0006721809646885831,10664.34801311255
1678312451109330772,181,1678248324300820827,camera_1,182,0,0.14408836438367986,-0.3121040521600199,2.6420169309282553,0.7040159372747771,0.7062064418847086,0.031342205018232705,0.06820328209296188,0.003885428362991661,0.0007112365234980862,10660.392223622184
1678312451112914020,182,1678248324306643247,camera_1,183,0,0.14398983033216625,-0.3119443542142642,2.640930167434055,0.7037406431258281,0.7063226532769533,0.031268544776166265,0.06985481220525612,0.0009368901955895126,0.00017144344418714856,10664.92070563976
1678312451120586720,183,1678248324313291549,camera_1,184,0,0.14415345132206525,-0.3122426139714754,2.643472468774489,0.7041278242760345,0.7063347127280584,0.028465707600811876,0.06697002438743918,0.0028063947684131563,0.000514135091773485,10654.851613841485
1678312451129592470,184,1678248324320701122,camera_1,185,0,0.14400694300065503,-0.3119386910779172,2.640597505863521,0.7038155952564429,0.706172300196616,0.03344976008635649,0.06960893519516324,0.0022723658476024866,0.00041567708571336803,10665.719492193311
1678312451134732048,185,1678248324327440023,camera_1,186,0,0.14419677657728636,-0.31219490856643434,2.64254986840105,0.7041533654275961,0.7060577535985918,0.03207330911650593,0.06798374351723849,0.004890010983217508,0.0008954191113083428,10655.800852537388
1678312451140305616,186,1678248324333301782,camera_1,187,0,0.14414205836795346,-0.312073609421023,2.6417057301053286,0.7040997874396622,0.7061511237229104,0.030955500807713525,0.06808697938693699,0.0016668063472025096,0.0003050484072153151,10663.590069639267
1678312451147711036,187,1678248324340701341,camera_1,188,0,0.14425289862841098,-0.3122169569430745,2.643050028217872,0.7043220203646848,0.7062085998240079,0.029750045716555165,0.06568744129501339,0.003689517208840698,0.0006754942723501041,10660.131552164561
1678312451154763970,188,1678248324347357034,camera_1,189,0,0.14414672726618774,-0.3121382243894999,2.642418795168586,0.7040822779233669,0.7063618706413795,0.028769939078864135,0.067032411739788,0.002939885016530752,0.0005381706168184589,10662.843501196006
1678312451161124783,189,1678248324354054450,camera_1,190,0,0.14407250465844457,-0.3120527369336885,2.641850306876398,0.7039999699416499,0.7062697251640424,0.030352068424754523,0.06816061605651114,0.0035622267751023173,0.0006519879667418126,10662.939653333397
1678312451169460062,190,1678248324360706567,camera_1,191,0,0.14408763790113577,-0.3120814535521473,2.6419829368388394,0.7040834907246569,0.7061265038175983,0.030493380812701226,0.06871646398010371,0.003073522530030459,0.0005626755254587191,10660.253605542941
1678312451174313992,191,1678248324367388725,camera_1,192,0,0.14400718194744125,-0.31197780404982356,2.6410216723962754,0.7037573545196114,0.7063354714342954,0.031168420215574786,0.06960113026751154,0.0019009520183317363,0.0003478470545929026,10664.94049929187
1678312451180067050,192,1678248324373312234,camera_1,193,0,0.1441219766065637,-0.31212635555005325,2.642402796107817,0.7039163340282357,0.7062461771718458,0.03183573982000796,0.06859021496187255,0.006990323483478278,0.001280006107337557,10655.738824419099
1678312451187103222,193,1678248324379970550,camera_1,194,0,0.14413785746058327,-0.31211924279667214,2.642394561769372,0.7041939540031601,0.7062511811535004,0.030960780167946872,0.06604221646850682,0.0033047866309061646,0.0006048095651036614,10663.293108743963
1678312451195499124,194,1678248324387351512,camera_1,195,0,0.14418501303977457,-0.31223288836972907,2.6430892482093618,0.7040600202444621,0.7061765842560312,0.03081589358533918,0.06829714814243107,0.0031632300233468413,0.0005795241249620333,10652.069279282701
1678312451201028692,195,1678248324394069433,camera_1,196,0,0.14409986668654126,-0.3120837520528867,2.6417626256530964,0.7039869892546067,0.7061600050143068,0.03184539027531524,0.06874763557127901,0.0050809867680072784,0.0009300039064308568,10660.439438465517
1678312451207997189,196,1678248324400712728,camera_1,197,0,0.1441420140451927,-0.31215473464175986,2.6427116405569433,0.7041362151791137,0.7061366230788538,0.031885791650592646,0.06742815666203947,0.003636887005995959,0.0006659598941260275,10656.21505743521
1678312451214986498,197,1678248324406766891,camera_1,198,0,0.14409313148618214,-0.31199917390242826,2.641559753241155,0.7039532467443812,0.7061893946512129,0.031153881342934973,0.06910717008725108,0.0036338423960842192,0.0006650983574746639,10661.941133590528
1678312451220980926,198,1678248324414059638,camera_1,199,0,0.14422723930710343,-0.31229893702947353,2.6435632641449693,0.7041744938574573,0.7060808624062154,0.03131884909396608,0.06787656175527981,0.008374357887078077,0.00153451498329852,10648.77909744321
1678312451227585273,199,1678248324420752286,camera_1,200,0,0.14408019468345035,-0.3119860095766975,2.6410971714078193,0.7039865272013833,0.7061094343188665,0.03198894739384755,0.06920363812300538,0.0035473775351420045,0.0006490648438181402,10664.452225992922
1678312451234478342,200,1678248324427378654,camera_1,201,0,0.14419718088193972,-0.31220319655490253,2.642826006006955,0.7040788956245414,0.7062548536744926,0.028853746408085242,0.06815021434716922,0.0030158785521052778,0.0005524011919711674,10656.581735190235
1678312451240277146,201,1678248324433294773,camera_1,202,0,0.14405078379599756,-0.31193418176519794,2.640745224580914,0.703859751029089,0.706082536279655,0.03430741223031109,0.06965561218034014,0.0030458386172540486,0.0005572251508210311,10663.38099046261
1678312451248236193,202,1678248324440706729,camera_1,203,0,0.14416299951375644,-0.31219156757278077,2.6428873678850073,0.7040155552387992,0.7061464457650823,0.03247967684902319,0.06829616172911913,0.004843704868108034,0.0008872305495019118,10651.868913936543
1678312451255666407,203,1678248324447372436,camera_1,204,0,0.14400853660012178,-0.31194688961526695,2.640903746907396,0.7037999701483105,0.7060929942179628,0.0322013423282921,0.07114322938836669,0.0022429783712141216,0.0004105566892248328,10660.600246416638
1678312451261113843,204,1678248324454033136,camera_1,205,0,0.14415847563996398,-0.31226652157528456,2.643460902067413,0.7040600492241982,0.7062704630688452,0.029952756193530227,0.06770755112503608,0.004336954210884869,0.0007946467469485656,10651.538804324926
1678312451266596408,205,1678248324459937572,camera_1,206,0,0.14401802321398835,-0.31200809655889417,2.641108766513866,0.7038667498543739,0.7061689179116355,0.03114801458680646,0.07019158790232931,0.0020315140136517584,0.0003718201979629803,10662.659749244107
1678312451276826326,206,1678248324467366695,camera_1,207,0,0.14410809917803216,-0.3120054938479344,2.6415779105352617,0.7041578330840611,0.7062609495922805,0.02704474379031087,0.0680132268068959,0.0034236923092976213,0.0006264775050978756,10668.761514418296
1678312451281932241,207,1678248324474206209,camera_1,208,0,0.14410289378064592,-0.3119866764806931,2.641289526196909,0.7040100329688185,0.7060544492909532,0.03196665713744134,0.06953503395518938,0.002654497337061912,0.0004858145025997697,10662.061422442435
1678312451287291258,208,1678248324480567455,camera_1,209,0,0.14421053892878496,-0.31221360337104326,2.643115146758577,0.7043533374098366,0.706113609132719,0.029820566233620203,0.06633762813589963,0.005093853629659861,0.0009327770881605663,10657.928165742664
1678312451293531805,209,1678248324486642837,camera_1,210,0,0.1442021730711696,-0.3121688183668047,2.6424816748933884,0.7039832984145755,0.7061578650402262,0.031990431565166864,0.0687400718899733,0.006501750787720084,0.0011906747102169676,10654.483525684103
1678312451303899030,210,1678248324494191884,camera_1,211,0,0.14411223398042794,-0.31212053741019274,2.6419743410180843,0.7039886243426242,0.7062133945780528,0.03232849936447807,0.06795238217725788,0.005486254522111267,0.0010041419088816774,10660.254123914287
1678312451308597215,211,1678248324500811815,camera_1,212,0,0.14406640744551605,-0.31208157781847934,2.6420797679284287,0.7041375645218789,0.7061449694363802,0.03180921504127349,0.06736279542409639,0.0035308347432874143,0.0006462227575737115,10661.568052360091
1678312451314767991,212,1678248324507462978,camera_1,213,0,0.14398396581875642,-0.3119722836131176,2.6412329330806057,0.7038968737559417,0.7063651333711581,0.032203625199682055,0.06738260901862177,0.0022649277234449983,0.00041428802366341304,10667.92553674313
1678312451321429398,213,1678248324514179468,camera_1,214,0,0.14409433859676093,-0.3121555285167982,2.6426260343051875,0.7037628217222807,0.706346062380594,0.033319001888632405,0.0684322660304984,0.00508648477261886,0.0009315463845275792,10652.666829319205
1678312451327835886,214,1678248324520343542,camera_1,215,0,0.14406416131853556,-0.31205192606064025,2.641637580542857,0.7039642916293184,0.7064273027134214,0.02891402945053941,0.06751830116942764,0.0022865778882987797,0.00041838570100465527,10667.76514924469
1678312451333572882,215,1678248324526990652,camera_1,216,0,0.14418264961156274,-0.31215511625519465,2.6424928459530426,0.7040491157430868,0.7062543722813065,0.030974397058975173,0.0675291861475328,0.002757009118795395,0.000504785105496267,10658.681588370237
1678312451341031101,216,1678248324533660888,camera_1,217,0,0.1441781013067171,-0.312079054305457,2.6421404440830023,0.7040928239201982,0.7061487949501374,0.03053144371182089,0.06837401289540866,0.004921748884953559,0.0009010451396535648,10659.831251481082
1678312451349684016,217,1678248324540341854,camera_1,218,0,0.14428748654431692,-0.3123114782417869,2.643682009927901,0.7040567186222727,0.7063145603119536,0.030045713986863027,0.06723937778704736,0.004371261689811945,0.0008009934777437939,10650.80795313383
1678312451353672898,218,1678248324546984672,camera_1,219,0,0.14413410895651202,-0.3120593777608848,2.6415133150260197,0.7040259670791416,0.705944565823283,0.033142414885001005,0.0699377437328834,0.002836013154592365,0.0005191764950861886,10657.789017913052
1678312451361010783,219,1678248324553680896,camera_1,220,0,0.14413027396438352,-0.3121539705935551,2.64248059188151,0.7039008696838169,0.7062577560930998,0.03207722810234757,0.06851714423394903,0.0019088241970166564,0.0003495788939576068,10655.020731290682
1678312451367097470,220,1678248324560363531,camera_1,221,0,0.14403494729678035,-0.31201225430787466,2.6413342752920452,0.7040222064586932,0.7061391845823359,0.03006745271998109,0.06939836523549117,0.005392688966821879,0.0009868860265470627,10664.127958527071
1678312451374410212,221,1678248324567455768,camera_1,222,0,0.1439426476177077,-0.3119152739692274,2.6406305974880913,0.7039357959858993,0.7061431808201113,0.031148102591954847,0.06975671305239989,0.0030875360826030374,0.0005648081310247099,10667.727977226485
1678312451381533755,222,1678248324574184417,camera_1,223,0,0.14399801536370174,-0.31197584571052445,2.641246786191356,0.7037808566848098,0.7063121824670527,0.03215792049641006,0.06914820902937732,0.0014993349905125797,0.0002743768753821368,10663.262605898086
1678312451387926834,223,1678248324580148220,camera_1,224,0,0.1441174227621301,-0.3121464339429151,2.6424890490725255,0.7039451722394571,0.706320733037938,0.033568580997881146,0.06667358495911316,0.002752324042376131,0.0005038219782840476,10657.977025599343
1678312451394386750,224,1678248324587160110,camera_1,225,0,0.1441553502531072,-0.3121098160959501,2.642113804420087,0.704022759532701,0.7062803224531845,0.029912543126700716,0.06800955770389802,0.0016229706234298646,0.0002971127862408186,10661.62299040868
1678312451401693765,225,1678248324594125747,camera_1,226,0,0.14423014509493046,-0.3121941002853038,2.6427406410209726,0.7042104979769722,0.7063385428956317,0.028453867920218964,0.06605917619437608,0.002483735093846917,0.00045467922459710197,10662.984448442701
1678312451408096901,226,1678248324600734710,camera_1,227,0,0.1442499892566933,-0.3122277722237895,2.6432264085617687,0.7041520432483529,0.7061844812091373,0.03093160041035059,0.06720576303119936,0.003241875790990889,0.0005938352847476904,10653.653489433813
1678312451413625492,227,1678248324606968402,camera_1,228,0,0.14410646919822093,-0.31204686231131423,2.641791498309569,0.7040665706253568,0.7061354197235197,0.030613275283368796,0.06874489447343023,0.0012612462742254138,0.00023087970858017828,10661.59645029332
1678312451421006398,228,1678248324613677501,camera_1,229,0,0.14416337415962813,-0.31222080782722644,2.6430469509669687,0.7040293442737503,0.7063446561628651,0.030209670633110083,0.06713631589442562,0.008640624466352165,0.0015823601845184896,10656.052688931
1678312451427784369,229,1678248324620280981,camera_1,230,0,0.14407267800066983,-0.31210241434388836,2.642174373531036,0.7037916566613783,0.706488305899369,0.030277864938371753,0.06807957502838863,0.003734673489816487,0.0006836982787134519,10660.614839000398
1678312451433837393,230,1678248324626942157,camera_1,231,0,0.14398861207674163,-0.3119248007715293,2.6407594502378045,0.7037900309496402,0.7061918312459615,0.031663912691513994,0.07049884006452838,0.004846330964937806,0.0008867709185842826,10664.11970330192
1678312451441003469,231,1678248324633643865,camera_1,232,0,0.14398997476634287,-0.31192628712442294,2.6407271354735156,0.7038879683964141,0.7062699018731867,0.03018185022244056,0.06938018140620716,0.003912256739567965,0.0007156484352246507,10668.970081127485
1678312451447305057,232,1678248324640319347,camera_1,233,0,0.14415258127121208,-0.3121852391681962,2.6426357837233203,0.7041324464102199,0.7061446757196822,0.03041127747027033,0.06806136251743557,0.007697176013607532,0.001409486182984838,10656.7553299265
1678312451454107612,233,1678248324646958827,camera_1,234,0,0.14421003003008212,-0.3122546333174355,2.6431794730862195,0.7041863040401973,0.7063583308582155,0.02968044535743202,0.06556392905239117,0.0046780683333054185,0.0008565193897386099,10659.468639492989
1678312451460567947,234,1678248324653629302,camera_1,235,0,0.14413681072481088,-0.31214327518793195,2.642193615394103,0.7040752155539717,0.706264193550521,0.03128402427440859,0.06700962301236175,0.0017631961381994188,0.0003227223085223142,10662.076161687728
1678312451467287392,235,1678248324660287857,camera_1,236,0,0.14416838626207462,-0.3121272529819857,2.6423219641504625,0.7041652338943083,0.7063106228358913,0.03061238191515504,0.06587495364119922,0.0015240084030665457,0.00027889679194882693,10664.648138588302
1678312451473406416,236,1678248324666603088,camera_1,237,0,0.14408245882739404,-0.3120246962697318,2.641556424481001,0.7039115851328768,0.7062473743934315,0.03246659274513695,0.06833042392394846,0.003879047697409987,0.0007098417040475603,10662.520178925944
1678312451481385368,237,1678248324674149513,camera_1,238,0,0.14410586746946571,-0.3121210412374692,2.642288169715322,0.7041145355697003,0.7061931816099865,0.029885622061441318,0.06797617701099805,0.0022880936157889664,0.00041891486760067397,10660.358698104508
1678312451488173187,238,1678248324680784940,camera_1,239,0,0.14413791884137478,-0.31220005474859525,2.6429170837193774,0.7041263249632045,0.7063963941319175,0.02811253375442525,0.06648261650343573,0.0036749698920175433,0.0006728926460718356,10660.872594583661
1678312451494753020,239,1678248324687487840,camera_1,240,0,0.1441281995715509,-0.3121439672756346,2.642281799619376,0.7039991212714326,0.7062465772814022,0.031553082124939055,0.06786318837022115,0.006829591817222536,0.00125026701700412,10658.883534837052
1678312451501432655,240,1678248324694134712,camera_1,241,0,0.1440633425277864,-0.3120232611658737,2.641466720330844,0.7040176981741695,0.7061339688316521,0.03191003848570903,0.06867057713055984,0.0022858554148115218,0.00041831911523980257,10662.986774946567
1678312451508329775,241,1678248324700787544,camera_1,242,0,0.14407479966658526,-0.31203432533959646,2.6416572489543544,0.7039411330421231,0.7062411108200705,0.032502067742916724,0.06807341765652529,0.0022238510427996516,0.00040696972948716677,10662.345503705897
1678312451514719152,242,1678248324707452297,camera_1,243,0,0.1441368637081822,-0.31213783395107764,2.64225569041838,0.7040782087630629,0.7061298834343219,0.03160350251001032,0.06823256037353059,0.005274881317745894,0.0009657382501967248,10658.080267786514
1678312451520963051,243,1678248324714152812,camera_1,244,0,0.1441430791108398,-0.31212606054049685,2.6421777474133274,0.7039243594154392,0.7060927877698105,0.03253872659744652,0.0697474196830084,0.001513700990471989,0.0002772446360178792,10653.67206951556
1678312451528730037,244,1678248324720876216,camera_1,245,0,0.1441085138318789,-0.3120829548092198,2.6418126479086634,0.7041016423007418,0.7062416431548788,0.03085424133313554,0.06716870234753507,0.002291578217409551,0.0004193222944117365,10665.221708584
1678312451534531076,245,1678248324727470874,camera_1,246,0,0.14412987831887114,-0.312110349356636,2.6423519346659763,0.7040487507340145,0.7062622190667551,0.03050216924171056,0.06766573860031745,0.002094818919431418,0.00038352215826847316,10660.008287104898
1678312451541390411,246,1678248324734174966,camera_1,247,0,0.14410343964336664,-0.3120602223925012,2.641910264218773,0.7041059197616796,0.7061970064251277,0.030304773591273853,0.06783997767046189,0.0021396151278167963,0.0003916084073024768,10663.323447870203
1678312451547901521,247,1678248324740873813,camera_1,248,0,0.14419453370996874,-0.31226228191696975,2.6434543533565136,0.7040771654738512,0.7063643848034894,0.030477886577364385,0.06630082480084579,0.0036268248222768307,0.0006643183123602695,10654.613709990055
1678312451554505240,248,1678248324747122287,camera_1,249,0,0.14410253865472739,-0.3121707529415639,2.6425635253406754,0.7040713036235821,0.7062055251965147,0.03179426063755465,0.06742759513890383,0.0016807820065878332,0.0003077551863555968,10657.4952885448
1678312451560317733,249,1678248324753471136,camera_1,250,0,0.14412351988404265,-0.31215404984900313,2.642345208720644,0.7039280172655437,0.7061609519627475,0.033093534793503215,0.06875226822831224,0.0042237063171342015,0.0007734490046493204,10654.308168733727
1678312451568618092,250,1678248324760834932,camera_1,251,0,0.14395513544800137,-0.3118512942333072,2.639976495138879,0.7037101628153368,0.7061568454360361,0.032925295571383975,0.0710664569665295,0.0028555349563248456,0.0005223166638300995,10667.446573499594
1678312451574769313,251,1678248324767473459,camera_1,252,0,0.14412766164674443,-0.3121275012667127,2.642489621428424,0.704128750212108,0.7062833365461063,0.029823158188202,0.06691136583358678,0.0014243164332583547,0.0002607501491194978,10661.544319303706
1678312451581779853,252,1678248324774167299,camera_1,253,0,0.14406752102333212,-0.31202846136686246,2.6411962044637387,0.7039638925384742,0.7062023935128282,0.030920501010329626,0.06897057355207593,0.0048038222012110054,0.0008789494947373133,10665.426208557332
1678312451586981031,253,1678248324780138492,camera_1,254,0,0.14417153291404708,-0.3121986758724493,2.642912998465021,0.7040695756324925,0.7062395909955077,0.029939199624168415,0.06793612518420684,0.005527198372874409,0.0010123472095968818,10655.357278286367
1678312451595051264,254,1678248324787448406,camera_1,255,0,0.14419271578439125,-0.31224211514038225,2.6432378040694586,0.7042329236043383,0.7060887097881102,0.030066951501830166,0.06775471680137778,0.003804605803452432,0.0006970025198654163,10653.075160715496
1678312451601239989,255,1678248324794135093,camera_1,256,0,0.14409226822810103,-0.31204317716149127,2.641627074244756,0.7040329559311647,0.7061837149583468,0.03414891928733759,0.06690298201098518,0.0026924499543383718,0.0004925708744924713,10663.630444400362
1678312451608116646,256,1678248324800335407,camera_1,257,0,0.1441140874565893,-0.312005498158087,2.641533175858862,0.704084431331338,0.7060449455423141,0.030647494534759234,0.06947214916582796,0.002554439823143184,0.0004675834838772342,10661.721703983263
1678312451614109467,257,1678248324807011365,camera_1,258,0,0.14418452282369737,-0.3121679311087105,2.6427789783314344,0.7041915513780627,0.7060601969172083,0.030207679808693058,0.06841603158299889,0.003228060610126704,0.0005912788060783408,10654.916007943564
1678312451621614760,258,1678248324814153909,camera_1,259,0,0.14411329759818947,-0.31216933726373297,2.642099733966023,0.7039269260328458,0.7061972994661775,0.03340169669916752,0.06823916536889496,0.0037460251478478312,0.0006857704580257984,10657.22404179582
1678312451630432988,259,1678248324820786714,camera_1,260,0,0.1440885766910878,-0.3121134321320884,2.6419048247493184,0.7040137976647921,0.7060896864149181,0.029986917781330526,0.07001937016323133,0.003471368399914354,0.0006356760573163787,10657.924317144905
1678312451634652554,260,1678248324827435970,camera_1,261,0,0.14408053754339428,-0.31207541427518176,2.642120767977193,0.7040054481363631,0.7062149646488969,0.03224623527590584,0.06780068591693462,0.003104699368122965,0.0005683176281228563,10659.629195688758
1678312451641285326,261,1678248324834147691,camera_1,262,0,0.14404298605459953,-0.31193986502454824,2.641147478896156,0.7041501169654777,0.7061425185009099,0.029986048316259818,0.06808959721625162,0.0061901582521386445,0.0011322848376081431,10669.190027603527
1678312451647578533,262,1678248324840467691,camera_1,263,0,0.14411941510473864,-0.31212137270831164,2.6422746620236692,0.7040067594653864,0.7061049948584097,0.03164571643468083,0.06920092119608505,0.004871701938100159,0.000892144653711557,10655.366593476381
1678312451653625621,263,1678248324846617937,camera_1,264,0,0.14413438163923195,-0.3121388006336878,2.642329384016137,0.7040720431343154,0.7062966273872848,0.02924565585585002,0.06761896059226952,0.0019482047064229846,0.00035667533303992174,10661.585499699224
1678312451661246220,264,1678248324854151248,camera_1,265,0,0.14418622473502443,-0.3121942957970432,2.6426689643176107,0.7039327386402259,0.7062024556656543,0.03288649034682275,0.06837594485591554,0.0020951465703547,0.000383742279924497,10652.915912280088
1678312451670757338,265,1678248324860780477,camera_1,266,0,0.14411347974966549,-0.312017735335281,2.6412210068141833,0.7039968000355916,0.7060879714555445,0.03210284277384703,0.06926535635712178,0.004792269843164831,0.0008769179999339148,10663.136538397517
1678312451673671302,266,1678248324866799831,camera_1,267,0,0.14416856314241222,-0.31214639081569046,2.6427119509637835,0.7040809796202859,0.7063052475445042,0.029067831978261884,0.06751246234673079,0.006313276709988713,0.0011560039177478502,10658.975203297565
1678312451681661638,267,1678248324874127388,camera_1,268,0,0.14407035641406563,-0.3120677631858914,2.64181825740696,0.7038682685862685,0.7062106819712354,0.031796415898345684,0.06946165188872751,0.009469404991250485,0.0017335079944185271,10658.18782510329
1678312451688401336,268,1678248324880785465,camera_1,269,0,0.14406376045244984,-0.31206243012565144,2.6416414989678874,0.7037698100745194,0.7061757677809473,0.03291055598312863,0.07029036016087807,0.0024969205842353404,0.00045718732895624154,10656.119087372681
1678312451694477687,269,1678248324887456417,camera_1,270,0,0.14398058748269998,-0.3119410229813175,2.640606704332318,0.7039285890456775,0.7061738702707779,0.030727586606348216,0.06970525010572318,0.001976829720661044,0.0003616294140986214,10668.473876193635
1678312451701377251,270,1678248324894250869,camera_1,271,0,0.14407361288885673,-0.31201942395693427,2.6413616381729783,0.7039328347263106,0.7061143660376036,0.03159498039635695,0.06987720288654682,0.0027185481158085167,0.0004976062343998418,10660.975612079843
1678312451706885309,271,1678248324900135278,camera_1,272,0,0.14409250617577324,-0.3120534238243742,2.641805722447763,0.7040232385417738,0.7061095938851011,0.03218128970168795,0.06873780335235084,0.0014176477561704814,0.00025951065834023363,10659.777018571505
1678312451714085886,272,1678248324906804084,camera_1,273,0,0.14422977568388437,-0.31223136017374337,2.643078195504234,0.7041507835321045,0.7061461680218407,0.030559380933076558,0.06778928880126163,0.003080603783018887,0.0005643158104380171,10653.730355961132
1678312451721347644,273,1678248324914182662,camera_1,274,0,0.1441730741819102,-0.3121973553754597,2.6425773669322474,0.703952633771093,0.7062305541471573,0.03277454634163092,0.0679332238881754,0.0016898721805773675,0.0003094626945273364,10654.924999060459
1678312451726888526,274,1678248324919980525,camera_1,275,0,0.14415698958101678,-0.31218092074930964,2.642691948134836,0.7042336834805033,0.7061925329333087,0.02919064315176699,0.06704425279698556,0.0012512389803305268,0.0002291099079602435,10660.190870519033
1678312451734631068,275,1678248324927442789,camera_1,276,0,0.1441051403237903,-0.31209725318699527,2.6421412896601675,0.7042553404780162,0.7062548126484378,0.02914155217363514,0.06617646829519414,0.0015245909453369677,0.00027898651694561284,10666.891985168684
1678312451743079489,276,1678248324934198379,camera_1,277,0,0.1440324643294752,-0.31197824009654923,2.6409336647341157,0.703867259750318,0.7060830205047299,0.031304350516514264,0.07097666127139753,0.0034954326110891998,0.0006397722828862596,10661.778898131104
1678312451746586261,277,1678248324940177917,camera_1,278,0,0.14419080511577742,-0.31225759912676265,2.6436280208092824,0.7042779131339733,0.7062055451903897,0.029570438796375453,0.06627169956617884,0.0017405137768946584,0.00031885813764225734,10654.260244531324
1678312451754242130,278,1678248324947373867,camera_1,279,0,0.14411461248931628,-0.31214319918522676,2.642293650295408,0.7039071877278986,0.7064052120167552,0.03144218592983068,0.06721410896915919,0.0007761817541904747,0.00014208966217275616,10660.596896721634
1678312451764090229,279,1678248324954166889,camera_1,280,0,0.1441741907576554,-0.3122610144051498,2.6431425993840887,0.7040929593403187,0.7062480619082798,0.032094069724138016,0.06660893593755186,0.006087053276132792,0.0011147576062358249,10654.544745194726
1678312451767095963,280,1678248324960170984,camera_1,281,0,0.14408055488379717,-0.3120228225464552,2.64132082301925,0.7039782384140348,0.7063578148928382,0.03091530200189842,0.06721250837023302,0.003667432931251824,0.0006708161022367893,10669.01041865419
1678312451773570756,281,1678248324966847181,camera_1,282,0,0.1441491203197831,-0.31225077980317406,2.643271564535804,0.7039306831090659,0.7062040202223274,0.03323179344162895,0.06821380435131291,0.0012707580463029444,0.00023285221467928398,10648.124741871723
1678312451783660224,282,1678248324974185943,camera_1,283,0,0.14410992496549888,-0.31216009209305506,2.642515364635955,0.7040013260519028,0.7061097402129998,0.03206726077688842,0.06901346593063834,0.0045818553189747036,0.0008391874998212661,10653.450554331068
1678312451789137063,283,1678248324980816364,camera_1,284,0,0.14416182943762332,-0.3122033226773517,2.6428936504680065,0.7042421587975309,0.7060597876060415,0.031187476335213793,0.06745294224676456,0.0041708024218678474,0.0007638283945044425,10655.430591541113
1678312451794378958,284,1678248324987498283,camera_1,285,0,0.14411081854356464,-0.312054088205914,2.641840062529939,0.7040655292841212,0.706146868099378,0.03057478860175449,0.06865503222101078,0.0044135983334854245,0.0008078828544701369,10661.475884008687
1678312451802590409,285,1678248324993360280,camera_1,286,0,0.14414799069137715,-0.3121157779087767,2.6423004223606967,0.7039983911348934,0.7062880622061616,0.03168328570056731,0.06737661220158785,0.0006977668963372707,0.0001277415002817489,10659.869572262043
1678312451808164187,286,1678248325000830650,camera_1,287,0,0.14415867770099258,-0.3121257388316888,2.6423758218656954,0.7041085994367966,0.7062450839202102,0.03079309453441296,0.06708760665489986,0.002421043231151998,0.00044319765772047156,10660.966024253514
1678312451814446219,287,1678248325007491350,camera_1,288,0,0.1441740146609992,-0.3121587108818029,2.642544112818168,0.7041083176572437,0.7062868625139979,0.029252773864303645,0.06733958766775479,0.005199558450840414,0.0009519349173702948,10660.554856583129
1678312451820451263,288,1678248325013436317,camera_1,289,0,0.1441605351928055,-0.31220876487403876,2.643032467100614,0.7039919503561922,0.7061277337320182,0.03239327015764932,0.06877233118531158,0.001841720542870462,0.00033745205156881516,10649.562672475466
1678312451828150713,289,1678248325020144701,camera_1,290,0,0.14411059407188984,-0.31216310491296156,2.642650836340116,0.7039561088103029,0.7065162790362934,0.03101495282724801,0.06571618542254962,0.001236451789736748,0.00022632312918753156,10661.993199134246
1678312451834315343,290,1678248325027478218,camera_1,291,0,0.14405898583036952,-0.312011581971555,2.6415273461845716,0.7039019533815397,0.7062363023216204,0.030505581660257186,0.06943871251907709,0.004581478540785611,0.0008385794538908561,10662.02276370535
1678312451841278601,291,1678248325034154891,camera_1,292,0,0.14403928849042652,-0.31202629804218995,2.6413990700914702,0.7039571770003707,0.7063117070679653,0.030260024933292617,0.06820847674183807,0.00222563260467723,0.00040722974528502586,10666.52853408316
1678312451849656064,292,1678248325040804862,camera_1,293,0,0.1441082355599798,-0.3120925227379945,2.642120099447821,0.7041365482996118,0.705984616527769,0.03023481509726065,0.06973735391368073,0.0060237342258915305,0.0011031130258388768,10656.720941830075
1678312451854429816,293,1678248325047383785,camera_1,294,0,0.1441238864956853,-0.31214782402731883,2.6423774644575744,0.7039881601368358,0.7061050991773055,0.03125608088383581,0.0695651975541183,0.0021565513452515006,0.00039501594948329377,10653.99469331023
1678312451861654559,294,1678248325054082393,camera_1,295,0,0.14409577623814648,-0.3120379622286153,2.6417168844932304,0.7039729860692105,0.7062041433814733,0.03224077697096962,0.06825155716866046,0.0013859417522326112,0.0002536603301874293,10661.699139324252
1678312451869831858,295,1678248325060721635,camera_1,296,0,0.14411379845628378,-0.3120400342763534,2.6417329242269623,0.7039275027025924,0.7063810522930727,0.02999734418216529,0.06791199630580542,0.0018621719209477305,0.0003407914971110715,10664.883608451115
1678312451874508881,296,1678248325067500829,camera_1,297,0,0.1441508298625913,-0.3121764020510357,2.6426109184258375,0.7041098357681002,0.7062254530779654,0.031013586960744736,0.06717965483142858,0.001753896358422935,0.0003211373504615008,10658.589768243022
1678312451881499797,297,1678248325074160814,camera_1,298,0,0.14402119498024704,-0.31198267033250376,2.6409939512036638,0.7037819521088429,0.7061340272972078,0.03225454865905086,0.0708896570008188,0.0003457628772594035,6.329302814189504e-05,10660.478871657746
1678312451887007295,298,1678248325080131053,camera_1,299,0,0.14407143566165323,-0.3121342173256715,2.6422548801639953,0.7040269078914801,0.7063302659820683,0.03146219284697283,0.06673678703475203,0.0015499997534789145,0.0002836979695313224,10662.116359668435
1678312451894537381,299,1678248325087142467,camera_1,300,0,0.14391755181829782,-0.31181050552293876,2.639757263535692,0.7036905597553896,0.7061857273634479,0.03288761093207119,0.07099098271249102,0.001442915410734713,0.000263879954553545,10669.483443111068
1678312451901590664,300,1678248325094166994,camera_1,301,0,0.14405363997757148,-0.3120480761800476,2.641689950408863,0.7040629972690895,0.7062831185393331,0.029429250989526024,0.06777441647860855,0.005467908747959882,0.0010005163902086782,10666.172863761427
1678312451909967289,301,1678248325100776910,camera_1,302,0,0.14413112372142994,-0.3121216829697289,2.6423721724668505,0.7040058662660709,0.7062781658755833,0.02931541231447461,0.0684653143658421,0.00169847666984424,0.000311033845111928,10658.992390519821
1678312451914261376,302,1678248325107421398,camera_1,303,0,0.14418834985799284,-0.3122334843244391,2.6428631440230452,0.7039477269306929,0.7063447750720556,0.03009428624771881,0.06803668431631842,0.00260238564806059,0.0004766785876816371,10655.299607641526
1678312451921271637,303,1678248325114114046,camera_1,304,0,0.14422832494157875,-0.31222021669629685,2.64272155569456,0.7042242957738865,0.7060952682201973,0.03218185334787923,0.0667977675818362,0.0033242448698729277,0.000608634342894594,10657.327176010233
1678312451928528366,304,1678248325120787143,camera_1,305,0,0.14417752628992822,-0.3121282271644686,2.642330189674834,0.7041044265356364,0.7062731915893651,0.03155477442691213,0.06647880553952049,0.001324135228060186,0.000242360062608555,10662.038159048305
1678312451933416098,305,1678248325126625537,camera_1,306,0,0.14421611269821297,-0.31223462912073335,2.6432819363238864,0.7043911196970765,0.706271647310426,0.030015847310909824,0.06412924143886532,0.0013313589734025297,0.00024372476276569169,10661.844415361997
1678312451940700834,306,1678248325133299112,camera_1,307,0,0.14395509778349333,-0.3119217411975542,2.6404817382476877,0.7037470357610354,0.7062157119730499,0.03264315227891722,0.07024174278340233,0.001719244581181556,0.00031452147262888466,10665.927671005604
1678312451948087048,307,1678248325140768527,camera_1,308,0,0.14400167384566773,-0.3120242988942904,2.6414697019655637,0.7039422495210759,0.7061045792464374,0.03176856884922263,0.06980251098414089,0.005302885372657329,0.0009706523722142894,10660.144307179378
1678312451954513650,308,1678248325147519588,camera_1,309,0,0.14394909639555126,-0.31196101720617986,2.6409824222473057,0.7039457304784532,0.706145411807549,0.029250339308841786,0.07045199482357983,0.002045207715127617,0.0003743157002761572,10665.022681014148
1678312451961312504,309,1678248325154062747,camera_1,310,0,0.14409151523034788,-0.3120971452141154,2.6423536936136705,0.7038888536606972,0.7063854318104076,0.02918337565202891,0.06861802972839035,0.005128324846737087,0.0009390501448283689,10658.90779299708
1678312451966678854,310,1678248325159935712,camera_1,311,0,0.1440473681391823,-0.31191867108630694,2.6405654726706795,0.7037822099889751,0.7062022879249014,0.033248833847362755,0.06973840032908296,0.0025725968880578876,0.0004705943240043511,10665.871609288268
1678312451973661040,311,1678248325166606426,camera_1,312,0,0.14425581926684797,-0.31229591450696,2.643482176640241,0.7041690012823549,0.7064166145770424,0.029900562787164294,0.0650195403515898,0.0035574798239395022,0.0006514350831484545,10658.137690638423
1678312451981931646,312,1678248325174232721,camera_1,313,0,0.14423380152967943,-0.3121564336204083,2.642207059531612,0.7041019152860669,0.7060501158424448,0.03312431622219108,0.06809189734597627,0.003868765605147928,0.0007082690593993028,10657.052401414836
1678312451988258028,313,1678248325180750370,camera_1,314,0,0.14422395122650047,-0.31226063155805733,2.6432746780275567,0.7041729293051333,0.7060737564342854,0.031895717366273627,0.06769785315869346,0.0015204149531200528,0.00027856168981467075,10650.930874722315
1678312451994833321,314,1678248325187553167,camera_1,315,0,0.1441457508572394,-0.31216736084235314,2.642539008609915,0.7039016245981724,0.7062672469261022,0.03131440909254434,0.06876399196281789,0.0025023104972206056,0.00045831429974778137,10654.74526124517
1678312452001973346,315,1678248325194122076,camera_1,316,0,0.1439569552947811,-0.31191717629573595,2.640877720289674,0.7037049033141669,0.7062796771061445,0.03244226475912404,0.07011366639777394,0.003167000017128885,0.0005795159043477899,10663.363602226718
1678312452007938232,316,1678248325200738191,camera_1,317,0,0.14404501443754686,-0.3120904800467816,2.64215449873556,0.7039759037105472,0.7063614424986246,0.029526856852862642,0.06782038241245185,0.005062722892034799,0.0009267160594642943,10662.236214082108
1678312452013187250,317,1678248325206605911,camera_1,318,0,0.14408124347794782,-0.312158049053478,2.642454529407957,0.7040642726172469,0.7061853286263804,0.030343276629796783,0.0683744632166568,0.0027623767382465303,0.0005058554990660274,10657.502686876684
1678312452021373210,318,1678248325214064598,camera_1,319,0,0.14416826939395827,-0.312152812525111,2.6425244444652765,0.7040278270669199,0.7061011592425017,0.03264529121760189,0.06855841737631063,0.00428871379699558,0.0007854184057879317,10653.904187946813
1678312452030400262,319,1678248325220749139,camera_1,320,0,0.1441468329614264,-0.3121040093384898,2.641932077899269,0.7040547004283835,0.7060971963766534,0.030419543109989438,0.06934247955408546,0.0015521581517532468,0.0002842064458127258,10659.045276765832
1678312452033622153,320,1678248325226618289,camera_1,321,0,0.14415497607475977,-0.312080861701264,2.6418098207102325,0.7041305961838911,0.7061315984506759,0.03132671012886188,0.06780048981913016,0.001228473731316626,0.0002248326322671864,10663.092905862726
1678312452040175377,321,1678248325233287096,camera_1,322,0,0.1441562450418174,-0.31209987045980025,2.6418664317366187,0.7041022681664509,0.7060153256757137,0.03141177501920188,0.06925067699321258,0.005091447266750038,0.0009321090394103196,10658.73678081308
1678312452047986432,322,1678248325240788459,camera_1,323,0,0.1441969630675425,-0.31226450013609297,2.64319534678729,0.7041565866725569,0.7062539882536858,0.03052268339897915,0.06661209589513215,0.0032905448460951447,0.0006026515817414596,10655.832958092793
1678312452054697496,323,1678248325247397899,camera_1,324,0,0.1440448678309041,-0.3120073051257813,2.641244831621814,0.7038793414415686,0.7060688599449345,0.03192023443050445,0.07072295484314746,0.0012402435531839728,0.00022705429263477012,10659.286458443503
1678312452062217035,324,1678248325253313541,camera_1,325,0,0.14412207731672697,-0.31219416246098697,2.6431836264078377,0.7041543951982185,0.7062497286138117,0.029294465240137797,0.06722903288195212,0.005406199838034809,0.000990207595958671,10655.710351747926
1678312452067877904,325,1678248325260446786,camera_1,326,0,0.143961224023582,-0.31187954628010983,2.6404606471775924,0.7037836108178774,0.7063230804308626,0.02977021131325335,0.07007188960754493,0.002548606600612402,0.0004662203183874557,10669.727632251801
1678312452074694707,326,1678248325267372608,camera_1,327,0,0.14415711862164118,-0.31222817984406065,2.64325047506524,0.7040610727634434,0.7063557446301746,0.029472345443651606,0.06701454096829336,0.008128039189614356,0.001488682264880883,10655.505478509353
1678312452081622556,327,1678248325274095058,camera_1,328,0,0.14419846923489282,-0.31218853740102287,2.6428176555609015,0.70422664129867,0.706173132832263,0.03057302257730592,0.06670558028792761,0.0034580014762468636,0.0006331490174753064,10658.602375302697
1678312452086373470,328,1678248325279977560,camera_1,329,0,0.14417929426320295,-0.31211488189585557,2.6420637394366,0.7041407876225056,0.706108462492533,0.03241787759700982,0.06742159605715335,0.0024267693515866995,0.00044417104262771856,10660.791723981496
1678312452094624103,329,1678248325287459373,camera_1,330,0,0.14412759825259588,-0.312066127109545,2.6415312087461724,0.7040935038843915,0.7062385840944133,0.032353203440224035,0.06657830240607088,0.0019234764622524379,0.00035185148928338305,10667.302008449453
1678312452100951531,330,1678248325294083833,camera_1,331,0,0.1440593813399146,-0.3120234525147153,2.641419739836804,0.7041262024642916,0.7060798754487396,0.030487372185485383,0.06876060374030665,0.00304961740039289,0.0005580701060654898,10664.67507931008
1678312452107393289,331,1678248325300136089,camera_1,332,0,0.1441336173130437,-0.3121420910477486,2.6424153889961373,0.704160530619078,0.7061327024753479,0.02996371848401369,0.06809353264247024,0.002622687490656972,0.0004802305711690017,10658.936441071794
1678312452114155546,332,1678248325307392597,camera_1,333,0,0.1440870507639482,-0.3121187877577227,2.642254400408631,0.7040240948490942,0.7061239286742225,0.030396293971175496,0.06939118487540821,0.0026413126615807414,0.00048373685089246317,10656.392003968354
1678312452121052107,333,1678248325314284563,camera_1,334,0,0.14410697875684939,-0.31215313183929166,2.642557666513264,0.7039978719564826,0.7062094640522003,0.03086908293158512,0.06857323736568757,0.0054846699931658804,0.0010044430753885425,10655.601022494844
1678312452127264299,334,1678248325320106983,camera_1,335,0,0.14403674423382454,-0.3120161332856243,2.641547941762857,0.7038566638737095,0.7061442181237743,0.03360938706713192,0.06940136188798686,0.0018743054242804646,0.00034309205233687493,10658.464277241499
1678312452134165678,335,1678248325327391147,camera_1,336,0,0.14414082959638902,-0.31217004469162596,2.6425436705279264,0.7039945747836844,0.7061599035192693,0.03491382618865733,0.06716289211807358,0.004234767809975892,0.0007752919188541648,10654.625603235094
1678312452141738227,336,1678248325334071874,camera_1,337,0,0.14411270060650416,-0.312047121455844,2.641292382312501,0.7040318684859319,0.7062099932439608,0.030849923094556895,0.06822650396753693,0.0032031970331445336,0.0005860408656441589,10666.65638734552
1678312452146866980,337,1678248325340189218,camera_1,338,0,0.14420811774675926,-0.31221693695944974,2.6428439876685115,0.7040473472302754,0.7061083936114005,0.033652631067214174,0.06779210685465899,0.003823334991466254,0.000700262885618798,10652.105553249363
1678312452154143404,338,1678248325347368955,camera_1,339,0,0.1441136420674533,-0.3120773639845326,2.6418529342186368,0.704055398159923,0.7061787987435307,0.029305859181205575,0.06898309317990675,0.001800301659386605,0.0003295897814699545,10661.812228219467
1678312452162628701,339,1678248325354098081,camera_1,340,0,0.14411281898099237,-0.31213523611969135,2.642563475354353,0.703938870687801,0.7064542178753881,0.028247813679883386,0.06778322361147959,0.006189250969327986,0.0011332417557899672,10660.291555365551
1678312452166467705,340,1678248325360057830,camera_1,341,0,0.1440067268904375,-0.3119583054718796,2.6412688759454537,0.7039475910592875,0.7063388321837022,0.030213425095150112,0.068046984762072,0.002426464285235852,0.0004439105820258059,10668.099471214462
1678312452174314169,341,1678248325367367029,camera_1,342,0,0.1441291037318411,-0.3122024540452591,2.643012080728451,0.7039767366336472,0.7063801437224824,0.030784462849519665,0.06705343898945279,0.004939843318425119,0.0009046472597474681,10655.96304952167
1678312452183138892,342,1678248325374134778,camera_1,343,0,0.14410710633099608,-0.31210264662096887,2.641808330608526,0.704025373741881,0.7062716682790369,0.030455363323112678,0.06783122112131107,0.002633710391819477,0.00048199877350612127,10663.96282651299
1678312452186295483,343,1678248325379947185,camera_1,344,0,0.14417178290045252,-0.3121332435652488,2.642239688916794,0.7039450648721626,0.7062703407263747,0.031747278531409254,0.06808569422592944,0.002236322849057615,0.0004094378571433991,10658.430216194014
1678312452194351539,344,1678248325387367486,camera_1,345,0,0.1441244402910619,-0.3120568356178832,2.641597820611012,0.704001040113113,0.7061933295000711,0.03409260032821202,0.06716555286841494,0.0018322740797884762,0.00033523222533589554,10663.246304250788
1678312452202815465,345,1678248325394230604,camera_1,346,0,0.14412888927119177,-0.31208275095790183,2.641886485484616,0.7039542192191185,0.7062228355510566,0.0315129287919727,0.06859080921507209,0.0030254638986662026,0.0005538237159771571,10660.231523553375
1678312452208143124,346,1678248325400745868,camera_1,347,0,0.14413971668079698,-0.31218118459305927,2.6425999257751562,0.7040951111862526,0.7062315619193189,0.03312489998197358,0.06625553828777003,0.0014235018170438707,0.0002605850382496772,10658.639904006268
1678312452213209998,347,1678248325406631946,camera_1,348,0,0.14410952566545893,-0.31220496026105843,2.6428178359132257,0.7039912222517559,0.7062084390205384,0.030346573573745105,0.06888457825222277,0.0013890665140934289,0.00025448724112370614,10653.234297893474
1678312452221435557,348,1678248325413844585,camera_1,349,0,0.1440994513498302,-0.3121830653665607,2.6429266607433464,0.7041727927916758,0.7060984660455941,0.030620919965082673,0.06802935690216991,0.003449700423516333,0.0006318796807016475,10654.331504070897
1678312452228234620,349,1678248325420739650,camera_1,350,0,0.14393701660723696,-0.31180620653107666,2.639804477327821,0.70371235566935,0.7061604869298719,0.033706042662091304,0.0706412759321481,0.0032439802889712155,0.0005931946390946725,10669.084576275784
1678312452233433842,350,1678248325426782369,camera_1,351,0,0.1441178017071795,-0.3120861817664192,2.6420946097172116,0.7040479807298367,0.7060634410019178,0.03045726154721515,0.0697367430399179,0.0016587927821092308,0.0003037937604188912,10656.695953188457
1678312452243527431,351,1678248325434096336,camera_1,352,0,0.14415367806050103,-0.31213337322220214,2.64192174632923,0.7040295851572392,0.7061700534064991,0.030856939171913542,0.06865892658736211,0.0023148548789322376,0.00042377155394261376,10660.435645409741
1678312452248791814,352,1678248325441342353,camera_1,353,0,0.14419563428801985,-0.3121521255749775,2.6425090101862794,0.7041590505950588,0.7061251849467947,0.029914715237291382,0.06820824335219647,0.003724930400494486,0.0006821077834040696,10657.913915047651
1678312452253459828,353,1678248325446951389,camera_1,354,0,0.14408516679776162,-0.3119988805199836,2.641219696513689,0.7039102243517975,0.7060268338461178,0.03385850518595746,0.0699293040777701,0.0010677353711798787,0.0001954331427822061,10659.362443280868
1678312452262465019,354,1678248325453625679,camera_1,355,0,0.14410125907457175,-0.31210231321385384,2.6422527113846965,0.7038940317457122,0.7063621032298021,0.03196406867495707,0.06755789744566812,0.007568697968963534,0.0013853931733420976,10659.494391915388
1678312452268220243,355,1678248325460723638,camera_1,356,0,0.1440321023613379,-0.3119965200824311,2.641375841950156,0.7039479218808219,0.7062474998731099,0.030454249855200077,0.0688791032782164,0.0023923463886603713,0.00043779577816887026,10664.781291418709
1678312452274313426,356,1678248325467398405,camera_1,357,0,0.14414169394424672,-0.3122117091032538,2.6428549539842505,0.7039682651107563,0.7062455887649915,0.029794799321304147,0.06897912728025768,0.004009950556792319,0.0007346296418259905,10653.247229807654
1678312452281357699,357,1678248325474124431,camera_1,358,0,0.14402048665334538,-0.3119726799271224,2.640982403387097,0.7038145376880682,0.7060834440958291,0.0345182460190281,0.06999826572475176,0.0013864891952835023,0.0002537361174592398,10660.303577458257
1678312452286951940,358,1678248325480107069,camera_1,359,0,0.14414198612731455,-0.3120940598937036,2.6424355224055027,0.704016170620151,0.7063379136658909,0.030318509830939387,0.06729614539545256,0.004048487695399672,0.0007411449449353319,10660.498875835096
1678312452294446757,359,1678248325487259149,camera_1,360,0,0.14410715933345397,-0.312061022956941,2.641744290779014,0.7039783204238464,0.7062781930483198,0.031219563137838743,0.06790417715503945,0.0009810057817958295,0.00017953897601867455,10663.49577923643
1678312452302065540,360,1678248325494165420,camera_1,361,0,0.14416201846610005,-0.31213409936910663,2.64236902860032,0.7041308335912798,0.7063182881292605,0.030569407662215126,0.06617972767684818,0.00440684036584571,0.0008064859751534005,10663.551169964943
1678312452307991175,361,1678248325500786066,camera_1,362,0,0.14415277333939647,-0.31212499947924977,2.6421247151349023,0.7039468210645465,0.7062633162534344,0.03192823745289713,0.06805577771925213,0.002831025456544012,0.0005182592925016429,10659.229059644276
1678312452313538204,362,1678248325506775140,camera_1,363,0,0.1441188857772295,-0.31210496609209376,2.641962967008754,0.7039402358341448,0.7060710928880161,0.032279617161511454,0.06992697961157425,0.0024790630559436977,0.0004539895265753908,10655.21178114845
1678312452322870878,363,1678248325513711214,camera_1,364,0,0.14413920699814448,-0.31219179039141476,2.6428558382969367,0.7039981155151421,0.7061718461573642,0.03262112644139098,0.06814572000884124,0.005267815024126321,0.0009648585680520479,10652.351435098326
1678312452328090703,364,1678248325520748615,camera_1,365,0,0.14406705812175516,-0.31203587362326296,2.6416286479606317,0.7038607873024509,0.7062063268608277,0.030340757122178114,0.07022858717762005,0.0026350586558692157,0.0004824691472343474,10659.262570267194
1678312452334263504,365,1678248325527386188,camera_1,366,0,0.14409417877733277,-0.3121029486941632,2.6423208210137847,0.7040380946553331,0.7061702736273509,0.030668778919670216,0.06865371016002685,0.0034423357574269176,0.0006303398934705728,10657.530442104908
1678312452342663736,366,1678248325534065485,camera_1,367,0,0.144101239750402,-0.31208976211407935,2.6419172597424008,0.7040338566574957,0.7061377331784753,0.029152889606678972,0.06968457138504906,0.0023962685954757035,0.00043878186987571384,10659.588262907699
1678312452347952423,367,1678248325540715217,camera_1,368,0,0.14411845488206831,-0.312112178657483,2.6420467924878537,0.7040209030183673,0.7061796252530983,0.03252714986588034,0.06787407098590104,0.01039949682308361,0.0019033362431715634,10659.652106568916
1678312452354339147,368,1678248325547388315,camera_1,369,0,0.14413980359762915,-0.31209653346156824,2.6420364437462944,0.7040477761205532,0.7062883621176437,0.030336950941451318,0.06747701745376633,0.0040928926900960505,0.0007490813700762767,10663.180327693233
1678312452361077448,369,1678248325554076910,camera_1,370,0,0.14421749005330212,-0.3122182396866406,2.643182353278457,0.7040615467062051,0.7063326934390032,0.03014435995936219,0.06695358236502034,0.0019405483035370708,0.0003554427618339897,10655.500739919724
1678312452367459632,370,1678248325560108900,camera_1,371,0,0.14409494146489518,-0.31206425072765476,2.6415481002560757,0.7039738662820131,0.7061819583433887,0.03124225800365294,0.06893300092904707,0.002592060423921794,0.0004744114960405672,10662.343949767532
1678312452374560547,371,1678248325567483186,camera_1,372,0,0.14418381500558933,-0.3122741523557937,2.643318005365227,0.7041505174361551,0.7061301335732048,0.03067238645797966,0.0679079374098175,0.0025998527416959405,0.0004763534853741906,10651.385150481943
1678312452381437762,372,1678248325574104309,camera_1,373,0,0.14406513926632591,-0.312060546204459,2.641891191060123,0.7040167944464366,0.7060574737812778,0.03178857318302803,0.06951750477362942,0.002731961547397077,0.000500215605399202,10657.482254627164
1678312452390695287,373,1678248325580713987,camera_1,374,0,0.14415394945353593,-0.3121502271495482,2.642725656609115,0.7041185513847352,0.7063630238220735,0.029464279559199648,0.06633400638327518,0.0036697123432531953,0.0006718129176533088,10661.467552510674
1678312452393732031,374,1678248325586724758,camera_1,375,0,0.14408340767122563,-0.31208709863309003,2.6421972987852103,0.7039438657122522,0.7064833356537713,0.031100550546755878,0.06615955052220532,0.0024494625395163894,0.000448230056312164,10664.46238091495
1678312452401088772,375,1678248325594083309,camera_1,376,0,0.14414486911020916,-0.312176751259157,2.6424094266490483,0.7040763706571437,0.7061764138579516,0.03239716175637264,0.06739258641066545,0.004617105470970273,0.0008452422251416235,10658.104224511073
1678312452408815180,376,1678248325600697994,camera_1,377,0,0.14414556624674596,-0.31215074927883085,2.6421752655931128,0.7040502688467963,0.7060872972144683,0.032149385331656996,0.06870491010049916,0.0026193855446763337,0.00047962001218878757,10656.86240154831
1678312452413703332,377,1678248325606938123,camera_1,378,0,0.14415862155890094,-0.312203812554681,2.642870123358904,0.7039540714075561,0.7061924709709078,0.033015038066329425,0.06819726207266805,0.003468182578217238,0.0006352704270030794,10651.634357816893
1678312452420742228,378,1678248325613459110,camera_1,379,0,0.14409659105941347,-0.312059275793122,2.642070607182875,0.7039014024778282,0.7062681039356123,0.032022953303378905,0.06843033986961759,0.001159887237008661,0.00021235405664365935,10658.654068293868
1678312452427914380,379,1678248325620787620,camera_1,380,0,0.14406738045506906,-0.31208428994527637,2.6419453962367148,0.7040407454615025,0.7062216918658795,0.03250287331377423,0.0672392288359667,0.00309680710779503,0.0005667181344853488,10662.165858881435
1678312452434512721,380,1678248325627439022,camera_1,381,0,0.14406009691220897,-0.3120158546750417,2.6412582229458152,0.704031808592217,0.706085870085353,0.03171461026858654,0.069109623437651,0.0037266435683704913,0.0006819288987587571,10663.708273855273
1678312452441336577,381,1678248325634153127,camera_1,382,0,0.1440530076258623,-0.3120093292896009,2.641270399849816,0.7038639445190319,0.7062360426783787,0.030874734791166467,0.06966312065697047,0.0017953527276404202,0.00032859287108684003,10663.077751727777
1678312452447032925,382,1678248325640147924,camera_1,383,0,0.1441683450899947,-0.3121685150594876,2.642531500832383,0.7040954264065952,0.7061484331059557,0.031562327127405566,0.06788107572528188,0.0027094089309684932,0.0004961280868090358,10656.817065148378
1678312452454102691,383,1678248325647106885,camera_1,384,0,0.14410321789574215,-0.3120531337920702,2.6416912984318754,0.7041420488483334,0.7060578353715986,0.03182358524486508,0.06821706220738917,0.0028018581215292215,0.0005127707380725285,10662.441207536376
1678312452462037992,384,1678248325654133319,camera_1,385,0,0.1441263290157672,-0.31211719236257046,2.6420217479519796,0.7040306699484083,0.7060170642519108,0.03246538681373524,0.06947459547304405,0.0016922791255638003,0.00030989597511934543,10655.725638081434
1678312452466819986,385,1678248325660146713,camera_1,386,0,0.14405345098748745,-0.3120354616398955,2.641264444897391,0.7039388005803722,0.706161814080495,0.03148854662666277,0.06938392323407476,0.0025465067010372877,0.0004660264597555343,10663.172452082514
1678312452474957616,386,1678248325667070150,camera_1,387,0,0.14406740680447708,-0.31203558786455604,2.641467103007456,0.7038184001627945,0.7060794824315455,0.03271357836504615,0.07086074986929768,0.0025351684889756143,0.00046419615870045523,10656.211857641578
1678312452481526693,387,1678248325674193143,camera_1,388,0,0.14413328766236394,-0.3121798833970067,2.6428180350032435,0.7041117539091554,0.7063311391420017,0.030738169242603235,0.06616740010721585,0.00328397419070825,0.0006012101328851814,10659.809550891747
1678312452486691763,388,1678248325680150270,camera_1,389,0,0.14413964541587748,-0.3121619422870436,2.6424850461153144,0.7039605404695086,0.7061861684156465,0.03375710913434815,0.06783148666509636,0.0023001254885457456,0.00042116789913360347,10654.80028711911
1678312452494584043,389,1678248325687493801,camera_1,390,0,0.14408696778688734,-0.3120279464969086,2.641423600397596,0.7039881227928011,0.7061232653434223,0.03121215838398855,0.06940070803978851,0.0008070070762187243,0.00014771406338682377,10662.163649588361
1678312452502748981,390,1678248325694150686,camera_1,391,0,0.14413085945210571,-0.3121144489760732,2.641899516559151,0.7040499530676455,0.7061950373615625,0.032017926170110234,0.06765415874218572,0.003910515806637704,0.0007156692478912806,10661.970767725255
1678312452506723126,391,1678248325700144290,camera_1,392,0,0.14410682990699814,-0.3120923565602161,2.64180845765263,0.7041149296867808,0.7061092742114718,0.03315479331497951,0.06732472313325374,0.0027298154891468585,0.0004995253519549762,10662.259197152343
1678312452514549896,392,1678248325707462549,camera_1,393,0,0.1442159381321581,-0.3122984469954071,2.6438652595324172,0.7042514078635679,0.7063573511938008,0.028080177782187642,0.06558010790156468,0.005553553462959826,0.0010173241499989729,10655.532193977853
1678312452522493718,393,1678248325714152812,camera_1,394,0,0.14398922848078927,-0.31196510787492815,2.641298319084215,0.7037821840020646,0.7061408808917464,0.033424633072930074,0.07027437455184127,0.0030919109703972936,0.0005659717930621067,10658.392143976875
1678312452527246238,394,1678248325719978094,camera_1,395,0,0.1440405050565314,-0.31206222730340893,2.641815619817899,0.7039743221108283,0.7062008159798702,0.03120208208067356,0.06875311914230685,0.0016945638926699758,0.0003102024188708698,10660.758534460329
1678312452534663671,395,1678248325727437496,camera_1,396,0,0.1440886965092508,-0.3121305281768514,2.642461392824825,0.7040725045832585,0.7062375772518446,0.030114659675579695,0.06784909756161966,0.002401294419541955,0.00043968238944210687,10659.071730443971
1678312452541818084,396,1678248325734547615,camera_1,397,0,0.1441668569526019,-0.3121288848671972,2.6424356136769918,0.7041139386323234,0.7063251875716181,0.028923511444899002,0.06702030521634465,0.0021153910784050822,0.0003872528414402801,10662.592519440457
1678312452546842354,397,1678248325740427255,camera_1,398,0,0.14422832532736027,-0.3122312675832659,2.6431387652737217,0.7041341450312212,0.7063015466232246,0.028887978691538793,0.06707246622802014,0.0020571472705341876,0.0003767977862635304,10656.80641072127
1678312452554674292,398,1678248325747425556,camera_1,399,0,0.14413267035459365,-0.312034546556017,2.641559109448444,0.7041610067772821,0.7059514307113549,0.03141846519292627,0.06930176084282784,0.003021912300027907,0.0005531416069315125,10661.095134238367
1678312452562714145,399,1678248325754158258,camera_1,400,0,0.14417070645719796,-0.3121496893773052,2.6423112736411274,0.704141253694366,0.7061217577399975,0.031250991407590266,0.06782723367457548,0.003911300154868513,0.0007160639193627516,10659.05831516394
1678312452567097278,400,1678248325760173797,camera_1,401,0,0.144088854383454,-0.3121440448780766,2.6422033949850987,0.7038865200593871,0.7062156461941003,0.03299553144115602,0.06866238310932053,0.0027485016034916043,0.0005032581114082529,10655.808275086338
1678312452574370769,401,1678248325767449617,camera_1,402,0,0.14410738024473496,-0.31217673714375793,2.6425505369933098,0.7039557716500732,0.7063934042532208,0.029431945137553987,0.06773766008296865,0.0034608045825734735,0.0006336913959554414,10659.310925544705
1678312452584004666,402,1678248325774556159,camera_1,403,0,0.14400031836280777,-0.31199646799044906,2.641338261092943,0.7038462344455835,0.7063467565082999,0.03200986646310163,0.06819168773385718,0.0034574686433188617,0.0006325759952901962,10665.191085459428
1678312452586978274,403,1678248325780336856,camera_1,404,0,0.14409126077876408,-0.3120818433221566,2.642216495882411,0.7040377786241626,0.7062719084678843,0.028638524165287726,0.06848819250587154,0.0031504814978688955,0.0005768327014868154,10660.88765987917
1678312452594799177,404,1678248325787628889,camera_1,405,0,0.14404158868690053,-0.312007412588371,2.641210919644607,0.7038881741212464,0.7064106201583907,0.029802562093190727,0.06809758697910777,0.0030659291660413146,0.0005608829818163273,10668.80593077792
1678312452601692595,405,1678248325794190883,camera_1,406,0,0.14416266763104574,-0.312159069059088,2.642521086847811,0.7040551358959836,0.7062089998719948,0.0297081711900481,0.0685028370421837,0.0028920279000885785,0.0005296411495333409,10657.270135495579
1678312452607845002,406,1678248325800491571,camera_1,407,0,0.14422741341756468,-0.3122148893475304,2.6429908302987095,0.7039864785050449,0.7062705886477305,0.03258790474525989,0.06725267398080297,0.003530499408952892,0.000646594264768709,10653.576910873528
1678312452614245345,407,1678248325807434082,camera_1,408,0,0.14417380463956456,-0.31217427423058347,2.642410063538392,0.7040405283302342,0.706129028014492,0.03372362292317231,0.06761248051010411,0.003036242676898837,0.0005558903907796488,10655.975147798537
