%time,field.header.seq,field.header.stamp,field.header.frame_id,field.image_seq,field.transforms0.fiducial_id,field.transforms0.transform.translation.x,field.transforms0.transform.translation.y,field.transforms0.transform.translation.z,field.transforms0.transform.rotation.x,field.transforms0.transform.rotation.y,field.transforms0.transform.rotation.z,field.transforms0.transform.rotation.w,field.transforms0.image_error,field.transforms0.object_error,field.transforms0.fiducial_area
1678250032113982761,25,1678248580986931085,camera_1,27,0,0.13069306655400528,-0.32192017498655995,2.639735813412566,0.7037798939915718,0.7060982104450945,0.032626347402926185,0.07109640971659964,0.0015571831027045846,0.00028488878980286234,10665.504514065571
1678250032118706293,26,1678248580993187904,camera_1,28,0,0.13090384108375602,-0.3222922399537847,2.6424722302684516,0.7039433621989418,0.7062513843733997,0.031755639487662676,0.06829571177925536,0.0015437250258401036,0.00028281259623505104,10651.850977660153
1678250032128586300,27,1678248581000241041,camera_1,29,0,0.13089702632548786,-0.3222637537925945,2.6422734828929015,0.7041492615672308,0.706165920599207,0.03193891847141094,0.06695831169820875,0.0026043817051686347,0.00047689179959535684,10656.686731234659
1678250032133039339,28,1678248581006736040,camera_1,30,0,0.13090559873629398,-0.32231801204873095,2.642860293542069,0.704155281021547,0.7063213603789386,0.029506218672372627,0.06636911285809037,0.0019854530110023916,0.000363668161781391,10656.080484090373
1678250032138664165,29,1678248581012989997,camera_1,31,0,0.13082269891536885,-0.3222284917976546,2.6423854559934217,0.703974445867283,0.7063072429900701,0.031061626394738785,0.06771435173825183,0.0022789492504671216,0.0004174079966868118,10654.888106953356
1678250032146238592,30,1678248581020344734,camera_1,32,0,0.13070782043331408,-0.3220758088316121,2.641064032940469,0.7038782988584436,0.7062605741782427,0.031114418344502404,0.06916093354377069,0.0026345099904574454,0.000482215171092124,10661.704911604875
1678250032155092361,31,1678248581026898622,camera_1,33,0,0.13065549110516195,-0.32194690510587337,2.64010306699174,0.7037613329183593,0.7062420367004504,0.03112385227599497,0.07052288781435437,0.0029929455486126244,0.0005476143875250627,10665.818043756997
1678250032159470531,32,1678248581033663511,camera_1,34,0,0.13075393311879255,-0.3220235740931818,2.640513393283961,0.7039441679756326,0.7060565395516392,0.03204675310107362,0.07014112164157037,0.0021850165794603527,0.0003998881598461242,10662.467417325359
1678250032166442094,33,1678248581040346145,camera_1,35,0,0.13089977844530126,-0.32229667996804123,2.6424922277503837,0.7042007782618938,0.706135874134094,0.03194312788741856,0.0667310103099775,0.002855314640328288,0.0005229015199277753,10655.49431100674
1678250032171586206,34,1678248581046358823,camera_1,36,0,0.1309098589909929,-0.3222769156990955,2.6425026702342786,0.7041596798268036,0.7061557743396563,0.031242768898690994,0.06728340853819005,0.0030059145065024495,0.0005505412373770595,10654.798488564555
1678250032179670540,35,1678248581053592681,camera_1,37,0,0.13091484492298053,-0.3223086923363834,2.642727093792892,0.7041757439057695,0.7061381359782273,0.0299060731193516,0.06790494387399991,0.0026702547911554575,0.0004892474097897087,10652.807347881379
1678250032185405155,36,1678248581059454441,camera_1,38,0,0.1307744825016411,-0.3220627648781932,2.640719358593365,0.7039001365801981,0.7061212536409667,0.03309558194009679,0.06944102054934498,0.0015372044290415943,0.0002813266754552339,10661.454177957728
1678250032192934117,37,1678248581066955566,camera_1,39,0,0.1307889271398985,-0.32221431899394537,2.642110886009284,0.7038997852975396,0.70629785756126,0.03248026371661758,0.06792246411424328,0.002947092172689736,0.0005396929910975158,10654.96519177884
1678250032200534664,38,1678248581072882890,camera_1,40,0,0.13059444435900408,-0.3218577531315056,2.639433064550604,0.7038361575612919,0.7060978788263598,0.03105431133824727,0.07124660394417946,0.0005547205219045281,0.00010147236765877173,10669.349228809702
1678250032204916676,39,1678248581079460382,camera_1,41,0,0.13072910291847772,-0.32208607366798137,2.641198772664141,0.7039314385953813,0.7062172475464531,0.032349336498342623,0.06849269634834014,0.0027452384820207953,0.0005024581464416879,10660.996251921755
1678250032212508284,40,1678248581086930036,camera_1,42,0,0.1306849663812668,-0.32194255212605594,2.6399262188587747,0.7037698953933751,0.7061353894769707,0.032347875191656744,0.0709532313343792,0.003151946817524731,0.0005766998695957926,10664.686353891626
1678250032220126431,41,1678248581092769861,camera_1,43,0,0.1308411274817807,-0.32221018759979575,2.6415826087252086,0.7040777376930731,0.7061000759885692,0.03112355222566049,0.06876442736471752,0.0014101566630415618,0.00025820383955274144,10658.463441602538
1678250032226135730,42,1678248581100519657,camera_1,44,0,0.13083666870287247,-0.32213797758464907,2.6412963921625354,0.7040621864675155,0.7061140611985179,0.03335898530419274,0.06772405971138937,0.0022507111425511543,0.0004119023685593543,10660.96769904229
1678250032233075934,43,1678248581106913805,camera_1,45,0,0.13090970286503856,-0.32231677909017115,2.642919754480379,0.7041374824821228,0.7061689640265598,0.03081560152225479,0.06757365398004693,0.0018119155429303646,0.000331994761547407,10651.174806086929
1678250032239234482,44,1678248581113725185,camera_1,46,0,0.13073498415112925,-0.3219893225603944,2.640218820076277,0.7038912617389682,0.7059590889582662,0.03463141960784338,0.07042386769188279,0.0014366102404892445,0.00026288036242747936,10661.018589010346
1678250032246034936,45,1678248581119779825,camera_1,47,0,0.13079341820978455,-0.32216672962210713,2.641655266119271,0.7040104493398701,0.7062761840068479,0.030372158615114792,0.06797625398665165,0.0042398940422572196,0.0007761554717794668,10660.798734099719
1678250032251832268,46,1678248581126284122,camera_1,48,0,0.1306668355188178,-0.3220133337145461,2.640312415524047,0.7037949989046117,0.7063632312913155,0.03137108554220694,0.06884359075798435,0.0019915439188480377,0.0003643072756037208,10668.301930731279
1678250032258532849,47,1678248581132790565,camera_1,49,0,0.1306760242143639,-0.32191563417648944,2.6396378162271192,0.7038373529974604,0.7061445500725864,0.03254674725073315,0.07009681998286314,0.0022786363842897117,0.0004167329230817921,10669.088205968963
1678250032265975697,48,1678248581140200138,camera_1,50,0,0.13085118827714834,-0.3222262178961828,2.6421313784225284,0.7040802184694538,0.706176834282223,0.0328597165487207,0.06712349597184011,0.004253238323144615,0.0007787423204477527,10656.385149457376
1678250032273398500,49,1678248581146916389,camera_1,51,0,0.1308279448358577,-0.3221588489239762,2.6415620952153223,0.7041788379896872,0.7060899449296202,0.03248862699405283,0.06718365063630574,0.001993774902075529,0.00036490521867223744,10661.246502436701
1678250032279815807,50,1678248581153671264,camera_1,52,0,0.13082491540313385,-0.32219040921146624,2.641768894846803,0.7040827812736403,0.706160323176259,0.03220917296679719,0.06758405331416514,0.0035339294699952006,0.0006469261937363148,10658.869844145374
1678250032285933708,51,1678248581159753561,camera_1,53,0,0.13073467642274952,-0.3220622775086836,2.6404319153606584,0.7039870189084385,0.7060644625656974,0.03305964257966492,0.0691542619274302,0.002070539107080549,0.00037881574175264993,10664.544180554569
1678250032293732324,52,1678248581166478395,camera_1,54,0,0.13081506571364804,-0.3221616840929494,2.6418249550245965,0.7040153203834092,0.7062354845840276,0.03080558979487352,0.06815339035733793,0.005929787817876786,0.001085658454571332,10658.530147864836
1678250032299710753,53,1678248581173606395,camera_1,55,0,0.13078268497005402,-0.3221139887863779,2.6413166863894992,0.7039635329562822,0.7061966597301538,0.031150098637917668,0.06892962649348143,0.002655130985658616,0.00048605573730094224,10660.21426836657
1678250032306080569,54,1678248581180727720,camera_1,56,0,0.130805391355173,-0.3221979172762836,2.6420775466958064,0.704129642269988,0.7062401614080664,0.030453027195027085,0.06707379835454265,0.0044318006839603186,0.0008113632641853486,10659.650213448798
1678250032312815023,55,1678248581186948776,camera_1,57,0,0.13080341699887793,-0.32218709471322454,2.641851362890861,0.7040870957374689,0.7063698828355216,0.029222357319292874,0.0667008551040506,0.0021130296518094838,0.0003867690764585437,10663.677154976755
1678250032318611168,56,1678248581193156003,camera_1,58,0,0.1307607198039997,-0.32206113572611317,2.640832400893432,0.7039260876824659,0.7061793564373406,0.03181809360919289,0.069183730319183,0.0027911783545278013,0.000510809179487408,10662.705892064605
1678250032325673174,57,1678248581199608087,camera_1,59,0,0.13083274158989536,-0.32215328561141915,2.641566719493537,0.703972074106148,0.7062629729378265,0.03131541457141887,0.06808286675758467,0.0013077662442810833,0.0002394090681690594,10660.214514632706
1678250032332785885,58,1678248581206790208,camera_1,60,0,0.1308643135606777,-0.32223168674941793,2.6422871706080584,0.7041202847091816,0.7063502899554946,0.030822253976527294,0.06583222007995862,0.003865131991915405,0.0007075325779157771,10660.681470562817
1678250032339975770,59,1678248581213880062,camera_1,61,0,0.13085490006862577,-0.32224377125790227,2.642137176170427,0.7040410854348574,0.706125381077176,0.03167370854507787,0.06862851014937153,0.00612510007340461,0.0011218399155624,10653.777505015027
1678250032344927960,60,1678248581219638586,camera_1,62,0,0.13079860258989973,-0.3222053265166977,2.6417551307224856,0.7038617906942677,0.7063374846610967,0.03157314810138233,0.06833062038546234,0.0014373803860507905,0.00026319006246017587,10657.75696060911
1678250032352856829,61,1678248581226536750,camera_1,63,0,0.13070142308708843,-0.32201248548187805,2.640329747722589,0.7039194767456363,0.706158033722678,0.030771825528428044,0.06993780394549734,0.0004034420708194375,7.382518209616087e-05,10665.898010316538
1678250032359148982,62,1678248581233720779,camera_1,64,0,0.13066724071507574,-0.32189989957968873,2.639485934974475,0.7040104875516777,0.7059286418085208,0.03127467273494415,0.07110471810610437,0.0019148641149513423,0.0003502555441789492,10669.006025642624
1678250032366255687,63,1678248581239691019,camera_1,65,0,0.1308235359893014,-0.3222079204793067,2.642191731023252,0.7040936300357197,0.7061623394302307,0.03025507295175747,0.06834867280518868,0.0038108941516838968,0.0006979732212792593,10655.654214204642
1678250032372719508,64,1678248581246808052,camera_1,66,0,0.1308033490216799,-0.32205533981699425,2.6410280773202013,0.7042021563072969,0.7058990573673382,0.03109942087234658,0.06956054831196759,0.0026826508110389113,0.0004910618332734563,10660.931136230121
1678250032379609078,65,1678248581253606796,camera_1,67,0,0.13088020834808892,-0.32227850014509063,2.642272559887902,0.7041215411451515,0.7062259664298173,0.030405935151786665,0.06732918195844155,0.00217880291165784,0.0003990045153487071,10657.40940685768
1678250032385588205,66,1678248581259630918,camera_1,68,0,0.13079170940098028,-0.3220358949270537,2.6404256419179397,0.7040954948113679,0.7059767782578436,0.03204228101252539,0.06942344686433487,0.003441033768467605,0.0006295705343723109,10665.057399283043
1678250032393329831,67,1678248581266781806,camera_1,69,0,0.1308856201269365,-0.32232929182416953,2.642947369445165,0.704266301967387,0.706127537973043,0.02940083170890869,0.067293886231473,0.0022494191071018577,0.0004121342159980996,10653.142897809623
1678250032401177615,68,1678248581273691177,camera_1,70,0,0.13067112190072178,-0.3219094586310304,2.639872334936499,0.7038660625980314,0.7062461694110422,0.028848000837300346,0.07040388457084337,0.0019039800972677772,0.000348310438925773,10670.36822997895
1678250032405991730,69,1678248581280280828,camera_1,71,0,0.13074682488668604,-0.32209770404949783,2.64155159587094,0.7039842110705743,0.7063081577682624,0.02867132043187043,0.06865109043589702,0.0042323440429754555,0.0007748386059475036,10661.673241100041
1678250032414599380,70,1678248581286954402,camera_1,72,0,0.13067362285312442,-0.32195218592857616,2.639890098699156,0.7038658174813416,0.7061124579070746,0.032193900066729356,0.07029694565374917,0.0018790779868140817,0.00034374493007716464,10666.917078179307
1678250032420004906,71,1678248581293712615,camera_1,73,0,0.13070939158616493,-0.32197424025253596,2.6399012293487862,0.7038042278220714,0.7060499876074876,0.034226933195141904,0.07058003218545404,0.00043833896052092314,8.019760967927394e-05,10663.638044187916
1678250032425393042,72,1678248581299870967,camera_1,74,0,0.13080822167637282,-0.3220769530877775,2.6407503024129952,0.703940748688073,0.7062597826622534,0.034507462019530394,0.06688629751535435,0.002095736504998058,0.00038330615148244576,10666.125972966784
1678250032432266130,73,1678248581306283950,camera_1,75,0,0.1309676022113807,-0.3223664458976857,2.643245263365588,0.7042277451540966,0.7061791546648098,0.03194193425362083,0.06598482634825174,0.003993009973783046,0.0007314952518772349,10651.328808947696
1678250032439409989,74,1678248581313733816,camera_1,76,0,0.13084746293660215,-0.3222018869830553,2.641637335186026,0.7040004492286626,0.7061253369891503,0.0339057918909829,0.06797626956553138,0.0024570899549871683,0.0004498108905643484,10656.900002280952
1678250032446510967,75,1678248581320317029,camera_1,77,0,0.1308144937314318,-0.32224719716719374,2.6421210141710993,0.7040834176106294,0.7062570408637805,0.03105174929909702,0.06710679653759746,0.0036079607671126723,0.0006605973061104738,10658.533792726232
1678250032452576068,76,1678248581326707363,camera_1,78,0,0.13065236534250516,-0.32197108477615227,2.640105837962181,0.7038004105228944,0.706092622847574,0.03264790440179702,0.07093873727527115,0.0017412431188859046,0.0003186353720017136,10662.937440087548
1678250032459349842,77,1678248581333087921,camera_1,79,0,0.13063295478506823,-0.3219140924386211,2.639967325158424,0.7038950698309067,0.7064270755367643,0.03140771471974161,0.06712729007193055,0.0038533868500962853,0.0007043654920866029,10675.548416720932
1678250032467020720,78,1678248581340215921,camera_1,80,0,0.13082805209965154,-0.3222795621434058,2.6428212475274564,0.7039684793009531,0.7063583769681792,0.030790010135468556,0.06736615406449453,0.004542393668089062,0.0008321360105024974,10652.570247644326
1678250032474284845,79,1678248581347229003,camera_1,81,0,0.1308390190117993,-0.32218693483179844,2.6419436284397313,0.7040694302811072,0.7063965838636864,0.029569597787051535,0.06645105368662789,0.003212207753676921,0.0005879514595572618,10663.214467779155
1678250032478973387,80,1678248581352857112,camera_1,82,0,0.13094145327824191,-0.32231195189371215,2.6425356031507734,0.7042836510336745,0.7060804517199455,0.032087073068138426,0.06637284329871088,0.0032676845439709723,0.0005983656189678056,10655.8715018481
1678250032485606991,81,1678248581359516620,camera_1,83,0,0.13086442709896012,-0.32215405835853766,2.6412819601044757,0.704133131647398,0.706109945636296,0.03121642218665746,0.0680500740322855,0.0019072754657827318,0.00034907573169379183,10662.655425261242
1678250032494943009,82,1678248581366476058,camera_1,84,0,0.13094904742191818,-0.3223541007455038,2.643179846919818,0.7042035954345306,0.7062605198453988,0.031429526317782966,0.0656167597510488,0.005273559654597193,0.0009659430182739968,10653.346062573135
1678250032500377938,83,1678248581373551845,camera_1,85,0,0.13072359521060328,-0.3220342498171361,2.640768339847629,0.7038543789591983,0.7062331211935703,0.03072696959588472,0.06985445646916646,0.00408138323109597,0.0007469979128226053,10662.661445280648
1678250032505660335,84,1678248581379734277,camera_1,86,0,0.13078104424011058,-0.3222187071416046,2.642054248174458,0.7040103790446053,0.7062445378733458,0.03001595122581352,0.06846226401124116,0.0017156997928395867,0.00031422999048127666,10656.703730838837
1678250032513302159,85,1678248581386404037,camera_1,87,0,0.1306411956038502,-0.3219521761641547,2.640172797021939,0.7039979208544074,0.7061535801681794,0.029660614751262162,0.06967278221021066,0.0030138310394249856,0.0005513472094836997,10669.091534448085
1678250032520456076,86,1678248581393851280,camera_1,88,0,0.13074943967414315,-0.32203038534815454,2.640724754778491,0.7041026472730028,0.706004510915723,0.031915795541520735,0.06912651202506846,0.003970560966990888,0.0007265493837154131,10663.628142229049
1678250032527374629,87,1678248581400446653,camera_1,89,0,0.1307995430222825,-0.3221088256571382,2.641213133015936,0.7039934412909464,0.7061426204596709,0.032864767706845245,0.06837939187544066,0.0014181301230564713,0.00025956166844478786,10660.54870676855
1678250032531992283,88,1678248581406153678,camera_1,90,0,0.13100447002367457,-0.32250255136872014,2.6443724707698366,0.7042370737040876,0.7065185082738857,0.029146805227493352,0.06349964749647989,0.005170507822185755,0.0009474478097446508,10651.315637461259
1678250032540519896,89,1678248581413925170,camera_1,91,0,0.13097005562846697,-0.3223603366823745,2.643188285801508,0.7041936248623806,0.7063821266874041,0.028882685751451063,0.06558521375694508,0.003678230452351272,0.000673751651790052,10656.00754425256
1678250032547846459,90,1678248581420453786,camera_1,92,0,0.1308569765938682,-0.3221783826437776,2.641661630876291,0.7039383566688378,0.7062496774849949,0.032351212385524145,0.0680851093845312,0.004594567755702883,0.0008411109008244459,10658.26360589103
1678250032553900036,91,1678248581427030086,camera_1,93,0,0.1307176156437869,-0.3219718551180667,2.6400807026771256,0.7038767318482235,0.7062820089877732,0.03174727003716542,0.06866863176186445,0.0011028798180632293,0.0002017055715559854,10670.204231193879
1678250032558914105,92,1678248581433103322,camera_1,94,0,0.13067914137854256,-0.3219752152877598,2.640436173842185,0.7037904546921004,0.7063233958428405,0.03190185265943004,0.06905453038157988,0.002774368622340262,0.0005075837655483121,10666.20572740747
1678250032566242065,93,1678248581440178632,camera_1,95,0,0.1307901989880479,-0.3222471113746873,2.64253902398175,0.7038755868271083,0.7063627348374003,0.02978761913262984,0.06872803538754749,0.002918484096881002,0.0005347288777115553,10652.374131123997
1678250032575053161,94,1678248581446949720,camera_1,96,0,0.1307112782173549,-0.32203594504871746,2.6407287067236855,0.7038590315259569,0.7061910867259522,0.030822228525314826,0.07018976418890484,0.004038862476591021,0.0007392496759927882,10661.975805759661
1678250032580845045,95,1678248581453093528,camera_1,97,0,0.1308749629951925,-0.32228600047229444,2.6428785187882706,0.7042137794586173,0.7062521998618846,0.029265848303389873,0.06659048831433503,0.004759476869367063,0.00087177115358047,10655.654971935672
1678250032586367694,96,1678248581459867715,camera_1,98,0,0.13082421114651824,-0.3221539584986979,2.641638171077974,0.70405611459724,0.7062967226677741,0.030030106064662013,0.0674397492339987,0.0024704212555661798,0.0004521897666166567,10662.681141128178
1678250032593538931,97,1678248581466906309,camera_1,99,0,0.13081766429725217,-0.3221133716941054,2.6410888306599256,0.7038791898896627,0.7062887782676899,0.03344252919823727,0.06776315351451132,0.0010638743406161666,0.00019467762676517874,10662.446495329032
1678250032599205103,98,1678248581472943305,camera_1,100,0,0.1307462966596145,-0.3219834867387143,2.6398957628424697,0.7039911342247751,0.7060082158094194,0.03118578674910865,0.07054309921852224,0.0015979837626218796,0.0002923478775626641,10667.279238064777
1678250032606356715,99,1678248581479740619,camera_1,101,0,0.13089571087842047,-0.32235081009696087,2.6429939170802377,0.7041281608194231,0.7061424145000827,0.03305914953503594,0.06688434956751968,0.0025459990720264614,0.00046645760897160457,10649.804674171954
1678250032613472569,100,1678248581486981391,camera_1,102,0,0.13073071926072655,-0.32202372690687475,2.640411423124094,0.7039235846586113,0.7060425013530789,0.03174588282107223,0.07062416136400652,0.0028202184475958347,0.0005161430973825249,10662.314708045684
1678250032619896651,101,1678248581493548870,camera_1,103,0,0.1307307466449852,-0.3221230680574722,2.641529060335227,0.7040143997099162,0.7062120284677874,0.02972036505028828,0.0688839295465711,0.0013689527986571193,0.0002506501213822921,10660.171194572467
1678250032625183867,102,1678248581499447107,camera_1,104,0,0.13073309110447212,-0.32205220211108093,2.6409988134642246,0.7039089831884645,0.7063198272756137,0.031011503081319895,0.06828419773685904,0.0033981151646003127,0.0006218120065726293,10664.649038595731
1678250032633697162,103,1678248581506250143,camera_1,105,0,0.13082546556514074,-0.32225618762212793,2.642417471014626,0.7040093261765704,0.7061733610790923,0.033056525453335664,0.06780353149816079,0.004415890318341552,0.0008088034646039606,10652.126887855818
1678250032639331067,104,1678248581513622522,camera_1,106,0,0.13077732057961322,-0.3220326562950471,2.640530304239509,0.7040751018777232,0.7060109370097534,0.03306466541318384,0.06880069505170877,0.0018054310930892825,0.00033030873462828536,10664.703527882233
1678250032646189139,105,1678248581520170927,camera_1,107,0,0.1308060490259445,-0.32208913928997207,2.6410401170753954,0.7040301173182225,0.70614223454918,0.03270598617193361,0.06808125265667384,0.00212242134148255,0.0003883848876153748,10662.898387716034
1678250032652619088,106,1678248581526876211,camera_1,108,0,0.1308140285889501,-0.3221158578116941,2.64111372249193,0.7041022522979207,0.7060128884149043,0.0314338525037583,0.06926566694843422,0.00227277644444257,0.0004160370743553612,10660.613746288116
1678250032660406389,107,1678248581533541440,camera_1,109,0,0.13075533954810714,-0.32204650892389086,2.6408185224971272,0.7040814452776585,0.7062808346424068,0.0308536479499723,0.06696830176082112,0.0040343282162211835,0.0007378780491849693,10669.635995390243
1678250032665755833,108,1678248581540242195,camera_1,110,0,0.13077778228760115,-0.32209520443521417,2.641298599444882,0.7040754644230925,0.7061443836372356,0.03061720433391696,0.06855973055497223,0.003153917728923261,0.0005772955030932586,10661.918806878613
1678250032672783897,109,1678248581546827554,camera_1,111,0,0.13070393826221885,-0.3220137316067987,2.6404769420050895,0.7037713554428582,0.7062256918141422,0.031805545686584266,0.07028199444621076,0.003082211362197995,0.000564075152555881,10662.673448615125
1678250032679069904,110,1678248581553562164,camera_1,112,0,0.13083556614674507,-0.3222414335964059,2.6422572798627373,0.7040710597482355,0.7062673174730858,0.03157630609220388,0.06688315174944842,0.006830034195445478,0.0012505018475377093,10657.444993472545
1678250032686118362,111,1678248581560175418,camera_1,113,0,0.1308469060547889,-0.3221852943673058,2.641993152130765,0.704191972753337,0.7063040446153701,0.02865117937442809,0.06653850005964367,0.0036423521814867854,0.0006667201394713325,10663.514087349406
1678250032692540628,112,1678248581566894054,camera_1,114,0,0.1309014026918238,-0.3222841625837874,2.642695343466297,0.7042046883333043,0.7062875066122396,0.030245482521920827,0.0658705223895777,0.0027033850783482194,0.0004950512204261094,10657.90255653765
1678250032699695802,113,1678248581573526382,camera_1,115,0,0.13081395045826538,-0.32213218267139876,2.6412938160527806,0.7039478175960177,0.706307157199163,0.030336525763351264,0.0683181161599925,0.006849517056252807,0.0012535854158565486,10662.837472084675
1678250032705652999,114,1678248581580197095,camera_1,116,0,0.13082623644316424,-0.322241940760173,2.6422216246568246,0.7039781487406843,0.7062373310682301,0.03130848073702439,0.06828892542134254,0.002823319169692695,0.0005171183676433107,10654.413218004633
1678250032713113936,115,1678248581586856365,camera_1,117,0,0.1307796796163247,-0.3221161866436575,2.641478701496287,0.7041049456791745,0.7063142140770665,0.028534905822465345,0.06739596139625699,0.0021272458252497017,0.0003893257602006161,10665.613394957967
1678250032719284077,116,1678248581593594312,camera_1,118,0,0.13072443091653857,-0.3219887600792749,2.640124625890044,0.7038492662724688,0.706019497757465,0.032943501955797524,0.0710450901392397,0.0028341380530036986,0.0005186383046200011,10662.116907390993
1678250032726153673,117,1678248581600180387,camera_1,119,0,0.13077771868050886,-0.3220312188609041,2.6407393932175354,0.704010296456246,0.706175187987177,0.029661475432018296,0.0693275070232558,0.006077779806219041,0.0011121814045443013,10665.393390401034
1678250032732051087,118,1678248581606883525,camera_1,120,0,0.13088784700306355,-0.3223049117031517,2.6425979808124196,0.7040679944609828,0.7060795884213162,0.03405058903916032,0.06767888427390346,0.0034861324238590896,0.0006385975927608254,10649.772263929131
1678250032739040948,119,1678248581613073110,camera_1,121,0,0.13087317862201306,-0.32227064900530855,2.6425690786907103,0.7040863683232531,0.7064112804364782,0.030085590104891046,0.06588130297366813,0.0037533993017859757,0.0006872399461328623,10659.065203505335
1678250032745486122,120,1678248581619768142,camera_1,122,0,0.13081839850683435,-0.3222360680574425,2.6420527684039667,0.7039717918136879,0.706294927623907,0.030344514181206296,0.06819385604636612,0.0019039554172195494,0.00034868388457524294,10657.044432710854
1678250032753296331,121,1678248581626866579,camera_1,123,0,0.13070480010591223,-0.3219778048088442,2.640192883084604,0.7039047824330702,0.7063716989859384,0.03133737313227445,0.06763910987542408,0.0023292641271837056,0.0004259078543779629,10672.439126398185
1678250032759260303,122,1678248581633568525,camera_1,124,0,0.13063576731267754,-0.3219149620857896,2.6394198063903227,0.7038121336800932,0.706139233382295,0.03162124004905345,0.07082344767588893,0.0032468090066686273,0.0005937989730406403,10669.91724561248
1678250032766675494,123,1678248581640472173,camera_1,125,0,0.13079790927649174,-0.32220107203151127,2.6418067960403713,0.7040903090299557,0.7060937198197353,0.030339630444365377,0.06905072328172818,0.0056946074473671615,0.0010428260392801715,10656.788585851313
1678250032772825940,124,1678248581647057056,camera_1,126,0,0.1307826116234453,-0.3221183444363498,2.641128500046252,0.7039601711076013,0.7060968596508385,0.03163901428879811,0.06975869164637462,0.0032527452567592263,0.0005954882394653463,10658.968068914375
1678250032778281472,125,1678248581652698040,camera_1,127,0,0.1309123495745349,-0.32232261567549964,2.64305927080981,0.7040783911065022,0.7064071650911908,0.030879481563960684,0.06564292728883649,0.0025122000952251256,0.0004601356683062299,10654.877199517332
1678250032786645867,126,1678248581659859895,camera_1,128,0,0.13085737348853788,-0.3221238741407938,2.6415194523341348,0.7042119475418145,0.7061490000824033,0.029246303801461992,0.0677035917506555,0.0005824841791763902,0.00010662320160901297,10663.762141093495
1678250032793033422,127,1678248581667016029,camera_1,129,0,0.13089820088554477,-0.3222664872081554,2.642573004055254,0.704119354814286,0.7062041215863991,0.03009828288064463,0.06771828555075,0.004705789673607796,0.0008619786913444597,10654.353284685405
1678250032799761800,128,1678248581673780679,camera_1,130,0,0.130752859919264,-0.3221331163559281,2.641370047495577,0.7039467122229124,0.7063129315736908,0.029819223574630477,0.06849732073400551,0.0014208181528374553,0.0002600955943743381,10662.333122447602
1678250032806306078,129,1678248581680427074,camera_1,131,0,0.1307782784008026,-0.32218440615980043,2.6419851970543555,0.7040715245735829,0.7062899150959299,0.03135812741364732,0.06674213034901066,0.0019352104282006621,0.00035426310486104027,10660.276899816232
1678250032813005891,130,1678248581687049150,camera_1,132,0,0.13073736300690367,-0.3220605431322914,2.6410520569382907,0.7040189147163687,0.7061974215234198,0.030657364253999085,0.0685762026672324,0.002633866504766047,0.00048202252877003804,10663.833201095113
1678250032818756779,131,1678248581692657232,camera_1,133,0,0.13071539710491026,-0.32200610806695174,2.640338145841437,0.7039094398806014,0.7061537427512056,0.032797619234150685,0.06915712702255515,0.00241546070901677,0.0004418860579043065,10665.647319544223
1678250032825069605,132,1678248581699341535,camera_1,134,0,0.13076146785785553,-0.32209622640624436,2.6409977121866537,0.7040431973631984,0.7060840471620782,0.030204236062714038,0.06968643134565444,0.0029499560478143394,0.0005400014024985868,10661.76985992037
1678250032833454114,133,1678248581707062244,camera_1,135,0,0.13090691751897876,-0.32238866229440877,2.64330959411473,0.7041289380282554,0.7063939924287577,0.030696354779852164,0.0653276350022793,0.005078130401670933,0.0009301687831619228,10653.813745214138
1678250032839853961,134,1678248581713773965,camera_1,136,0,0.1309182763917541,-0.3223394963622769,2.6431665835105917,0.7043170620221819,0.7063013111289137,0.029356439147774586,0.06491635789677584,0.0012899284483864903,0.00023625238746084994,10657.393966683885
1678250032846550841,135,1678248581720446348,camera_1,137,0,0.13086429111884687,-0.32223347729616664,2.64243821346125,0.7041344833018419,0.7064351446839704,0.027723738694074487,0.0661468827187554,0.0023813742445781827,0.0004360181204748643,10661.816645001296
1678250032854485646,136,1678248581727026700,camera_1,138,0,0.1307322588428625,-0.32200369751014407,2.640599343208549,0.7040406587760712,0.7062212626466251,0.02878832919152561,0.06891669665852049,0.0014391207369044423,0.0002633142129308524,10668.50836551166
1678250032859108468,137,1678248581732679128,camera_1,139,0,0.13073358949161876,-0.3220280703821937,2.640545126694829,0.7037541233187831,0.7061816751715123,0.0324433371688183,0.07060457093643432,0.0026854410534724593,0.0004915312338554975,10660.517885996846
1678250032865702961,138,1678248581740292549,camera_1,140,0,0.13080811848668322,-0.3221936311713929,2.641834052002536,0.7041282278582243,0.70613961291394,0.030584393583454123,0.06807995796209082,0.002260591776575893,0.0004139183672780003,10658.857650430527
1678250032872278388,139,1678248581746428728,camera_1,141,0,0.13069935140374422,-0.3219995060225715,2.640107547620227,0.7038847862506517,0.7060414003234937,0.030894291154885768,0.07139531839099675,0.003899697621818632,0.0007136716543212981,10663.58730697306
1678250032878802971,140,1678248581753107786,camera_1,142,0,0.13088019383322452,-0.3223091547602197,2.6430009015478486,0.7039712534513224,0.7063890092427546,0.031965018353593784,0.06646261758964882,0.0019687924068421125,0.00036066269183940037,10652.117053014459
1678250032885085137,141,1678248581759410858,camera_1,143,0,0.1307876990449188,-0.32204089604102526,2.640699351832096,0.704001670055744,0.7060341267937563,0.030972954420365226,0.07027187528290037,0.002387553977314383,0.0004370194886722087,10661.793284216665
1678250032891773636,142,1678248581766102313,camera_1,144,0,0.13088127123722312,-0.32226729477749694,2.6423338360269706,0.7040693891716849,0.7060782665650869,0.031624601731397715,0.06884519795296597,0.0028766770847141743,0.0005270151754052988,10651.679851328252
1678250032899874172,143,1678248581773609876,camera_1,145,0,0.1308573559937571,-0.32220810330086247,2.6418974936265904,0.704138361116435,0.7061588531357713,0.030977722990195317,0.06759602962139133,0.0032204161980189383,0.000589612798071288,10659.153943741228
1678250032905907845,144,1678248581780220508,camera_1,146,0,0.1308681430889468,-0.3222674874638733,2.6425939650388544,0.7040041141509742,0.7062682097705199,0.030835278685256463,0.0679161888981534,0.0037577858311124146,0.0006883895099783519,10652.909938140772
1678250032912050120,145,1678248581786478996,camera_1,147,0,0.13072245711354072,-0.32200508009709095,2.640550015724534,0.7038357456970739,0.7061496559655154,0.033256480868757134,0.06972741884692511,0.0020503380801528692,0.0003752117161233132,10661.91526033531
1678250032919800407,146,1678248581793720245,camera_1,148,0,0.1306794815907863,-0.32193251872368167,2.640022318495347,0.7039109477368398,0.7060884056468433,0.03141572927478689,0.07043857623104022,0.0002430665772408247,4.447471290637418e-05,10666.374573512585
1678250032926551133,147,1678248581800206184,camera_1,149,0,0.13075087533835175,-0.3220347720044941,2.640765253790909,0.7040694470192932,0.706153721357205,0.028270965477409874,0.06952616844248638,0.008735288109164685,0.0015985225256710813,10666.047527918246
1678250032931790159,148,1678248581806284189,camera_1,150,0,0.13082554661702656,-0.32221829714236677,2.6419966921191844,0.7040329753260159,0.7061350003645352,0.030591224043674287,0.06910215572096841,0.002459836599882692,0.0004505590689772109,10654.861293542199
1678250032940808123,149,1678248581813698530,camera_1,151,0,0.13087284163799368,-0.3221660508002189,2.6417451190040118,0.7041135464758078,0.7060883035068054,0.030103261177424775,0.0689725669134185,0.003425310249440372,0.0006272458062400259,10657.742393498189
1678250032945482487,150,1678248581819482803,camera_1,152,0,0.1308095425400485,-0.3221114998974673,2.641141697103575,0.7040577042922015,0.7060113294695469,0.03168090855240578,0.06962091439166791,0.0013715281384065747,0.00025109678324554695,10659.181182362023
1678250032953490416,151,1678248581826808691,camera_1,153,0,0.1308125251261789,-0.32213349208138076,2.6412942261460266,0.7039750025428764,0.7062210504533694,0.0321322183476064,0.06810685894503404,0.002952184760943055,0.0005403147611412728,10661.425790503972
1678250032959774467,152,1678248581833594083,camera_1,154,0,0.1306890323306791,-0.3219878762992742,2.6401930763447083,0.7038429135715115,0.7061829625072675,0.03245950140415322,0.06969330848954386,0.002198691130615771,0.0004022479389195075,10665.792520551477
1678250032967052770,153,1678248581840258598,camera_1,155,0,0.13078491002493262,-0.3222103597416928,2.642100256537612,0.7039964721288201,0.7063326199216932,0.03161193637859444,0.06696180062638643,0.0077426176285371184,0.001417413766884972,10658.499942486058
1678250032972915194,154,1678248581846867799,camera_1,156,0,0.13073310447912428,-0.32206651418893617,2.641252993768458,0.7039077177031823,0.7062102699630838,0.0297882458759031,0.0699545564220252,0.0024732500314712524,0.0004528548672719469,10659.500974134775
1678250032978546305,155,1678248581852699756,camera_1,157,0,0.13084720463243987,-0.3222308816584214,2.6424831222869023,0.7040914343629207,0.7062454515016423,0.030841502640403546,0.06724147533247869,0.003085761796683073,0.0005651454429900596,10655.553323105094
1678250032984911163,156,1678248581859400510,camera_1,158,0,0.13078611367969017,-0.32201144464336245,2.6405504022347817,0.7037665323068736,0.7063528109722954,0.0313779841972104,0.06923724824121011,0.0027861566632054746,0.0005097880735423307,10665.327772393588
1678250032993193076,157,1678248581866897583,camera_1,159,0,0.13097016650815965,-0.32233752342215044,2.642851713936245,0.7041558927927954,0.7061398493922756,0.033123135106221634,0.06658715841790055,0.002551589801441878,0.0004673885492727475,10651.60131353233
1678250033000172880,158,1678248581873585700,camera_1,160,0,0.1308389239338516,-0.3221425420211448,2.6413210955812687,0.7040517753212967,0.7061378604152896,0.03485146132892484,0.06682660696373563,0.0028425153577700257,0.0005200945575492077,10661.254599249103
1678250033006164020,159,1678248581880169153,camera_1,161,0,0.13094868264537377,-0.3223774212884343,2.6433634033624545,0.7042519366271315,0.7062726588834782,0.027919725845877926,0.06654795248005713,0.004993173875845969,0.0009149366601266303,10653.129356878813
1678250033011581488,160,1678248581886189937,camera_1,162,0,0.13074394591264465,-0.321973152785838,2.640439233443187,0.7038615110468398,0.7063108458882899,0.03065494882185258,0.06902344790111294,0.0032525305869057775,0.0005950260745339346,10667.602280298594
1678250033019579080,161,1678248581893599987,camera_1,163,0,0.1306506812448383,-0.32197949694920036,2.6405275421153434,0.7039805541949717,0.7062084664312289,0.029232336680030026,0.06947266907509485,0.003735074365977198,0.0006834226152286901,10667.213218053339
1678250033027560469,162,1678248581900186300,camera_1,164,0,0.13060280010916453,-0.32191291772034947,2.639931778763303,0.7037126955584698,0.7063913100436544,0.030939152519603684,0.06958827520502751,0.0047729077050462365,0.0008729800786660735,10669.937546667992
1678250033033122857,163,1678248581906835794,camera_1,165,0,0.13081319821963006,-0.322332582772781,2.643008865494492,0.7041204518503261,0.7062750491657289,0.03197511092793928,0.06608733988583423,0.0011151183280162513,0.00020427459745580591,10652.982776849301
1678250033039369404,164,1678248581913642168,camera_1,166,0,0.1309278804378251,-0.3223184522115381,2.6427615695472597,0.7041861953248043,0.7060907582076983,0.030512077752612644,0.06801953101038645,0.006702435377519578,0.0012279419183990334,10651.588117618232
1678250033045697037,165,1678248581919537067,camera_1,167,0,0.13094811701640321,-0.3222808167262787,2.6425172677702,0.7042427265644344,0.7062255160015731,0.02838076013583917,0.06694949651427655,0.004242854018229991,0.0007770138140504052,10658.462824185957
1678250033052675304,166,1678248581926361799,camera_1,168,0,0.13089653180182365,-0.3221779965881417,2.641646994400891,0.704124404894002,0.7061370541935582,0.03157004784176804,0.06769501611477789,0.0016988666029646993,0.0003109938923494261,10660.259494476952
1678250033062373376,167,1678248581933515310,camera_1,169,0,0.13078570015941826,-0.32208409356771656,2.6408405362136573,0.703990319966211,0.705982941568586,0.03078283519698058,0.07097980462972511,0.00044905475806444883,8.222511762762996e-05,10658.930543961822
1678250033066469600,168,1678248581940237998,camera_1,170,0,0.13068534262137602,-0.3219521362401999,2.6398666595136806,0.703913330006742,0.7060793162332606,0.031145489109751918,0.07062564360418308,0.0018718643696047366,0.00034245472210676675,10667.380886969157
1678250033073765502,169,1678248581946813106,camera_1,171,0,0.13066879704651937,-0.3219629752013938,2.640094049348208,0.7038371953743998,0.7060923299248196,0.03190692702777745,0.07091383529666619,0.0016448756796307862,0.0003010017607210634,10663.946855851214
1678250033079548168,170,1678248581953543901,camera_1,172,0,0.13079767309647866,-0.3222277624915114,2.6422849147084713,0.7039232764009338,0.7063146433812987,0.030835520609573387,0.06827017031515191,0.002398988581262529,0.0004394222034075816,10654.49507335958
1678250033086271238,171,1678248581959542036,camera_1,173,0,0.13065620987064938,-0.32185047780118897,2.6394005519720496,0.7039304294376861,0.7061863701177995,0.029717033789430764,0.06999756477391689,0.0017135433736257255,0.0003133383914657391,10674.391411678163
1678250033092602432,172,1678248581966344118,camera_1,174,0,0.13082104571659472,-0.3221563196832429,2.6414633866886668,0.7041504983046769,0.7060461742907168,0.030067438425166414,0.06904219473095125,0.004713545262347907,0.000862958985128745,10659.852318433463
1678250033099841904,173,1678248581973510980,camera_1,175,0,0.1308602262063239,-0.32223971501966486,2.642047920687191,0.7040627812256218,0.7062821929594859,0.030493588306137832,0.06731422638192781,0.0020545164588838816,0.00037617254275258835,10659.179940644532
1678250033106424524,174,1678248581980200767,camera_1,176,0,0.1308900535816719,-0.32231491661532574,2.6426347404120087,0.7041391334412946,0.7062526772500037,0.03210845421548837,0.06606272626554738,0.004070086521096528,0.0007452857325861604,10655.855082248221
1678250033113806820,175,1678248581986818552,camera_1,177,0,0.130731700471127,-0.32195684802473984,2.640049545165475,0.7037839305041371,0.7061725005868743,0.03188503429227152,0.0706535432035056,0.002114935254212469,0.00038698559645131586,10665.019380722428
1678250033119981501,176,1678248581993568420,camera_1,178,0,0.13078776393089747,-0.3221358849098815,2.641520129327116,0.7040224448588671,0.70612596760646,0.030827376674632694,0.06919673297305522,0.003689524659421295,0.0006755460985754471,10658.222347013765
1678250033126440573,177,1678248582000120878,camera_1,179,0,0.130646752832469,-0.3219137966392686,2.6394750381530288,0.7036659191075306,0.706117382618468,0.0321753697716721,0.07223061560484159,0.002972184622194618,0.0005438126443772078,10664.993191612884
1678250033132236229,178,1678248582006237983,camera_1,180,0,0.1308514655016632,-0.3222874891178831,2.6428161389299913,0.7040867339670441,0.7062118848101511,0.03241349159841296,0.0669029922119657,0.005825109896250069,0.0010669697952623892,10651.981342053621
1678250033140108597,179,1678248582013543367,camera_1,181,0,0.1309002509392118,-0.32236879098889787,2.6435226672863448,0.7043705818805657,0.7063035420371917,0.028866432015258653,0.06452998519803702,0.006335871643386781,0.0011604977730298373,10655.980362041153
1678250033147836184,180,1678248582020215272,camera_1,182,0,0.13074463517802062,-0.32202269338493916,2.6407739703204074,0.7039016762078463,0.7062233846534905,0.03192567389090056,0.06893266676231347,0.0018867955659516156,0.0003452747025417622,10663.75294501847
1678250033152884685,181,1678248582026818513,camera_1,183,0,0.13077605011192286,-0.3220950098476668,2.6407574705575607,0.7039282840049129,0.7059566584526972,0.03356170672812179,0.07059588660606353,0.002776216540951282,0.0005082235530059126,10657.473181610112
1678250033159574232,182,1678248582033631801,camera_1,184,0,0.13076624256783073,-0.32201135527508884,2.6401876831923197,0.7037807076324126,0.7061363738183238,0.034515393852487364,0.0698056209938483,0.0031280320836231112,0.0005722604307565062,10663.03827297362
1678250033166608721,183,1678248582040150880,camera_1,185,0,0.13083548865505562,-0.3221828166781631,2.6416914316636633,0.7041202654070543,0.7063474692408291,0.029223671122090424,0.06658739810447231,0.005072187981568277,0.0009282188720538106,10665.222621872093
1678250033174816743,184,1678248582046872138,camera_1,186,0,0.13082889909221407,-0.3221544003966503,2.6415577132195174,0.7040929004661235,0.706333994329166,0.030485392146135562,0.066453869969352,0.0021723575773648918,0.00039751676435280863,10665.349395588393
1678250033179713340,185,1678248582053572654,camera_1,187,0,0.13077123099301172,-0.32208693233765984,2.6411275452278304,0.7039276082725462,0.7062125589103081,0.03219904320097011,0.0686510419876453,0.00252733554225415,0.0004625646036751282,10661.308192456836
1678250033185065578,186,1678248582059513330,camera_1,188,0,0.13075610695878767,-0.322052011253656,2.6408735277454785,0.7039592375461561,0.7063057688661991,0.031129562721145358,0.06785648874317181,0.0010810684179887176,0.00019779461638140734,10666.618197813401
1678250033192561225,187,1678248582066207885,camera_1,189,0,0.1307916043758441,-0.32216764947193494,2.6415144674252073,0.7039745918873853,0.7060939159536517,0.03313184913599901,0.06894516954113851,0.0008626748458482325,0.00015795789480346667,10656.313141584746
1678250033200744872,188,1678248582073559761,camera_1,190,0,0.13072448560818256,-0.322010683410133,2.6403417836467415,0.7038587350786617,0.7062349370994514,0.03157631334135163,0.06941203864870497,0.002504721633158624,0.00045824318419410745,10666.321082874667
1678250033206806621,189,1678248582080249786,camera_1,191,0,0.13087167627329474,-0.32230378423907613,2.6427803757412947,0.7041353498620644,0.7063026030409861,0.031140149696746017,0.0660328182725813,0.00576090655522421,0.0010549691544951211,10655.858281739638
1678250033212923055,190,1678248582086841344,camera_1,192,0,0.13066255527188564,-0.3218704067587118,2.6394135075732,0.7037972179771746,0.7063374033865708,0.03150972446723545,0.06902235731054893,0.0015890904469415545,0.00029051125324935993,10674.950489693905
1678250033219861793,191,1678248582093505859,camera_1,193,0,0.13081315706980276,-0.3222197117259358,2.642238605866819,0.7040253996064956,0.7062783180545228,0.031439463234177414,0.06731072950529822,0.0027337223291397095,0.0005005915493436628,10656.684986838256
1678250033226329874,192,1678248582100207328,camera_1,194,0,0.13067050328980628,-0.3219266116850728,2.6399062432303064,0.7038284873617487,0.7062565092648025,0.030527327281708334,0.06996631895565106,0.0010668752365745604,0.00019516149414361582,10669.536554878
1678250033232025868,193,1678248582106244564,camera_1,195,0,0.13078640635009153,-0.3221222604180624,2.641529723410541,0.7040168453014398,0.7060906181842868,0.03121420962931267,0.06944057575479828,0.004043669847305864,0.0007404341708045207,10657.091906037527
1678250033239421154,194,1678248582113539695,camera_1,196,0,0.13090525900844754,-0.3223537063268055,2.643369750813808,0.7042219286881259,0.7062217713439471,0.031339946063186665,0.06587937928783404,0.002616186102386564,0.00047931884287237786,10651.300930985715
1678250033245085090,195,1678248582119379997,camera_1,197,0,0.13084975854131853,-0.3221841667830229,2.641825499648482,0.7041437646434022,0.7061052824847684,0.032333309454980086,0.06746440439677052,0.0034080351470038295,0.0006238979242726237,10658.582292139996
1678250033251991911,196,1678248582126054763,camera_1,198,0,0.13094389942288512,-0.32232552179104973,2.6428951006436736,0.7042185225174334,0.7065170725492605,0.028384765456458672,0.06406406035967131,0.004941942810546607,0.0009046681387661233,10662.591093407822
1678250033259573183,197,1678248582133528947,camera_1,199,0,0.13087586862655815,-0.3222733938218663,2.642362560290723,0.704045713184257,0.706284588466782,0.03188412807258266,0.06682152511152813,0.0013437927118502557,0.0002460779198383104,10656.393440236101
1678250033264926608,198,1678248582139425992,camera_1,200,0,0.13073827892186637,-0.32209224800047337,2.641045662853969,0.7037569983503262,0.7062339535329744,0.032940952529199104,0.0698182196607197,0.0014376103063113987,0.00026318766073904574,10658.025693859327
1678250033272956187,199,1678248582146754503,camera_1,201,0,0.13075249200131378,-0.32219160389667656,2.6419367124795947,0.7040473876860253,0.7063339654999164,0.03172754542938471,0.0663548636851362,0.004107173357624561,0.0007517269415132142,10661.229164754506
1678250033280067850,200,1678248582153662919,camera_1,202,0,0.1306607301320984,-0.32197478774734317,2.6404116426187096,0.7039133138608774,0.7059067481198977,0.03258451210457594,0.07169350806799782,0.0061064326437190175,0.0011178049427874467,10658.508226261123
1678250033285361282,201,1678248582159552335,camera_1,203,0,0.13073443528916642,-0.3221229384938855,2.641392878944492,0.703981162699296,0.7061866611118108,0.0302043622800287,0.06927206313916755,0.0017763343057595193,0.00032523632329568207,10659.722604849252
1678250033292279347,202,1678248582166810035,camera_1,204,0,0.13078876300220638,-0.322164050627683,2.6416454603948,0.7039257476220822,0.7062144768372781,0.03262295683505286,0.06844996148633409,0.001226025982759893,0.00022448168512445614,10657.172050735797
1678250033299722683,203,1678248582173531532,camera_1,205,0,0.13087879341141997,-0.3221056367770076,2.6410604331205314,0.7040179805815177,0.7060099638058915,0.032856474654002994,0.06949148219772436,0.002721553551964462,0.0004981920397130296,10658.81940581614
1678250033307329377,204,1678248582180361509,camera_1,206,0,0.13092785349683475,-0.32224500225137137,2.642225217828029,0.7040998303317795,0.706157281634616,0.030968827766829278,0.0680165731856391,0.001108798838686198,0.00020308474808580375,10655.429877077808
1678250033312585863,205,1678248582186220645,camera_1,207,0,0.13083730595832552,-0.32219183231721565,2.64167292563137,0.7041835249000877,0.7061691177096482,0.03136877606300101,0.06683367669651298,0.0006894557154737413,0.0001261925017304036,10662.48528074345
1678250033318370973,206,1678248582192978382,camera_1,208,0,0.13077061276397864,-0.3221232099213699,2.6413268599312203,0.7037517686521614,0.7063920732382736,0.031520656038545404,0.06892122480040615,0.003220118407625705,0.0005894857180238251,10659.74892114161
1678250033329008960,207,1678248582200138807,camera_1,209,0,0.13062607715720698,-0.3219003797450538,2.6396136230703857,0.7038137884481341,0.7061331036236301,0.032331906855489354,0.07054671470899682,0.0010650903568603098,0.00019482120125714465,10668.34743141686
1678250033332103040,208,1678248582206268310,camera_1,210,0,0.13071119655495578,-0.32209498396700276,2.6413278256613517,0.7040063419276245,0.7061201980302282,0.03289531845599238,0.06846338059952281,0.002997669274918735,0.0005486959195336779,10659.419493576506
1678250033340349405,209,1678248582213580846,camera_1,211,0,0.1307549297004433,-0.3220933090630853,2.6412930638479204,0.7039134770448858,0.7063613974104286,0.030308644612684007,0.0681232643427168,0.007143471506424248,0.0013073013884076713,10663.435134090716
1678250033346762801,210,1678248582220224857,camera_1,212,0,0.13074833241879763,-0.32207611559254296,2.6408218292732695,0.7039354559706003,0.7060010734717825,0.03247560920467067,0.07058819229119967,0.0012469648499973118,0.00022829264157549458,10658.278429030906
1678250033352630882,211,1678248582226878404,camera_1,213,0,0.13085561196211506,-0.32219155792299853,2.6415146870182644,0.7040309356078462,0.706142843171271,0.03245314172208751,0.06818739133814043,0.004183860379271209,0.0007658630717994148,10659.036779539194
1678250033358572854,212,1678248582232865571,camera_1,214,0,0.1308138427110994,-0.32207477428301523,2.64076667126335,0.7041690491786757,0.7058954168499362,0.03363261135860111,0.06874924073948918,0.0008827450801618397,0.00016153321296836397,10662.242587145302
1678250033367235049,213,1678248582240226268,camera_1,215,0,0.13089271373987194,-0.32228335017586685,2.642671736917603,0.7042089478773588,0.7061015799029727,0.030908119539025877,0.06749077518113453,0.0028039805474691097,0.0005136482200234753,10653.28594680945
1678250033372526875,214,1678248582246896982,camera_1,216,0,0.1308485749731658,-0.32219471492144736,2.6420155754424286,0.7041309991790148,0.7061395154997498,0.030021402414500024,0.0683025332034449,0.003861304256133735,0.0007071060622188205,10657.417408928628
1678250033378622915,215,1678248582252846240,camera_1,217,0,0.13077769407387826,-0.3221466393242851,2.641565491026864,0.7038617590154473,0.7064196652464309,0.03150462257318168,0.06750806992739708,0.003329225874040276,0.0006093509168466417,10661.520822369957
1678250033385929923,216,1678248582260215759,camera_1,218,0,0.1307199442232804,-0.3220251462143186,2.6404049887109404,0.7038756713094898,0.7061015029217841,0.03163514841354076,0.07056149300479836,0.003428103809710592,0.000627379287671842,10662.662914823162
1678250033393743554,217,1678248582266883611,camera_1,219,0,0.13080287368539706,-0.32220763889718523,2.641954073281729,0.7041010604736981,0.7062502059121433,0.030470633320025028,0.06725982302939543,0.0022909633116796613,0.0004194269172854927,10660.130604185859
1678250033399267740,218,1678248582273613929,camera_1,220,0,0.13070870971820658,-0.3219285478438301,2.639944371542179,0.7039166272444725,0.7061063924772522,0.030361712998628495,0.0706633623267114,0.00194584543351084,0.0003560053322519202,10667.512615027139
1678250033405341362,219,1678248582279603004,camera_1,221,0,0.1308462609287651,-0.3222759824069774,2.6426895196409403,0.7041997933737141,0.7063886736372361,0.029872664486644055,0.06500243599983771,0.002124545513652265,0.00038896693200230246,10660.515655860072
1678250033412361184,220,1678248582286593198,camera_1,222,0,0.13070134589382526,-0.3219481251540585,2.6398268271995016,0.7038655150935531,0.7062212782400475,0.0317056209887868,0.06942331323694946,0.001600815390702337,0.0002927664243277823,10670.301216261114
1678250033418881647,221,1678248582293076038,camera_1,223,0,0.13079991037062116,-0.3221706826787306,2.641538974331866,0.7038632406156646,0.706284289928477,0.03204846172915695,0.06864354602609771,0.0022983848466537893,0.0004207953792494384,10658.152244854024
1678250033425466292,222,1678248582299627542,camera_1,224,0,0.13078139489649465,-0.32202838775083237,2.6406639746526026,0.7039422258610322,0.7061838753832151,0.03211468997167776,0.06883548130566332,0.0021293136524036527,0.0003896026499995098,10664.647250543003
1678250033432991272,223,1678248582306363105,camera_1,225,0,0.130842476005159,-0.3222822193472089,2.64253018539951,0.7039345584880159,0.7063727929183232,0.033151243072185296,0.0664425306096834,0.001970550452824682,0.0003608559067190222,10654.571495006443
1678250033438517483,224,1678248582313085794,camera_1,226,0,0.1308721251881327,-0.32223946682486393,2.6425540560625307,0.7040641688894418,0.7064061031235547,0.03052108575112831,0.06597368324101478,0.005248415865935385,0.0009609442117301984,10658.522578980192
1678250033446646655,225,1678248582319538116,camera_1,227,0,0.13081923984575877,-0.3221760835133323,2.641968209197252,0.7041345277070991,0.7062740894500078,0.02989890142097667,0.06691437182012373,0.0027886631432920694,0.0005105032035929633,10661.51894155587
1678250033452164974,226,1678248582326370477,camera_1,228,0,0.13075073078312419,-0.3220037016970957,2.64027054470476,0.7039437484238019,0.7061523078328026,0.030817167510581556,0.06973105035834974,0.001979837426915765,0.00036222833152672104,10666.86100672395
1678250033459251285,227,1678248582333057880,camera_1,229,0,0.13077495467749256,-0.3220598151335974,2.640812561714772,0.7039712843508911,0.7062085399580359,0.03157736808759988,0.06853319432476866,0.002294060599524528,0.0004197604990298099,10664.836624707099
1678250033465341040,228,1678248582339747190,camera_1,230,0,0.13078004767109236,-0.3221354974810365,2.64147894986251,0.7040056407067979,0.7061940410566954,0.028781291182263694,0.069553371642987,0.0017378463526256382,0.000318231916693359,10659.716979529476
1678250033474014549,229,1678248582346390485,camera_1,231,0,0.13075096498968986,-0.3220222637089184,2.6408054635925686,0.7040406305687726,0.7060984593472167,0.03290743582291465,0.06832903397072711,0.00054401985835284,9.95437747263541e-05,10663.957004229072
1678250033479471967,230,1678248582353101491,camera_1,232,0,0.1308877401840961,-0.32239822134896556,2.643415891899637,0.7041676278975937,0.7063024708493617,0.030722922486385904,0.06588530585083495,0.003598629147745669,0.000659323192886303,10651.555255842859
1678250033486493955,231,1678248582360183238,camera_1,233,0,0.13072723681421877,-0.32207831430965345,2.6408968231633523,0.7038745546472096,0.7061918033948171,0.030292989707232286,0.07025726234892696,0.0024923485470935702,0.00045626707437130697,10660.981931712595
1678250033492889891,232,1678248582366936922,camera_1,234,0,0.13073399974285588,-0.3220859708599862,2.6411584540460478,0.7038115278432294,0.7062293815827575,0.03272097594324562,0.06941708433474274,0.001665781659539789,0.0003049555470461776,10658.462708848649
1678250033499377947,233,1678248582373594760,camera_1,235,0,0.1308695730937657,-0.3222120342649552,2.642191367357984,0.7039834990460547,0.7062960293852917,0.0315731882028791,0.06750026468207526,0.003698357264511287,0.0006772259179360102,10656.414859635755
1678250033506454131,234,1678248582380207061,camera_1,236,0,0.13097624016606876,-0.3223849268975896,2.6435996771341257,0.7041212878495856,0.706352090568662,0.031603776750502036,0.06543040150745086,0.0075024698744527996,0.0013745089473569507,10650.256023775088
1678250033513280845,235,1678248582386946916,camera_1,237,0,0.13084519092700808,-0.3221650367239715,2.641398012654473,0.7040095571775692,0.7062637718478603,0.030112607649489243,0.06822945726315342,0.0016389719094149768,0.00030001268793831975,10662.445779716829
1678250033519217299,236,1678248582393676280,camera_1,238,0,0.1308413650949623,-0.3222029329254718,2.6418309074746738,0.7040439579787174,0.7063029513513048,0.03124059441490248,0.0669497677867672,0.0022338872076943517,0.00040890899566995304,10661.065605848793
1678250033525455186,237,1678248582399578571,camera_1,239,0,0.13075460235470057,-0.32205378937976586,2.6410162171926763,0.7039154596973091,0.7062994550770103,0.03130202617631067,0.06829559659525708,0.004044068569783121,0.0007400130145564759,10664.155636409294
1678250033532435968,238,1678248582406313419,camera_1,240,0,0.13077020452497837,-0.3221514177935047,2.6418949550915336,0.7040954629435564,0.7062700184409193,0.027994894710733662,0.06818009961783314,0.003953501756768674,0.000723895367107273,10660.77652513911
1678250033539608672,239,1678248582413082599,camera_1,241,0,0.1307139830417294,-0.32211912260635867,2.6414817540506914,0.7037614100049405,0.7062753898295273,0.03422511485112737,0.06872840040648864,0.004247990087606013,0.0007776895076268015,10655.902846235542
1678250033545266463,240,1678248582419574260,camera_1,242,0,0.13071497024285003,-0.32208261502311036,2.641042694720706,0.7039383189201388,0.7061803899162175,0.030273292995723084,0.06973971454532261,0.0024051436921581626,0.000440291824461742,10661.229215025089
1678250033552473528,241,1678248582426322937,camera_1,243,0,0.13079964271235153,-0.3221611876972125,2.641591980471158,0.7041638656893369,0.7062675562907985,0.029404052739272876,0.06689387767934614,0.001648224308155477,0.000301650188513521,10665.08618691994
1678250033559612360,242,1678248582433111667,camera_1,244,0,0.1308824913660433,-0.32213320072534096,2.6412769884207874,0.7041306412386583,0.7060718366348833,0.03172265779744742,0.06823690029701622,0.002682991384062916,0.0004910602893603061,10661.664156906074
1678250033566215234,243,1678248582439728021,camera_1,245,0,0.13094282253178718,-0.3222964647733029,2.6425862146736177,0.7042374200706921,0.7062498962997299,0.03036960828602423,0.06586673698726841,0.0016737252590246499,0.0003064756552761789,10658.626715755794
1678250033572793035,244,1678248582446426391,camera_1,246,0,0.1307926325459148,-0.3219359507408983,2.6396889670617822,0.7038814131798786,0.7059963087066057,0.03433296649078125,0.07029520385123754,0.002521602262277156,0.0004612073061255472,10665.970021008046
1678250033579523508,245,1678248582453064680,camera_1,247,0,0.13084823458994302,-0.3222240800779165,2.6422649822998365,0.7041713733058255,0.70625472316887,0.028895152108693523,0.06717152077232011,0.004802475741598755,0.0008793613312857865,10659.475249542395
1678250033585661942,246,1678248582459563493,camera_1,248,0,0.13060123075505645,-0.3218864039389206,2.6394137317221626,0.7037161337702761,0.706223291720378,0.0321556848401984,0.07069849528460068,0.002723496058024466,0.0004980925451808826,10669.746115836315
1678250033592607245,247,1678248582466231822,camera_1,249,0,0.13068525528675579,-0.32199493653521793,2.6407032532507118,0.7037932099831816,0.7062786586979989,0.03180411809565033,0.06952749040115731,0.005138983717188239,0.0009404172013228827,10662.916838281208
1678250033599317883,248,1678248582473111867,camera_1,250,0,0.1307010275495597,-0.321994510183057,2.6405530680252474,0.7037842253862622,0.7063637707360402,0.03176169669737879,0.06876904908405725,0.0012104048510082066,0.00022145446461589342,10666.158669054734
1678250033606902018,249,1678248582479725122,camera_1,251,0,0.13083530284155132,-0.3221995230135923,2.6419712654292065,0.7040882102043323,0.7061429165018184,0.030330969820954387,0.06857117466754079,0.0029230507207103074,0.0005353159064956346,10656.745754369187
1678250033612228624,250,1678248582486420392,camera_1,252,0,0.1307693383402269,-0.32201339078974855,2.64025644835678,0.7039163913255142,0.7060815467356469,0.03248408956363858,0.06996675859208759,0.0030608921661041677,0.0005600296550713757,10664.477525097545
1678250033619557143,251,1678248582493108987,camera_1,253,0,0.13090079167174107,-0.3222713598483026,2.64253029969441,0.7040262864376778,0.7064406406204373,0.0311047927208919,0.06573508313183594,0.0015106124337762594,0.0002765880193361625,10658.648895448418
1678250033625347142,252,1678248582499563217,camera_1,254,0,0.13079732127520594,-0.32201690084072476,2.6407105718112303,0.70403810818741,0.7061746538544834,0.03061018762987498,0.0686346624283763,0.0008592800004407763,0.00015722781984192733,10666.463577109736
1678250033633397184,253,1678248582506252765,camera_1,255,0,0.13087640569235065,-0.3222698596008092,2.642734094626879,0.7041127432997702,0.7062356300914981,0.029195552342511238,0.06785351306713772,0.005364491953514516,0.0009827959902447862,10653.65184559347
1678250033640237307,254,1678248582513600111,camera_1,256,0,0.1307250451133439,-0.32201811497464305,2.6405906084186905,0.7038558873542562,0.7061480995964524,0.03251756777808448,0.06988818969517772,0.0038477557827718556,0.0007041442824649965,10662.005836389493
1678250033646441041,255,1678248582519592761,camera_1,257,0,0.13079610849401277,-0.3222003821734148,2.6419307224863227,0.7039550091934743,0.7062733419787304,0.02959195627944878,0.06891754178122063,0.0031917946180328727,0.0005845602348364688,10656.939053301467
