%time,field.header.seq,field.header.stamp,field.header.frame_id,field.image_seq,field.transforms0.fiducial_id,field.transforms0.transform.translation.x,field.transforms0.transform.translation.y,field.transforms0.transform.translation.z,field.transforms0.transform.rotation.x,field.transforms0.transform.rotation.y,field.transforms0.transform.rotation.z,field.transforms0.transform.rotation.w,field.transforms0.image_error,field.transforms0.object_error,field.transforms0.fiducial_area
1678323534436501956,176,1677825034770545005,camera_1,179,0,0.11366680340834678,-0.3316997097207919,2.640665758709413,0.7038093425930093,0.7062736356411355,0.03390680595485867,0.06841264054973975,0.0015356981311924756,0.00028106063999981066,10660.50733399484
1678323534443115449,177,1677825034777125358,camera_1,180,0,0.1137207446971332,-0.33181346354110836,2.641582817918826,0.7041289383228756,0.7061511666395078,0.03247411488568531,0.06707011206456692,0.003310047439299524,0.0006060232430805273,10658.268209366126
1678323534450574014,178,1677825034783750057,camera_1,181,0,0.11377909937106363,-0.3320553950433416,2.643624938246665,0.7043614617127044,0.7063493972777842,0.030512634341990065,0.06335960357171942,0.003166327194776386,0.0005800685869298889,10653.177287101513
1678323534456432110,179,1677825034790502548,camera_1,182,0,0.11372609408901091,-0.33171060106811906,2.640404075196391,0.7041701452443353,0.706090904198865,0.034779855696394135,0.06610902504150996,0.005565377359744161,0.0010177072040884595,10667.398171124856
1678323534462553226,180,1677825034797252416,camera_1,183,0,0.11376993126297068,-0.33168753798561534,2.6401960819589965,0.7040454794942497,0.7062446385630294,0.03255553349211887,0.06692242183104079,0.004211605119053274,0.0007702386292881104,10669.660389925237
1678323534469913665,181,1677825034803693056,camera_1,184,0,0.11380601648164128,-0.3317710139369626,2.640644742087038,0.7039397669884285,0.7061748094206971,0.03499065259404603,0.06753959744447666,0.004277343978174031,0.0007826366336302259,10661.512412707089
1678323534476049657,182,1677825034810343265,camera_1,185,0,0.1136976251191235,-0.3316470923666242,2.639758641776971,0.7037766221524316,0.7061359163456931,0.0355148401933027,0.06934861126501436,0.007122525072190911,0.0013029573965065836,10663.294148788322
1678323534483119070,183,1677825034817142486,camera_1,186,0,0.11377334495999328,-0.33183632411863,2.641487922004624,0.7039215534662857,0.7063590694398495,0.03563649675092435,0.0654320386737445,0.005521907820366323,0.0010104135152781057,10659.285598137998
1678323534489194510,184,1677825034823866367,camera_1,187,0,0.11365235170199353,-0.33171212141015244,2.6405761423310743,0.704027413627186,0.7061021755871432,0.03398669010115952,0.06789715302195054,0.0018652311409823596,0.00034132675520213144,10662.458306749348
1678323534494886595,185,1677825034829753398,camera_1,188,0,0.11365010948559244,-0.33180260181517646,2.641449699807671,0.7039643892419252,0.7062436262966547,0.03339037928996958,0.0673733000933327,0.004008125222753733,0.000733768781424281,10657.508224002198
1678323534502427572,186,1677825034837048768,camera_1,189,0,0.1136690969649791,-0.33171818289399624,2.640804368157317,0.7041172169384596,0.7062061554626036,0.03269698858052972,0.06650351671401987,0.00556400022469461,0.0010179191559338157,10665.729518700857
1678323534511976189,187,1677825034843797206,camera_1,190,0,0.1137812174000965,-0.33189221405953795,2.642080139866206,0.7039911415963893,0.7063719195581202,0.03338744768767093,0.06573022250450992,0.00600951787782833,0.0011002258782956294,10656.561050061253
1678323534515009299,188,1677825034849773168,camera_1,191,0,0.11376139432020704,-0.3317115745731427,2.6399782521526194,0.7038270427327836,0.7061468005736037,0.036146917342845,0.06839291136000378,0.00582843495067209,0.001066166418746637,10663.180345010833
1678323534522588200,189,1677825034856790065,camera_1,192,0,0.11379955175437392,-0.33181882086704306,2.640961977293009,0.7039328991821661,0.7062809898621286,0.03592889050844681,0.06599054201318963,0.0025998298660852015,0.00047565211246846387,10661.701291244244
1678323534530811869,190,1677825034863768100,camera_1,193,0,0.11375591075738867,-0.3316352514664557,2.63978449993684,0.7039979111213012,0.7061894502899112,0.034803734128945336,0.06687377308601127,0.004394082468934357,0.0008033077350638525,10670.414616959399
1678323534536179195,191,1677825034870501995,camera_1,194,0,0.11365346303474191,-0.3317174368479685,2.640426789962751,0.7039368175833797,0.7062321640627842,0.03610733321999155,0.06637279398609794,0.0034804932656697925,0.0006365725141357541,10664.881819907223
1678323534541648279,192,1677825034876345157,camera_1,195,0,0.11363084589070307,-0.3316491233706068,2.6402541734363325,0.7038883257641458,0.7060985761673628,0.03470415085683816,0.06900469187436811,0.0032960835960693657,0.0006031488054263505,10661.301590561512
1678323534549654744,193,1677825034883761644,camera_1,196,0,0.11372202003615683,-0.33190396189591825,2.642090091958782,0.7041914960707545,0.7062712097280425,0.03411580865169273,0.06427617576490574,0.006686621985863894,0.0012236999467177942,10659.189551701307
1678323534556999818,194,1677825034890496969,camera_1,197,0,0.11368468632821387,-0.33173123473075944,2.6408844993798435,0.7038434353224087,0.706314970042345,0.03367814421880785,0.06774484666458855,0.004547352727968246,0.0008322283595223015,10660.752089198912
1678323534561387837,195,1677825034896349191,camera_1,198,0,0.11370260015654286,-0.3317727005342525,2.640824450694183,0.7038727592947067,0.7062128272688961,0.03490520058178181,0.06788378522205238,0.003396115789655596,0.0006215551872633809,10659.328924388861
1678323534568329511,196,1677825034903126478,camera_1,199,0,0.11373059616016161,-0.33168402511280076,2.640057557395182,0.7038681379459806,0.7061183077799704,0.034351459976479225,0.06918494778413307,0.003169419476762414,0.0005799047906137551,10662.761355633262
1678323534577154789,197,1677825034910499572,camera_1,200,0,0.11375086001283803,-0.33172089176226655,2.64039246163947,0.7040540005899686,0.7062455480088639,0.03474185184032232,0.0657129660084319,0.00415496074128896,0.0007598384181122079,10668.52353097382
1678323534582304840,198,1677825034917077779,camera_1,201,0,0.11382301239364548,-0.3318808865663973,2.6419039820558656,0.7040571378057943,0.7062420144181006,0.033617512057240624,0.0662995223094224,0.003503789252135903,0.0006415233708542401,10656.257913698675
1678323534589670028,199,1677825034923938274,camera_1,202,0,0.11370265461070811,-0.33165983365990204,2.640162327254813,0.7038659805582852,0.7062918942802313,0.03471273547347626,0.06722698478077767,0.002200111746788025,0.0004024083123385196,10666.618690301546
1678323534595938787,200,1677825034930506706,camera_1,203,0,0.11373456680544505,-0.331823406637706,2.641507971033201,0.7040743772511442,0.7062439657046781,0.03335927655324171,0.06622605885893722,0.004086848173756152,0.000748014180802899,10659.96107619151
1678323534601420093,201,1677825034936291694,camera_1,204,0,0.11366224575869738,-0.3316987808094963,2.640434412825497,0.7038729619391038,0.7063514196752618,0.03461466068462676,0.06657590134202923,0.0030875058146193624,0.0005647185754789325,10666.213265242288
1678323534608398922,202,1677825034943076372,camera_1,205,0,0.11376671538440954,-0.3319122377920194,2.642341388284757,0.7041550587241161,0.7064218383754394,0.028520007855883156,0.06573012012313348,0.008080620900727808,0.001479638961502846,10659.711719778012
1678323534616831066,203,1677825034950578927,camera_1,206,0,0.11369826973859987,-0.3317158135150737,2.640670769619165,0.7039401257699003,0.706411965130101,0.033748392315733323,0.06566186768733659,0.007275325478985906,0.0013306361147557499,10667.670033357805
1678323534622401070,204,1677825034957170009,camera_1,207,0,0.11371574878273706,-0.3317194536836525,2.6407131814574765,0.7039089286626279,0.706295615419116,0.03318654019423786,0.06750835014055567,0.004974343697540462,0.000910218094193955,10663.307652567048
1678323534631315254,205,1677825034963759183,camera_1,208,0,0.1136589126021387,-0.3315736706889466,2.6392059000997445,0.7038218792967393,0.7062510734593533,0.0364623316793068,0.06719138210533718,0.005382216942962259,0.0009836135573508575,10672.16040625644
1678323534634585055,206,1677825034969747304,camera_1,209,0,0.11368084541430196,-0.33163553268959295,2.6397983859442036,0.7039136157174544,0.7061587966157352,0.03688836905492381,0.06696733381481473,0.0031644537230022256,0.0005785849548917037,10667.401825492965
1678323534642477819,207,1677825034976616382,camera_1,210,0,0.11371054797474316,-0.33171477522391735,2.640577798272867,0.7039449695317473,0.7063285679732151,0.032517428337286096,0.06711222534072414,0.005204763438086957,0.0009522077151750347,10666.18104686088
1678323534649556171,208,1677825034983732461,camera_1,211,0,0.11376653631450591,-0.3318677561261916,2.6416786202469664,0.7039161145462088,0.706297496037236,0.03570867075164804,0.06611234080600925,0.0026865600957535207,0.0004917745596664329,10655.954070650045
1678323534655154600,209,1677825034989924907,camera_1,212,0,0.11370209227789665,-0.3317360123709045,2.640721217142341,0.7040255919215828,0.7061558260780401,0.0350352800828635,0.06681649770095144,0.0024534271215088665,0.0004488584061578276,10662.755437282263
1678323534661592653,210,1677825034996572017,camera_1,213,0,0.11375609501788256,-0.3319090867626157,2.6422273702258345,0.7041196636135596,0.7062841863287407,0.03349215026371464,0.06524127010864478,0.003772341297008097,0.0006906749088932787,10656.475874980566
1678323534670503485,211,1677825035003214836,camera_1,214,0,0.11372361319399131,-0.331790568479727,2.641422590252109,0.7040830065934026,0.7062846915755324,0.03258680651258936,0.06608444835027914,0.003414947830606252,0.0006250112351122513,10661.928222855204
1678323534674756572,212,1677825035009919881,camera_1,215,0,0.11370009727294933,-0.33169459629278264,2.6403153540183877,0.7038079180997334,0.7062478082824676,0.03562295595260814,0.0678192651503119,0.0038665124448016286,0.000707351443443837,10662.701150066912
1678323534681781916,213,1677825035016564369,camera_1,216,0,0.11375742997623195,-0.33179472083326456,2.6412332675161796,0.703960241926209,0.7061303874774985,0.035110210412625464,0.06772833079924931,0.003550402063410729,0.0006499811164095579,10656.199778720036
1678323534688463224,214,1677825035023276329,camera_1,217,0,0.11371170345696316,-0.3316450628786015,2.639880506753072,0.7039058252777501,0.7062293541366396,0.03465610938544439,0.0674955004282401,0.007626964128576217,0.0013946209947079042,10668.246959297452
1678323534698337089,215,1677825035029927730,camera_1,218,0,0.11370740666124733,-0.3316911884081377,2.64014558560903,0.7039028159935147,0.7060375010072321,0.03675151104460031,0.0684192899977915,0.003252432041335851,0.0005950331883153871,10661.016982762376
1678323534702472285,216,1677825035037101984,camera_1,219,0,0.11369167917144106,-0.33167749785278827,2.6402867689006038,0.7037827034214377,0.7062939822501103,0.03543293194376006,0.06769951503491446,0.0034753383370116353,0.0006357491301344851,10663.496594786524
1678323534709406487,217,1677825035043729066,camera_1,220,0,0.11368762106232842,-0.33166801216117736,2.6401304960471816,0.7040170303820056,0.7060883573504811,0.03376418173826974,0.06825857145990283,0.0029610662604682148,0.0005416771778181801,10665.352040034139
1678323534714494589,218,1677825035049594640,camera_1,221,0,0.11367137713015638,-0.33165864060569045,2.6401782415585084,0.7039254194968165,0.7062557995393937,0.03205014137499419,0.06829742192092977,0.003952760132960975,0.0007231115557135955,10666.877319742227
1678323534722310669,219,1677825035056460380,camera_1,222,0,0.11371218391990523,-0.33176661140754504,2.6411122923306385,0.704040480485138,0.7061752866837269,0.03466603180079127,0.06664632438926192,0.005218663194682449,0.0009549795803262243,10660.516861925953
1678323534729436024,220,1677825035063745260,camera_1,223,0,0.11374176502572125,-0.3318354259858063,2.641496004985607,0.7041015020043273,0.7062086722093615,0.03356809615501552,0.06620852733650451,0.0037740725674666464,0.0006908107171448229,10659.843842025966
1678323534736172646,221,1677825035070535659,camera_1,224,0,0.11366988629226259,-0.3316417065116513,2.640028672761989,0.7040109822791529,0.7060272313496716,0.034580206958827055,0.06854410776824148,0.004111080546863377,0.0007520493309871516,10664.451538035879
1678323534742339717,222,1677825035077146768,camera_1,225,0,0.11371788392833498,-0.3318127187476426,2.641154867588443,0.7040912431590464,0.7061331319278625,0.033237128983697795,0.06728160638256006,0.004101029073353857,0.0007506233152721337,10660.238627300012
1678323534749595255,223,1677825035083746671,camera_1,226,0,0.11369167335548701,-0.3316932392268704,2.640589221885644,0.7039113418572274,0.7059857405271173,0.035659004744624474,0.06943624671422353,0.002578220854047686,0.0004719682785564244,10656.242155512797
1678323534754498769,224,1677825035089646100,camera_1,227,0,0.11371577293731819,-0.3318084467017381,2.6413143954960403,0.7039537492543053,0.7062021827746439,0.032658805613474874,0.06827150482475483,0.004452223074622452,0.000815143519281387,10657.086439613366
1678323534762520739,225,1677825035096402168,camera_1,228,0,0.11369606215915251,-0.3317530622392308,2.640802396012216,0.703882991192553,0.7062639008411344,0.03487705626114281,0.06725792165273625,0.0017004915280267596,0.00031116778150664634,10661.168261038838
1678323534769661878,226,1677825035103788137,camera_1,229,0,0.11370617171062067,-0.3317278094714267,2.640602305179908,0.7039368682467276,0.7063246299502286,0.03496718623501942,0.06599771613826873,0.004336079640779644,0.0007930446258617404,10665.862996301847
1678323534776281517,227,1677825035110538482,camera_1,230,0,0.11369595019058261,-0.3316161201375583,2.639581399989509,0.7038704339262432,0.7062244840604308,0.0352162784592861,0.06762546923710382,0.0033973765675909817,0.0006211867657971013,10669.620777102886
1678323534782644700,228,1677825035117165327,camera_1,231,0,0.11375314277599523,-0.3317046275793187,2.6401842389089083,0.7039924386288596,0.7062558547212029,0.0323554680711989,0.06745693227021424,0.0034345315070822835,0.000628178446151038,10668.598498041974
1678323534790026720,229,1677825035123746395,camera_1,232,0,0.11378814921516842,-0.331847294078732,2.641378436478203,0.704041938066714,0.7063006643985865,0.03416403758383601,0.06555257012010192,0.005954951862804592,0.0010896907604552905,10661.682295838142
1678323534796004872,230,1677825035130510568,camera_1,233,0,0.11368920936469869,-0.3317251871048446,2.6408836699546754,0.7038696132658071,0.7062585914710465,0.03299394957951614,0.06839421602387803,0.005704368639271706,0.0010441194073620072,10659.882167506497
1678323534802924058,231,1677825035137161731,camera_1,234,0,0.11366936108648014,-0.3317420791511338,2.6409637032692883,0.7039576638226658,0.7062506929773184,0.03386211877395304,0.06713362143167366,0.005211102426983416,0.0009536404817215087,10661.470117542658
1678323534807861305,232,1677825035142889976,camera_1,235,0,0.11369368209341585,-0.3317683875812343,2.641206948140628,0.7040081649590982,0.7063812697120373,0.03397253273433913,0.06514501124834812,0.002621783991344273,0.00047964939015462683,10664.375282886667
1678323534816128275,233,1677825035149996757,camera_1,236,0,0.11372470252115897,-0.3317289609403503,2.640738683868174,0.7037795892075337,0.7062923672302481,0.03705184086229654,0.06687707302119797,0.005085676850285381,0.000930427854084687,10659.853800123436
1678323534822949195,234,1677825035157121181,camera_1,237,0,0.11373033505055474,-0.33174296216766447,2.640768260826947,0.7040324700637574,0.7060637964302449,0.036132165973023295,0.06713168438622896,0.006827477889601141,0.0012493318874477071,10660.17400442611
1678323534828503624,235,1677825035162902355,camera_1,238,0,0.1137148046583395,-0.33167803640642624,2.639986301129871,0.7038548645492726,0.7062098943343876,0.035795403893927415,0.0676358178379538,0.0025765469763427973,0.00047121834442073306,10665.574575707202
1678323534835524777,236,1677825035169990301,camera_1,239,0,0.1137319472091629,-0.33169896736733895,2.6401913149012777,0.7039249978506261,0.7062102364928733,0.03477670597012786,0.06743352278758234,0.0034865786437876523,0.0006377105764444591,10665.733421031618
1678323534843060865,237,1677825035177170276,camera_1,240,0,0.11372796549758256,-0.3317456051318084,2.640743518414555,0.703890195198601,0.7062330624615791,0.032753475759249355,0.06856139157793686,0.005472525139339268,0.0010016198194538663,10660.806441303339
1678323534847352504,238,1677825035182896375,camera_1,241,0,0.11372401446719718,-0.33182984975228513,2.6415088477349915,0.7040238798281498,0.7063156607090358,0.03394741680554869,0.06569731319549836,0.004253904975485057,0.0007785192419573333,10660.577710372629
1678323534854788860,239,1677825035189406871,camera_1,242,0,0.11367922709065352,-0.33171266246140046,2.6405263109942982,0.7039113059247678,0.7061747443720027,0.03727202535366695,0.06661005876337461,0.004426198138389736,0.0008095973356677104,10661.94527874747
1678323534864368137,240,1677825035197112321,camera_1,243,0,0.11373032231010033,-0.33182059684204646,2.641607092743373,0.7041027561648342,0.7063320924463425,0.031907382886799326,0.06569781471838083,0.0029265411430969834,0.0005356313381506102,10662.17096034263
1678323534869724358,241,1677825035203797817,camera_1,244,0,0.11371403422085828,-0.33172415195026567,2.640650062917865,0.7040054778170427,0.7062941555591555,0.033331145616984,0.0664370962522916,0.004667988221626729,0.0008538698764275813,10666.365691981511
1678323534875758383,242,1677825035210479021,camera_1,245,0,0.11374880266683635,-0.33170362153212807,2.640159858361801,0.7039022249662817,0.7061660624825524,0.03394760329640482,0.06854713791133772,0.00328591390280053,0.0006011892221240252,10664.100378496461
1678323534882695308,243,1677825035217265844,camera_1,246,0,0.11380225360577213,-0.331839917697676,2.6414275549100314,0.703923492146852,0.7062441026439317,0.034674153508566924,0.06714676286250133,0.0022656777291558683,0.0004147824395110423,10656.643964499235
1678323534888312454,244,1677825035223191499,camera_1,247,0,0.11376660936982183,-0.3317746005352201,2.6407988881844573,0.704175553294259,0.7061393061957545,0.03397507805701517,0.06595274413640859,0.00278171815443784,0.000508851440057103,10665.57621858548
1678323534895590969,245,1677825035229886770,camera_1,248,0,0.11365616955690573,-0.33158110100385874,2.639430855135775,0.7038444644738683,0.7061207103648067,0.03714515109532094,0.06794667006925352,0.0039930533384904265,0.0007300458467685279,10667.511602616873
1678323534901925309,246,1677825035236518383,camera_1,249,0,0.11366249655297683,-0.33170025743629555,2.64062699481508,0.7039840854305344,0.7061655810409424,0.03428946382080837,0.06753378624454387,0.0026076166541315615,0.0004771259187110022,10662.633018477587
1678323534910766859,247,1677825035243291378,camera_1,250,0,0.11366034314824508,-0.3317209824723517,2.6406642239981473,0.703908476231704,0.7061202156141245,0.03643502109596248,0.06767264903903016,0.0028944219811819494,0.0005296498689004099,10659.244240322263
1678323534914945287,248,1677825035249891042,camera_1,251,0,0.1136134977383178,-0.33156582555256164,2.639349485426663,0.7037920741303386,0.7059525854465291,0.038170751449744335,0.06964665983691426,0.005911086744163185,0.001081040265563256,10662.302223189039
1678323534922307192,249,1677825035256554603,camera_1,252,0,0.11374424044893884,-0.3318012400897823,2.64102966364988,0.7038690899672265,0.7063024832339095,0.03429088114798566,0.06729964217152885,0.0031984401284717023,0.0005853721544425263,10659.927965403076
1678323534927934675,250,1677825035263068437,camera_1,253,0,0.11364720465637403,-0.3315634222933144,2.6394260865096504,0.7039770911563823,0.7059876029852595,0.03584086769262511,0.06865268939499827,0.0033984823967330158,0.0006214463974418388,10667.439664804026
1678323534935541022,251,1677825035269887208,camera_1,254,0,0.11366686082778012,-0.33160658891577394,2.6395693397980007,0.7038263222218729,0.7061292030323241,0.03578287194620764,0.06877239888100903,0.0011569199268706143,0.00021158566481702945,10666.014355747726
1678323534942381218,252,1677825035277042627,camera_1,255,0,0.11374681992615092,-0.33181426962056787,2.6412739817746935,0.7038555524584256,0.7062837455261224,0.03489563683498318,0.0673270124758052,0.002957414137199521,0.0005413617650242887,10657.161007894782
1678323534949459082,253,1677825035283699512,camera_1,256,0,0.11380040184225385,-0.3319023673941032,2.6420639039092966,0.7042615680586232,0.7061951982885835,0.0321280186029796,0.0653588256504384,0.003394783940166235,0.0006214772253109235,10659.050188281108
1678323534956097019,254,1677825035290376901,camera_1,257,0,0.11373507651454606,-0.3318567383659524,2.6417889949848337,0.7042984907655768,0.7060810458900645,0.032820819663901685,0.06584820678433945,0.0030763757531531155,0.0005631356858389484,10659.276188180893
1678323534963220348,255,1677825035297504425,camera_1,258,0,0.11368803704286308,-0.33171500432200696,2.6405685002390915,0.7038335972405645,0.7061800174017306,0.03678551759952463,0.06763783048585724,0.005357570247724652,0.0009803203883368278,10659.634287575493
1678323534969044851,256,1677825035303963899,camera_1,259,0,0.11367999438211547,-0.3317085314958533,2.640544713179288,0.7038266248352301,0.706240052468481,0.03469104057282319,0.06818799136461245,0.00660499488003552,0.0012086179538944824,10661.089778879073
1678323534975164780,257,1677825035309730768,camera_1,260,0,0.11372435606522124,-0.33174430679591266,2.640752878140221,0.7041182459389475,0.7061842553654598,0.03573579155130667,0.06514788110132423,0.0037251199246384203,0.000681260373507377,10665.792699413496
1678323534982114765,258,1677825035316989421,camera_1,261,0,0.11380781396482176,-0.33191688323229024,2.6420390815612964,0.7041384421952263,0.7061610887246416,0.03368859393331666,0.06626197727886732,0.002443752659019083,0.00044746210415919557,10655.162094258587
1678323534988932123,259,1677825035323693037,camera_1,262,0,0.11372109395134336,-0.3317124900609386,2.6401225967274855,0.7039286375864673,0.7061043155812436,0.036998199742251964,0.0673223730942115,0.003030322666745633,0.0005542113508500722,10663.687072675908
1678323534995696053,260,1677825035330392837,camera_1,263,0,0.11378075408845117,-0.33181480597636304,2.6411936981922453,0.7038090125717659,0.7063822809541269,0.033551955833632185,0.06746268032430232,0.007738468644674867,0.0014164424014425315,10659.079561139455
1678323535001021125,261,1677825035336114168,camera_1,264,0,0.11367390546600681,-0.33166373175212005,2.640267062370256,0.7039592956003194,0.7063586478774104,0.033662645991207475,0.06607266432927654,0.005542508792132139,0.0010134781581807297,10669.999839709373
1678323535010287166,262,1677825035343665838,camera_1,265,0,0.11365266353961714,-0.3316766035017319,2.6402878475238225,0.703924605059074,0.7060589431324156,0.03488220915696147,0.06895034952408322,0.004961714614182711,0.0009079691401215027,10660.928535807177
1678323535016153713,263,1677825035350376844,camera_1,266,0,0.11369496264659677,-0.33177219024007737,2.641053814016236,0.7040158180849214,0.7062118882991933,0.032814105258536536,0.06745169536185598,0.0030777899082750078,0.0005633241744276131,10661.13932249357
1678323535022127046,264,1677825035357006788,camera_1,267,0,0.11368405652507632,-0.3317526297221939,2.640907877355882,0.7039681045046796,0.7061771120278986,0.03432824379975559,0.06756009151599687,0.0031645121634937823,0.0005791608067837136,10660.238269468071
1678323535028230842,265,1677825035363012313,camera_1,268,0,0.11366939141046037,-0.3316168330613948,2.6398782201317426,0.7038978750316419,0.7062321791223161,0.033257211240260855,0.06824843293882009,0.0070223689544945955,0.0012843615299768646,10668.040597206687
1678323535035776359,266,1677825035369699478,camera_1,269,0,0.11371085219366905,-0.33169454987947233,2.6403544944349684,0.70403173646758,0.7060570466812998,0.03422452295272738,0.06820148757016437,0.003259588615037501,0.0005963991687142571,10663.139088599593
1678323535042575418,267,1677825035377024412,camera_1,270,0,0.11382810663800516,-0.33195832221253296,2.6424018450930284,0.7040949605279487,0.7063049020267375,0.03502017454232408,0.06447681216664208,0.004764882731251419,0.0008723631777632382,10655.052629461507
1678323535048805905,268,1677825035383746147,camera_1,271,0,0.11376266208426043,-0.3318047326739561,2.641140916396187,0.7040544565182959,0.7061212568429408,0.03481288853023691,0.0669936988339488,0.005925067875068634,0.0010843811642686609,10659.178845447019
1678323535055966040,269,1677825035390368700,camera_1,272,0,0.11368583843099841,-0.3317323573355355,2.640593725006646,0.703970722491521,0.7062215666149372,0.0354719608717569,0.06646849415040465,0.004469730833079666,0.0008175441600077032,10664.104571399392
1678323535063667092,270,1677825035397015571,camera_1,273,0,0.11370258087623479,-0.33174600508826463,2.6410713916752786,0.7039697751858804,0.7062107731525271,0.03566558200956149,0.06648959142580255,0.0031303431605920196,0.0005728067592133831,10660.001101324222
1678323535067730981,271,1677825035402904510,camera_1,274,0,0.11367575489065178,-0.33167715110277424,2.6404804558184223,0.7038447540728129,0.7062650112321238,0.03352129063721102,0.06832729430824143,0.004018646781332791,0.0007353165228375464,10662.678675393692
1678323535075179629,272,1677825035409975528,camera_1,275,0,0.1137147108348798,-0.3316829313725256,2.6404117325322964,0.704120872366702,0.7061157925463314,0.03276592023003521,0.0673845611820684,0.005161268752999604,0.0009441551761691862,10666.539086652101
1678323535085788078,273,1677825035417053222,camera_1,276,0,0.11370279431061575,-0.3315975287711367,2.639476621508828,0.7037731476290926,0.7062199289643508,0.03626248308077309,0.06813076346734503,0.0035996236256323755,0.0006581596613204711,10667.812625797347
1678323535088995092,274,1677825035423679590,camera_1,277,0,0.11369463748795726,-0.3316082971661284,2.6393831547640367,0.7038779169100928,0.7060429310309915,0.036848868119420446,0.06856689103198896,0.004256104642990977,0.0007782166217650448,10666.63275023131
1678323535095978391,275,1677825035430486440,camera_1,278,0,0.11380016255723543,-0.3318873307840065,2.6418441028597694,0.7040983573829034,0.7063340966999461,0.03341884563141776,0.06496789766055244,0.0033941580913960934,0.0006212051753520624,10660.284941323573
1678323535102152097,276,1677825035437006950,camera_1,279,0,0.11368547040544719,-0.3317028638033551,2.6405403295721612,0.7038841198721744,0.70623558039605,0.03389855887325532,0.06803924221172247,0.003733278950676322,0.0006831301005624529,10662.481329245958
1678323535110260460,277,1677825035443045377,camera_1,280,0,0.11366092842017757,-0.3317986703693105,2.641328827916641,0.704036796114329,0.7064251318628175,0.035183332502822795,0.06370130221327844,0.0024595543509349227,0.00044985104192981734,10665.41748386878
1678323535114870364,278,1677825035449673652,camera_1,281,0,0.11367708540390457,-0.3317614045469024,2.641213628741715,0.7039420699800975,0.7065590473441414,0.031148108077405198,0.06534271261183788,0.005789381102658809,0.0010592073124888076,10667.084654459151
1678323535122675897,279,1677825035457026004,camera_1,282,0,0.11373160486722292,-0.33184462505683754,2.6417460240460184,0.7038797443757145,0.7064095146709284,0.03219618027242966,0.06709924750567335,0.004994509858079255,0.000914489715586437,10657.184923656632
1678323535130798507,280,1677825035463811874,camera_1,283,0,0.11365067039964279,-0.3315726465149432,2.639443323527607,0.7036775007547091,0.7061098486511218,0.035675605318804635,0.070527354655007,0.003981645742896944,0.0007284012720217713,10662.504995052004
1678323535136059745,281,1677825035470443964,camera_1,284,0,0.11379720738288343,-0.3318280997676658,2.641254642960314,0.7039542382198575,0.7062458014638681,0.0350191329733685,0.06662551112563776,0.004825667187105864,0.0008831528345539339,10658.924992395796
1678323535141178857,282,1677825035476294517,camera_1,285,0,0.11373113678192603,-0.33172823747922353,2.6402946867858215,0.7038387671237601,0.7061503550140058,0.03695711532314398,0.06779998255376554,0.007709439087193459,0.0014103047046893028,10661.134929535916
1678323535148710615,283,1677825035483033418,camera_1,286,0,0.11374580601097548,-0.3317723701172434,2.640753737199544,0.703849843196668,0.7062157338273723,0.037400143512327434,0.06675301335482142,0.0029197119874879718,0.0005341624413729889,10659.532815195736
1678323535156136425,284,1677825035490359306,camera_1,287,0,0.11372549170085156,-0.33181854231244007,2.6413625675638546,0.7039152937457589,0.7062395813973761,0.03600080244134369,0.06657969001174768,0.0021271876175887883,0.0003893335520310001,10656.957438200716
1678323535162660382,285,1677825035497017621,camera_1,288,0,0.11363666511073711,-0.3317171623933179,2.6407640136954695,0.7039944170803153,0.7062800337935711,0.033113068302802924,0.06681241869497723,0.002994578506331891,0.0005479119380850833,10664.79281166487
1678323535168827383,286,1677825035503709554,camera_1,289,0,0.11371453881143778,-0.3318204551942094,2.64178564164743,0.7040531432289707,0.706357020610302,0.03180890590673068,0.0660085180030625,0.006336647435091436,0.0011600715801133282,10660.097220172644
1678323535175712277,287,1677825035510363340,camera_1,290,0,0.11371626349097953,-0.3316773496199462,2.6404025295543523,0.7041185496780128,0.7060998969697988,0.03236280645367126,0.06776910990276899,0.003976750711444765,0.0007275372099108887,10666.086283212993
1678323535180923508,288,1677825035516306400,camera_1,291,0,0.11372967046368963,-0.331730534356641,2.6406217283963778,0.7039412242953295,0.7061908078063727,0.034830288567204645,0.06743994888566303,0.0028189157019369304,0.0005157582305350073,10662.2040870632
1678323535188661855,289,1677825035523036956,camera_1,292,0,0.11373247677791258,-0.33175270025616893,2.6408883611834244,0.7041041913890244,0.7060976495843568,0.03429943705720546,0.06698466643504263,0.00157724239397794,0.0002886252758777341,10661.889767186254
1678323535196721050,290,1677825035530386924,camera_1,293,0,0.1137755705271721,-0.33185628815738427,2.6414518406101166,0.7038777434195715,0.7063738246290239,0.03561340358361384,0.0657558186225957,0.0053251347853802145,0.0009745030525105491,10658.780132640037
1678323535202892591,291,1677825035537023782,camera_1,294,0,0.11365504405504058,-0.3315959636310721,2.6395299040279308,0.7038341890421371,0.7060317435800552,0.037066193158089254,0.06901238089989113,0.004258357104845345,0.0007787787389616529,10664.023410668946
1678323535208659894,292,1677825035543740272,camera_1,295,0,0.1137000006637911,-0.33175727185397796,2.6409595649773165,0.703862264109926,0.7061933834848033,0.03415407648655847,0.06857344488710303,0.004152596928179264,0.0007601802315525528,10657.398333784666
1678323535218840080,293,1677825035550420522,camera_1,296,0,0.11365889445557055,-0.331764484004885,2.6411621320733,0.7039976581432855,0.7062536049902637,0.033559888889994435,0.06683469626412424,0.007064333593007177,0.0012929685644416477,10661.006101718176
1678323535222107646,294,1677825035556342601,camera_1,297,0,0.1137171119973806,-0.3318102190820088,2.6415029724970376,0.7041970125392392,0.7061447777506173,0.03348233785052397,0.06591701933799424,0.0032310205278918147,0.0005913129244568344,10660.642872144817
1678323535229579760,295,1677825035563626527,camera_1,298,0,0.11364997173357771,-0.3316149163241755,2.63981886521466,0.7039929916377807,0.7061507590044092,0.033440223049578936,0.06802003208451723,0.005241771345026791,0.0009585972680906511,10668.894244670862
1678323535236170415,296,1677825035570414543,camera_1,299,0,0.11365295769599329,-0.33165922942664516,2.639942505340457,0.7039085908615641,0.7060436768975175,0.03613724331843175,0.06862304037031293,0.003352117259055376,0.0006132124474833356,10662.944993642162
1678323535241835681,297,1677825035576356649,camera_1,300,0,0.11372183569555307,-0.33174005449986643,2.6405982113474127,0.7038719173852631,0.7062380257822457,0.03533724978547348,0.06740514545039178,0.004948027548380196,0.0009052996877980683,10661.842190957861
1678323535249031226,298,1677825035583664894,camera_1,301,0,0.11377815729834738,-0.33181360316512637,2.6411194266904467,0.7038097877081787,0.7065311315624881,0.03411837398967843,0.0655856647103549,0.0059061916545033455,0.001080534897226146,10663.74341859598
1678323535256001326,299,1677825035590401887,camera_1,302,0,0.11379107258146458,-0.33184668813548124,2.6413019508059286,0.7038199182754293,0.7063830581210357,0.035940874395585166,0.06609653081684372,0.0022894417634233832,0.00041898730545765744,10658.699814304251
1678323535262615028,300,1677825035597009420,camera_1,303,0,0.11364353433932674,-0.3315430872919197,2.6390987228602314,0.7038025542482572,0.7060932199005213,0.03577351275090557,0.06938721229163024,0.005077555717434734,0.0009284143884759058,10668.207598314617
1678323535269942153,301,1677825035603729724,camera_1,304,0,0.11366989355745291,-0.33169980650109787,2.640371544785781,0.7039148535569918,0.7061388068128941,0.032676240451658775,0.06931181547648534,0.005746909126173705,0.0010517293645394058,10661.923925620504
1678323535275712250,302,1677825035610400676,camera_1,305,0,0.11367078955408613,-0.33168521328265654,2.640635022314625,0.7040529266534642,0.7062375224163366,0.033797978090637365,0.06630033996074869,0.00405393575783819,0.0007415497071448622,10666.322443228799
1678323535282480509,303,1677825035617014169,camera_1,306,0,0.11369613934498272,-0.3317780298790609,2.6412466226222784,0.7039507151534721,0.7062933226598358,0.03438281924109588,0.06649026050541776,0.002465293335262686,0.0004511628572737064,10660.184813099564
1678323535290889955,304,1677825035623694896,camera_1,307,0,0.113714396140218,-0.3317590353940142,2.640852855135799,0.7039231425323804,0.706280532766772,0.03412226843702719,0.06704990110905629,0.002733460976742208,0.0005001733519076929,10662.219687333913
1678323535295945442,305,1677825035630375146,camera_1,308,0,0.11381030312895235,-0.331856684319511,2.6413347231468234,0.7040391391323112,0.706132113820908,0.03397631397330372,0.0674680553257469,0.0052084276103414595,0.0009534361902331512,10657.387778538283
1678323535302632477,306,1677825035637262821,camera_1,309,0,0.11371654641062916,-0.33165634828140134,2.639699841884907,0.7037043346949282,0.7060468569145325,0.036658844521580684,0.07038589554037634,0.0037531479028984904,0.0006867519780626451,10659.480287931628
1678323535309350871,307,1677825035643690347,camera_1,310,0,0.11368205163904896,-0.3316172471899648,2.6396847546869266,0.7036468142481631,0.7061629980160385,0.03637274907691551,0.06994286351014907,0.0056747543858364224,0.0010382219008531366,10661.21695224219
1678323535315658881,308,1677825035650347948,camera_1,311,0,0.11367411100956246,-0.3317153456003051,2.640834728235818,0.7041577149857579,0.7061428671577344,0.03416289051819858,0.066008033599949,0.0041510434239171445,0.0007593555015984652,10665.002023314359
1678323535322918609,309,1677825035657071828,camera_1,312,0,0.11370286540379476,-0.331825873813646,2.641422232582859,0.7039364654553495,0.7063131275054415,0.03304942115251931,0.06710405559424307,0.005847239983268082,0.0010703459582337284,10658.783612427305
1678323535329651110,310,1677825035663634061,camera_1,313,0,0.1136032249358813,-0.33160383039903846,2.6398689060261495,0.7038455292509741,0.7061668680434475,0.035318928860982035,0.06842805488421842,0.002925398002844304,0.0005350989008560876,10665.154012591232
1678323535335511092,311,1677825035669648408,camera_1,314,0,0.11368767276553818,-0.3316612119492192,2.6401087041718343,0.7037583480271975,0.7061814484330193,0.033930317411199604,0.06986188539860658,0.005578316457103938,0.001020852219326252,10661.099324426152
1678323535342592099,312,1677825035676990509,camera_1,315,0,0.1137123429760994,-0.33167407994306325,2.640019469058488,0.7038407373778165,0.7061727577906709,0.03663917067387487,0.06771871036944542,0.0066450092708691955,0.0012152724802023031,10664.002798540285
1678323535349834437,313,1677825035683659791,camera_1,316,0,0.11379974779672339,-0.33181675066085137,2.641228945196634,0.7038644588146156,0.7063817837767123,0.036634275240703555,0.06524974362881905,0.006802050571423024,0.0012444324472302092,10660.514896178265
1678323535355567378,314,1677825035690332174,camera_1,317,0,0.11372151136800954,-0.33170584255717794,2.640383362752292,0.7040010471875406,0.7061694972978492,0.03571094388784265,0.06657248028719287,0.005019504984375089,0.0009180278866607149,10665.227209834618
1678323535362695876,315,1677825035696966171,camera_1,318,0,0.11371166225982571,-0.33169923162419523,2.640307175904975,0.7037705208619922,0.7064248599306123,0.03605103598818159,0.06611576243101233,0.005484132387209684,0.0010028088545214807,10666.555769691593
1678323535368502989,316,1677825035703012466,camera_1,319,0,0.1137070321324928,-0.3317921483421647,2.641296723087395,0.7041236519979234,0.7060979107123024,0.03388606288941969,0.06698774460065963,0.003225910884793848,0.0005904407397583812,10659.109149967087
1678323535376191749,317,1677825035709858894,camera_1,320,0,0.11364519026280953,-0.33170454185716847,2.6407768277313197,0.703899268896472,0.7063469375863533,0.03224476501929685,0.0675284987116048,0.006002042267937213,0.0010982983051465855,10663.867605576987
1678323535382117590,318,1677825035716956615,camera_1,321,0,0.11370614654661618,-0.3317305655741296,2.640875641253224,0.7040262713436081,0.706348419596546,0.03511874289400408,0.06469616131597775,0.00453056552214548,0.0008285340858564336,10666.731381590947
1678323535388700912,319,1677825035723027944,camera_1,322,0,0.11368058783395667,-0.33159248459355367,2.6395189921791244,0.7039083579192285,0.7060856177071405,0.03587205713792321,0.06833242008940331,0.0028343070880509913,0.000518252901191601,10667.461852222683
1678323535395571209,320,1677825035730298519,camera_1,323,0,0.11377704222876939,-0.3318116655895005,2.641165946300466,0.7038645879733433,0.7064926162839815,0.03588873340216361,0.06445792230687326,0.003139260516036302,0.0005742012747815316,10663.941215224912
1678323535402886740,321,1677825035736937999,camera_1,324,0,0.1136798424472975,-0.3316468386305181,2.639755285090985,0.7038956875992707,0.7061948446685392,0.03566171259499043,0.06743845043830826,0.0031446065986528993,0.0005749857546595052,10668.127798734702
1678323535408681770,322,1677825035743620872,camera_1,325,0,0.1138475689751707,-0.3319889889432954,2.6427853218903548,0.7040609419555641,0.7065989494999699,0.03213866657913449,0.06311276169443027,0.003411709680221975,0.0006245928898934906,10658.692763303872
1678323535416243071,323,1677825035750428915,camera_1,326,0,0.11362264946717048,-0.33160738423414815,2.640024883198021,0.7039202668142686,0.7062397328400106,0.03499635873312321,0.06705932151179203,0.006352858152240515,0.0011617938060690912,10667.857683152195
1678323535423097444,324,1677825035757591724,camera_1,327,0,0.11375874313982275,-0.33191941399110486,2.6423470793231987,0.7041574015885922,0.7062805895553274,0.03497620898901709,0.064083909135897,0.004738321586046368,0.0008673566612175944,10656.545753826385
1678323535428317406,325,1677825035763080120,camera_1,328,0,0.11368016038130803,-0.33176322659319596,2.64112626032136,0.7041216880470309,0.7061434235191524,0.03557860101279145,0.065637466377241,0.006092845113016665,0.001114644060982283,10661.805547222375
1678323535435009958,326,1677825035769843101,camera_1,329,0,0.11374881434038343,-0.33177903002472364,2.6409797584867567,0.7040211127228965,0.7064051577947557,0.03397581351291515,0.06474310756765463,0.0015950686647556722,0.00029174025870678995,10667.141692884614
1678323535442572516,327,1677825035777068376,camera_1,330,0,0.11368434015743153,-0.331578874271196,2.639257785451741,0.703663336953829,0.7062565416458806,0.03595518637258767,0.06904223477202365,0.008078463026322424,0.0014772099035100226,10667.58722480899
1678323535449064626,328,1677825035783717870,camera_1,331,0,0.11377592374274936,-0.33186565161138637,2.6413382327151007,0.7039225512174945,0.7062503454299466,0.036945333268983506,0.06586754752667684,0.002410203276667744,0.000441081264785367,10657.653991756382
1678323535456358506,329,1677825035790408372,camera_1,332,0,0.11375823798585187,-0.3318399345250942,2.641659151684842,0.7041578427422789,0.706180111761637,0.03478501741865755,0.06527928323783803,0.001433424069546163,0.00026234295952914016,10659.378331693359
1678323535462211015,330,1677825035797030210,camera_1,333,0,0.1136895412501612,-0.33175701076487174,2.640834839537661,0.704040169834,0.7061376670654103,0.03419819505346128,0.06728683278783135,0.0005065718432888389,9.270184479896392e-05,10661.668353686575
1678323535469154156,331,1677825035803778648,camera_1,334,0,0.11367703870107895,-0.3316964355123559,2.6406055382897797,0.7040571723358926,0.706195631199071,0.03421726473548282,0.06648614405840318,0.008530514198355377,0.0015603467133295734,10665.569711825457
1678323535476309124,332,1677825035810540437,camera_1,335,0,0.11368547581155891,-0.3317747892900229,2.64119163686016,0.7039436251808595,0.7062327325282878,0.03439367847997606,0.0671995160211259,0.00202710967278108,0.0003710457896021839,10658.811769501188
1678323535482372342,333,1677825035817027568,camera_1,336,0,0.11371743662061934,-0.3317903657675512,2.641334255769697,0.7040530343383538,0.7062704079883416,0.034903390150916355,0.06536963358403856,0.0027794393245130777,0.0005085476122666674,10661.638028204441
1678323535489324003,334,1677825035823714494,camera_1,337,0,0.1136793654237381,-0.3316154213189839,2.639968522443797,0.7039008600636136,0.706160286440475,0.03489587784861092,0.06814328114484958,0.003019448195118457,0.0005522722559980727,10665.605147857215
1678323535496226078,335,1677825035830425262,camera_1,338,0,0.11382657048075863,-0.3319078720786246,2.6421397192500855,0.7041568946128847,0.7062701133138211,0.03114669856509344,0.06614739584682494,0.0025986432447098196,0.000475845995674855,10657.552343290536
1678323535501081611,336,1677825035836252689,camera_1,339,0,0.1137194519255071,-0.3316518740248759,2.640000250174489,0.7038966115511454,0.7063110891596224,0.03533178152307293,0.06637673381065015,0.005652749561704695,0.0010334663367820424,10669.29752234137
1678323535509332449,337,1677825035843706846,camera_1,340,0,0.11370292164239965,-0.331650643689034,2.6401820856601006,0.703892113096183,0.7063033097534226,0.03514580550867641,0.06660555613083123,0.003769758273847401,0.0006893742338230374,10667.514220969984
1678323535516149317,338,1677825035850383758,camera_1,341,0,0.11372680829599867,-0.3317970163875007,2.6413766238509533,0.7040169811682132,0.70634838710466,0.035914259932313015,0.06436002015968835,0.002199928800109774,0.0004024420623706144,10662.49631134095
1678323535522827832,339,1677825035857123613,camera_1,342,0,0.11369442350547987,-0.3317593652364758,2.640936017260348,0.7039520743998763,0.7060800606275878,0.0343229331229274,0.06873398863802631,0.002169861865695566,0.00039723766555829906,10656.955426966078
1678323535527859643,340,1677825035862987279,camera_1,343,0,0.11361258100867969,-0.3315133768794323,2.6391270121503205,0.7038628913178578,0.7061740509345796,0.033397671039027556,0.06913635499127944,0.00544093589996919,0.0009947579318948636,10671.614358330262
1678323535535273091,341,1677825035869719266,camera_1,344,0,0.1137081245181558,-0.33174705814290695,2.640806353957866,0.704047274084754,0.7060909008753127,0.03341845154308223,0.06809025371798359,0.0036842210683971643,0.0006742906258288498,10660.763211770802
1678323535542642120,342,1677825035877058506,camera_1,345,0,0.11370448754978285,-0.33174528634039285,2.6409118991520164,0.7040757322017708,0.7061576171807574,0.034589009462067964,0.06650100335008685,0.0020973573555238545,0.00038375112595881667,10662.589819129204
1678323535549423440,343,1677825035883660554,camera_1,346,0,0.11376893016029725,-0.33182165260070845,2.641219256725383,0.7039915351940442,0.7061047608829494,0.03569203300765425,0.06736515281171923,0.002026029513217509,0.0003708710513552314,10656.47812079615
1678323535555737945,344,1677825035890463590,camera_1,347,0,0.11377702482339692,-0.33182708060702715,2.6411083745690944,0.7039611036266592,0.7062352260640142,0.03552005439188498,0.06639951643682472,0.004121195001062006,0.0007541134561476347,10660.030709577492
1678323535562555233,345,1677825035897118568,camera_1,348,0,0.11371115293648262,-0.33162934256241705,2.6397992677478075,0.7038847464709411,0.7061347164015904,0.03467833619724203,0.06868361505173932,0.0026008555432781577,0.0004757196540351017,10665.785505997019
1678323535569290737,346,1677825035903688669,camera_1,349,0,0.1137612467362255,-0.33181364578134354,2.6411774589916823,0.7040150401439994,0.7062880894713187,0.03411527499987081,0.0660008025230058,0.002914940705522895,0.0005333671950901183,10662.247019135393
1678323535575279575,347,1677825035909736394,camera_1,350,0,0.11361021049727152,-0.3315408889939298,2.639378824556004,0.7038460870182937,0.7060830745359681,0.03506579556537098,0.06941014064413885,0.007141495065297931,0.001306021188167038,10666.831142752666
1678323535582115650,348,1677825035916993856,camera_1,351,0,0.1137646053474927,-0.33198916840260234,2.6430083006994405,0.7044089298319637,0.7062530702561778,0.02964333549827906,0.0643112197617681,0.002699580159969628,0.0004944593384676144,10656.734640786422
1678323535589621148,349,1677825035923710823,camera_1,352,0,0.11359736523571168,-0.3315935734653208,2.639910103367736,0.7037494769044855,0.7062177526460284,0.03593360382696725,0.06857066224168049,0.0060879873926751316,0.0011135956630039473,10663.680044727756
1678323535595909812,350,1677825035930354833,camera_1,353,0,0.1136833869631916,-0.3316982290860226,2.640423423128718,0.7039336462300967,0.7060514000426517,0.03644449799204287,0.06812224870863079,0.004788146063219756,0.0008760834226997826,10659.992626158404
1678323535602249669,351,1677825035936368942,camera_1,354,0,0.11371641419651456,-0.3317252748758303,2.640425732600533,0.7038857726985377,0.7062985165073585,0.036155773732495525,0.06618145206847519,0.0032554548233747482,0.0005953530367213049,10665.284731708005
1678323535609031199,352,1677825035943660020,camera_1,355,0,0.11385186949962871,-0.3319346307178046,2.6419755618585277,0.7041332953006461,0.7063649355322521,0.03322822089814114,0.06434878115018958,0.002144676516763866,0.000392524782120942,10660.930973941813
1678323535616423555,353,1677825035950426340,camera_1,356,0,0.11372628624893116,-0.33168697947724013,2.6401794442577295,0.7038133439085158,0.706312400377436,0.03594567500985379,0.06691396309787452,0.004671995411626995,0.0008544279996771228,10665.693569881843
1678323535623879466,354,1677825035957033634,camera_1,357,0,0.11375376999699433,-0.33182080184179197,2.6413282007001593,0.7038795374945476,0.706200033210752,0.03642550608122816,0.06714381800524293,0.0029533259803429246,0.0005405897373118344,10655.23193576443
1678323535628316164,355,1677825035963065385,camera_1,358,0,0.11362856012772606,-0.33167474631031024,2.6404130018360217,0.7039387054703043,0.7063438160811387,0.032899999272497815,0.06683040081127918,0.005323927383869886,0.0009738345578988617,10667.824903768138
1678323535635550122,356,1677825035970426082,camera_1,359,0,0.11360492781884238,-0.33160764121265646,2.639683353449435,0.7038838257392005,0.7062487499937868,0.03374954827845428,0.06797963655360897,0.003570692031644285,0.0006529409368762182,10669.725255998086
1678323535642856783,357,1677825035977079868,camera_1,360,0,0.11366640948477164,-0.3316924321797515,2.640422891816712,0.7039281257425454,0.7063002587268121,0.03277828090726465,0.0674590439584634,0.004639990453142673,0.0008488563187908259,10666.25171914208
1678323535649259567,358,1677825035983690738,camera_1,361,0,0.11374208317429535,-0.3318241878541763,2.6415910931664732,0.7040368758059805,0.7064334401772956,0.032922760469369365,0.06480712883396615,0.006283735565375536,0.001149879119779819,10663.346655129219
1678323535656276669,359,1677825035990382909,camera_1,362,0,0.11379189982131754,-0.33178911154969054,2.641073248928032,0.7039260717881268,0.7063398161230933,0.03440030686593061,0.06624778112255005,0.004602078755851835,0.0008420385967028389,10662.121808569878
1678323535661416663,360,1677825035996399402,camera_1,363,0,0.11376707926046525,-0.331806968621818,2.6412212254350536,0.7040799114147518,0.7062130816250818,0.03420487712794578,0.06606502905821672,0.006265645322855562,0.001146557522038073,10661.639876999776
1678323535668963088,361,1677825036003070354,camera_1,364,0,0.11374167570437577,-0.3317205831902127,2.6405270768634086,0.7038618990397904,0.7062131234766668,0.035325942632556465,0.06777557883597668,0.0035096349893137813,0.0006421505385901928,10661.476391233155
1678323535676578585,362,1677825036010373115,camera_1,365,0,0.11367639758165318,-0.33168753898938835,2.640619257634962,0.70400035825452,0.7062806785875869,0.0330606034118448,0.06676896834166204,0.005435879167634994,0.0009944069196702592,10666.13044107263
1678323535683339441,363,1677825036017042875,camera_1,366,0,0.1137151609208895,-0.3318466932893755,2.6417314615193193,0.7039790001779835,0.7064352220000295,0.03248862389669257,0.06563028069020338,0.008903518319129944,0.0016294916033478782,10660.674620400534
1678323535688900505,364,1677825036023743391,camera_1,367,0,0.11365169643866999,-0.3317661278671053,2.6411090070485588,0.7040218370744603,0.7063115134178926,0.033868786908617,0.06580428716251717,0.002326337504200637,0.0004256338699900434,10663.649579282857
1678323535695926407,365,1677825036030383825,camera_1,368,0,0.11370960570559693,-0.33172758466353686,2.640582061558174,0.7038704140320271,0.7062940981838627,0.035542257558273435,0.06672207317438829,0.004558303742669523,0.0008338279920389283,10663.468583709559
1678323535701299250,366,1677825036036308288,camera_1,369,0,0.11373133460079964,-0.3316837416921921,2.6401369273266067,0.7038368430862274,0.7063918546425517,0.033850298487578326,0.06692087343550784,0.0031572608277201653,0.0005773821519124622,10668.625734774629
1678323535710027588,367,1677825036043712615,camera_1,370,0,0.11373124287453733,-0.33163368232824464,2.639582687153392,0.7040782712330202,0.7060084770817909,0.035818565322341504,0.06740065759635423,0.003349372942466289,0.000612317669318804,10669.3904125765
1678323535717043573,368,1677825036050321340,camera_1,371,0,0.11375850802100909,-0.3318292214688382,2.641536996176887,0.7042472208325462,0.7062382301604793,0.03155181049184566,0.06532914712527202,0.0034092303249053657,0.0006238814357498177,10664.023412222276
1678323535721517567,369,1677825036056557416,camera_1,372,0,0.11374362191109384,-0.3318338225505685,2.6414022850256704,0.7038361240439133,0.7062931715945522,0.03704583833617139,0.06627421905778942,0.0029862691299058497,0.0005465484068961264,10656.024165566314
1678323535728925148,370,1677825036063668251,camera_1,373,0,0.11366819658341114,-0.33167841397303965,2.6403502110728025,0.7039402927985638,0.7062290975300969,0.03315944263292132,0.06788944940689405,0.004780547285918146,0.0008745865564964737,10665.283644591109
1678323535735989253,371,1677825036070393562,camera_1,374,0,0.11365583935056973,-0.3316406195645528,2.6400479461845414,0.7039023485671351,0.7061265114734961,0.03465415836998558,0.06859972874297598,0.0015849251649342477,0.0002899520509293373,10664.064495115072
1678323535742484086,372,1677825036076998233,camera_1,375,0,0.1136806420614269,-0.3317070063548078,2.640526850357122,0.7040282461460442,0.7061827480343433,0.034665091656254594,0.06669697465141726,0.0028963233926333487,0.0005297927048138465,10665.095251957424
1678323535749547702,373,1677825036083642482,camera_1,376,0,0.11373825682854505,-0.3317795948138387,2.640884273911684,0.7038600119142464,0.7061405918211452,0.03554468895149333,0.06843334931085415,0.005372326530050486,0.0009833770278487722,10656.602788484312
1678323535754904273,374,1677825036089705228,camera_1,377,0,0.11378814278143808,-0.3318377906804222,2.641383510987104,0.704185815507113,0.706101748664804,0.033906134574788055,0.06627995028124747,0.0036067666951566935,0.0006601130795051965,10660.135514691934
1678323535762260521,375,1677825036096935272,camera_1,378,0,0.11370663570916169,-0.3317178056616051,2.640451837567631,0.7038898441662935,0.7063436681282947,0.03346864720695109,0.06706384591382454,0.004490796942263842,0.0008215051112111182,10666.194501673688
1678323535769105815,376,1677825036103609561,camera_1,379,0,0.11370853953912811,-0.33166100965114026,2.640301240555981,0.7038075642631835,0.706249081469347,0.033395151986823,0.06893410791042237,0.0045493695652112365,0.0008324772881167254,10662.669552961828
1678323535776475752,377,1677825036110304355,camera_1,380,0,0.11359099275146409,-0.3314870575464962,2.639063167100886,0.7037879699234595,0.7060078648737677,0.03613956430082083,0.07020911635639948,0.0025685623404569924,0.0004697618714804417,10665.880452428712
1678323535782211767,378,1677825036116938829,camera_1,381,0,0.11372918939147586,-0.3318978970403808,2.6420351768310044,0.7040593741118049,0.7064442170786093,0.03317713119353497,0.06431363655750995,0.0038647495093755424,0.0007072913356327124,10660.657631470824
1678323535789646726,379,1677825036123649120,camera_1,382,0,0.11369791646563093,-0.33177320445801106,2.6411029446933623,0.7040224010661037,0.7062439924461126,0.03491241079783856,0.0659773105179096,0.002877959341276437,0.0005265732054682041,10661.968730902998
1678323535795938183,380,1677825036130313634,camera_1,383,0,0.11369021007084575,-0.3317983101693628,2.6411064429975757,0.7039538406778851,0.706203955960799,0.035683299252047926,0.06672079836648909,0.002473518194165081,0.00045266630228960134,10659.069598164991
1678323535802498178,381,1677825036136999368,camera_1,384,0,0.11370185526302133,-0.33169173873525953,2.640365080020388,0.7038279330424052,0.7061826029365414,0.03609327762850538,0.06804151151362023,0.004785682423971593,0.0008756235667496807,10661.129265376136
1678323535809450049,382,1677825036143615245,camera_1,385,0,0.11379473060543452,-0.33188100346377036,2.641643410535033,0.7040367802106603,0.7062015733170198,0.036969438876479556,0.06515221058667639,0.0026843667728826404,0.0004912425419982472,10656.95729327749
1678323535815960177,383,1677825036150329351,camera_1,386,0,0.11372290594341643,-0.3316920539686789,2.640252251354562,0.704017727003775,0.7061232518579033,0.03559543506296413,0.06694742902260534,0.005097661749459803,0.0009322705066598815,10665.47037166206
1678323535822445862,384,1677825036156934738,camera_1,387,0,0.11375644912666003,-0.3318514752335168,2.6415717274704327,0.7039331901529878,0.7061359209311665,0.034865062644310045,0.06807754680171368,0.007039011805318296,0.0012890111489022367,10652.867886021968
1678323535828180759,385,1677825036163053274,camera_1,388,0,0.11371101860378487,-0.33175923645278577,2.6411060720299533,0.7040625688395027,0.7062489940799329,0.0324597104589235,0.06674297503952238,0.0022627723519690335,0.00041411228148572005,10662.952075422741
1678323535835330908,386,1677825036170283317,camera_1,389,0,0.11374321827055887,-0.33195292299998036,2.642565352456693,0.7040805406018028,0.7063716774100316,0.0329013285421882,0.06501652312274801,0.0029332751873880625,0.0005371383372804093,10655.002921185926
1678323535843246091,387,1677825036176940202,camera_1,390,0,0.1136439479112473,-0.3316151720446037,2.6400327352691813,0.7038656952271394,0.7061968852078235,0.03440660095091955,0.068375640517571,0.0009880626457743347,0.00018075253712458754,10665.103834540116
1678323535849337245,388,1677825036183572769,camera_1,391,0,0.11374099145827307,-0.33183502998218684,2.641507264775204,0.703873006377308,0.7062873395994528,0.0338378031038838,0.06764604863552894,0.0036039474653080106,0.0006598801772209552,10655.768485673478
1678323535855699870,389,1677825036190279006,camera_1,392,0,0.1137297055474316,-0.3317690610495428,2.6408566773311675,0.7039835851452995,0.706199821036923,0.03301523078088794,0.06781533123028713,0.0028441062895581126,0.0005205208914895738,10661.525287765304
1678323535862341160,390,1677825036196892023,camera_1,393,0,0.11376478345753714,-0.33177446027672614,2.6406866100022577,0.703852363110045,0.7063402710709704,0.03400690413370036,0.06722204161608603,0.002868866315111518,0.0005249010067123245,10663.211723060349
1678323535871959618,391,1677825036203581333,camera_1,394,0,0.11374220571282673,-0.3316824089681108,2.6401138111399844,0.7038528771171774,0.7062101987669469,0.03710792826018154,0.06694239457666643,0.002770623308606446,0.0005067011856285258,10664.610564217897
1678323535876233238,392,1677825036210235118,camera_1,395,0,0.11379031857362884,-0.3318952324293889,2.6418398512238097,0.7040274109224949,0.7064582876573322,0.03328403909605107,0.06445358959353045,0.004089945869054645,0.0007484661350004746,10661.737166488778
1678323535882778287,393,1677825036217001914,camera_1,396,0,0.11373301122406568,-0.3318417539983231,2.641739155742964,0.7040486024355401,0.7063305296184246,0.03230939737228401,0.06609728571551611,0.00515200209338218,0.0009431466476472292,10659.654525215272
1678323535888829912,394,1677825036223650932,camera_1,397,0,0.11363483652085245,-0.3316782693928255,2.6406559453271954,0.7039162723852784,0.706162441618303,0.03458036826583328,0.06812257811835279,0.005275007744785398,0.0009652884053988533,10660.548985363448
1678323535896156199,395,1677825036229637384,camera_1,398,0,0.11360511207750433,-0.3316406283874072,2.6400712294390547,0.7038713188306168,0.7062615626052398,0.03258747445129422,0.06854070486170492,0.003763810673262924,0.0006885554415139182,10666.516000279691
1678323535901430846,396,1677825036236335039,camera_1,399,0,0.11364683839645595,-0.33155558399369905,2.6394274185820383,0.7038886675007956,0.706056521494493,0.03522353715927377,0.06916816210540959,0.0031787937623448674,0.0005813410971716891,10666.863508815295
1678323535909184278,397,1677825036243624925,camera_1,400,0,0.11386881126026328,-0.3319990704648559,2.6426789432818714,0.7040856274615795,0.7064707991578479,0.033594285740114256,0.06351270034345118,0.005519698082935065,0.0010104572500520216,10656.878179783465
1678323535915792393,398,1677825036250280618,camera_1,401,0,0.11377711959763982,-0.3317302928720711,2.6402372211850627,0.7038765410692854,0.7061503317983524,0.03698571264081764,0.06739125235419258,0.0022046976955607533,0.0004032654905860009,10662.588228484616
1678323535922418667,399,1677825036256946086,camera_1,402,0,0.11378123777674945,-0.33186764249759926,2.641410923086313,0.7041314794952815,0.7063048894102025,0.03534610550039553,0.06389769639808986,0.0014722816413268447,0.00026934362405485625,10664.000977011867
1678323535928844288,400,1677825036263598918,camera_1,403,0,0.11368126710299913,-0.33161530835243697,2.6398051229143826,0.7037419709522567,0.7062501049039848,0.03654677936629042,0.06798794423495677,0.0035408168914727867,0.0006475867162971469,10665.194217083625
1678323535936440858,401,1677825036270290851,camera_1,404,0,0.11370679597431124,-0.3318245093566904,2.6415791726201716,0.7040136421101009,0.7062500692501503,0.034404336382277655,0.0662719627378262,0.0025325868045911193,0.0004636113499524212,10658.032572989578
1678323535941197986,402,1677825036276323795,camera_1,405,0,0.11363040112735331,-0.3317997911521038,2.6413930253527536,0.7041158989610298,0.7060825820329049,0.034715177491179035,0.06680602242165756,0.0012639646884053946,0.00023136294651375616,10657.807330790904
1678323535949072732,403,1677825036283295154,camera_1,406,0,0.11365652680715,-0.3318077167689702,2.6413840349716358,0.703770392981686,0.7062781678361255,0.034793337053416536,0.06832135315650703,0.0035443113301880658,0.0006490390928052716,10653.875057433032
1678323535955600879,404,1677825036290279865,camera_1,407,0,0.11368797899649412,-0.33174420168808155,2.6409896640553003,0.7038188120158645,0.7063985833230658,0.035165814014793406,0.06635877377121908,0.0029289535013958816,0.0005359201342106855,10661.621703129615
1678323535961952330,405,1677825036296329975,camera_1,408,0,0.11374572616759543,-0.3317515608057589,2.6405358741190894,0.7038681579621734,0.7062907255163284,0.03400543021139193,0.06757705211603872,0.005558551580179483,0.001016998264511904,10663.526640077233
1678323535968529366,406,1677825036303261756,camera_1,409,0,0.11380234257897048,-0.33176600886105084,2.6407645818553873,0.7040638528121461,0.7062180907441223,0.034014859752600525,0.06628038009135308,0.004517077759373933,0.0008263237088231413,10664.977644049093
