%time,field.header.seq,field.header.stamp,field.header.frame_id,field.image_seq,field.transforms0.fiducial_id,field.transforms0.transform.translation.x,field.transforms0.transform.translation.y,field.transforms0.transform.translation.z,field.transforms0.transform.rotation.x,field.transforms0.transform.rotation.y,field.transforms0.transform.rotation.z,field.transforms0.transform.rotation.w,field.transforms0.image_error,field.transforms0.object_error,field.transforms0.fiducial_area
1681924484444362401,3,1681924484444362401,camera_1,3,0,0.6619703877943345,0.4842923818895639,1.8195679506880815,-0.9799206308106644,-0.0453008937722026,0.15858396624546323,0.11204691867662935,0.036669511697255075,0.0034612269200738873,20502.073294360664
1681924484454495668,4,1681924484454495668,camera_1,4,0,0.6620519932149912,0.48435364693119703,1.819789982051846,-0.9799471882449692,-0.045281391737789244,0.15830893276799807,0.11221134353943642,0.04273301950888708,0.004034442811085662,20499.59657209157
1681924484464405059,5,1681924484464405059,camera_1,5,0,0.6619142653772019,0.48425797082793254,1.8194062053442785,-0.9799126507835015,-0.045318917584938244,0.15870000068099743,0.11194508621298477,0.040581218840088695,0.0038298802221390102,20504.81384977512
1681924484474843978,6,1681924484474843978,camera_1,6,0,0.6617372633123213,0.48412139735838244,1.8189130053384208,-0.9798391455316372,-0.0452114745433937,0.15908700977522072,0.11208253554511521,0.0458219256834127,0.00432227067132313,20508.42204326019
1681924484484457731,7,1681924484484457731,camera_1,7,0,0.6619400074778563,0.48425704925778723,1.8194860728232098,-0.9799262173692259,-0.045192158116058076,0.15859689026605547,0.11202367497627805,0.04267480532871559,0.004027762400473647,20503.996441272553
1681924484494472265,8,1681924484494472265,camera_1,8,0,0.6619172268619136,0.48425844123481915,1.819434348463174,-0.9799215954163913,-0.04520285136282233,0.15835274944089053,0.11240451863593147,0.04657496267464011,0.004395415557253539,20504.95109525999
1681924484504748344,9,1681924484504748344,camera_1,9,0,0.6618540629014303,0.4842060330251021,1.8192839280496527,-0.979898688364837,-0.04529066389985604,0.15883274269348713,0.11189046497734788,0.03227279556449503,0.0030453311150836423,20506.45940061613
1681924484514823675,10,1681924484514823675,camera_1,10,0,0.661908804151585,0.48424629006987446,1.8193858601714563,-0.9798914279858658,-0.04527146949778086,0.15867890794576214,0.11217971109996884,0.05220700358040631,0.004926949141414686,20503.11785524524
1681924484524849176,11,1681924484524849176,camera_1,11,0,0.6619719409980369,0.4842757133802809,1.8195457417137058,-0.9799282889427198,-0.04524055184319416,0.15849417196150267,0.11213134464972097,0.048288910009432584,0.004557911328504927,20502.96041033056
1681924484534537076,12,1681924484534537076,camera_1,12,0,0.661875527960222,0.48421699296461457,1.8193069777008055,-0.9798807203934008,-0.045356117322896225,0.15887239296386663,0.11196499085266189,0.04460322903469205,0.004209061620626681,20504.256529819453
1681924484544698953,13,1681924484544698953,camera_1,13,0,0.6619620032053534,0.4842870217284504,1.8195368573204505,-0.9798976156537466,-0.045262834337997944,0.1584018534134366,0.11252018262952425,0.04344248416600749,0.004100212625103119,20500.602527318522
1681924484554674148,14,1681924484554674148,camera_1,14,0,0.661781661586156,0.48415632081401705,1.8190242604586027,-0.9798559042640663,-0.04529713113797629,0.15878075458336482,0.11233542968919158,0.04129274922888726,0.003895301153567448,20508.036628734204
1681924484564516067,15,1681924484564516067,camera_1,15,0,0.6617732505919861,0.484155966683874,1.8190422775131678,-0.9798426305357877,-0.04522732093619998,0.159147273821822,0.111960055648092,0.03781244618585333,0.003567247908227644,20506.058624349887
1681924484574857473,16,1681924484574857473,camera_1,16,0,0.6618067864364253,0.48416917108352264,1.8191343556501833,-0.9799082514198342,-0.045298843558585274,0.1585388028476596,0.11221979131690049,0.042093483323697,0.003971250086920273,20510.82862640731
1681924484584566593,17,1681924484584566593,camera_1,17,0,0.6618729801120761,0.48421193617600367,1.8192919660421247,-0.9798797811823341,-0.04533089356063266,0.15856903425575108,0.11241257000110814,0.04334055009530857,0.004089570763173785,20504.67374624684
1681924484594489336,18,1681924484594489336,camera_1,18,0,0.6618311705165414,0.4841801909653314,1.8191571418142114,-0.9798285688334557,-0.045252187385426114,0.15905197895385914,0.11220821371663281,0.04486602364340797,0.00423316691234382,20502.17195574043
1681924484604461193,19,1681924484604461193,camera_1,19,0,0.6619019226805791,0.4842447311663723,1.819407834122679,-0.9799044257223636,-0.04510824329573072,0.15877293187616617,0.11199874526058055,0.04076111293397844,0.0038468642307486938,20503.37566871522
1681924484615126132,20,1681924484615126132,camera_1,20,0,0.6618399137093163,0.48419474742548324,1.819160792492866,-0.9798522512419418,-0.045248409122073265,0.15857395214873043,0.112678520171115,0.049800391134340316,0.004698432417590253,20504.45444323972
1681924484625369548,21,1681924484625369548,camera_1,21,0,0.6618626279104067,0.48421018669112736,1.8192656580055793,-0.9798693443338433,-0.04521493127093931,0.15888174882679554,0.11210828655664784,0.039704292837996036,0.0037465387283828287,20503.560110771225
1681924484635046482,22,1681924484635046482,camera_1,22,0,0.6619368647026076,0.4842709179051328,1.8194784411130198,-0.9798928528836477,-0.0452479083562709,0.1584540427898561,0.11249417754034612,0.039151827339082956,0.003695003961480861,20501.459087416995
1681924484645038843,23,1681924484645038843,camera_1,23,0,0.6618041671802304,0.4841867139684276,1.8191236042329493,-0.9798951219350437,-0.04522606919695408,0.15878882441789477,0.11201009737019753,0.039424903807230294,0.0037195912246609413,20509.229045504002
1681924484654762506,24,1681924484654762506,camera_1,24,0,0.6619218578421436,0.4842552958281176,1.8194289829692083,-0.9799018109247336,-0.04527793389376127,0.1583485420336992,0.11255260496559685,0.038821496011223644,0.0036635768902612267,20503.576015108032
1681924484664875984,25,1681924484664875984,camera_1,25,0,0.6619096218655351,0.48423723321899326,1.8193755742410598,-0.9798454209622549,-0.04530773483795577,0.15881283060393228,0.11237724422106869,0.03535239567281678,0.003336162702881917,20499.331004445798
1681924484675132513,26,1681924484675132513,camera_1,26,0,0.6617178691945562,0.484085564795497,1.818848446744074,-0.9798697027854801,-0.045183516194982926,0.1586821507918318,0.11240013544222657,0.042778221308253706,0.004034604923015482,20513.009666501202
1681924484684830188,27,1681924484684830188,camera_1,27,0,0.6618343789104013,0.48420086639598053,1.8191790451738061,-0.9798879734227298,-0.045300497686203665,0.158832919632765,0.11198003434456404,0.04030024242820218,0.0038024474287564796,20507.458018466477
1681924484694797992,28,1681924484694797992,camera_1,28,0,0.6620126299096183,0.4843336124794828,1.8197265237787084,-0.979953015106902,-0.045206938286704114,0.15845863352144898,0.11197893719869496,0.03873148513957858,0.003656476589359192,20501.366238478113
1681924484704778909,29,1681924484704778909,camera_1,29,0,0.6618262430522377,0.4841856540475276,1.8191620002222686,-0.9798303895611109,-0.045279224345709135,0.1590847179318853,0.11213497249165946,0.04332850355422124,0.004088138047064988,20502.3682537109
1681924484714966297,30,1681924484714966297,camera_1,30,0,0.6620102290095985,0.4843160218141846,1.8196786390124813,-0.9799392675259804,-0.045200644568953674,0.15845515734540314,0.11210663139100978,0.04540748056024313,0.0042865298600097464,20500.94498157862
1681924484724785089,31,1681924484724785089,camera_1,31,0,0.6619801278851735,0.4842869183510577,1.8195744950207065,-0.9799236999223717,-0.045212143909025185,0.15833381377650124,0.1124091090107369,0.03959435364231467,0.0037371678194098967,20502.020820155507
1681924484734474897,32,1681924484734474897,camera_1,32,0,0.6619378447435199,0.4842572894908209,1.8194789981947157,-0.979899236000214,-0.04525625872464381,0.15887305464888984,0.11184234814673666,0.04639783891616389,0.004379310388464125,20501.693179972237
1681924484744835376,33,1681924484744835376,camera_1,33,0,0.6620041951851747,0.4843202857066916,1.819685906391682,-0.9799342717255282,-0.04522312219808741,0.15850979466525503,0.11206398757671653,0.03821536333998665,0.0036075755309945565,20500.565266290912
1681924484754695653,34,1681924484754695653,camera_1,34,0,0.6618109092999397,0.48416882672188216,1.8191171671733721,-0.9798619949866215,-0.04525374534808938,0.15903996798672665,0.11193238090735473,0.04309983138227835,0.004066423484548894,20506.19224845536
1681924484764423370,35,1681924484764423370,camera_1,35,0,0.6619743896970051,0.48430151187540094,1.8195951748119694,-0.9798855543294549,-0.045318414492415075,0.15851336663418716,0.11244578392561624,0.0376302677905187,0.003551865930308033,20498.489745412015
1681924484774519920,36,1681924484774519920,camera_1,36,0,0.6620098711769535,0.48431624830539843,1.8196700741835912,-0.9799081324504371,-0.04522294746548026,0.15830887674352728,0.11257547034871326,0.04283605614909902,0.00404350907156337,20498.561844010837
1681924484784462928,37,1681924484784462928,camera_1,37,0,0.6617662344874159,0.48414993603476497,1.8190221768363226,-0.9798759217696026,-0.045247801615744876,0.15860026855186038,0.11243562247078048,0.04589801875408739,0.004329632620491313,20510.047397106646
1681924484794673204,38,1681924484794673204,camera_1,38,0,0.662104798840721,0.4843916161729984,1.819930297618134,-0.9799408732431228,-0.04529171378112656,0.15860308991397595,0.11184634763823809,0.05123095359886065,0.00483782919647596,20495.52601769403
1681924484804631233,39,1681924484804631233,camera_1,39,0,0.6617792438327653,0.4841281486075797,1.819008737446827,-0.9798540554675819,-0.04517140872501079,0.1591398418323873,0.111893183702555,0.04955810128012672,0.004675319529160173,20507.431697977012
1681924484814562797,40,1681924484814562797,camera_1,40,0,0.6618965102814236,0.48424541717822295,1.819376467925807,-0.9799239444323514,-0.045318583684420405,0.15858230169748402,0.11201313623547927,0.04769203043542802,0.00450078638031891,20506.696255406598
1681924484824449539,41,1681924484824449539,camera_1,41,0,0.6618226394913954,0.48418868144238875,1.8191546508426493,-0.979866671015874,-0.045304400332194794,0.1585429993496307,0.11257413424065255,0.03843494865577668,0.0036260503878061835,20506.476483896364
1681924484834471464,42,1681924484834471464,camera_1,42,0,0.6618074683701014,0.484162533108651,1.8191211456583882,-0.9798512938829091,-0.04529828647656831,0.15895295340549812,0.1121314662436245,0.034824642760213464,0.0032855313325285316,20505.595986345437
1681924484844435453,43,1681924484844435453,camera_1,43,0,0.661852411982658,0.4842095589504498,1.8192220640692938,-0.9798856473180247,-0.045207626300712206,0.1590863841581047,0.11167771075684955,0.04748046776512638,0.004480425618849639,20505.586700618154
1681924484854460239,44,1681924484854460239,camera_1,44,0,0.6620233243136631,0.4843388192968498,1.819714408127162,-0.9799088666586889,-0.045255229271137766,0.1585132818789538,0.11226805750196207,0.038926391513086855,0.0036747735088837868,20497.539781460073
1681924484864729642,45,1681924484864729642,camera_1,45,0,0.661949810339077,0.4842728261512609,1.8194972100385274,-0.9799130756670356,-0.045345302343091545,0.15852461552971536,0.11217893725356926,0.05268579354742542,0.004972670946438447,20503.028817399987
1681924484874622821,46,1681924484874622821,camera_1,46,0,0.6617625331417148,0.48413889698265716,1.8189868062728047,-0.9798724778884028,-0.045142086267081716,0.15865576073102458,0.11242983906044149,0.047122554562520236,0.0044450341278989254,20509.933354306493
1681924484884664297,47,1681924484884664297,camera_1,47,0,0.6618593615231316,0.4842073773365781,1.8192813717735685,-0.9798963501414286,-0.04526283901755875,0.15889502351738727,0.11183376004135046,0.03710885759210214,0.0035017439932467833,20506.009699094342
1681924484894739627,48,1681924484894739627,camera_1,48,0,0.6618038939257203,0.48417620721109084,1.819125826376798,-0.9798726442174864,-0.04533796940772054,0.15876039573478115,0.11220163274369788,0.03712208609795198,0.0035022358521135683,20507.72425407206
1681924484904898405,49,1681924484904898405,camera_1,49,0,0.6619451096065454,0.48426327805626546,1.8194905866364084,-0.9799280213224865,-0.04534018162220181,0.15846393327550018,0.11213617974730533,0.04169198719318956,0.003934921589430815,20504.74738259276
1681924484914890527,50,1681924484914890527,camera_1,50,0,0.6620123128907667,0.4843151385502492,1.8196821977095579,-0.9799486024381119,-0.045182802492480745,0.15871970077767047,0.11165709795424361,0.045927070488687605,0.0043358748603812124,20501.37715482525
1681924484924460649,51,1681924484924460649,camera_1,51,0,0.6618446693483224,0.48419431471724267,1.8192059423045492,-0.9798706629094823,-0.0452511801138834,0.15898019330809662,0.11194245308797185,0.05070884607266635,0.004784829599175546,20504.942377539934
1681924484934419870,52,1681924484934419870,camera_1,52,0,0.6620002878750206,0.4843151947004975,1.8196218246648375,-0.9799441638759518,-0.045261041138599266,0.15832235727917698,0.11222702449087929,0.04331534856464714,0.004088692780020252,20502.833955265236
1681924484944439888,53,1681924484944439888,camera_1,53,0,0.6619698352469904,0.48428100121879786,1.8195273442411808,-0.9799014288579623,-0.04532270747395861,0.1586356797168733,0.11213279194829395,0.04506312607554719,0.0042533778432245935,20501.03528585076
1681924484954374313,54,1681924484954374313,camera_1,54,0,0.6617896101038718,0.48416145915058056,1.8190387597585151,-0.9798715609326364,-0.04510945141721393,0.1588408077532897,0.11218939014255948,0.04998849437106401,0.00471586542635883,20508.211402102264
1681924484964364290,55,1681924484964364290,camera_1,55,0,0.6619178253034513,0.48424106760126173,1.8193996198656543,-0.9798665460876493,-0.045235925450106684,0.15869469149737736,0.11238886865470907,0.043635355948936194,0.004117949308812125,20500.474259866165
1681924484974398136,56,1681924484974398136,camera_1,56,0,0.6617511772574116,0.48412426672260567,1.8189808209967813,-0.9798556201019257,-0.04527908130308537,0.158918832980278,0.1121497796484948,0.03976883162977174,0.003751427081283535,20509.110514555483
1681924484984426021,57,1681924484984426021,camera_1,57,0,0.661868208104542,0.4842084066189321,1.8192561911985121,-0.9798410866455282,-0.04531857639576085,0.15876989022990243,0.11247130083339894,0.04217261978192255,0.003979261733419857,20501.59060139989
1681924484994596719,58,1681924484994596719,camera_1,58,0,0.6618819292329539,0.48422208066534556,1.8193093382103398,-0.9799017118092767,-0.045188534891358254,0.15865604863792274,0.11215564960456986,0.0432238009525463,0.0040787788380530045,20505.55470215215
1681924485004619836,59,1681924485004619836,camera_1,59,0,0.6620364103567543,0.4843473358941548,1.8197821857207963,-0.9799649025503143,-0.04522697954437619,0.15849523857412148,0.11181488917034975,0.03836067550582811,0.0036217593284605743,20501.179101672155
1681924485014577627,60,1681924485014577627,camera_1,60,0,0.661880362358213,0.484231890877992,1.8193098044387315,-0.9798753723881801,-0.045249194781927425,0.1586989489723868,0.11230052784280459,0.04961035627638921,0.004681447366703515,20503.247452250223
1681924485024419307,61,1681924485024419307,camera_1,61,0,0.6619689926321503,0.4842809003306374,1.8195846724513995,-0.9799202454683403,-0.0453166789934718,0.1584912181764068,0.11217506357131639,0.0365344476304017,0.0034484488649007025,20502.03950632397
1681924485034497499,62,1681924485034497499,camera_1,62,0,0.6618089294725507,0.48419728924124733,1.8191466058589305,-0.97991874326939,-0.045269345937444506,0.15836055875045546,0.11239162041708763,0.03892439289484173,0.003672199488031949,20511.444658509103
1681924485044465065,63,1681924485044465065,camera_1,63,0,0.6617784986769457,0.48414985548014305,1.819036755716272,-0.9798800868169605,-0.04524193821740237,0.15875201398902183,0.1121872565862459,0.04345088271657005,0.0040989878355535934,20509.904246416183
1681924485054593324,64,1681924485054593324,camera_1,64,0,0.6618137925133721,0.48419205680378263,1.819129276756584,-0.9798777454385935,-0.045171901319616674,0.15857372916828236,0.11248766929318965,0.04195680469274521,0.0039582945619621715,20507.36126286279
1681924485064624071,65,1681924485064624071,camera_1,65,0,0.6618743270562302,0.48422128634823636,1.8193351192840903,-0.9798963024587339,-0.04532477194411867,0.15865751958084864,0.11214585572533486,0.03896905074361712,0.0036773180226990485,20505.322749196206
1681924485074729681,66,1681924485074729681,camera_1,66,0,0.6618532057746965,0.4842052478897255,1.819238494702406,-0.9799374709625631,-0.04515774671086414,0.1586671902754804,0.11183941007345188,0.04784217581618577,0.004514411066230171,20510.197640751958
1681924485084700345,67,1681924485084700345,camera_1,67,0,0.6619253915533461,0.4842561849246893,1.8194416546452956,-0.9799528417990343,-0.04527249500809595,0.1584286138340723,0.11199644353439596,0.03922203788533807,0.0037016340331501533,20507.860274992177
1681924485094779729,68,1681924485094779729,camera_1,68,0,0.6617397251702409,0.4841203611368894,1.818938834155101,-0.9798173615161654,-0.045189857314117565,0.15893497577736912,0.11249661480274396,0.041209648188669235,0.003887075471603921,20506.10137805203
1681924485104401826,69,1681924485104401826,camera_1,69,0,0.6617967198924374,0.4841469651528144,1.8190500816557744,-0.9798881043169942,-0.04525794116727398,0.15889324967374593,0.11191048649462482,0.04196012846659869,0.003958567809280019,20510.13158425293
1681924485114405632,70,1681924485114405632,camera_1,70,0,0.6618013994378339,0.48415626522371275,1.8191163291428576,-0.9798548925791305,-0.04516059092222925,0.15918969199930583,0.11181928490856011,0.03575341927353293,0.0033733129423548836,20505.324480682728
1681924485124499559,71,1681924485124499559,camera_1,71,0,0.6619002361392616,0.48424716139854396,1.819386229026179,-0.9798466659028883,-0.045355995556810975,0.1589699209159326,0.11212452555095347,0.04319026414304972,0.004076042235750292,20499.28792571253
1681924485134432792,72,1681924485134432792,camera_1,72,0,0.6619727537943334,0.4842929382273217,1.8195736627640873,-0.9798981604697743,-0.045336290573347045,0.15858404499426595,0.112228857867566,0.03749133239034563,0.0035387636439057194,20500.049686363905
1681924485144361019,73,1681924485144361019,camera_1,73,0,0.6619553242787694,0.4842866016257772,1.8195361800912644,-0.9798999542464183,-0.04519418212164542,0.1583501393847506,0.11260017285534211,0.041888729378115386,0.003953504237526377,20500.69677794818
1681924485154436111,74,1681924485154436111,camera_1,74,0,0.6618529802936939,0.4842042596084473,1.8192415388347587,-0.9798624448450927,-0.04523187935223572,0.15896645437930562,0.1120416558898279,0.03812463558278978,0.0035974195634872804,20503.479474107502
1681924485164399385,75,1681924485164399385,camera_1,75,0,0.6618878794804338,0.4842226196516949,1.8193395139859598,-0.9798986839854911,-0.045343421286550244,0.15856958764635343,0.11224183330291199,0.041797409765422344,0.003944209838610457,20505.40398525202
1681924485174438238,76,1681924485174438238,camera_1,76,0,0.6620329514611092,0.4843338170990316,1.8197070184315602,-0.9799574305798261,-0.04519269577477321,0.158177088567956,0.11234350516233255,0.038748424442019314,0.0036578428435542635,20502.02531441499
1681924485184641122,77,1681924485184641122,camera_1,77,0,0.6617806916853999,0.4841492853852682,1.819033279566953,-0.9799200416103785,-0.04521430855223638,0.1583684877758769,0.11239128272263488,0.049377054849173874,0.004657852304474742,20513.75070318323
1681924485194627523,78,1681924485194627523,camera_1,78,0,0.6618948045054542,0.4842410327556432,1.8193456578501406,-0.9798568143665494,-0.04529525664857559,0.1586628619867762,0.11249470783437958,0.046717860095668584,0.004408556673069349,20500.996260567328
1681924485204546451,79,1681924485204546451,camera_1,79,0,0.6618410512707155,0.4841987917652121,1.819202277490981,-0.9798322104532421,-0.04537063604349006,0.15891649009396694,0.11232049643558803,0.042082690517418087,0.0039706256538461,20502.16814896069
1681924485214904308,80,1681924485214904308,camera_1,80,0,0.6618161806985081,0.48416728342041715,1.8191414916841284,-0.9798656697710009,-0.04516520555065616,0.15898022380075336,0.11202080990627312,0.045877902244683355,0.004328610871355053,20505.752326728074
1681924485224678039,81,1681924485224678039,camera_1,81,0,0.6620181575220543,0.4843328615194379,1.8197190583106513,-0.97993349451989,-0.04525975083425349,0.1583584933697152,0.11226971475038129,0.050171695998869836,0.0047364000881596644,20499.881881693604
1681924485234712362,82,1681924485234712362,camera_1,82,0,0.6620287731520736,0.484324558377453,1.8196931814181019,-0.9799772586854666,-0.045210521021577924,0.15815800403537533,0.11219013774758382,0.04702301777433604,0.004439008816263718,20504.18350350809
1681924485244583606,83,1681924485244583606,camera_1,83,0,0.6618764844442487,0.48422624921085927,1.8193027419617978,-0.9799020589501397,-0.04518582978583242,0.15866753858003654,0.11213745071471752,0.051760294067207724,0.004884364341710717,20505.644358219353
1681924485254519701,84,1681924485254519701,camera_1,84,0,0.6619558110464225,0.4842837406167975,1.8195185374748888,-0.9799461742779861,-0.04536018743591804,0.15832849797296739,0.11216075803658544,0.040080814273096614,0.0037829211356891633,20505.856747932492
1681924485264815330,85,1681924485264815330,camera_1,85,0,0.6617840526254797,0.4841747037938146,1.8190521625041791,-0.9798869420638137,-0.04528450115544004,0.15871100607964694,0.11216822757410991,0.04645205958513543,0.00438220768646497,20510.22143083403
1681924485274871110,86,1681924485274871110,camera_1,86,0,0.6619507126035842,0.4842794724160058,1.8195024580211978,-0.9799452855273514,-0.04519647620647029,0.15866107406766206,0.11176394538012585,0.04418853891547769,0.004170859731608951,20505.142935658107
1681924485284716129,87,1681924485284716129,camera_1,87,0,0.6620404589506356,0.48435890892249417,1.819822325227293,-0.9799632878159175,-0.04519717517884097,0.1583279078598953,0.11207784563230601,0.03397525957552716,0.0032076972984545833,20500.35962550516
1681924485294757604,88,1681924485294757604,camera_1,88,0,0.6619319032355824,0.4842684861080996,1.8194755294492193,-0.9799025820250326,-0.045289332424276005,0.1587717311185124,0.1119434835390999,0.04514589882455766,0.004261039743266005,20502.293618155054
1681924485304483175,89,1681924485304483175,camera_1,89,0,0.6618738309353366,0.48421975813644663,1.8193013317259283,-0.979891698155174,-0.04528481278617675,0.158768483138736,0.11204514438080439,0.04183582792757079,0.003947817247773862,20505.175303194326
1681924485314399480,90,1681924485314399480,camera_1,90,0,0.6619187592623423,0.484257292870142,1.8193878484315078,-0.9799354667427962,-0.04520641971466334,0.15874298944119739,0.11172969139593905,0.048113396973349154,0.004540847898802769,20506.573573255904
1681924485324406385,91,1681924485324406385,camera_1,91,0,0.6618926677950654,0.4842325766476654,1.8193820489460735,-0.9799042701449282,-0.045262072567488404,0.15848778570878416,0.11234139005619272,0.04199494858039543,0.003962967919884087,20504.84164975561
1681924485334917068,92,1681924485334917068,camera_1,92,0,0.6619012892149738,0.48424861530364477,1.8193885554136195,-0.9798770783243966,-0.045340248903427076,0.15852694277694737,0.11249169577179427,0.0435333444038406,0.004108149576667403,20502.359797452926
1681924485344769001,93,1681924485344769001,camera_1,93,0,0.6617980243747361,0.48417001407967014,1.8190912296386854,-0.9798570638421652,-0.04524331308636084,0.1591658582343812,0.11180074522154845,0.045854376803617924,0.004326306341089643,20506.14410600695
1681924485354597568,94,1681924485354597568,camera_1,94,0,0.6619652774575825,0.48429071442665406,1.819586493931603,-0.9799513689684534,-0.04519548456401375,0.15832007164029174,0.11219375003845458,0.038653845607768744,0.0036484791155986743,20504.43456551666
1681924485364539623,95,1681924485364539623,camera_1,95,0,0.6618370828735992,0.4841702735251574,1.8191622381598036,-0.9798649286453224,-0.04534026054315522,0.15899619167833018,0.11193387966368239,0.04227442044066265,0.003988720072847147,20505.7842142653
1681924485374480485,96,1681924485374480485,camera_1,96,0,0.6620774645216818,0.4843776565135287,1.8198691708366024,-0.9799308376943723,-0.045261433661016634,0.15851429251427457,0.11207218668007803,0.04951015702681616,0.0046748713277047485,20496.02131752787
1681924485384398221,97,1681924485384398221,camera_1,97,0,0.6618481338255632,0.4841894383482491,1.819223602678884,-0.9798577035987799,-0.045321749942321854,0.1589937886343353,0.11200801246335752,0.0448371865786612,0.00423078506533044,20503.787993191967
1681924485394517183,98,1681924485394517183,camera_1,98,0,0.6618780943473735,0.48422813187503827,1.8192975492825556,-0.9798370703214154,-0.04521086217647159,0.15874750092438694,0.11258119077122741,0.04566556232748553,0.004309026156232517,20499.891913948464
1681924485404620885,99,1681924485404620885,camera_1,99,0,0.6619218273479354,0.4842533941474388,1.8194820804002707,-0.9798967329968027,-0.04542899907743069,0.15864985797644104,0.11211075447552184,0.03311127709457651,0.003125002556719244,20502.67002101662
1681924485414503097,100,1681924485414503097,camera_1,100,0,0.6619879697407405,0.4843052340027733,1.8196308441583686,-0.9798982162850091,-0.04534015036683477,0.15870577807420452,0.11205459603261167,0.03065229655476287,0.0028934432411674696,20498.823208686434
1681924485424466848,101,1681924485424466848,camera_1,101,0,0.6617808932360257,0.4841325983594251,1.8190377260235073,-0.9798480421180359,-0.04539708008409688,0.1585546686205132,0.11268245886529617,0.04045046120882034,0.0038156668761626586,20507.89492747945
1681924485434509038,102,1681924485434509038,camera_1,102,0,0.6617670743617614,0.4841275808879317,1.818970300598421,-0.979827973597013,-0.045294772122139886,0.15907991059657967,0.11215662182750874,0.04506151523673907,0.0042507688078368515,20506.44374070468
1681924485444487333,103,1681924485444487333,camera_1,103,0,0.6618830486541915,0.48421469690465974,1.8193366625035585,-0.9798921489527129,-0.045109862466910976,0.15901133356482774,0.11176704580056612,0.03669484896818176,0.003462952932073434,20503.681095677654
1681924485454633951,104,1681924485454633951,camera_1,104,0,0.6619190468603021,0.4842429893918888,1.819406258991896,-0.9798794055393362,-0.0453568545175049,0.15871894422085417,0.11219359649094378,0.047712589323055,0.004502855542582328,20501.962724654237
1681924485464318037,105,1681924485464318037,camera_1,105,0,0.6618393527181274,0.48419928876302054,1.8192158872933153,-0.979894399701935,-0.045039231993503924,0.1589446461804439,0.11187060590161003,0.03579595062183216,0.0033776377979111137,20506.257189226206
1681924485474397659,106,1681924485474397659,camera_1,106,0,0.6617337811342298,0.48412662263040346,1.8189045001436994,-0.9798254319990051,-0.04522284013934865,0.15901554778055488,0.11229903428678227,0.038611220254097134,0.0036419224911113917,20507.54187896778
1681924485484852552,107,1681924485484852552,camera_1,107,0,0.6619773686739602,0.48429651847082583,1.8195787765635472,-0.9799070169166614,-0.04523487386872862,0.15877763027553318,0.111918311761999,0.03739729442168027,0.0035300772984769788,20500.102754996737
1681924485494717121,108,1681924485494717121,camera_1,108,0,0.6619224624536643,0.48424675661252325,1.8194562041159381,-0.9799162572656281,-0.0452075376578239,0.15856931530783444,0.1121435665932044,0.03837879007915035,0.003622086454629324,20503.998696344686
1681924485504436254,109,1681924485504436254,camera_1,109,0,0.6617677688832787,0.4841542315859435,1.819006944401426,-0.9798692041752878,-0.04517324870744797,0.15853329761803456,0.11261844367800107,0.04779393383068964,0.00450834593177702,20509.396823721003
1681924485514444589,110,1681924485514444589,camera_1,110,0,0.66197604935184,0.484293029731514,1.8195702609987312,-0.9799395415698537,-0.045279012939249276,0.15864218790431434,0.11180770130918763,0.03927065641619265,0.0037068829679326723,20503.513712233987
1681924485524409770,111,1681924485524409770,camera_1,111,0,0.6618942978685305,0.4842379260969961,1.8193546370737321,-0.9799230682760954,-0.04523289428070503,0.15839723220066823,0.11231688371087008,0.04127881157910451,0.003895276968569567,20506.91792830616
1681924485534474134,112,1681924485534474134,camera_1,112,0,0.6619357689453078,0.4842533497627807,1.8194343768998942,-0.9798970605829704,-0.04522143787544575,0.15838976767528645,0.11255866787191637,0.046213285881094635,0.004361259145657516,20502.58038902795
1681924485544338226,113,1681924485544338226,camera_1,113,0,0.6618224756585211,0.4841915284929905,1.8191454031963383,-0.9798684661720165,-0.04520751750680767,0.1588977218603356,0.11209631283038156,0.04639605258125812,0.004377478553712608,20505.966062797816
1681924485554435729,114,1681924485554435729,camera_1,114,0,0.661906994857022,0.48424069137003056,1.8193906661600288,-0.9799012435373187,-0.04523989700281186,0.1584977031101934,0.11236272843779066,0.03848183556692675,0.003631473117013761,20504.14793723263
1681924485564386129,115,1681924485564386129,camera_1,115,0,0.661778823968539,0.4841381307395636,1.8190219793959728,-0.9798427868021355,-0.04535846862109159,0.15869432710097958,0.11254702582539199,0.03996739618014544,0.003770136903692189,20507.381758640986
1681924485574375152,116,1681924485574375152,camera_1,116,0,0.6619390252470563,0.48425879343575234,1.8194945745704045,-0.9799653437023818,-0.045155278850196136,0.15860600134696515,0.11168286471505155,0.03767149115446955,0.0035556499678296737,20507.29280683538
1681924485584652662,117,1681924485584652662,camera_1,117,0,0.6618416380798359,0.484200285103396,1.819224404294357,-0.9799017432630268,-0.045247762051912055,0.1586343960678443,0.11216212356925699,0.03584280179347843,0.0033818914310177013,20507.864281850634
1681924485594702243,118,1681924485594702243,camera_1,118,0,0.6618489896614885,0.48419352122890574,1.8192302202046415,-0.9798891705864167,-0.045228168703017706,0.15870080214647567,0.11218592390002016,0.039655416272580624,0.003741692142489763,20506.43181301642
1681924485604688405,119,1681924485604688405,camera_1,119,0,0.6619282718020195,0.4842437393560938,1.8194491076364954,-0.9798667192660528,-0.045340705707245944,0.1586573188020412,0.11239790065343216,0.04022800305392593,0.0037965285103605593,20500.038008634467
1681924485614986658,120,1681924485614986658,camera_1,120,0,0.6619511736805268,0.48427245733741814,1.8194924211254366,-0.9799480437064355,-0.04522905037763179,0.1581768543126763,0.11241106439143023,0.04806528094923124,0.004536310823830077,20506.172644023547
1681924485624376058,121,1681924485624376058,camera_1,121,0,0.6619786073975297,0.48428907506781255,1.8195847142599317,-0.9799370321775885,-0.04529709791908061,0.15838392706105156,0.11218786715063506,0.04232475545722991,0.003995021689661674,20503.335058186316
1681924485634382247,122,1681924485634382247,camera_1,122,0,0.66197612577954,0.48431095460801216,1.8195915606189885,-0.9799418114553369,-0.04523858847337815,0.15823160123704283,0.11238450357825502,0.04265063820639625,0.004025703697369715,20503.461134404406
1681924485644544839,123,1681924485644544839,camera_1,123,0,0.6617415365184869,0.4841197881982723,1.8189327200453844,-0.9798744364096563,-0.04530751476316574,0.15890646793431043,0.11199130513341642,0.049358670192305,0.004655955124758879,20511.80036508059
1681924485654703140,124,1681924485654703140,camera_1,124,0,0.6619959159956065,0.4842983386261982,1.8196358090068807,-0.9799163359138546,-0.04532565319560578,0.15846660458650616,0.11224034480694252,0.03638223482994363,0.003434262792352247,20500.435140255024
1681924485664750814,125,1681924485664750814,camera_1,125,0,0.6619128303129876,0.48426558219669263,1.8194239169812347,-0.9798957669392767,-0.04519618672874217,0.15892860037295348,0.11181811402076823,0.04293840972241014,0.004052556928167266,20502.270864474944
1681924485674641370,126,1681924485674641370,camera_1,126,0,0.6618645639429329,0.4842187359790546,1.81927587498594,-0.9798904334119494,-0.04523732758319908,0.1585181257273321,0.11242920668921393,0.04565411381190643,0.0043078097802069296,20505.607292046654
1681924485684730052,127,1681924485684730052,camera_1,127,0,0.6620111467588174,0.4843275239401034,1.8196782323418859,-0.9799103981136358,-0.045164523040107894,0.15868273366049068,0.1120516290170259,0.04469354363391176,0.004219239285440341,20497.916644958656
1681924485694461107,128,1681924485694461107,camera_1,128,0,0.6618428351618596,0.4842003607802309,1.8192185132499405,-0.9798705378638477,-0.04525586467318198,0.15864386822305174,0.11241778691258497,0.04650056560058147,0.004387449777032914,20505.088493996067
1681924485704511404,129,1681924485704511404,camera_1,129,0,0.6619950924975577,0.4842879376390613,1.8195828854838627,-0.9799321592098936,-0.04523945428862616,0.15845113526861418,0.11215878411426469,0.05159703514073044,0.00487037493461559,20502.345731702517
1681924485714508056,130,1681924485714508056,camera_1,130,0,0.6619229996757204,0.4842529720782319,1.8194322623376833,-0.9799334036188391,-0.045340778858390586,0.15830098959611932,0.1123188983982728,0.05034260294632986,0.004751002587411474,20506.5894351768
1681924485724352598,131,1681924485724352598,camera_1,131,0,0.6619507045197298,0.4842726718005401,1.8194859692570735,-0.9798937559888443,-0.04516994246282247,0.1584357002160416,0.11254346790921727,0.05169563030358404,0.004878990628428888,20500.831044818267
1681924485734696388,132,1681924485734696388,camera_1,132,0,0.6617321153731721,0.4841245007011222,1.8189282537908371,-0.9798033678278177,-0.045270835346204415,0.15906496015562194,0.11240218107765258,0.038548174197785556,0.003636031128704198,20505.31811252643
1681924485744354486,133,1681924485744354486,camera_1,133,0,0.6619265966663185,0.48424050312673356,1.8194251239553658,-0.9798820003577144,-0.0453549574854189,0.15879223739873313,0.1120679193541331,0.04793305543716997,0.004523833909438839,20501.700688524405
1681924485754635334,134,1681924485754635334,camera_1,134,0,0.6618647703455012,0.4842046856258966,1.819248389220602,-0.979892087777463,-0.04524668289795576,0.15863733403536573,0.11224272915431385,0.04129382490646094,0.003896350014501255,20506.243241554715
1681924485764720439,135,1681924485764720439,camera_1,135,0,0.6618997102682148,0.48424184488499844,1.8193736012658328,-0.9799211763033093,-0.04523093449522244,0.15842828138570433,0.11229038451354398,0.035886752419173724,0.003386503463825905,20506.369726211422
1681924485774785995,136,1681924485774785995,camera_1,136,0,0.661877425061006,0.48422226358495674,1.819334755167993,-0.979922010653063,-0.04522085305946444,0.1587934732419752,0.11177012276088381,0.03552112868055701,0.0033521013538635133,20507.072473524597
1681924485784737825,137,1681924485784737825,camera_1,137,0,0.6619491482255783,0.4842733419645953,1.819523798862717,-0.9799000412409922,-0.045349558399222216,0.1582775241916255,0.11263903437382135,0.04046599066350609,0.003819100604144527,20501.76806457911
1681924485794631958,138,1681924485794631958,camera_1,138,0,0.6619233084840984,0.4842584691732032,1.8194543963264023,-0.9799217070898304,-0.045359834024851206,0.1583873477663358,0.11229150234517596,0.02946715394500643,0.0027808921026405958,20505.3126876991
1681924485804793119,139,1681924485804793119,camera_1,139,0,0.6619735659027708,0.4842992037855351,1.819603299730946,-0.9799600462971351,-0.04522846250017143,0.15823069861059025,0.11223074382000668,0.04085563792614267,0.003856351287265099,20504.98863014159
1681924485814904928,140,1681924485814904928,camera_1,140,0,0.6617647705488209,0.4841457364688475,1.8190317658327038,-0.9798646212838379,-0.045206332003819905,0.15855108651542302,0.11262000030110106,0.03856566047761589,0.003637867822578823,20508.862934438977
1681924485824775695,141,1681924485824775695,camera_1,141,0,0.6619421191635327,0.4842624106175044,1.8194756917728243,-0.979914993224921,-0.04540405962716767,0.15844716500728012,0.1122478210190805,0.04282686940860003,0.00404192785345939,20504.097139350604
1681924485834498882,142,1681924485834498882,camera_1,142,0,0.6620039108713405,0.4843127952567808,1.8196482057109453,-0.9799447839192273,-0.04521713350481749,0.1583368019289105,0.112218930943185,0.03834885370451957,0.0036199556936648016,20502.294357661274
1681924485844707727,143,1681924485844707727,camera_1,143,0,0.6619704802240538,0.48430225681672234,1.8195994731258456,-0.979903240299269,-0.04538904010632543,0.15857864094648969,0.11217080424416977,0.04006841138470918,0.0037821253223943234,20500.286149505766
1681924485854872465,144,1681924485854872465,camera_1,144,0,0.6618993763958885,0.4842298887162697,1.8193633102260423,-0.9799008774623161,-0.045215052002042434,0.15876464659096426,0.11199846612289761,0.045714187319390476,0.0043141468535904245,20504.300621450646
1681924485864608287,145,1681924485864608287,camera_1,145,0,0.6617860217375294,0.48416004021331993,1.819068661858904,-0.9798585376229546,-0.0453389998289941,0.15872474126682526,0.11237472069683078,0.04005466582020744,0.00377862288463185,20507.720647831917
1681924485874455213,146,1681924485874455213,camera_1,146,0,0.6619767409426959,0.48428409128357236,1.8195549682980565,-0.9799189925355812,-0.045198197475369975,0.15850753885216143,0.11221074431648559,0.03662985854316503,0.0034573855665731294,20501.765582460444
1681924485884464502,147,1681924485884464502,camera_1,147,0,0.6617679946519229,0.4841403064088564,1.8190260897999053,-0.9798668030422034,-0.045374322788609436,0.15854873386002993,0.11253674119463468,0.048724110936746,0.004596176033985755,20509.751186879123
1681924485894432306,148,1681924485894432306,camera_1,148,0,0.6618960942286919,0.48423063722970455,1.8193354948077647,-0.9798922784465226,-0.04527263106796926,0.15867210245886249,0.11218143972311269,0.04034203011542559,0.0038069289541311237,20504.38385203958
1681924485904581308,149,1681924485904581308,camera_1,149,0,0.6618472566670968,0.48418956112383543,1.8192165926557133,-0.9798997902135294,-0.04531647231681622,0.158636181598846,0.11214892047620695,0.04171709407819435,0.003936164619554444,20508.06362798006
1681924485914487600,150,1681924485914487600,camera_1,150,0,0.661900361268115,0.48424714457072626,1.8193791747419354,-0.9799229251796273,-0.0451253330028111,0.15857645446037968,0.11210830977034314,0.03922909061657265,0.003702069788679627,20505.80205456249
1681924485925039052,151,1681924485925039052,camera_1,151,0,0.6616938818455685,0.48407935067040875,1.818789948208758,-0.9798760419750778,-0.04532357150137398,0.1587412669588101,0.1122048412232171,0.04052052868064493,0.003821481502385757,20515.41797116444
1681924485934858798,152,1681924485934858798,camera_1,152,0,0.6617969324634868,0.48416493328083654,1.8190900952227713,-0.9798313174553914,-0.045344103623067275,0.15892824453378232,0.11232236949807861,0.04631180776050315,0.004369150346263904,20504.50815764744
1681924485944679975,153,1681924485944679975,camera_1,153,0,0.6618123972350914,0.4841644516467921,1.8191158939619811,-0.9799330638672976,-0.04527646316543761,0.15875686214749998,0.11170268995847546,0.05183812859468162,0.004890924459363389,20512.94607922726
1681924485954677820,154,1681924485954677820,camera_1,154,0,0.6619225181073023,0.4842388035096806,1.8193983031744472,-0.9799320622470847,-0.04521546214220754,0.15809359188500105,0.11267267445277525,0.039537496282719076,0.0037309286602720615,20506.901459168177
1681924485964450836,155,1681924485964450836,camera_1,155,0,0.6618783337594657,0.48422011316847774,1.8193216910749426,-0.9799129964405799,-0.04522357903568133,0.15881423815888626,0.11181853631692783,0.03969550278270617,0.003746006016430158,20506.445183354554
1681924485974597692,156,1681924485974597692,camera_1,156,0,0.6618646512549469,0.484220601419367,1.8192912033278714,-0.979912470882379,-0.04534207132372566,0.15871875946844924,0.1119106847895301,0.04409566608956084,0.004161056892099504,20507.58105940302
1681924485984625577,157,1681924485984625577,camera_1,157,0,0.6618158112005361,0.48416672060384625,1.8191160014713692,-0.9798647777667804,-0.04515773538194224,0.1590565454209837,0.1119232397046087,0.041996722167823464,0.003962359583476568,20506.03540348424
1681924485994920730,158,1681924485994920730,camera_1,158,0,0.6619390965179459,0.48426612468040975,1.8194670572817442,-0.9799350682495277,-0.04520556648266758,0.15856507121577168,0.11198587841380706,0.043313430331181735,0.00408797901122082,20505.15767254249
1681924486004815816,159,1681924486004815816,camera_1,159,0,0.6620083932839825,0.48432940994491586,1.8196700724222072,-0.9799529337119746,-0.04520605930250113,0.15844467979077886,0.11199974713199509,0.04343519068788737,0.004100338207405444,20502.32210613251
1681924486014468669,160,1681924486014468669,camera_1,160,0,0.6619050088610969,0.4842417581254731,1.819402414192314,-0.9799299025229232,-0.045296514393595874,0.1583659943708598,0.1122756596602046,0.041567500797100365,0.00392270725451857,20506.886103047058
1681924486024354457,161,1681924486024354457,camera_1,161,0,0.6618815968951415,0.4842025908863817,1.8193195954513015,-0.9798646044477652,-0.04534891646353887,0.15884467445846132,0.11214812580775933,0.039011186512652785,0.003681294373731628,20502.663341109175
1681924486034720659,162,1681924486034720659,camera_1,162,0,0.6618586920161538,0.48421368858930675,1.8192665313656724,-0.9798863861752501,-0.04530677263233756,0.15850492827299256,0.1124551210715805,0.035229722619988024,0.003324069865096506,20505.880227018843
1681924486044396638,163,1681924486044396638,camera_1,163,0,0.6618893007915837,0.4842263271618318,1.8193262506183017,-0.9798561805686277,-0.045229658208895934,0.15871787487013028,0.11244900896173851,0.05244332138681784,0.0049488296718065376,20501.074344075518
1681924486054531574,164,1681924486054531574,camera_1,164,0,0.6618946017161922,0.48422926390587046,1.8193360595171404,-0.9799168521824828,-0.045181693742661046,0.15880224167054804,0.11181871667895077,0.04705633252160624,0.004440791070001033,20506.055121699
1681924486064476966,165,1681924486064476966,camera_1,165,0,0.661788887347486,0.48414998554933775,1.8190585091978402,-0.9798354333215251,-0.04538718157295967,0.15857060680304733,0.11277362286721045,0.035482807201333344,0.003347102934679012,20506.199796306435
1681924486074548721,166,1681924486074548721,camera_1,166,0,0.6618691222303529,0.4842173810805099,1.8192990640730968,-0.979841671698574,-0.045327124970416625,0.15888968510656745,0.11229344643208833,0.036076593794859946,0.0034042513090894685,20500.857964035466
1681924486084341287,167,1681924486084341287,camera_1,167,0,0.6618488780154509,0.4842033913926347,1.819217057842995,-0.9798741619868943,-0.0452807408429732,0.15868322509600158,0.11232059139946213,0.03975521103711799,0.003751012760259083,20505.457442699124
1681924486094503879,168,1681924486094503879,camera_1,168,0,0.6618893936108403,0.48424255460909527,1.8193512074994662,-0.979888504778481,-0.045076399896047704,0.15881007261380445,0.11209815882432059,0.039382757036946714,0.003716543110120444,20502.863332637582
1681924486104551076,169,1681924486104551076,camera_1,169,0,0.6618449926320285,0.48420027247365444,1.819231654181443,-0.9799077733554116,-0.045164870388505945,0.1584190948714818,0.11244678999655507,0.03713911067461595,0.003504097404093025,20508.121958929332
1681924486114442348,170,1681924486114442348,camera_1,170,0,0.6619174653047615,0.48424424042835723,1.8194153945418754,-0.9799299380088763,-0.04523922315103707,0.15839524422487716,0.11225718636039334,0.04293894313741475,0.004052232299807417,20506.243933389887
1681924486124516248,171,1681924486124516248,camera_1,171,0,0.6617397847021416,0.4841398474975121,1.8189524298850919,-0.9798668124314928,-0.045226962262381584,0.15893710026000363,0.11204708805142917,0.03938258072594181,0.003714931861351276,20510.39971589949
1681924486134433746,172,1681924486134433746,camera_1,172,0,0.6618443262006182,0.4842039421152443,1.8192293866574982,-0.9798839326780694,-0.04527936142063986,0.15870550061194763,0.11220437595838686,0.044321216526441276,0.004181951359233742,20506.136103782672
1681924486144373416,173,1681924486144373416,camera_1,173,0,0.6620648119705265,0.48438480543958906,1.8198266134916783,-0.9799790659503567,-0.04517652536184456,0.15820373105630342,0.11212355388214405,0.04960541182663292,0.004683538361456921,20501.14641994645
1681924486154359102,174,1681924486154359102,camera_1,174,0,0.6618894576790636,0.48424329810443534,1.819343280696281,-0.9798974330428096,-0.04527789059509646,0.15870788967021862,0.1120836254579438,0.04385829617967829,0.0041388480346862344,20504.669858136673
1681924486164697647,175,1681924486164697647,camera_1,175,0,0.6619336356622408,0.4842632606213504,1.8194302072068176,-0.9798884467625112,-0.04519149830240243,0.15884610864879778,0.11200122387577491,0.051307841029483825,0.004842495359290726,20501.254263016162
1681924486174794673,176,1681924486174794673,camera_1,176,0,0.6618449987665839,0.4842100757119482,1.8192581520951352,-0.9799305933947993,-0.04515935511046822,0.1586335836815314,0.11194664310857062,0.04044846654869616,0.0038166937415986795,20509.45917935937
1681924486185174465,177,1681924486185174465,camera_1,177,0,0.6618616972179402,0.48423130477069526,1.819301112304367,-0.9799073850062863,-0.0452348666740803,0.15845573190482362,0.11237039055563859,0.04588686645729467,0.004329875984845947,20506.74040466965
1681924486194643497,178,1681924486194643497,camera_1,178,0,0.6619243215208053,0.4842523483807103,1.8194164492594784,-0.9798663091052241,-0.04535162633184868,0.1587161935094069,0.11231391804868303,0.038957322598434985,0.00367653503302124,20500.515650268524
1681924486205291032,179,1681924486205291032,camera_1,179,0,0.6618158653464958,0.4841880514611558,1.8191477657707193,-0.9798502620167853,-0.04524460584792958,0.15877484286343635,0.11241414030714188,0.03846375329885632,0.0036288615777506565,20504.726198726108
1681924486214633941,180,1681924486214633941,camera_1,180,0,0.6618464145821786,0.48420553377514813,1.8192295906622427,-0.9799174799054389,-0.045235651315246574,0.15870388414829922,0.11193098579974406,0.050500334647949785,0.004765164628445702,20508.910546945644
1681924486224604606,181,1681924486224604606,camera_1,181,0,0.6618776545931311,0.4842281417448797,1.8193278594552083,-0.979883564283455,-0.04534553456005988,0.15845487579909304,0.11253459591658237,0.039231056289281696,0.0037018372827843453,20504.459728768325
1681924486234589338,182,1681924486234589338,camera_1,182,0,0.6619240564146381,0.48425215683422174,1.8194238888570058,-0.9799200341635707,-0.045076389345387956,0.15853015643820195,0.11221869393344829,0.03857126127695665,0.003640129572968372,20504.329593823764
1681924486245162487,183,1681924486245162487,camera_1,183,0,0.661918602049133,0.484234142463192,1.8193870639783964,-0.9799011278775148,-0.04526575808157926,0.15860866949482477,0.1121966162179405,0.04542859038338065,0.004287182033830269,20504.029015234082
1681924486254921436,184,1681924486254921436,camera_1,184,0,0.6619120062327434,0.48425792602049167,1.819404567725212,-0.9798848235642825,-0.045225689955050635,0.15897288663758455,0.1118391292464244,0.047448160068597645,0.004478150756940745,20501.669262805957
1681924486264626979,185,1681924486264626979,camera_1,185,0,0.6618272939751649,0.48418724935095064,1.8191779337279288,-0.9799197552759402,-0.045279038566622375,0.15861397411718464,0.11202093153146415,0.04994082433404401,0.004712018077407621,20510.557333169156
1681924486275099277,186,1681924486275099277,camera_1,186,0,0.6618708740799407,0.4842227112155498,1.8193300845138274,-0.9798955634870816,-0.04533864846017803,0.15858088079201116,0.11225504826674448,0.035361653834115714,0.0033368096871791673,20505.508122454623
1681924486284781455,187,1681924486284781455,camera_1,187,0,0.6618188820795236,0.48418998305228483,1.8191503660757637,-0.9799263678574951,-0.04511055470262951,0.15855361684719013,0.112116466304967,0.04465443320805207,0.004213044375195746,20511.118743482868
1681924486295020580,188,1681924486295020580,camera_1,188,0,0.661946180925618,0.48428133731015854,1.8195014442397086,-0.9799420859343111,-0.04527366223457581,0.1581555063003227,0.1124750619002698,0.039936496992595494,0.003769074554301161,20505.74966463878
1681924486304925441,189,1681924486304925441,camera_1,189,0,0.6619866584664871,0.48430434336684414,1.8195996344460468,-0.9799070790640346,-0.04529417673612279,0.15807050651195956,0.11289051742746807,0.04027636343380436,0.0038014011119448347,20500.488037073064
1681924486314567327,190,1681924486314567327,camera_1,190,0,0.6618280069069893,0.4841910106751282,1.8191454615023008,-0.9799191190170959,-0.045126703896861034,0.15877809529106354,0.11185534066778247,0.04324800573522225,0.004080511748479132,20510.2659524061
1681924486324554204,191,1681924486324554204,camera_1,191,0,0.6618200529615267,0.48417251532163635,1.8191209572474003,-0.9798740007149227,-0.04532527656928698,0.15888199585044077,0.11202264691315766,0.04417256818851456,0.004167577461533146,20507.50395123451
1681924486334706544,192,1681924486334706544,camera_1,192,0,0.661838809318833,0.4841774581855846,1.8191802293408679,-0.9799168945705213,-0.04534301599666061,0.1585178134813592,0.11215611193636024,0.04377142951125279,0.004129809167531106,20510.58096265257
1681924486344513654,193,1681924486344513654,camera_1,193,0,0.6618151152634082,0.48418490648148416,1.8191347797671829,-0.9798009117870463,-0.04535147828432155,0.1590827916497482,0.11236584035916952,0.04526834498392418,0.004270949918902247,20500.589370551286
1681924486354554414,194,1681924486354554414,camera_1,194,0,0.6619359769688282,0.4842718605599454,1.8194696237408394,-0.9798924024727982,-0.045291549771830926,0.1589710884783933,0.11174859338420616,0.041607976076193154,0.003927218114138407,20501.227307493325
1681924486364593982,195,1681924486364593982,camera_1,195,0,0.6617485510337786,0.484130146710045,1.8189935296987907,-0.9798975454709277,-0.04528700375024485,0.1583231253855821,0.11262182576888934,0.04179747693706304,0.003942490321920706,20513.286574903872
1681924486374464035,196,1681924486374464035,camera_1,196,0,0.6619390487651167,0.4842688570867781,1.81949642483123,-0.9799465370942138,-0.04527430847659681,0.15865604773158698,0.11172859950441127,0.03493454575072974,0.0032972986440334365,20505.977177728193
1681924486384409189,197,1681924486384409189,camera_1,197,0,0.6619346126599047,0.4842826178300134,1.8194759358536323,-0.9799068733620633,-0.045152421460877334,0.15877309784251234,0.11195928624056445,0.04087634535972029,0.003858062818030135,20502.013227523308
1681924486394508361,198,1681924486394508361,camera_1,198,0,0.6619720728251415,0.4843081935554095,1.8195809271319208,-0.9799332298052802,-0.04525996701472865,0.15852665480867706,0.11203437072786297,0.0397412326419726,0.003751234460287241,20502.745027045137
1681924486404671430,199,1681924486404671430,camera_1,199,0,0.6619701851461625,0.48428651123361327,1.8195737050270007,-0.9799029180925194,-0.045399383501816,0.15868401200155316,0.11202031702557982,0.03889600973343477,0.0036714430839224145,20500.708107529557
1681924486415088176,200,1681924486415088176,camera_1,200,0,0.6619177714698823,0.48425675966114623,1.81944653467369,-0.979933472999058,-0.04534897263759136,0.15848826540379732,0.11205056405933543,0.03947285620961338,0.0037253059734308294,20506.35532604553
1681924486425204515,201,1681924486425204515,camera_1,201,0,0.6619157974332828,0.48426657423636443,1.8194093843924488,-0.9798813102428183,-0.04522024845408142,0.15880720030889423,0.11210718128924323,0.046689077804330736,0.004406368265608793,20501.31041866343
1681924486435108423,202,1681924486435108423,camera_1,202,0,0.6618091492781693,0.4841759445434739,1.8191220438261968,-0.9798780420861279,-0.045305621177300304,0.15878232303617454,0.11213651153139906,0.04197073413524777,0.003959740691309886,20508.014524279504
1681924486445064544,203,1681924486445064544,camera_1,203,0,0.6618318091719038,0.48419181184997745,1.8191714494912858,-0.9798720470182669,-0.04518408354752262,0.15888237665786853,0.11209621070200773,0.052404043322894715,0.004944515449144126,20505.626451946333
1681924486454865694,204,1681924486454865694,camera_1,204,0,0.6618952020239903,0.48423873377637344,1.8193611996670866,-0.9799320486756625,-0.045187325402984084,0.1585115264234181,0.11209541289527304,0.04261772340396419,0.004021780364320599,20507.313814558212
1681924486465243339,205,1681924486465243339,camera_1,205,0,0.6618551842545168,0.4842074283706952,1.819252653281706,-0.9798781535598713,-0.045213012705100745,0.15868213529544042,0.11231459208983156,0.03856315527809784,0.0036386698164808454,20504.86713367793
1681924486475279569,206,1681924486475279569,camera_1,206,0,0.6618858753855967,0.48422248984152694,1.819320396454748,-0.9798912243114632,-0.045210168253929976,0.15870154172670736,0.11217419425785688,0.03746041614795104,0.0035349320122359832,20504.46035509008
1681924486484853744,207,1681924486484853744,camera_1,207,0,0.6618011649577097,0.4841642210339413,1.8191041435177377,-0.9798764901598872,-0.045288479661646,0.15878809274850816,0.11214882631204083,0.04584523034282029,0.004325217091716698,20508.234892255743
1681924486494689226,208,1681924486494689226,camera_1,208,0,0.6618863035067537,0.48423144594037143,1.8193344408919585,-0.9799317080207804,-0.045244871083025204,0.15850002635590787,0.11209143991105185,0.036201292648911476,0.003416123659331613,20508.165521750925
1681924486504848957,209,1681924486504848957,camera_1,209,0,0.661881072280128,0.4842350355038746,1.8193333218019105,-0.9798606198457668,-0.04529194359875104,0.15877139788612468,0.11230961104822322,0.04170950537081808,0.003935934737806988,20501.69300777302
1681924486514604568,210,1681924486514604568,camera_1,210,0,0.6619102924938981,0.48423399187303984,1.8194007142809272,-0.9799013387415367,-0.04516974661692976,0.15864912733964784,0.11217626628424898,0.04510421369923279,0.0042566400065367,20503.49832329445
1681924486524855136,211,1681924486524855136,camera_1,211,0,0.662084345860509,0.4843867355017315,1.8198882947432657,-0.9799709837665156,-0.04519437112711117,0.1585025307869676,0.11176442872505882,0.04536183358868584,0.004283365217411703,20498.962961273028
1681924486534410238,212,1681924486534410238,camera_1,212,0,0.6618901379862487,0.4842305655345456,1.8193715371023491,-0.9799488520603465,-0.04523677442804048,0.15845759226360587,0.11200479025013468,0.03731619444442913,0.003521475851156611,20509.082105592595
1681924486544397592,213,1681924486544397592,camera_1,213,0,0.6619134692275237,0.4842508959456766,1.8193948568999445,-0.9798723382409467,-0.04522787561411176,0.1587251173059028,0.11229860708789607,0.045888789114542305,0.004330655404439815,20500.984208477203
1681924486554336547,214,1681924486554336547,camera_1,214,0,0.6619382093645042,0.4842682310931439,1.819469266091981,-0.9799074253193313,-0.0452532277015903,0.15865503836761696,0.11208105097293401,0.03839983115904033,0.00362419287109969,20502.750198862163
1681924486564461231,215,1681924486564461231,camera_1,215,0,0.6619211758320508,0.4842603066549829,1.8194034129867445,-0.979893646973067,-0.045269098205491826,0.15860499009930812,0.1122657850152136,0.04078775056404993,0.0038492355069431727,20502.958403318422
1681924486574654817,216,1681924486574654817,camera_1,216,0,0.6618982354839517,0.48423487314712427,1.8193458914234126,-0.9798630637889539,-0.0453791725484691,0.15849125699157876,0.11264825066626774,0.03917223302414641,0.0036963484481601,20502.14866473456
1681924486584370851,217,1681924486584370851,camera_1,217,0,0.6618500724775176,0.4841986619912071,1.8191999185891152,-0.9798780480654651,-0.045325865182400206,0.1586139235795363,0.11236636557077927,0.04396962531609461,0.004148573858176163,20506.303802984417
1681924486594417095,218,1681924486594417095,camera_1,218,0,0.6618623901879207,0.4841983155897986,1.819270569511505,-0.9798669153939272,-0.04534156557393556,0.15896737178373962,0.11195689016699702,0.03952083992771804,0.003729298612648751,20503.768085155407
1681924486604453802,219,1681924486604453802,camera_1,219,0,0.6619301072105457,0.48426560547378694,1.8194462967799878,-0.979927148014282,-0.04525136352165986,0.15843699284471247,0.1122177257938804,0.039172432327177376,0.0036969148866375064,20505.227723618387
1681924486614466667,220,1681924486614466667,camera_1,220,0,0.6619444302428741,0.4842494715032558,1.8194754637041646,-0.9798656440694458,-0.045330385607477874,0.15858024314925823,0.11252014128932512,0.03821469465037808,0.0036065608653448795,20499.323185260637
1681924486624405145,221,1681924486624405145,camera_1,221,0,0.661943580987392,0.48427861654461585,1.8194918912384932,-0.9798895232593164,-0.04531360397355694,0.15851492006298157,0.11241094083310488,0.03879977710312233,0.003661872291777188,20501.02687487495
1681924486634338140,222,1681924486634338140,camera_1,222,0,0.6618984619771213,0.4842356047069668,1.8193700216287132,-0.979886448151311,-0.045214874543147,0.15872127336006311,0.11218610088783647,0.04072748322505504,0.0038434528241103006,20502.94906439108
1681924486644476175,223,1681924486644476175,camera_1,223,0,0.6618209999813234,0.4841821457325478,1.819149673614588,-0.9798741847146727,-0.04520225699351025,0.15867325348512976,0.1123660834989453,0.04638409340986982,0.004376174165953191,20506.67111332424
1681924486654547452,224,1681924486654547452,camera_1,224,0,0.6619368636544842,0.4842768170990827,1.819465238762617,-0.9799140656179156,-0.045231081064071664,0.15876635047109453,0.11187412242351909,0.04823221737751737,0.004552371548838102,20503.122707028175
1681924486664490461,225,1681924486664490461,camera_1,225,0,0.6617543042726798,0.48414464942143876,1.8189854269503856,-0.979856300805644,-0.04531433262286382,0.15875551972362253,0.11236069592035457,0.04169904824811965,0.00393342019707059,20509.22036146455
1681924486674562931,226,1681924486674562931,camera_1,226,0,0.6618745223479223,0.4842251889019216,1.8193109791551028,-0.9798693674979205,-0.04522834726609633,0.15877469386490256,0.1122542463825272,0.03746124397730455,0.003534956739549419,20502.76994361065
1681924486684403896,227,1681924486684403896,camera_1,227,0,0.6619121341317865,0.48424099821617334,1.8194133667137846,-0.9798951052593506,-0.045384620164022414,0.15862389170952024,0.11217967694845656,0.04331889591412619,0.004088157140925073,20503.59426494199
1681924486694640159,228,1681924486694640159,camera_1,228,0,0.6620225050124325,0.4843376745127902,1.8197022203350237,-0.9799382666326808,-0.04526301151435405,0.1584676370591631,0.11207257194547654,0.04382331285160035,0.00413710519173841,20500.43236545974
1681924486704611539,229,1681924486704611539,camera_1,229,0,0.6619052966355536,0.4842480193404513,1.819401283087208,-0.9799031379406289,-0.04524970891416055,0.15880401677579048,0.11190883947734864,0.04285046429140493,0.004044073536878004,20503.82646757482
1681924486714668512,230,1681924486714668512,camera_1,230,0,0.6620427015869763,0.4843478750422754,1.8197734397252356,-0.9799453716822115,-0.045187106547717876,0.15844155335121468,0.11207795542439107,0.04255111137172207,0.004017292378532759,20499.32824222464
1681924486724573850,231,1681924486724573850,camera_1,231,0,0.6619185240877232,0.48424238524898044,1.8193937566783946,-0.9799283096787446,-0.04510310685318572,0.15878249685974619,0.11177806731793735,0.04606227623298764,0.0043472722707985694,20505.487899418447
1681924486734519243,232,1681924486734519243,camera_1,232,0,0.6618991172471909,0.48422042083073213,1.8193554288789895,-0.9798889308161092,-0.04525385365305857,0.15885356603239878,0.11196122789787728,0.03981482714880258,0.003757374572410814,20503.532761689283
1681924486744441747,233,1681924486744441747,camera_1,233,0,0.6619375129764343,0.48426290303691755,1.8194670967507938,-0.9799743030054598,-0.04523368266881968,0.15841410453422022,0.11184476244241807,0.04179487098008394,0.003944640543150135,20509.004239457663
1681924486754414558,234,1681924486754414558,camera_1,234,0,0.6617834084057226,0.48414837307171454,1.8190700160912747,-0.9798458566633277,-0.04526452299274425,0.15875689906602203,0.1124698499016052,0.03399174188962206,0.0032066116251150533,20506.386123529162
