%time,field.header.seq,field.header.stamp,field.header.frame_id,field.image_seq,field.transforms0.fiducial_id,field.transforms0.transform.translation.x,field.transforms0.transform.translation.y,field.transforms0.transform.translation.z,field.transforms0.transform.rotation.x,field.transforms0.transform.rotation.y,field.transforms0.transform.rotation.z,field.transforms0.transform.rotation.w,field.transforms0.image_error,field.transforms0.object_error,field.transforms0.fiducial_area
1681260772965371370,4,1681260772965371370,camera_1,5,0,-0.027917091114941027,-0.08235264101912926,1.553168862401747,0.9995665940260771,0.012457138599767943,0.006877116320647859,0.025771089928949605,0.06355821446049958,0.0026460673890618125,69622.44704548083
1681260772975335121,5,1681260772975335121,camera_1,6,0,-0.027876596835679737,-0.08292919677836369,1.5530612593675401,0.999571667286681,0.012354112191690102,0.008033803224892992,0.0252846964669052,0.06767868809401989,0.0028173855037764432,69626.39165606978
1681260772985334873,6,1681260772985334873,camera_1,7,0,-0.02784635597048312,-0.08326533209081244,1.5530893776086168,0.9995299243044222,0.012379172748063579,0.005010905906437827,0.02759669045495014,0.08112583385081962,0.0033778124930324027,69615.28789085426
1681260772995329380,7,1681260772995329380,camera_1,8,0,-0.027872872372713454,-0.08306877517173458,1.5531807213536648,0.9995508491336216,0.012361587255400881,0.007135873041708921,0.026350910282487296,0.061562646937090904,0.002563279704145732,69610.8871403503
1681260773005319118,8,1681260773005319118,camera_1,9,0,-0.02784224015801919,-0.08233548841954591,1.5532637984532685,0.9995917279968061,0.012122308356516787,-0.015981339843652832,-0.020347573252611783,0.08685570757370441,0.0036167510441371727,69605.89908053365
1681260773015342473,9,1681260773015342473,camera_1,10,0,-0.02794475247282429,-0.08201282447568968,1.553332751857004,0.9996348292263397,0.012448934530581744,0.006091755640847619,0.023197472704849138,0.07035522104706615,0.002929116056215743,69627.9760598056
1681260773025342226,10,1681260773025342226,camera_1,11,0,-0.027933441188636214,-0.08204350115827164,1.5532649038278246,0.9995045006423177,0.01248576027840235,0.006551041047977755,0.028141479122626153,0.06847814779030158,0.0028516418190108785,69602.15729063493
1681260773035593271,11,1681260773035593271,camera_1,12,0,-0.027894927008727755,-0.08255077070697356,1.5531725470414806,0.9994508751988062,0.012441642744460206,0.006643424017955106,0.029983637329004813,0.08195111964596435,0.003412533201592583,69592.74281364612
1681260773045360803,12,1681260773045360803,camera_1,13,0,-0.027867600106987814,-0.08310741306310304,1.553272230556996,0.9996506035103886,0.012300195285312551,0.005964812609625654,0.0226229332269529,0.06795609288383275,0.0028294229639269446,69627.98921591371
1681260773055397748,13,1681260773055397748,camera_1,14,0,-0.027787175144363126,-0.08313687627742614,1.5532918214069307,0.999637247582644,0.01199652546320579,-0.015113954249896316,-0.01878895976732624,0.07265115098562092,0.003025389908314166,69612.13492494347
1681260773065376043,14,1681260773065376043,camera_1,15,0,-0.02788097234372002,-0.08291403042542592,1.5532279989367812,0.9995478717237553,0.012459167488127443,0.006320930512133654,0.026624558502914855,0.07466630672570318,0.003109004557577765,69608.8029094789
1681260773075701713,15,1681260773075701713,camera_1,16,0,-0.02794109603118873,-0.08231231411129923,1.5533010758128007,0.9995424443678148,0.01245147945816898,0.00819976757720281,0.02631779584608908,0.057364745123777525,0.002388921156786391,69603.1412080795
1681260773085745334,16,1681260773085745334,camera_1,17,0,-0.027938985129804132,-0.08194657736888668,1.553159394341312,0.9995179375978701,0.012527764417516287,0.006473867792305405,0.027659294542833994,0.08302431867923588,0.003456429610109686,69615.79540331963
1681260773095348834,17,1681260773095348834,camera_1,18,0,-0.027939076628354653,-0.08216814249178936,1.5533018196730841,0.9995494813473446,0.012496724894156664,0.007334135631489443,0.026284532708673446,0.06544454308459535,0.0027252030132625554,69607.48367724621
1681260773105742692,18,1681260773105742692,camera_1,19,0,-0.027891251258400085,-0.08274611437636076,1.5528778248796185,0.9994834540304125,0.012371953066739596,0.008056897358732797,0.028545512812026726,0.08216992142843083,0.0034198783549968122,69622.76270346969
1681260773115759611,19,1681260773115759611,camera_1,20,0,-0.02785069385406347,-0.08323264885110108,1.552957924764621,0.9994841884110892,0.01238719405002638,0.006863856867350204,0.028823636285138544,0.08676539832958952,0.0036119937471630853,69613.41959362244
1681260773125302314,20,1681260773125302314,camera_1,21,0,-0.02787010153210316,-0.08321000700161275,1.5530553106328844,0.9994889534257813,0.012374074550308194,0.007664070489144977,0.028460082262666664,0.086599072732497,0.0036055425767828825,69604.86490721756
1681260773135365009,21,1681260773135365009,camera_1,22,0,-0.027825930558493903,-0.08257480941646762,1.5533277362785811,0.9996381900614737,0.012157650494278503,-0.017388360439943663,-0.016532556556404412,0.07306003401754424,0.0030420282387344628,69617.10627308348
1681260773145315170,22,1681260773145315170,camera_1,23,0,-0.02793544694698208,-0.08213647259922323,1.553336203122538,0.9995196402851146,0.012425912672447501,0.007007775841116616,0.027513205126490924,0.06882971851155162,0.002866292445107967,69597.85152805282
1681260773155346155,23,1681260773155346155,camera_1,24,0,-0.027938650908320005,-0.08195730627483191,1.5534287753549048,0.9995646481412415,0.012414443869711812,0.00519569492982343,0.026256437760638286,0.07866172451758757,0.00327586563523301,69604.57743728791
1681260773165389537,24,1681260773165389537,camera_1,25,0,-0.02790745385072408,-0.0823442251911175,1.5534123615978983,0.9996381791488348,0.012440027161802791,0.004081501134010996,0.02349676277083258,0.06650940782856196,0.0027696749220145864,69622.01044492121
1681260773175567626,25,1681260773175567626,camera_1,26,0,-0.027870964783342535,-0.08293897351926678,1.5530929360040937,0.9995916767777979,0.012447199803440409,0.0072271235936766775,0.024684319276937153,0.07159408566076307,0.002980262687821436,69629.83702810413
1681260773185532569,26,1681260773185532569,camera_1,27,0,-0.027851212713898937,-0.0832833403220247,1.5530703594931665,0.9995627685972863,0.012288254475151575,0.0058838965344750445,0.026242145446846284,0.07203560578636825,0.002998981229421936,69623.30546202188
1681260773195463418,27,1681260773195463418,camera_1,28,0,-0.027882632826210604,-0.08306061668888205,1.5530147751874002,0.9995294266922508,0.012463628521950886,0.008065973564358443,0.02684256341683222,0.0774641529424116,0.0032245119637298466,69619.31675578534
1681260773205916643,28,1681260773205916643,camera_1,29,0,-0.027920406445121452,-0.08248796314617346,1.55344435393589,0.9995553594849749,0.012432016732740792,0.0057797856681649044,0.026478715271890933,0.07254801789531484,0.0030217367460776963,69595.68805502576
1681260773215943574,29,1681260773215943574,camera_1,30,0,-0.02793371140440965,-0.08201560767200194,1.553323499577323,0.9995602834392804,0.012518618533309671,0.005823844135701057,0.026241318569883446,0.06490798876620829,0.002702749995234333,69611.76946376008
1681260773225911617,30,1681260773225911617,camera_1,31,0,-0.027860703378847197,-0.08187941232446012,1.5532877957666544,0.9996012307546315,0.012172757638174839,-0.01662970939806133,-0.01930430549500318,0.07910890621133149,0.003293903423526546,69610.30097410991
1681260773235539674,31,1681260773235539674,camera_1,32,0,-0.02789470188614375,-0.08253545876144648,1.5529168539054312,0.9994477212738127,0.012364693239827175,0.007974068210367344,0.02979565468058647,0.08454267762135714,0.0035191670836447007,69612.57072892194
1681260773245913743,32,1681260773245913743,camera_1,33,0,-0.027790055621498395,-0.08296950670205076,1.5531317619502245,0.9996175919016335,0.012142977405292276,-0.015947681317156022,-0.019049659343945417,0.07484803785337134,0.0031161482457273326,69623.02259344867
1681260773255945444,33,1681260773255945444,camera_1,34,0,-0.027855384417568102,-0.08327145819981027,1.5533630264013443,0.9996195961093803,0.012344168925852314,0.005674108227337957,0.024001855417315445,0.07064610422821715,0.002942080503499815,69611.73422720097
1681260773265863180,34,1681260773265863180,camera_1,35,0,-0.027816161229775788,-0.08277012549603695,1.5531753891692124,0.9996440050885271,0.012059805233858389,-0.01530470396272191,-0.0182260863847254,0.07661527663003653,0.0031896771948603793,69626.93342975527
1681260773275513410,35,1681260773275513410,camera_1,36,0,-0.027939106678014233,-0.08230098175486562,1.5531255017417407,0.9995398509217837,0.012484616425082537,0.0072406395639151785,0.026679466086909118,0.0702271408517845,0.0029237526033468286,69619.68278867274
1681260773285632848,36,1681260773285632848,camera_1,37,0,-0.027935983690471303,-0.08196256490087821,1.5533660479582097,0.9995685171466645,0.012462620886414052,0.005750026517835461,0.0259692087847152,0.0718886599643156,0.0029937693419602946,69610.36771237291
1681260773295957326,37,1681260773295957326,camera_1,38,0,-0.02792494266996217,-0.08217030859810034,1.5529229105919928,0.999457232012944,0.01248200878331787,0.007354659071873756,0.029586311424270744,0.06384026684099808,0.0026574743721171105,69618.64976799884
1681260773305727958,38,1681260773305727958,camera_1,39,0,-0.02780963943316112,-0.08260690832030351,1.5531684774626449,0.9996341540057824,0.012180568331501739,-0.017009981255307886,-0.017142124662930774,0.07252444408368319,0.003019158117601297,69629.11886100493
1681260773315533161,39,1681260773315533161,camera_1,40,0,-0.02778805204927895,-0.08306770415618782,1.553150812910126,0.9996115204391371,0.012138312714258994,-0.01617807356871557,-0.019176535281761744,0.0808871315093711,0.0033673580283408314,69619.29432095902
1681260773325536012,40,1681260773325536012,camera_1,41,0,-0.027799248649577214,-0.08304058470785725,1.553018611249602,0.9995836687242082,0.012168602754516367,-0.016288107518920042,-0.02047222216339625,0.08150741504505277,0.003392827854682839,69622.5572597411
1681260773335461139,41,1681260773335461139,camera_1,42,0,-0.027821517623377277,-0.08253865486128262,1.5530506032014277,0.9995500598507039,0.012081394472696443,-0.01866620922789935,-0.020131825379478042,0.08619964413810521,0.0035878788241566918,69615.67929940578
1681260773345560789,42,1681260773345560789,camera_1,43,0,-0.027933121916055265,-0.08211927793387015,1.55324205210647,0.999564089798849,0.012479418560586741,0.006828950842361225,0.025870058511356885,0.07018620753660798,0.0029221533542018855,69617.4360271357
1681260773355463504,43,1681260773355463504,camera_1,44,0,-0.02787701134081837,-0.08180640363572227,1.553458264209083,0.999598345813946,0.012269655564377901,-0.016085985915715435,-0.01984549458878864,0.07805366796674207,0.0032507787086764315,69593.80658218416
1681260773365362167,44,1681260773365362167,camera_1,45,0,-0.027919166758177783,-0.08234075507276609,1.5531773361998205,0.9995106227920525,0.012486037091782799,0.0067831620431134075,0.027867588993002068,0.06104080833029002,0.0025416838065497544,69608.49957858643
1681260773375386714,45,1681260773375386714,camera_1,46,0,-0.027818319073532542,-0.08278364207189791,1.553180028315857,0.9996691634003513,0.012113672131857498,-0.013455174618115044,-0.018269673503374734,0.0678317085839808,0.0028242718703735603,69631.29450046482
1681260773385370254,46,1681260773385370254,camera_1,47,0,-0.027846414214174074,-0.08328107379111996,1.5531316636674883,0.9995512408537367,0.01224637407480158,0.00516994537891091,0.02684427116825205,0.08452913822839037,0.0035193674045250903,69616.02669402164
1681260773395334243,47,1681260773395334243,camera_1,48,0,-0.027881406735969852,-0.08306643677042597,1.5530125808502788,0.9995292789789698,0.0124065144130742,0.009787229065110231,0.026296558921770862,0.06454068253515288,0.0026865907146185696,69616.67457027175
1681260773405371427,48,1681260773405371427,camera_1,49,0,-0.027914760844788104,-0.08248952830166972,1.5536224376331116,0.9996208630426842,0.012387966451466545,0.002361409151078057,0.024476360101494163,0.07988119166111574,0.0033275547715081455,69603.76818736759
1681260773415330410,49,1681260773415330410,camera_1,50,0,-0.02794482113494405,-0.08201335682760229,1.5532431791469845,0.9995344423432685,0.012465310961090943,0.007222390034065026,0.026895197979762395,0.06648852780926973,0.002768352016939824,69610.43648727809
1681260773425544261,50,1681260773425544261,camera_1,51,0,-0.027928439846998034,-0.0820330450126828,1.553449655295937,0.9995749141573405,0.012416461285181521,0.005764428551806955,0.025740898196652727,0.07671599189052358,0.0031946619540075176,69603.81850814122
1681260773435792446,51,1681260773435792446,camera_1,52,0,-0.027895462050342903,-0.08254638264140308,1.5530523061737245,0.9994784868111614,0.01241408449942204,0.006475942343209531,0.029098231535259988,0.07718933216528967,0.003213659738483074,69610.30189023071
1681260773445527553,52,1681260773445527553,camera_1,53,0,-0.027778500382571764,-0.08293933952615393,1.5526930139869677,0.9995301133040042,0.012080992174930272,-0.016355401518813435,-0.022936936755201143,0.08112764835823329,0.003376242071903096,69635.02708062952
1681260773455699205,53,1681260773455699205,camera_1,54,0,-0.02785873258220627,-0.08328127717162269,1.5533625236991424,0.999627627800884,0.012273154270964683,0.004333565092665242,0.023983236541513298,0.06634750997181982,0.002763240164759964,69615.21829123971
1681260773465382337,54,1681260773465382337,camera_1,55,0,-0.027889122609662094,-0.08290604213007692,1.5531049327721282,0.9995771102694198,0.012455001141049953,0.007914250495536285,0.025056699924501415,0.07058088149642572,0.0029380144767406605,69624.43588768413
1681260773475392103,55,1681260773475392103,camera_1,56,0,-0.0279296595341194,-0.08231173540473012,1.553184118776563,0.9995233131579846,0.012461239683235124,0.006344117631813655,0.02752482753290496,0.07001680217217654,0.002915174021665121,69611.71694616182
1681260773485339879,56,1681260773485339879,camera_1,57,0,-0.02795132392502158,-0.08194067346931871,1.5531400358412928,0.9995386276546881,0.012476408334636892,0.007501492313114583,0.026657056745380353,0.07619302475359291,0.0031719959182484143,69620.76637182091
1681260773495384693,57,1681260773495384693,camera_1,58,0,-0.027929007598045865,-0.08216865503894663,1.5529103669333602,0.9994906175738586,0.012404075003446268,0.007699807823711998,0.02837881718137208,0.06556014192756265,0.0027287862593413145,69627.13657009261
1681260773505386352,58,1681260773505386352,camera_1,59,0,-0.0278941283579073,-0.08276045839912652,1.5534054651160545,0.999610906825857,0.012468092469416625,0.006407950163786664,0.02411472163763545,0.07258659991202876,0.003022694826244927,69609.4734233604
1681260773515380144,59,1681260773515380144,camera_1,60,0,-0.027773003562561595,-0.08306231345997547,1.553001518433164,0.9995531525064814,0.012091495691522415,-0.01652118140461119,-0.021779385007223644,0.08897386339958757,0.0037041952308532657,69614.69591342517
1681260773525318861,60,1681260773525318861,camera_1,61,0,-0.027784987564068622,-0.0830313315376502,1.5528964474810039,0.9995884478431585,0.012075443534677089,-0.016202328989755804,-0.020361805844619576,0.08104132150765508,0.0033729014748003655,69634.51057897878
1681260773535373210,61,1681260773535373210,camera_1,62,0,-0.027890195517694456,-0.08268526205234303,1.552823061865435,0.9995018311130298,0.012354738765091848,0.007171498653778428,0.028142843474067383,0.09106409072410315,0.0037895053089978125,69633.89656446375
1681260773545352935,62,1681260773545352935,camera_1,63,0,-0.027846981780318893,-0.08195870287511924,1.5532070021046862,0.9995602202108517,0.012128903508524915,-0.017176958892403348,-0.02090951828530483,0.08578466635663062,0.0035716250732277573,69604.89171497151
1681260773555725336,63,1681260773555725336,camera_1,64,0,-0.027930167346563246,-0.08195856703886974,1.553203404994204,0.9994751238740568,0.012411692209826138,0.006897925360027639,0.029117782868119533,0.09146793617401272,0.0038083878107567828,69600.58412329387
1681260773565392494,64,1681260773565392494,camera_1,65,0,-0.027836272149433797,-0.08217462909014148,1.5530804628407933,0.9995865032012716,0.012208128374697338,-0.016994654801350515,-0.019722219135377198,0.08379260957008228,0.0034880259766493396,69623.54422796823
1681260773575970888,65,1681260773575970888,camera_1,66,0,-0.027864594600627342,-0.08293147375036913,1.5531472776480468,0.9996166820748836,0.012292854986456344,0.0046874217863145055,0.02435985859730085,0.07089541235473007,0.0029515543450560375,69634.27965989977
1681260773585539102,66,1681260773585539102,camera_1,67,0,-0.027849569367916667,-0.08328599577082313,1.552888256097757,0.9994794444873418,0.012411162386788133,0.006493904186612454,0.029062558454105197,0.08122559695038944,0.003381167350598706,69618.48727693735
1681260773595700502,67,1681260773595700502,camera_1,68,0,-0.02786599124667955,-0.08306110282561471,1.552814825640702,0.999518387865307,0.012384800580661647,0.006387532207012813,0.027727395586663463,0.08470174920512363,0.0035249969765458623,69636.59227066833
1681260773605786323,68,1681260773605786323,camera_1,69,0,-0.02792233558293079,-0.0824750164149925,1.5532750346834105,0.9995642930022738,0.012376359282595074,0.007183053925672365,0.025815763054257555,0.06873536843340844,0.0028622001862343696,69610.71307127755
1681260773615752220,69,1681260773615752220,camera_1,70,0,-0.02786516893321813,-0.0818554869423472,1.5532908764106053,0.999586284390735,0.012124338485812132,-0.017247120522050255,-0.019565206564302124,0.0865015197196044,0.0036016938636475363,69606.33612637839
1681260773625341415,70,1681260773625341415,camera_1,71,0,-0.027935646812207584,-0.08200535400291636,1.553319857607645,0.9995718486300267,0.0124666192175892,0.0067726343503212005,0.025589729494303336,0.07096228015143424,0.0029547274885768663,69613.42492922442
1681260773635551929,71,1681260773635551929,camera_1,72,0,-0.027895189200333584,-0.08254013295517193,1.5532472052447668,0.9995375046370273,0.01241405516843613,0.00591135937198654,0.02712423065517378,0.07776579295750707,0.003238320705522596,69608.29571442373
1681260773645407915,72,1681260773645407915,camera_1,73,0,-0.02786218581389636,-0.08311231141938158,1.5530817538316712,0.9995415316663858,0.012464030910734275,0.0066475260518244,0.026780306287683246,0.08155373175395653,0.0033950677073373023,69618.08653754147
1681260773655419349,73,1681260773655419349,camera_1,74,0,-0.02785483584789672,-0.08325548085647698,1.552973588161845,0.9995422618439405,0.012302991178249028,0.0071426582219725875,0.026699918155147925,0.08489082904998213,0.0035336794725061116,69625.37550098439
1681260773665375232,74,1681260773665375232,camera_1,75,0,-0.027887880700782543,-0.08290219684664878,1.5532270060013051,0.9996237394472476,0.012345527973387845,0.006481148228648568,0.023621223300197912,0.061128467379603535,0.0025451818741535188,69626.61511895809
1681260773675358533,75,1681260773675358533,camera_1,76,0,-0.02786342599142999,-0.08216638660347828,1.5533347861376932,0.9996433564638272,0.01218279270309962,-0.015855619844255646,-0.017701377320465346,0.07466927135828882,0.003109159989840117,69616.92882666925
1681260773685344457,76,1681260773685344457,camera_1,77,0,-0.02785493848506452,-0.08178682733961071,1.553190371439586,0.9995488636326829,0.012206581586278121,-0.01783194038973188,-0.020858822558492935,0.08064804197056219,0.0033576672829971213,69605.06795742805
1681260773695322990,77,1681260773695322990,camera_1,78,0,-0.02785012943147934,-0.08204372234132123,1.55360622764344,0.9996670315455305,0.012154449315295876,-0.014547539851013253,-0.01750612712944818,0.07302088296273723,0.003041806077445758,69598.62720297232
1681260773705325841,78,1681260773705325841,camera_1,79,0,-0.027800288388228067,-0.08259663225337963,1.5528606778319476,0.9995302680592167,0.012129670372881462,-0.01823243329533278,-0.021440445570156248,0.07387211284367368,0.003074614350834768,69625.42854895722
1681260773715643167,79,1681260773715643167,camera_1,80,0,-0.02778922059138718,-0.08308831620951457,1.5532559588451698,0.9996529270935177,0.01202681062430674,-0.015167252723218791,-0.017869964308850746,0.075005974736996,0.003122932594787664,69620.77850881871
1681260773725354433,80,1681260773725354433,camera_1,81,0,-0.027861874976982594,-0.08319372240009329,1.5529595093763109,0.9995021099192413,0.012354723910829079,0.0075319423471930025,0.028038596765008868,0.07606059109093621,0.00316627632555984,69616.89671796374
1681260773735362768,81,1681260773735362768,camera_1,82,0,-0.02790254851116984,-0.0826954490241302,1.5531363450888427,0.9995606334106494,0.012522760182898602,0.006955830319788991,0.025948738652688687,0.07266847637947649,0.0030252719238101473,69621.06317107333
1681260773745321989,82,1681260773745321989,camera_1,83,0,-0.027941222871680788,-0.08211345560345078,1.5531186498441347,0.9995189742688307,0.012398976185436904,0.007475068952288641,0.027426425401357892,0.06523888057563454,0.0027159720222038383,69616.29720479669
1681260773755319595,83,1681260773755319595,camera_1,84,0,-0.02793277749401703,-0.081968542728461,1.5531863368203187,0.9994818413061684,0.012546885190786328,0.007198115555171635,0.02875433365068772,0.07002953003393486,0.0029158781605202345,69603.54271795205
1681260773765314579,84,1681260773765314579,camera_1,85,0,-0.02784793432844361,-0.08219585481641516,1.5533526436685963,0.9996494419733154,0.012117165856087457,-0.015741424348872247,-0.017503571450536666,0.07681774446973577,0.0031989084634493972,69616.8219004573
1681260773775327920,85,1681260773775327920,camera_1,86,0,-0.027797042739901915,-0.08277307135126083,1.5529448486582706,0.9996075596675005,0.012053386919724915,-0.01663149275361334,-0.019048253676765933,0.08267355780117214,0.0034408699066472226,69638.29292821791
1681260773785762071,86,1681260773785762071,camera_1,87,0,-0.02784919695646728,-0.08328039731995862,1.5532597412524012,0.99957805760991,0.012345818149349265,0.004809190799081379,0.025848775655351656,0.07613153697457165,0.0031705395638143077,69611.98419133003
1681260773795740842,87,1681260773795740842,camera_1,88,0,-0.027883338983700448,-0.08305301850626026,1.5531314731938772,0.9995894002647828,0.012406415518716896,0.007700804962748859,0.024653789469259474,0.06952017557341605,0.00289421457351953,69623.93920741195
1681260773805727243,88,1681260773805727243,camera_1,89,0,-0.027846843487044,-0.08232606901625165,1.553305937504809,0.999590314576429,0.012128501740266548,-0.017088430359159468,-0.019495845670099245,0.07847073214361444,0.0032673853003589892,69603.86329215954
1681260773815670013,89,1681260773815670013,camera_1,90,0,-0.027948174506582123,-0.08201009222407517,1.5535713748522846,0.9995921119598341,0.012532037560564075,0.006781621057124418,0.02475009814316943,0.0668077064328827,0.002782668137145555,69596.050058726
1681260773825306892,90,1681260773825306892,camera_1,91,0,-0.02793921347406461,-0.08201781914348193,1.553154351402606,0.9995126980289125,0.012525304715439079,0.007834547815267,0.027497328620789366,0.07490630249958485,0.0031183689903302894,69612.3578924621
1681260773835324764,91,1681260773835324764,camera_1,92,0,-0.02782961342369964,-0.08236927362369997,1.5531077879253472,0.9995387519199785,0.01212629600378369,-0.01654373560514424,-0.02239511481791001,0.084205178078264,0.003505892945443243,69603.87051757553
1681260773845327138,92,1681260773845327138,camera_1,93,0,-0.02785272360481872,-0.08311785714359432,1.5531012451089894,0.9995641772924015,0.012412488482179278,0.004653089678165977,0.026376776904908292,0.07345892611192541,0.0030583895533332194,69624.48223206867
1681260773855308532,93,1681260773855308532,camera_1,94,0,-0.02784960527894137,-0.08326131351467231,1.5528651749433486,0.9995027794964607,0.012328666874774708,0.006954018413553536,0.028175155365044023,0.08230014971923083,0.00342552985742392,69625.6170807291
1681260773865336418,94,1681260773865336418,camera_1,95,0,-0.027880711233372418,-0.08291341767724411,1.5530985662035275,0.9995002610839974,0.012352593948084648,0.007371570613377897,0.028147850050527404,0.08537588495528325,0.0035542653102543847,69606.85671413204
1681260773875757455,95,1681260773875757455,camera_1,96,0,-0.0279218021923307,-0.0822974698850393,1.5532547079935444,0.9995864719406341,0.012366927942046909,0.00635588083528573,0.025170359261632323,0.06759568414418027,0.002814524610679442,69620.55247233305
1681260773885767221,96,1681260773885767221,camera_1,97,0,-0.027955495365504637,-0.08194944652055411,1.553112778544294,0.999545209043436,0.012478489215347903,0.0067209932214517204,0.026617487397073914,0.06513122998876497,0.0027114833943568065,69625.77013308647
1681260773895715475,97,1681260773895715475,camera_1,98,0,-0.02791977636311166,-0.08216713055251876,1.553373938792806,0.9995475437193736,0.01238198559072896,0.006089010264218194,0.02672673252382673,0.07323220529360697,0.00304970021340491,69602.28894343415
1681260773905455827,98,1681260773905455827,camera_1,99,0,-0.027803948446298604,-0.08260057929627444,1.5530939162188788,0.9996093410342244,0.012088630889530706,-0.01689457585381698,-0.018697690420476448,0.07248767552664503,0.0030176206597261855,69627.15613549299
1681260773915302038,99,1681260773915302038,camera_1,100,0,-0.027849640018751037,-0.08321733741564863,1.5526513526470147,0.9994604364208016,0.012379961130041422,0.00692043986789989,0.029625666304644846,0.06722406967310235,0.0027977295604117726,69634.65139034728
1681260773925324440,100,1681260773925324440,camera_1,101,0,-0.027782630250697236,-0.0830493672672924,1.5529876876541426,0.9995750470888511,0.012151355038388758,-0.016928337208170482,-0.020383846727703683,0.07882317487383261,0.0032811300776388816,69623.78772688625
1681260773935338735,101,1681260773935338735,camera_1,102,0,-0.02782338504254792,-0.08256522881432304,1.5532594859610303,0.9996237358638678,0.012134886061911139,-0.016789300860206205,-0.017979171684321744,0.07445949141401798,0.003100294106056735,69617.17537459175
1681260773945364236,102,1681260773945364236,camera_1,103,0,-0.02793550151013802,-0.0821068411615211,1.5530854927694977,0.9995382102613429,0.012500598731354121,0.007598047242605539,0.02663401841646287,0.059983059065416455,0.00249709006975726,69624.07184159188
1681260773955730438,103,1681260773955730438,camera_1,104,0,-0.027942753022093793,-0.08195637533779557,1.553266576411932,0.9995292593903465,0.01253958870814668,0.006782482216746801,0.027166454914018964,0.08160951838362962,0.0033981075394060047,69608.51906382103
1681260773965703964,104,1681260773965703964,camera_1,105,0,-0.027901597755962244,-0.08232865868502778,1.5529694462897317,0.999517915238476,0.012491422496702478,0.006746021367103042,0.02761145916199057,0.07067607116186991,0.0029418027746503485,69628.9778447824
1681260773975347995,105,1681260773975347995,camera_1,106,0,-0.027864897449010856,-0.08292568174437644,1.55303118513292,0.9995307227274822,0.012355674294476593,0.007007098840187565,0.027139863714652823,0.06774077709997073,0.0028201289749374353,69620.74906334511
1681260773985699176,106,1681260773985699176,camera_1,107,0,-0.02783176348377422,-0.0832765374721707,1.5529359964329774,0.9995037492241218,0.01233850812325909,0.004631611079485162,0.028610569428523934,0.09044671279843897,0.0037650648925712056,69622.82430312593
1681260773995748281,107,1681260773995748281,camera_1,108,0,-0.027873952733174712,-0.08305088099970356,1.5528486898837677,0.9995501772189842,0.012466092312074713,0.007516041786860904,0.026221153289323423,0.08293870888883248,0.003451547696374746,69640.01155668171
1681260774005694150,108,1681260774005694150,camera_1,109,0,-0.027913872199043923,-0.08246291851950405,1.553266597964997,0.999567260239929,0.012368515203997767,0.005809904392872332,0.02604912856577225,0.0695763694238849,0.0028972100753045455,69614.29435672573
1681260774015748023,109,1681260774015748023,camera_1,110,0,-0.02794135968665549,-0.082019387058755,1.5533515910945235,0.9995257127559186,0.012455362709987622,0.00644011848489345,0.027417847352340895,0.061870285018812865,0.002576620300792962,69599.82543798897
1681260774025766134,110,1681260774025766134,camera_1,111,0,-0.02792519540310425,-0.08202296232279643,1.5532421253491624,0.9995653784337848,0.012522970205000034,0.005526809206072446,0.02610907569733078,0.07650987937813626,0.0031853166834223227,69620.63468065347
1681260774035802841,111,1681260774035802841,camera_1,112,0,-0.02790331180758068,-0.08254180746540338,1.5530612189236737,0.9994917280122855,0.01237665954967576,0.006777464634668555,0.028586183839971857,0.07852721627568827,0.0032693944816461432,69612.18648003397
1681260774045686244,112,1681260774045686244,camera_1,113,0,-0.027857593969816838,-0.08310968440081526,1.5530756530029435,0.9995530155828715,0.01237149941818688,0.00583158640821625,0.02658397339182993,0.07760921685257927,0.0032309117818694892,69622.33959794464
1681260774055388689,113,1681260774055388689,camera_1,114,0,-0.02785118064784436,-0.08327852929852644,1.5530928860596303,0.9995209020307954,0.01236745081709896,0.00663639738226032,0.027585699077906287,0.0730274700326845,0.0030404737505725465,69610.32348327085
1681260774065748214,114,1681260774065748214,camera_1,115,0,-0.027878450716665133,-0.08289322134162097,1.55291235547936,0.999488690399174,0.012312936688286568,0.007667514974504766,0.028494886705691076,0.05991450272267684,0.0024940267645459134,69620.08085177408
1681260774075403213,115,1681260774075403213,camera_1,116,0,-0.02792293679438764,-0.08230208792241321,1.5531689345393047,0.9995389529575728,0.012376062601110698,0.006308087215519222,0.0269985671963148,0.07281426910776645,0.003031578388905063,69616.781076591
1681260774085447788,116,1681260774085447788,camera_1,117,0,-0.027950595794387315,-0.08195667500803556,1.5535326379445165,0.9995634931274718,0.012497076460125538,0.006851675682821708,0.025878578536964996,0.07386807457078248,0.0030766687000461715,69592.91156566773
1681260774095340013,117,1681260774095340013,camera_1,118,0,-0.027928818485565925,-0.08216049015870625,1.5533544796150527,0.999590246463723,0.01239710061832606,0.007239397621391403,0.02476372736346541,0.06520849466323853,0.0027154185101632058,69612.56181412468
1681260774105300903,118,1681260774105300903,camera_1,119,0,-0.027813851950628035,-0.08261133419541229,1.5533451917480208,0.9996617009292513,0.012235902871608863,-0.016292728075308113,-0.016165190627295323,0.07181029336061329,0.002989932414849776,69621.17518746151
1681260774115396261,119,1681260774115396261,camera_1,120,0,-0.027847480974882877,-0.08320233356201165,1.5529380485594388,0.9995049284120805,0.012379047845348908,0.007716099664618203,0.027876855281220244,0.0853080945671536,0.0035507824785709565,69619.35613523738
1681260774125360012,120,1681260774125360012,camera_1,121,0,-0.027792941984069855,-0.08304453384963721,1.5529686430549738,0.999579656968378,0.012049922143389189,-0.016511169679662683,-0.020559426721760338,0.07538621558342129,0.0031379428436230784,69625.70032274444
1681260774135390281,121,1681260774135390281,camera_1,122,0,-0.02789856289662306,-0.0826927216981115,1.5529065741484978,0.9994700376781158,0.012400492500384427,0.008167067212810642,0.028968441148863946,0.08780654246220365,0.0036545511907152303,69617.30757032751
1681260774145360946,122,1681260774145360946,camera_1,123,0,-0.027928637683112975,-0.08213899997506122,1.5533375019918452,0.9995388935498858,0.012405409714176533,0.0045662585059279654,0.02733597216399328,0.06062081456184387,0.0025246545408627997,69605.75265292378
1681260774155332326,123,1681260774155332326,camera_1,124,0,-0.027936731133593174,-0.0819581384546395,1.5533526874008499,0.9995768721652831,0.012543209644242576,0.004175450113029961,0.025909653421909234,0.08233366417698562,0.0034281311439199576,69617.17092015487
1681260774165347576,124,1681260774165347576,camera_1,125,0,-0.02791655515647861,-0.08234331682441177,1.5531106748744714,0.9994546490419769,0.01249155745365951,0.007495346171315852,0.029634191173928365,0.06556893995730206,0.0027300496974010002,69599.76544833148
1681260774175356149,125,1681260774175356149,camera_1,126,0,-0.027868016174385876,-0.08292793197650629,1.5532773004484346,0.9996226833774956,0.012261112643565681,0.006065921295966161,0.02381933233212783,0.0627405884442851,0.0026123914105290785,69622.20955529239
1681260774185658216,126,1681260774185658216,camera_1,127,0,-0.027784089162493905,-0.08312753230681794,1.5531734552123937,0.9995989645310781,0.01203090389577182,-0.015795395740525194,-0.02019091214500495,0.07558629376580939,0.0031471433542115896,69611.8979889767
1681260774195300579,127,1681260774195300579,camera_1,128,0,-0.027878284386817782,-0.08307851986907566,1.5528761597160659,0.9994869189658534,0.012488986606484488,0.00860063585615629,0.02821264065199533,0.08413989294786006,0.0035018940950575644,69620.35093978108
1681260774205347299,128,1681260774205347299,camera_1,129,0,-0.027922004429342145,-0.0824671072341043,1.5533635097659841,0.9995233037494534,0.012432420559949708,0.005848288433589761,0.027647743184498943,0.07594688457902521,0.0031628264714624707,69595.1657439894
1681260774215805768,129,1681260774215805768,camera_1,130,0,-0.027849074373902778,-0.08184653206143146,1.5532547778080923,0.9995469612516884,0.012152725704581013,-0.019510753793267232,-0.01942971942368877,0.08021467411890626,0.0033397572465191814,69601.80066329637
1681260774225777149,130,1681260774225777149,camera_1,131,0,-0.027948639703529666,-0.08201552688053046,1.5531952025850477,0.9995459188141127,0.012512873428453284,0.008091391774315905,0.026189951503764262,0.06370576098561287,0.002652264805181921,69616.22602623142
1681260774235826969,131,1681260774235826969,camera_1,132,0,-0.027888119909512597,-0.08254283341745085,1.5531234050634937,0.9994621581862481,0.01242839896715924,0.006605545427412083,0.029619183351449606,0.06916412222199142,0.002880076026658423,69599.96044355829
1681260774245775938,132,1681260774245775938,camera_1,133,0,-0.027857042107981365,-0.08311055284746494,1.5529895099971143,0.9995486495298104,0.012416348119869325,0.007026488194222411,0.026437851390666626,0.07316715328488499,0.003045573006235779,69627.33219993926
1681260774255721569,133,1681260774255721569,camera_1,134,0,-0.027778169603208357,-0.08310119852515141,1.553094848388458,0.999571273708535,0.011989389788357795,-0.01609784420461605,-0.021316254857821498,0.07136502111097798,0.002971361522035304,69610.7059082355
1681260774265732049,134,1681260774265732049,camera_1,135,0,-0.027882186798580455,-0.08288914689190484,1.5531179276128784,0.9995580166757086,0.012345466864687677,0.006630595602020609,0.026218236957873477,0.07550365471979603,0.0031432529426522406,69620.42725849958
1681260774275723218,135,1681260774275723218,camera_1,136,0,-0.027842140418851066,-0.08213577448728143,1.552936186727305,0.9995534392204711,0.012141511354094553,-0.017892434131837026,-0.02062441866827094,0.08707589842379093,0.003624324447891282,69627.42189383061
1681260774285709619,136,1681260774285709619,camera_1,137,0,-0.027942391776284863,-0.08196521493851253,1.5535249353383433,0.9995410551090051,0.012577029959498621,0.005153754331874879,0.027072796037007865,0.0793279980425723,0.003304213487551385,69590.87446485367
1681260774295730113,137,1681260774295730113,camera_1,138,0,-0.027930628030594547,-0.08217388532692949,1.5536266786591493,0.9996126182012981,0.012430583948931968,0.005208854945546104,0.02435080995759502,0.06845311674987897,0.002851392896127828,69596.72709534795
1681260774305726528,138,1681260774305726528,camera_1,139,0,-0.027800250903057162,-0.0825927586020007,1.552985869086831,0.9995599551730642,0.012117524898573108,-0.01856173521974606,-0.019711001760091763,0.08489399118116125,0.003533572947657551,69624.40497492345
1681260774315720558,139,1681260774315720558,camera_1,140,0,-0.027859262245245865,-0.08320926311778032,1.552947881109764,0.9995606709731196,0.012319292413380364,0.0059100313625987866,0.026301551427506033,0.080426138069015,0.0033478436464417214,69634.2960557252
1681260774325716972,140,1681260774325716972,camera_1,141,0,-0.027860468966293093,-0.0831862732420661,1.5530330812584185,0.9995379305885258,0.012450847111380326,0.006774767892665496,0.026888738181942522,0.08106690761633217,0.0033747102114604745,69620.618285354
1681260774335356473,141,1681260774335356473,camera_1,142,0,-0.027897886527132702,-0.08269571209050787,1.552960684482369,0.9995007949753214,0.012540640099378301,0.007374964254201275,0.02804466244845849,0.08133550605271012,0.003385584445721286,69621.56919088663
1681260774345401287,142,1681260774345401287,camera_1,143,0,-0.02793758274182675,-0.08212493983350502,1.5530091512164435,0.9994902083915246,0.012495900227402355,0.007914731993004166,0.028293688774224033,0.057055446901358664,0.002375185750414289,69618.56743038574
1681260774355335235,143,1681260774355335235,camera_1,144,0,-0.02786532703452016,-0.08180879836522176,1.5532530343963373,0.9996050710930438,0.01227834936161938,-0.016568537291014075,-0.019089985700924194,0.0821529976092279,0.00342038564839072,69615.22224775012
1681260774365427255,144,1681260774365427255,camera_1,145,0,-0.027857226632553064,-0.08219409297692784,1.5533262215613024,0.9996335846846783,0.012183890138582756,-0.01611561084526571,-0.01801489046969757,0.0695982602192089,0.0028980064242704164,69614.92436760021
1681260774375384330,145,1681260774375384330,camera_1,146,0,-0.027861989282039132,-0.0829180450394645,1.553016727310662,0.9995656749620772,0.012405016936447152,0.006250260941847538,0.025990598888297734,0.08214056049473584,0.003418993904902449,69631.85212428986
1681260774385610342,146,1681260774385610342,camera_1,147,0,-0.027792387276177402,-0.08311940455852695,1.5532012829629296,0.9996255922497872,0.01210794499508196,-0.014158828718886499,-0.02003997396624337,0.07818153471453115,0.0032555829280472622,69615.19304892779
1681260774395353555,147,1681260774395353555,camera_1,148,0,-0.027870197755777322,-0.08307754853900091,1.5530226381100347,0.999497172503378,0.012411024162396951,0.0065823571721519165,0.02842606569772043,0.07859972963342443,0.003272169504573282,69612.64415531897
1681260774405541658,148,1681260774405541658,camera_1,149,0,-0.02791846996549788,-0.08247728046253593,1.553613675299534,0.999612582967076,0.012437918143158479,0.004968434063072377,0.024398705480325578,0.07152126403525472,0.0029792799005255778,69595.70535356052
1681260774415430068,149,1681260774415430068,camera_1,150,0,-0.02794327780109935,-0.08199754880749038,1.5536716537490092,0.9996585916969442,0.01243038222442178,0.004693658587410058,0.022497893530329223,0.06350506603484973,0.0026451806031634532,69605.65893993477
1681260774425512790,150,1681260774425512790,camera_1,151,0,-0.027938871800578573,-0.08202423828195313,1.5531873641399636,0.9995310192693473,0.012467645043672105,0.007973984009440199,0.026808859066765698,0.061150688736233846,0.0025459493059254395,69613.39013424248
1681260774435528993,151,1681260774435528993,camera_1,152,0,-0.027899958620326036,-0.08252387800186951,1.5530468951621301,0.9995178649316114,0.012354699945574614,0.007038861555983828,0.027601693785049976,0.07787221937905997,0.003241835739753075,69619.56514481937
1681260774445370197,152,1681260774445370197,camera_1,153,0,-0.02785487274908312,-0.08310885776244265,1.553026001335176,0.9995319205468868,0.01238879300607901,0.005909664650986378,0.027341058491169693,0.08557027828646824,0.003562196178885154,69621.5689722344
1681260774455315113,153,1681260774455315113,camera_1,154,0,-0.027849344992421508,-0.08326559082614568,1.5531180311320103,0.9995364294113588,0.01234991772258101,0.005670251178088147,0.02724434002530772,0.08199715398950502,0.0034139918101876174,69613.34144756198
1681260774465316772,154,1681260774465316772,camera_1,155,0,-0.027886717479966683,-0.08288750974976344,1.5530229289072004,0.9995413438758213,0.012425032884227789,0.00689000932125297,0.026744124818285926,0.07648989890003577,0.0031840912201194518,69624.61940486543
1681260774475303888,155,1681260774475303888,camera_1,156,0,-0.027932231222160153,-0.08229151609886644,1.5532576324637777,0.9996026528603033,0.012510362973776324,0.004965166115848205,0.024766395344310587,0.06537841242970899,0.0027222022120254553,69626.49935230742
1681260774485288619,156,1681260774485288619,camera_1,157,0,-0.02787619585704624,-0.08183684719898435,1.5536326747654026,0.999654976881671,0.012281935127162151,-0.01729603599543114,-0.015489622464178433,0.07120361423585565,0.0029657659202854876,69599.44468227355
1681260774495298147,157,1681260774495298147,camera_1,158,0,-0.027925551438558134,-0.08216957454107748,1.5531371372009952,0.9994885041627365,0.012512089502686556,0.008329781664008308,0.02822751140717434,0.06625755003187805,0.0027585196886657287,69606.01230598649
1681260774505316495,158,1681260774505316495,camera_1,159,0,-0.02788418813902222,-0.08276420980923352,1.5531274292357407,0.9995178208276448,0.01247034241841265,0.00691629159997882,0.0275822645630819,0.08798834460321814,0.003662781544311068,69610.93683798691
1681260774515320062,159,1681260774515320062,camera_1,160,0,-0.027783175074064737,-0.08307054887821758,1.5531013394844444,0.9996105708379884,0.012135834579732371,-0.015320855361349058,-0.019917318569554626,0.07472817145753652,0.0031110235485832813,69621.78007711272
1681260774525295972,160,1681260774525295972,camera_1,161,0,-0.027865471478316667,-0.08318259906777849,1.5530301067894778,0.9995221623963445,0.01233692424339814,0.007277709361983258,0.02739127826865309,0.07709234714275226,0.0032093226501735592,69615.96156886306
1681260774535267829,161,1681260774535267829,camera_1,162,0,-0.02781233635943465,-0.08252541777656085,1.5530761674529912,0.9995630640701308,0.012185138580948164,-0.01742732373599906,-0.020530263804817674,0.08935775666031986,0.003719787664594362,69615.65028470941
1681260774545275926,162,1681260774545275926,camera_1,163,0,-0.027941072969936705,-0.08212118263395543,1.553363118260588,0.9995513318410638,0.012353245843716602,0.0073235041067357,0.026284950437060663,0.07586682547116651,0.0031592509155411864,69602.5203510524
1681260774555301666,163,1681260774555301666,camera_1,164,0,-0.027946794321017543,-0.08195677217710214,1.5533359550801948,0.9995580104475674,0.012480860727548846,0.006993947205295461,0.026059481347289224,0.07090027671074495,0.0029522269399485366,69608.74831843769
1681260774565284967,164,1681260774565284967,camera_1,165,0,-0.02791558531866597,-0.08233722503005478,1.5534406549762336,0.9996227464895056,0.01237319210926951,0.005583893933957811,0.023876535476055255,0.06231308926362544,0.002595102734108435,69613.5695190508
1681260774575460672,165,1681260774575460672,camera_1,166,0,-0.027873210320154055,-0.0829105401980367,1.5529175374565787,0.9994989367476513,0.012399009469147824,0.007358381040854447,0.028177903274657277,0.09021502046380192,0.0037550823917397395,69622.76817713822
1681260774585596323,166,1681260774585596323,camera_1,167,0,-0.02785703052003765,-0.08327116968523038,1.5531131667630416,0.9995453180400518,0.012377109350762475,0.005522867918203825,0.02693440696004619,0.07952957117231563,0.0033113994979388347,69616.10370724066
1681260774595467090,167,1681260774595467090,camera_1,168,0,-0.027868585574964185,-0.08305916737982681,1.552852468482444,0.9995245818890807,0.01236901792517497,0.0068389251806530256,0.0274015820236491,0.07446844613878056,0.0030993901772005403,69634.07571763394
1681260774605382680,168,1681260774605382680,camera_1,169,0,-0.027910318678365468,-0.08247063369103705,1.5530006012030368,0.9994854734713026,0.01239582083545572,0.0068199297290680895,0.028785769125594555,0.06921473267721012,0.002881419492865369,69616.58921205251
1681260774615390777,169,1681260774615390777,camera_1,170,0,-0.02795055430319511,-0.08200955990313595,1.5533154047227862,0.9995352400528837,0.012537241903463494,0.007273858557331432,0.02681813639249135,0.07071270083542913,0.0029443416589589365,69604.38099069044
1681260774625356912,170,1681260774625356912,camera_1,171,0,-0.027848223907073907,-0.08184967851877252,1.553077343471989,0.9995587011993611,0.012188062387202018,-0.01673168295714681,-0.021305041124438144,0.08975832868600264,0.0037366134711126625,69615.75323832603
1681260774635722160,171,1681260774635722160,camera_1,172,0,-0.027894953175744554,-0.08251348345027854,1.5533351354430982,0.9995656024301527,0.012353933945897665,0.005767736487326637,0.026128910622510583,0.0713151446543634,0.0029699947449887106,69607.56501403816
1681260774645377635,172,1681260774645377635,camera_1,173,0,-0.027788306869997267,-0.08296846721658957,1.5531620381142448,0.9996434165377768,0.012057075684415875,-0.015195676771138828,-0.018350970167503155,0.0693213974009268,0.002886327078084685,69626.88497433416
1681260774655323505,173,1681260774655323505,camera_1,174,0,-0.02786101698247504,-0.08327205086679719,1.5532197363959408,0.9995544356635183,0.012322091490054194,0.0061381810766268155,0.0264843149763546,0.0686293240287341,0.002857936116410562,69607.84328768842
1681260774665531158,174,1681260774665531158,camera_1,175,0,-0.0278285929187633,-0.08276092036886186,1.5532911327747672,0.9996596231290288,0.01209581615151485,-0.015217014219895995,-0.017400333197632487,0.07015457167290151,0.002920884261373247,69621.6516799292
1681260774675393342,175,1681260774675393342,camera_1,176,0,-0.027930882206193247,-0.08228911985877581,1.553281468808119,0.9995685590499004,0.012451623472998783,0.00663579872198382,0.025760803696971393,0.07660910079721361,0.003189730175889329,69613.76704300044
1681260774685343265,176,1681260774685343265,camera_1,177,0,-0.027855414709243673,-0.08177724382340718,1.5531206863076545,0.9995546645540657,0.012107762465331767,-0.016786561722978408,-0.021496185750331843,0.08611772325821221,0.0035852383674090053,69610.68639201437
1681260774695303678,177,1681260774695303678,camera_1,178,0,-0.027922103551797813,-0.08215690699539448,1.5533922893919456,0.9995711060005616,0.0124726234031926,0.004891939084831763,0.026040480914267812,0.07985584839479998,0.0033256127323315686,69608.3428447283
1681260774705317735,178,1681260774705317735,camera_1,179,0,-0.02780215785340067,-0.08259717535268575,1.553165582785771,0.9996010034742382,0.01206373454117107,-0.01728793244208233,-0.018799668988956884,0.07201066584093496,0.002997954077407216,69618.82968177204
1681260774715694904,179,1681260774715694904,camera_1,180,0,-0.027777278967174066,-0.08307015284750258,1.5531408725193847,0.9996025946787918,0.012091052143877014,-0.016150674795938322,-0.019687937248911252,0.07270594232250005,0.003027022263764882,69617.16984161909
1681260774725332975,180,1681260774725332975,camera_1,181,0,-0.02786939455457219,-0.08320477675030366,1.5531428093110167,0.999563928349118,0.01236944484765132,0.007393927100449356,0.025773626432330898,0.06961583712836727,0.002898442017990597,69615.85975999487
1681260774735355377,181,1681260774735355377,camera_1,182,0,-0.02790931050823802,-0.08268601022573206,1.5531020407068898,0.9995091093038079,0.012409671314115132,0.008292193025591189,0.02754596179861471,0.0806359542766586,0.003356802534201133,69609.37851513783
1681260774745370626,182,1681260774745370626,camera_1,183,0,-0.027931165518442786,-0.08210341349460663,1.5533033053069172,0.9995676366328058,0.012417310185634422,0.00661307391622281,0.025818936024543243,0.07502175238914788,0.0031238860155722806,69613.15893009209
1681260774755403757,183,1681260774755403757,camera_1,184,0,-0.027942987383480118,-0.0819674387441417,1.5534896753107117,0.9996210922038612,0.012462262006435604,0.006155480214225329,0.02375866389708756,0.06268948351498693,0.0026106721836684837,69611.21708353024
1681260774765378236,184,1681260774765378236,camera_1,185,0,-0.027914851233390662,-0.08233648088349119,1.5531523845971864,0.9995691733873497,0.012433976179092523,0.007933285067956966,0.02537571354934786,0.0667003519483842,0.0027766689783461987,69623.06980737904
1681260774775297641,185,1681260774775297641,camera_1,186,0,-0.02788176027493828,-0.08292772986996096,1.5530622413872102,0.9995780663995785,0.012380550198986762,0.007705279853392567,0.025120505807629985,0.0625327819143422,0.002603095652467068,69628.37479686044
1681260774785346031,186,1681260774785346031,camera_1,187,0,-0.027839820167377925,-0.08325306331907191,1.5530165290622002,0.9995564615087449,0.012335943136884363,0.005583654653604584,0.026524094023175165,0.07779967656824738,0.0032386947518835527,69627.4625258802
1681260774795352220,187,1681260774795352220,camera_1,188,0,-0.027868392659007916,-0.08305918664273294,1.5531655058954554,0.9995780991677387,0.01236418032868955,0.006510036230935822,0.02546311326766809,0.07875538273947313,0.0032788450005569658,69619.88622051862
1681260774805298328,188,1681260774805298328,camera_1,189,0,-0.027924943036569675,-0.08247610509160505,1.5536192727251807,0.999616462601374,0.01236351111186427,0.0060843834360666885,0.024021897666624638,0.060305815539322793,0.0025121025554940973,69594.28448227848
1681260774815501213,189,1681260774815501213,camera_1,190,0,-0.027853446919309067,-0.08183545098175651,1.5530435587071703,0.9995850024955019,0.012182442046269025,-0.017765343846983167,-0.01912598885954364,0.07114174321759492,0.0029613910666504858,69629.3078903367
1681260774825320482,190,1681260774825320482,camera_1,191,0,-0.027924659985952095,-0.08201938983716969,1.5530551276868365,0.9995093123901049,0.012539702730267317,0.006504064682261013,0.02795688544000134,0.07291621807962656,0.0030352127571386923,69622.37752071847
1681260774835409402,191,1681260774835409402,camera_1,192,0,-0.027822123578497802,-0.08237618893614086,1.5533097468637764,0.9996018617115259,0.012062871615835908,-0.016178614425272676,-0.019719473281751162,0.0813049649586901,0.0033860492177403023,69605.15432345658
1681260774845273256,192,1681260774845273256,camera_1,193,0,-0.02786792933222762,-0.08309422100303156,1.5532176104701398,0.9995875616412799,0.012375547340224322,0.007568010048044165,0.024784625556646175,0.07394575589569284,0.00307860862641497,69615.76217918504
1681260774855661153,193,1681260774855661153,camera_1,194,0,-0.027791772505616534,-0.08311246138381945,1.5530577914502317,0.9996137778809729,0.01204912464273061,-0.015221022396510304,-0.019885525969352218,0.06634672690415755,0.002762126827296451,69625.87824102971
1681260774865346193,194,1681260774865346193,camera_1,195,0,-0.027883645613096295,-0.08289746021133507,1.5531798662700358,0.9995637142969978,0.012309675165393273,0.005908693153360897,0.026190462067935183,0.07761664397548884,0.0032316705246212304,69617.15950187738
1681260774875693559,195,1681260774875693559,camera_1,196,0,-0.027929945063761685,-0.08229310746131896,1.553380999764049,0.9996372888941507,0.01242804696822999,0.005215743043593524,0.02331588139897279,0.06982020253781229,0.0029073041070234117,69623.22632536585
1681260774885669708,196,1681260774885669708,camera_1,197,0,-0.027933563803700736,-0.08195279216406445,1.5536194685617963,0.999596256598598,0.012517654277086473,0.005183931872501955,0.024975167182837054,0.0708838141290471,0.002952507638082271,69595.647362757
1681260774895657539,197,1681260774895657539,camera_1,198,0,-0.027854579956577016,-0.08202842359642591,1.553509079793819,0.9996656280725935,0.012245180644920943,-0.016045596672122672,-0.016162500692530134,0.07335855660494418,0.0030551525156628334,69610.23747545286
1681260774905664682,198,1681260774905664682,camera_1,199,0,-0.02786915466750368,-0.08274671238089641,1.5528599901637359,0.9995121563019116,0.01248829304171198,0.00789517394158285,0.027516507228198202,0.06882716744439676,0.0028643152099030998,69632.08010915671
1681260774915652036,199,1681260774915652036,camera_1,200,0,-0.02779512863840823,-0.08309685674997733,1.5533243772427219,0.9996683591441573,0.012044402924276151,-0.01490433932979169,-0.017203626169171062,0.07299079850781709,0.0030395276468699823,69619.21613207576
1681260774925348281,200,1681260774925348281,camera_1,201,0,-0.02786188991315403,-0.08320594850639237,1.5530741630079294,0.9995143546634421,0.012402178913335497,0.006937881224147898,0.02773277094061051,0.07012877758825198,0.0029198524782200275,69610.6322552848
1681260774935613870,201,1681260774935613870,camera_1,202,0,-0.027895708414947217,-0.08269756530006402,1.5532521450504806,0.9995840459179407,0.012426660830851583,0.00549610911920343,0.025438278862084614,0.07523306942312047,0.0031323211451507803,69618.29433216384
1681260774945303440,202,1681260774945303440,camera_1,203,0,-0.02794144604758073,-0.08213068484576559,1.5533190013091553,0.9995159948592985,0.012514367300671049,0.007426460447580681,0.02749571451538028,0.05097603413742036,0.002122919793846541,69598.10873164701
1681260774955338478,203,1681260774955338478,camera_1,204,0,-0.027940579944031936,-0.08194640992629842,1.5532451629625414,0.99954019466519,0.012492358098507697,0.007067038848092939,0.02670949643352659,0.07612054323544726,0.0031693354156499577,69612.5820253482
1681260774965375661,204,1681260774965375661,camera_1,205,0,-0.027916958529753018,-0.08233908833702472,1.553190022068198,0.9995272171065148,0.012561545269902913,0.007445812880914276,0.0270575260192153,0.07401784369722009,0.0030816380584697827,69610.72804848256
1681260774975435256,205,1681260774975435256,camera_1,206,0,-0.027867720605394983,-0.08292688476191298,1.5530817614314172,0.9995725307204952,0.01238738565828753,0.006565063497724357,0.02565557340712275,0.08097960765007883,0.003370972827442227,69627.13594835624
1681260774985370397,206,1681260774985370397,camera_1,207,0,-0.027779675253702216,-0.08309287254387142,1.5530851183360876,-0.9995663190149193,-0.011989050184052817,0.01586576115321197,0.021718982243146837,0.06630666338605806,0.0027608249560868176,69609.61952314738
1681260774995352745,207,1681260774995352745,camera_1,208,0,-0.02786747529797787,-0.0830550049623926,1.5528340659608177,0.9995139123321529,0.01231963983066107,0.007174455202802012,0.027725308320359392,0.0695031457580626,0.0028926592798836992,69632.51053203212
1681260775005701065,208,1681260775005701065,camera_1,209,0,-0.027922763026816025,-0.08246671354504277,1.553247639233953,0.9995073398949457,0.012454637509684355,0.007485032921024878,0.027819665397037334,0.07107333414023742,0.002959708922156037,69599.24346311012
1681260775015415191,209,1681260775015415191,camera_1,210,0,-0.02794516203792221,-0.08198165270062617,1.5533449676759532,0.9995768818912254,0.012507320590346866,0.006066138076382973,0.025550461622123356,0.07891330262646079,0.003285707422700684,69613.68210821485
1681260775025682449,210,1681260775025682449,camera_1,211,0,-0.027942933442319233,-0.08202423810997213,1.5532337308805417,0.9995098776173275,0.012466501926395498,0.008607730613083156,0.027395215801429302,0.06903822073945776,0.0028745060602917375,69603.23967810141
1681260775035373926,211,1681260775035373926,camera_1,212,0,-0.027813342219412177,-0.08235613718592863,1.5530186642905635,0.9995637391669607,0.012123749728617121,-0.017026195503845865,-0.02086755140755123,0.06914392590988429,0.0028783309583506654,69620.74504160098
1681260775045600414,212,1681260775045600414,camera_1,213,0,-0.027793634193758875,-0.08293001493635087,1.5529448359797329,0.9995870380092632,0.012137127240893079,-0.015945637648997337,-0.02059563609537396,0.08436194353271276,0.0035113901071697176,69630.00103846972
1681260775055362462,213,1681260775055362462,camera_1,214,0,-0.02778332847170175,-0.08308820001758306,1.5529449231531383,0.9995242377764036,0.012017176442021,-0.016612429021186537,-0.02304154443340735,0.08576418686425313,0.0035702121020409323,69610.32998453594
1681260775065308570,214,1681260775065308570,camera_1,215,0,-0.02780611097500052,-0.0827499596653626,1.5532126440112404,0.9996437152579403,0.012149229091147816,-0.017825174094947747,-0.015719476654063525,0.071440534084104,0.0029739747452234523,69629.20846548618
1681260775075294494,215,1681260775075294494,camera_1,216,0,-0.027919457237853808,-0.08228480704231265,1.553169933191507,0.9996151419569981,0.012395101250244758,0.005913572897108359,0.02410309297325424,0.06611248373519629,0.0027521300310330635,69635.70839049526
1681260775085631370,216,1681260775085631370,camera_1,217,0,-0.027945945933178742,-0.08194293846234209,1.5533948770207382,0.999576671610601,0.012497515696462624,0.00602753414523143,0.025572612408935737,0.06846261583268642,0.0028510162925873455,69609.55773805142
1681260775095337629,217,1681260775095337629,camera_1,218,0,-0.027917417636790655,-0.08215283552813818,1.5532730590674635,0.9995925257990722,0.01245647377650402,0.006715011702419199,0.024789660052594212,0.0630931454943493,0.002626914434708613,69621.40131826197
1681260775105669260,218,1681260775105669260,camera_1,219,0,-0.02780124953742926,-0.08260614947943107,1.5531246468366382,0.9996084714985554,0.012187544169489651,-0.017564521325764727,-0.018051456064140117,0.06776843644911423,0.0028211768316434246,69625.88287236728
1681260775115341424,219,1681260775115341424,camera_1,220,0,-0.02786193934909417,-0.08320351908197861,1.5528644949818708,0.9994787478263153,0.012333607501669865,0.007709585275967031,0.028821468810737865,0.07419169828062877,0.0030884126551327705,69619.12396064925
1681260775125641584,220,1681260775125641584,camera_1,221,0,-0.027870235284911504,-0.08319788953638123,1.5532996690384495,0.9995719917922645,0.012310162404443981,0.00691594280200288,0.025621531202888584,0.07530705037061125,0.003136004115787784,69604.53749548503
1681260775135277748,221,1681260775135277748,camera_1,222,0,-0.02782066997925082,-0.08252162907672138,1.552882474797687,0.9995340261217815,0.012052542326679508,-0.017228820156342133,-0.022127688633600782,0.07482861296739429,0.003114524608664275,69622.67774286505
1681260775145518064,222,1681260775145518064,camera_1,223,0,-0.02792455078715953,-0.08211115741730866,1.5530950099114427,0.9994709937436356,0.012506820994102195,0.005557753325217071,0.029502940051924463,0.06907659344142303,0.0028761773093824877,69609.9542508633
1681260775155307292,223,1681260775155307292,camera_1,224,0,-0.027937430453933716,-0.08194811498532167,1.5533285762235103,0.9995493169941638,0.012484463506151034,0.007155474013282221,0.02634578256779448,0.07973481534281746,0.003320010313857579,69607.26427252102
1681260775165323972,224,1681260775165323972,camera_1,225,0,-0.027853285124627612,-0.08220246857201705,1.5534822907293424,0.9996741781241021,0.012235446944155792,-0.01488463246375457,-0.016741539546790543,0.07247461093356833,0.0030183973273364313,69612.13439182108
1681260775175330162,225,1681260775175330162,camera_1,226,0,-0.02788722936768865,-0.08291784921180909,1.5531489408970456,0.9995555763025668,0.012321292283571305,0.007607477447416623,0.026056897854378633,0.0741886857431382,0.0030888297333375287,69615.30911005379
1681260775185407161,226,1681260775185407161,camera_1,227,0,-0.027850095921514627,-0.08327341379358978,1.5533090626511845,0.9996310181966991,0.012350941605016534,0.004391923987172837,0.02379060117338483,0.07142831024248153,0.002974537056009889,69621.0512499134
1681260775195311784,227,1681260775195311784,camera_1,228,0,-0.027791309738294166,-0.08292848961176688,1.5530726397450314,0.9996106147169672,0.012169836429374081,-0.017369671261787567,-0.01813307879833386,0.07037392543861642,0.0029295228070488704,69629.11734981778
1681260775205325365,228,1681260775205325365,camera_1,229,0,-0.027914302627241178,-0.08246940223865785,1.553334539497995,0.9995565250812073,0.012365906598872864,0.004637089612076696,0.02668960324731974,0.0754530897247605,0.0031423625166476315,69607.26863281605
1681260775215641260,229,1681260775215641260,camera_1,230,0,-0.027863802887731867,-0.08184959543193931,1.5533862183169524,0.9996311955605568,0.012273959819924539,-0.01759763058203444,-0.01664770766228872,0.07425066543510184,0.003091614389517506,69613.95996057102
1681260775225317716,230,1681260775225317716,camera_1,231,0,-0.027938667945261564,-0.08200963789214515,1.5533782382001906,0.9995774660588043,0.012447741566248513,0.0066854935545318265,0.0254017175264269,0.07788732013432309,0.0032433065413757386,69609.62298683486
1681260775235481739,231,1681260775235481739,camera_1,232,0,-0.027837233383919868,-0.08236199511035253,1.5533302072153126,0.999604523046743,0.012052762589190129,-0.015340015808980699,-0.020253699253285275,0.0743456197087653,0.003096105667614221,69602.48664778552
