%time,field.header.seq,field.header.stamp,field.header.frame_id,field.image_seq,field.transforms0.fiducial_id,field.transforms0.transform.translation.x,field.transforms0.transform.translation.y,field.transforms0.transform.translation.z,field.transforms0.transform.rotation.x,field.transforms0.transform.rotation.y,field.transforms0.transform.rotation.z,field.transforms0.transform.rotation.w,field.transforms0.image_error,field.transforms0.object_error,field.transforms0.fiducial_area
1681261236281096458,0,1681261236281096458,camera_1,1,0,0.03485995790505897,0.07892554656224245,1.5534717133968357,0.9995662716979951,0.01216941539783202,-0.01596262662293514,-0.02154920796553366,0.08379131474066526,0.0034900170708082726,69582.27585597243
1681261236291143894,1,1681261236291143894,camera_1,2,0,0.0348592096323633,0.07962754967706423,1.5532164942754034,0.999591472083565,0.0120320473972636,-0.017099482871557443,-0.019486571241931296,0.0725857469951734,0.003022365910501272,69611.36758472258
1681261236301492452,2,1681261236301492452,camera_1,3,0,0.03485178826479722,0.07958221326624046,1.5530878701782902,0.9995943211056735,0.012004610373737687,-0.015561998732429605,-0.02061326608071802,0.07173895288724452,0.002986789637912401,69620.62077611781
1681261236311425685,3,1681261236311425685,camera_1,4,0,0.034869302721761176,0.07877764883425015,1.5532807092923593,0.9995481604295446,0.01206453951201161,-0.016583541218681892,-0.02197516846180351,0.07649047404993325,0.003185341276790547,69594.97719402952
1681261236321523189,4,1681261236321523189,camera_1,5,0,0.03487473571000667,0.07748197861080267,1.5539503444366367,0.9996452161675641,0.012120075426222246,-0.014670706129706017,-0.018636414532385424,0.076365522807464,0.0031821821556289754,69569.25706406811
1681261236331434488,5,1681261236331434488,camera_1,6,0,0.03486966698600481,0.07618879614914868,1.553684727322168,0.9996131873613732,0.012209630408278346,-0.0162149628002736,-0.019012510615782355,0.0697349089459749,0.0029045735622413495,69590.86524249348
1681261236341101646,6,1681261236341101646,camera_1,7,0,0.03487606703160434,0.07542591887979996,1.5530298541840246,0.9995162950767915,0.012232293411726176,-0.017040329601730814,-0.02296027092431929,0.08391366357682273,0.003492437465247909,69623.27716592753
1681261236351147890,7,1681261236351147890,camera_1,8,0,0.034798007894950744,0.07533508256651184,1.5532682538615996,0.9995304831257816,0.012553259752311084,0.007407016771697235,0.026951160911481253,0.07083242072258145,0.0029487724714971084,69613.66886075918
1681261236361163616,8,1681261236361163616,camera_1,9,0,0.03480920734083124,0.0761892320258002,1.5536459816359207,0.999479773753313,0.012431745159585207,0.006420773981058322,0.029058685995719674,0.08699317777063698,0.0036235516003475634,69569.06378297029
1681261236371512889,9,1681261236371512889,camera_1,10,0,0.034782231732151565,0.07747141666185536,1.553379538754091,0.9994388922604248,0.012560475246386217,0.008745980522197496,0.02979333689846152,0.06463627185439691,0.0026917878247947062,69579.98901788426
1681261236381107091,10,1681261236381107091,camera_1,11,0,0.03478233981087682,0.078742742939027,1.5532208769526532,0.999466079730444,0.012415008029076136,0.007246257510968644,0.029341349593712318,0.09318085032282397,0.003880040261338419,69602.20327135487
1681261236391161203,11,1681261236391161203,camera_1,12,0,0.03484287267907039,0.07961536808635285,1.5531338551103144,0.9996137336892701,0.012079703370657285,-0.015402951334991432,-0.01972848895495921,0.08067175338510424,0.0033585727546639223,69622.69128402276
1681261236401170015,12,1681261236401170015,camera_1,13,0,0.034854028674305294,0.07958511261237247,1.5530554918802473,0.9995529796203202,0.012037544386387957,-0.017085413609756715,-0.021378192137526956,0.07923178991768509,0.0032984792648880048,69613.2155572587
1681261236411106586,13,1681261236411106586,camera_1,14,0,0.03486272833616902,0.07878356131063301,1.5532647242171198,0.9995166874693668,0.012086369498885419,-0.01662598719861504,-0.023321399878053994,0.08236018044408411,0.0034296919197555247,69586.4377018483
1681261236421350955,14,1681261236421350955,camera_1,15,0,0.03481262190650909,0.07731572624036917,1.5536841459669666,0.9994814936953524,0.012326285535539924,0.005340532219369462,0.029262350572324097,0.07698401517700404,0.0032074957021429287,69567.58365557017
1681261236431519746,15,1681261236431519746,camera_1,16,0,0.03481359236260973,0.07602047357188588,1.553688781765337,0.9995573298768473,0.01245682181802742,0.005504666527077021,0.026451285906115358,0.06833252987416927,0.0028464072375840393,69585.63309176627
1681261236441136837,16,1681261236441136837,camera_1,17,0,0.03479654773655255,0.07525761424990578,1.5531033521373994,0.9995064741106906,0.012546232280100798,0.008464043560391233,0.027527445086623532,0.059414401825051755,0.0024728945540964287,69620.78405121072
1681261236451482534,17,1681261236451482534,camera_1,18,0,0.0347921451978014,0.07531961949718201,1.5532339585627164,0.9995215260159547,0.01253894338712897,0.0067832266409112805,0.027449622325440487,0.07383006160671357,0.003073398770359196,69615.28947507366
1681261236461330890,18,1681261236461330890,camera_1,19,0,0.03479740684961288,0.07617489920864325,1.5534099766703058,0.9994317709568905,0.012499214295972148,0.008169272674411964,0.030218666878741977,0.07144288864219561,0.0029753123380743514,69575.80528798443
1681261236471087694,19,1681261236471087694,camera_1,20,0,0.03481703781386285,0.07752106250921681,1.553783497981472,0.9995412831642381,0.012381736218789904,0.004343867047417792,0.027295543183293147,0.07581992662744597,0.003159106171456478,69574.81546672306
1681261236481059074,20,1681261236481059074,camera_1,21,0,0.034853033325886205,0.07892314198112774,1.5531367719419362,0.9995333870601779,0.0121642564488262,-0.015633865392053126,-0.02325126383573415,0.07398604025365785,0.0030808397754023887,69600.8049513275
1681261236491079092,21,1681261236491079092,camera_1,22,0,0.03485216567738413,0.07960938709045172,1.5531405579176782,0.9996112792422132,0.012021859601106554,-0.015760216964477318,-0.01960563349422619,0.08677928184624761,0.0036129911536165052,69622.11989803353
1681261236501121282,22,1681261236501121282,camera_1,23,0,0.03484345684335008,0.07957535156268711,1.5531383016470557,0.9996056302680829,0.01207523886892764,-0.015604315765035742,-0.019981938647496138,0.0711986196693033,0.0029644414247824704,69620.24287666277
1681261236511394739,23,1681261236511394739,camera_1,24,0,0.03487469088403804,0.0787750836557169,1.5535813758135186,0.9996075986921154,0.012102068174042871,-0.016198461119374938,-0.019385521407938436,0.0786429540021345,0.0032757865328774715,69586.94580552889
1681261236520986795,24,1681261236520986795,camera_1,25,0,0.03486873744765021,0.07748729120860337,1.553417525510035,0.9994959413810877,0.012056053814582173,-0.01566218366479195,-0.024843726210121927,0.10172789904754609,0.004237204959906061,69570.87208932321
1681261236531062364,25,1681261236531062364,camera_1,26,0,0.03481747923671867,0.07601627358270646,1.553635339199154,0.99957379708549,0.012510274194681177,0.005120335607593931,0.02587468614177183,0.07375155821500812,0.003071637177371364,69595.14234834234
1681261236541265249,26,1681261236541265249,camera_1,27,0,0.03480054105950839,0.0752719331779367,1.5533470784377383,0.9995946440616212,0.012496617820950287,0.006686881151958227,0.024691450480225235,0.0648149803164415,0.002698353944402316,69623.31886623062
1681261236551460981,27,1681261236551460981,camera_1,28,0,0.03488971106585828,0.07548185529712408,1.553984801200234,0.9997276281484734,0.012287466118612658,-0.016093976781775488,-0.011604809535683951,0.08352079195901752,0.003478570343576873,69614.02011057167
1681261236561106681,28,1681261236561106681,camera_1,29,0,0.03478720514186185,0.07616977420469864,1.5534848875188916,0.9994633965248797,0.012574289216412552,0.00816127053511311,0.029123872010876812,0.058860121775069274,0.0024515614003828294,69577.1540099372
1681261236571118116,29,1681261236571118116,camera_1,30,0,0.03488736249621068,0.07767558017236771,1.553849907183282,0.9996128570125498,0.012074542538480506,-0.016444463788649673,-0.018918803566768103,0.08112162124598399,0.0033799341422849952,69570.21828151448
1681261236581426620,30,1681261236581426620,camera_1,31,0,0.03487661010992479,0.0789092009206609,1.5535744133602902,0.9996003557348478,0.01211015776308512,-0.017576783465294298,-0.01853455089105719,0.08061202883254737,0.0033577596732905558,69587.49344509678
1681261236591114282,31,1681261236591114282,camera_1,32,0,0.034780007725147485,0.0794610188843939,1.553211806304349,0.9995287575965153,0.012311146478633406,0.00660556371985617,0.027332488688214966,0.08363793342141435,0.0034823722816485873,69618.00759253337
1681261236601095199,32,1681261236601095199,camera_1,33,0,0.034776676230344486,0.07941060563630062,1.553176450582384,0.9994747095665631,0.012414468030659277,0.007144420848318985,0.02907134622084921,0.07741448900196701,0.0032233781102712277,69607.87270247866
1681261236611099720,33,1681261236611099720,camera_1,34,0,0.03486007309373967,0.07878908519009997,1.5534556500411771,0.9995501492711,0.012157035336655849,-0.015300558662777155,-0.022750790943434494,0.08196963218506426,0.003414352724913645,69577.90183173353
1681261236621151924,34,1681261236621151924,camera_1,35,0,0.03481240904412776,0.07736114320440467,1.5539055565791207,0.9996264015899056,0.012398435481760214,0.00552565048814621,0.02372347421235867,0.06261999486014247,0.0026092311152905354,69582.79091779736
1681261236631114959,35,1681261236631114959,camera_1,36,0,0.03479458306846285,0.07600001327605718,1.5533169134535205,0.9995130087141055,0.01250624096581009,0.007266948466885657,0.02765015023758498,0.069546983067994,0.002895475239819239,69605.43668938882
1681261236641353368,36,1681261236641353368,camera_1,37,0,0.0348751120471099,0.07541582424824851,1.5534617348328725,0.9996761557777264,0.012178736567712076,-0.015078825131040197,-0.016489116948725,0.06993854739994275,0.0029117296235208366,69631.02029924782
1681261236651349782,37,1681261236651349782,camera_1,38,0,0.0348005329962962,0.07530613785384867,1.5532357840039133,0.9994695009748055,0.012516247415208692,0.008575242258202595,0.028818837451009,0.08314599849109074,0.0034609200651767587,69599.61058718746
1681261236661634922,38,1681261236661634922,camera_1,39,0,0.03478569101954078,0.07616320547715168,1.5534951256780776,0.9994586452996324,0.012560318176072945,0.009734924861919934,0.02880774168643609,0.0679927791497903,0.0028315079101607237,69572.76365648933
1681261236671637773,39,1681261236671637773,camera_1,40,0,0.0348031721437469,0.07750628565676038,1.5535637648750933,0.9995006025939808,0.012558590143602432,0.006847620128061244,0.028176893484845172,0.07787058700341731,0.003243239102440098,69581.51737920544
1681261236681600570,40,1681261236681600570,camera_1,41,0,0.034853582243182,0.0789315504065149,1.5532846257845012,0.9995473845904588,0.012076367762420234,-0.016094595147561005,-0.02236406284816391,0.0691618379787542,0.00288033321851094,69592.6502455659
1681261236691619634,41,1681261236691619634,camera_1,42,0,0.034847452753408684,0.07960922595067567,1.5531746964936863,0.9996442712620416,0.0120918403265568,-0.014864400950684368,-0.01855176312042547,0.06481375108705834,0.00269889299910795,69628.22339819411
1681261236701280117,42,1681261236701280117,camera_1,43,0,0.034851965438703246,0.07956235334132156,1.5531275204853974,0.9995999642188425,0.012028330272303576,-0.015567014721934181,-0.020319912824529187,0.0669066336704418,0.0027857596230907527,69619.16069236794
1681261236711650133,43,1681261236711650133,camera_1,44,0,0.034858993677118255,0.07877705577663638,1.5533743750763938,0.9995302955144252,0.01198528502200237,-0.015511599176597345,-0.02355698585922535,0.07581118203233927,0.0031577574046265104,69578.5790459878
1681261236721610069,44,1681261236721610069,camera_1,45,0,0.03479245699651661,0.07734585037903062,1.5537615788662784,0.9995021704106146,0.012551752025383837,0.008265007614849159,0.027740845601578728,0.08836663665715605,0.0036814401024929835,69562.19211600766
1681261236731630563,45,1681261236731630563,camera_1,46,0,0.03479179755309992,0.07602067199928955,1.5533291546076367,0.9995394429806918,0.012453471370511938,0.006439142336446022,0.02691375898390197,0.06487623667635488,0.002701201184990569,69611.84882968257
1681261236741673231,46,1681261236741673231,camera_1,47,0,0.03480518661790792,0.07527149403187892,1.5532599176234663,0.9995723299541831,0.012540702319894566,0.0068963479243959154,0.025501536435972832,0.0647110453719506,0.002693780261195387,69625.44268110709
1681261236751637458,47,1681261236751637458,camera_1,48,0,0.03487958517967388,0.07547967420610695,1.5535818250047677,0.9996494552193356,0.012208166887918035,-0.016356059944901864,-0.016864360171710634,0.0711045132484287,0.0029606341580708487,69614.16960035662
1681261236761620998,48,1681261236761620998,camera_1,49,0,0.034811679974396756,0.07616982728451059,1.553641668609737,0.9995255183934432,0.01250654211562812,0.006466519055490897,0.027395412315456037,0.07587807584786788,0.0031606087642557256,69580.88951698341
1681261236771640062,49,1681261236771640062,camera_1,50,0,0.03481052717637512,0.07748903697418157,1.5536335246456947,0.9994763813411379,0.012533592574943415,0.006108426099647846,0.029198618614152273,0.0748553965240717,0.0031182763497802283,69570.4017187477
1681261236781605482,50,1681261236781605482,camera_1,51,0,0.03485167027334419,0.07892787238250182,1.553144648408721,0.9995006226767291,0.012137176593221234,-0.016535674671386624,-0.024036756776606206,0.0836133585544303,0.0034815328825092903,69591.23326466845
1681261236791470527,51,1681261236791470527,camera_1,52,0,0.03484950949317568,0.07961915350908524,1.5530261178252167,0.9995944054968132,0.012080693165615363,-0.015795767619746177,-0.02038565862104395,0.08095256879460067,0.003369991057582496,69626.71183730243
1681261236801489591,52,1681261236801489591,camera_1,53,0,0.03484802934484603,0.07955709275875134,1.5529350435718774,0.9995496207809408,0.012067362997491636,-0.01717765654504219,-0.021444403992299348,0.07732499990379438,0.0032186620636467183,69623.25764937417
1681261236811441421,53,1681261236811441421,camera_1,54,0,0.03486783803583961,0.07877426854002617,1.553461850969256,0.9995514608158602,0.012087822606431216,-0.017170589660467094,-0.021352577741977335,0.06854190718149766,0.0028548761207705144,69581.22516493264
1681261236821481943,54,1681261236821481943,camera_1,55,0,0.03479369505590851,0.07731608223546571,1.553441620062059,0.999460481883067,0.012435849031185931,0.008031405813946442,0.02931878806486675,0.08045828487956896,0.0033505220778439868,69580.50020156613
1681261236831507444,55,1681261236831507444,camera_1,56,0,0.03479662875364999,0.0760207240937564,1.5534539661087872,0.9995065384018607,0.01247801750764377,0.008443914078108666,0.027562276503408988,0.07547611168411095,0.003142863223431292,69589.89858707407
1681261236841408491,56,1681261236841408491,camera_1,57,0,0.034808157770176686,0.07528910681969003,1.5535599807522487,0.9995781530903918,0.012487642671193039,0.006164668667044144,0.02548669270705145,0.06275110931892414,0.002613197820379,69601.027641064
1681261236851089954,57,1681261236851089954,camera_1,58,0,0.03479671568763042,0.07536261180226922,1.5536765027352257,0.9996289922410833,0.012530112681885733,0.007202312409416926,0.023086811023019526,0.060156373016070575,0.0025054650776234646,69601.7816040017
1681261236861314296,58,1681261236861314296,camera_1,59,0,0.03479488000773044,0.07616722390503328,1.5533367532049371,0.9994964174892715,0.01259597036733985,0.006872601823496552,0.0283023020405183,0.07621994534565601,0.00317383922578808,69600.47905769569
1681261236871441364,59,1681261236871441364,camera_1,60,0,0.034810443341024955,0.07749886725046036,1.5536377858025703,0.9994973725457732,0.012386019572156206,0.005650088141234054,0.028629797366564028,0.07560799003113061,0.0031496896357213425,69575.3313930179
1681261236881294250,60,1681261236881294250,camera_1,61,0,0.03486563184144256,0.07892020335571388,1.553313871084755,0.9995342259493605,0.012083296819672166,-0.016891845449245678,-0.022360470726244117,0.0843492282438092,0.0035127611001729985,69587.51767549326
1681261236891123294,61,1681261236891123294,camera_1,62,0,0.03485079610822694,0.07961216332529551,1.5533962497370015,0.9996619408248317,0.01217250181876488,-0.015381127694175434,-0.017066199830612847,0.07660366577329114,0.0031901079246384203,69615.88722778855
1681261236901138544,62,1681261236901138544,camera_1,63,0,0.03485550425561688,0.07957184859210159,1.5532441488613429,0.9996105114900417,0.012060580709852633,-0.016502179895003192,-0.019001204442653446,0.06913040624931455,0.0028784575063727324,69614.3139515136
1681261236911384344,63,1681261236911384344,camera_1,64,0,0.0348642398942187,0.07878471096269572,1.5537058911510016,0.9996513244537706,0.012056629059326248,-0.014019939408545918,-0.018849628975893824,0.07610286021372303,0.003170472863226457,69585.6111308294
1681261236921071529,64,1681261236921071529,camera_1,65,0,0.034799126761305574,0.07731649844474159,1.5535925699449253,0.999489768196355,0.012425901523077232,0.005963205196221941,0.028813892932459517,0.07453000696841627,0.003104875594585752,69577.12501178704
1681261236931066274,65,1681261236931066274,camera_1,66,0,0.034790895803987004,0.0760016224970621,1.5531316421780907,0.9994889667126547,0.01246272501077346,0.009119338127978457,0.027987918412826523,0.06974946783157066,0.002903240882096943,69613.18913319602
1681261236941095352,66,1681261236941095352,camera_1,67,0,0.03480115209294091,0.07530410630017872,1.553563000673176,0.9996575288408448,0.012541783487174073,0.005747401129265421,0.022237267796110165,0.05761714238906279,0.0023991401196736513,69620.92307984729
1681261236951108694,67,1681261236951108694,camera_1,68,0,0.034814332949640855,0.0753389598491536,1.5535609703989972,0.9996143553619867,0.012477045881049009,0.006376938501065111,0.023974956426981994,0.0760603315429762,0.003167098008873082,69609.6013989463
1681261236961046457,68,1681261236961046457,camera_1,69,0,0.03480441319000185,0.07616597700897482,1.5536120831844051,0.9994975402248327,0.012578152402679071,0.0076229191311327875,0.02807754032254528,0.06362362783693243,0.0026501288805189155,69575.16009842731
1681261236971148967,69,1681261236971148967,camera_1,70,0,0.03482278970041397,0.07752611527538097,1.554040632992129,0.9995817447175348,0.012334464158944795,0.0043368594469019445,0.02579512107935894,0.07558501325547695,0.0031500666286853017,69561.5855821846
1681261236981091499,70,1681261236981091499,camera_1,71,0,0.03479116231487846,0.07876504085227365,1.5534433708170536,0.9994776439987257,0.01240698745420496,0.007246119335158613,0.02894822211550064,0.07921095087658613,0.0032991600419768913,69585.17549156073
1681261236991055011,71,1681261236991055011,camera_1,72,0,0.03477761066842317,0.07946210168963096,1.553194801070677,0.9994841878649224,0.012422513159635305,0.007177445119376158,0.028731927473693714,0.07918297860305755,0.003297142402860578,69608.42736702273
1681261237001045703,72,1681261237001045703,camera_1,73,0,0.034843862038802936,0.07956372190461704,1.5533368453999041,0.9996602341002419,0.01207186781703314,-0.014525742126390942,-0.017963551478907987,0.06889336148742586,0.002869040160068476,69618.57715998591
1681261237011141300,73,1681261237011141300,camera_1,74,0,0.03479623574164801,0.07860512146214445,1.5535204185977618,0.9994729693992195,0.012318261670816713,0.006479592760214334,0.029326758214606174,0.07492857810575515,0.003121260174416588,69578.13792782661
1681261237021208524,74,1681261237021208524,camera_1,75,0,0.03479320020533218,0.07731636450438995,1.5535090471355564,0.9994616322383566,0.012455903829984693,0.008033562907258578,0.02927042893832339,0.08378930005710572,0.003489719614280936,69574.8345859074
1681261237031316757,75,1681261237031316757,camera_1,76,0,0.03481389173378429,0.07604778002090685,1.5536811855907613,0.9995681711997523,0.01251684078822524,0.0063470141862179575,0.02581695628816533,0.07428521127440035,0.003094123847215866,69588.01027661214
1681261237041170597,76,1681261237041170597,camera_1,77,0,0.034793478282742055,0.07527046876559378,1.5532687224874488,0.9995362072322689,0.01251290404297671,0.007219605285484865,0.026808113765496813,0.056663609764655135,0.0023590369336041936,69615.0904476946
1681261237051130771,77,1681261237051130771,camera_1,78,0,0.03480393383357133,0.07533405039602557,1.5534679907093292,0.9995745632776976,0.012522740581193337,0.006669782652682323,0.025483080973513088,0.06619987108570058,0.0027564031247088194,69607.75570851073
1681261237061505079,78,1681261237061505079,camera_1,79,0,0.03481705036798128,0.07617037185894251,1.55374876341394,0.9994898546874819,0.012492707121400657,0.005024883055483462,0.028960545503396707,0.07920843863394113,0.0033001130116354226,69564.50376557997
1681261237071494340,79,1681261237071494340,camera_1,80,0,0.03478463427806972,0.07747807467573636,1.5534575370942678,0.9993974899912809,0.012545755288198413,0.006184355559763826,0.0317649928330984,0.08548302651615813,0.0035606230452383835,69566.52709130837
1681261237081123828,80,1681261237081123828,camera_1,81,0,0.034867081687448315,0.07891921645394036,1.5534358297717423,0.9995658472821802,0.012103865337302391,-0.017586409105252672,-0.020305950008217652,0.08336875855457038,0.0034720121906346582,69588.3926055464
1681261237091244220,81,1681261237091244220,camera_1,82,0,0.03485034500284044,0.07962318616098124,1.553004414590864,0.9995765959000178,0.01207637291872557,-0.016419660062493714,-0.02076499240290448,0.08055504102958366,0.0033534960859876346,69624.05433912107
1681261237101247787,82,1681261237101247787,camera_1,83,0,0.03484408272951317,0.07955858808414762,1.5528368012552423,0.999523035045105,0.01209597133638809,-0.015953209785657514,-0.02351350652680258,0.08975829824339598,0.0037364363994256623,69621.07529442992
1681261237111156702,83,1681261237111156702,camera_1,84,0,0.03480050527854791,0.07863597398430243,1.5537376952934614,0.9995275045801334,0.012341677414869844,0.006649216902759018,0.02735394854456699,0.07536697632167488,0.003139989265083638,69571.7151658144
1681261237121364831,84,1681261237121364831,camera_1,85,0,0.03479525712134987,0.07733182355639301,1.5537111382484285,0.9994437615659516,0.012526772186662701,0.007569659198084711,0.02996577556329289,0.08301511046011001,0.003458789395677815,69553.35374212079
1681261237131044387,85,1681261237131044387,camera_1,86,0,0.034803329720275396,0.07603267828469269,1.5536494248261874,0.9995850210149303,0.012491377079428958,0.006925815465026274,0.025015681909268384,0.07073117037361953,0.002945748590407369,69594.00769901049
1681261237141029119,86,1681261237141029119,camera_1,87,0,0.03480072673257827,0.07528150663835553,1.553336303769472,0.9995471839980241,0.012495561454540982,0.008336824278796522,0.02607269196881123,0.06319369254924823,0.002630816001475556,69610.22163104004
1681261237151066064,87,1681261237151066064,camera_1,88,0,0.034796697438030426,0.07532064318990381,1.5532650761035913,0.9995228264144725,0.012568356410004306,0.007021468552253766,0.027328645647833813,0.05086264254350681,0.002117565602058284,69612.57119737985
1681261237161456108,88,1681261237161456108,camera_1,89,0,0.034797150858939384,0.07614125299278982,1.5533003841862687,0.9994332454650694,0.012448147162569928,0.007209520184926903,0.03043442639644276,0.08813051985634957,0.0036694767368254835,69587.14158080096
1681261237171457767,89,1681261237171457767,camera_1,90,0,0.03478898622302807,0.07746895219916287,1.5535808054470952,0.9994336062452056,0.012375787800057098,0.007997774143427278,0.030254622667982185,0.07478103961329907,0.0031152007627874003,69561.363405638
1681261237181061029,90,1681261237181061029,camera_1,91,0,0.03485557867507337,0.07891849454091071,1.5532951316856947,0.9995586513853504,0.011979654694221784,-0.01717548626382301,-0.021071141063267587,0.07895747345173731,0.003288012999373652,69597.19138054574
1681261237191085815,91,1681261237191085815,camera_1,92,0,0.03477189572142992,0.07944200469996673,1.5528488213999676,0.9994265506279953,0.01239958859833881,0.006617421303547576,0.030806327884226617,0.08059085550485179,0.0033546083588575203,69626.19076908426
1681261237201437234,92,1681261237201437234,camera_1,93,0,0.03485946552956144,0.07956626766089936,1.5530588247712334,0.9995910802437163,0.012090738028784307,-0.015894845831583505,-0.020465586410112854,0.08050607971381396,0.003351370406110812,69623.2438155062
1681261237211463212,93,1681261237211463212,camera_1,94,0,0.03485850516528296,0.07877845056900083,1.5533921652973968,0.9995660777168334,0.012027895082480677,-0.01581852683496577,-0.021743050072195114,0.07487846643198282,0.003118700111798168,69589.17762320291
1681261237221494197,94,1681261237221494197,camera_1,95,0,0.03479895542625712,0.077340736648684,1.5539399796040125,0.9995552533717228,0.012431237322787411,0.006969390955904682,0.026195178665535817,0.07125351484864952,0.0029689987926205114,69560.70863371728
1681261237231484413,95,1681261237231484413,camera_1,96,0,0.034783011645276224,0.07601499070459733,1.5532963725183933,0.9995368266239081,0.012479015645925835,0.008841448375585844,0.026310362630307414,0.06483833993843291,0.002699370901230966,69610.7236093087
1681261237241467475,96,1681261237241467475,camera_1,97,0,0.03487370269949063,0.07543161718456522,1.553295095920015,0.9996017707379304,0.012185097823224083,-0.01605512650174297,-0.01974984156000903,0.08238127299409825,0.0034291429626353742,69624.15668510937
1681261237251411199,97,1681261237251411199,camera_1,98,0,0.03479211056260165,0.07533797322451258,1.5531883628070264,0.9995213342029325,0.012497390474379198,0.007840552110930961,0.02719270944787147,0.08111215493408963,0.0033761569727179955,69617.72615665541
1681261237261447429,98,1681261237261447429,camera_1,99,0,0.034790768580682835,0.07617076497810857,1.5535659355147229,0.9995207662393372,0.012561624904774863,0.00761977877334929,0.02724669535055011,0.05569514563831035,0.002319759954754285,69584.8667629977
1681261237271435260,99,1681261237271435260,camera_1,100,0,0.03480775642053617,0.07749390834277987,1.5538696090694184,0.9995393265317679,0.012342077328784739,0.006237339816118931,0.027016725109615076,0.06823761528357863,0.0028434620659043637,69563.90436811047
1681261237281446456,100,1681261237281446456,camera_1,101,0,0.03485151149415275,0.07890918707137262,1.5531866672722239,0.9995219572889831,0.012163415298893773,-0.016299523541876516,-0.023285913290551845,0.09570106101455167,0.003984497294308082,69594.01748320412
1681261237291399240,101,1681261237291399240,camera_1,102,0,0.034851131512499606,0.0796217537134005,1.553059035184749,0.9995984542197285,0.012038362635619963,-0.015828614976277685,-0.02018571511033082,0.06965701380977407,0.0028998923713112437,69624.99567953032
1681261237301505088,102,1681261237301505088,camera_1,103,0,0.03484912329226451,0.07957434624171518,1.553350062697635,0.9996461587659364,0.012053246645813327,-0.015363735811286567,-0.018061897234906393,0.06949357193661854,0.002894112340982499,69614.33856040705
1681261237311431884,103,1681261237311431884,camera_1,104,0,0.034857957748978374,0.0787876284616192,1.5531638932966718,-0.9994983841138163,-0.01216728037458149,0.01613675144796149,0.024383246192072466,0.07559990038862452,0.003148206826309872,69588.94451921084
1681261237321455001,104,1681261237321455001,camera_1,105,0,0.03480803157685934,0.0773301461289157,1.5536525206616527,0.9995049641635382,0.01245881320703758,0.006026737193233925,0.02825390282280328,0.06907767272787169,0.002877829943879905,69575.54268780617
1681261237331406593,105,1681261237331406593,camera_1,106,0,0.03481042823933374,0.07602678878000718,1.5534328301138847,0.9995994514837498,0.012465280901998114,0.004737501340957791,0.024962160292438765,0.07502638269215822,0.003123957727569904,69619.7997093218
1681261237341450929,106,1681261237341450929,camera_1,107,0,0.03478924940220415,0.07526449422560101,1.5531799252730858,0.9994735904537448,0.012532313471712131,0.007987463241292963,0.0288389239659846,0.05955188193183858,0.002479020423661032,69606.34019347245
1681261237351136922,107,1681261237351136922,camera_1,108,0,0.034823948506905365,0.07536363026573273,1.553816592473974,0.9996566409489083,0.012440324138964965,0.004566089811055864,0.02260507389725781,0.06688615116581786,0.0027859612941677726,69599.57624289629
1681261237361047267,108,1681261237361047267,camera_1,109,0,0.03487266297498637,0.07635321646906569,1.5537240374112788,0.9995850020127385,0.01215727922049425,-0.01489970137982548,-0.021448151713858513,0.0855927251977846,0.0035654148945749304,69575.31282627594
1681261237371119499,109,1681261237371119499,camera_1,110,0,0.03479587964224125,0.0774562161355693,1.553423248143325,0.9994264115559789,0.012485254147387506,0.006407831003307147,0.030820545339879532,0.07441370433662085,0.0030993197751501642,69576.23460895845
1681261237381079912,110,1681261237381079912,camera_1,111,0,0.03486284274121605,0.07891898608571415,1.5535082464216114,0.9996008286132629,0.012204910407303827,-0.015604716974031905,-0.02014240317808219,0.08040644892025739,0.0033489191854165668,69589.69332985138
1681261237391024112,111,1681261237391024112,camera_1,112,0,0.03484374009845667,0.07961855826656247,1.5530881251519084,0.9995845903276979,0.01212037920487436,-0.016817097001419444,-0.020023197441550174,0.0734821647638455,0.0030590488022631925,69620.22320098737
1681261237401472330,112,1681261237401472330,camera_1,113,0,0.03485274144425647,0.07957200252134017,1.5529243680337441,0.9995805105002348,0.012070541892192399,-0.01494625276946241,-0.021672899544599524,0.07582461158744991,0.003156539684579948,69629.74618275277
1681261237411523580,113,1681261237411523580,camera_1,114,0,0.034853927104252364,0.07877746655087887,1.55349024523179,0.999618916534802,0.012089412289769895,-0.015267358074810436,-0.019564651637387107,0.07963098707841709,0.0033166307951642453,69596.73455602242
1681261237421480178,114,1681261237421480178,camera_1,115,0,0.034800258622601124,0.0773459062649872,1.5537763344947633,0.9995842126787685,0.012536285819626158,0.007565073810867108,0.024839745559314175,0.053945879626553506,0.002247384169198344,69581.63581738087
1681261237431484937,115,1681261237431484937,camera_1,116,0,0.03479271030761658,0.07601572705660059,1.5534595195402343,0.9995224211393761,0.01242826247930828,0.008754542998672345,0.026904012866292366,0.07005742112232838,0.002917228795608985,69592.68604143
1681261237441479921,116,1681261237441479921,camera_1,117,0,0.034808522584928406,0.07527943054586576,1.5535187129667398,0.9995719933239802,0.012499841767796314,0.004531569296292924,0.02605856860646787,0.0726151504786685,0.003023846559929363,69605.43457866365
1681261237451430320,117,1681261237451430320,camera_1,118,0,0.034793635348848585,0.07535106506559607,1.5535360981252184,0.9995796050559904,0.012569363146938406,0.007692889524259337,0.024968854938867083,0.0762831134488806,0.003176277832907063,69601.61387495091
1681261237461082458,118,1681261237461082458,camera_1,119,0,0.034804175050319706,0.0761832391907456,1.5535930037756105,0.9995077358335356,0.012455456272923887,0.0065935843504602385,0.028029845939035302,0.07811461569508538,0.0032535781111306594,69580.48135392158
1681261237471103191,119,1681261237471103191,camera_1,120,0,0.034802959077094846,0.07748993530637753,1.55359204620402,0.9994917028380148,0.012389547898526948,0.007459417168460558,0.02841112733318348,0.08564403478521854,0.0035672370269599716,69575.46600135799
1681261237481033802,120,1681261237481033802,camera_1,121,0,0.03486720956994255,0.07892973971155026,1.5532945296900922,0.999548469637217,0.012123304683366268,-0.017272280047741922,-0.021390434109765537,0.06533544725971295,0.0027210119167988766,69594.69965891278
1681261237491288900,121,1681261237491288900,camera_1,122,0,0.03484845939700034,0.07960819822470677,1.5530380269272854,0.9995859318287221,0.012050627818459081,-0.015952125216909828,-0.0206948534749713,0.08055066160159186,0.003353362468886494,69623.13018624438
1681261237501404523,122,1681261237501404523,camera_1,123,0,0.034846373583772836,0.0795550879898175,1.553215583294836,0.9996262297920757,0.012096900790785242,-0.014984472307152701,-0.019404414255897104,0.07891680859029293,0.0032860683521407953,69619.12482131574
1681261237511092901,123,1681261237511092901,camera_1,124,0,0.03485764176343575,0.07878858601166183,1.553111766131847,-0.9994990243329287,-0.012109316054175182,0.016997850522891392,0.023793652511228593,0.06110255408566445,0.0025442411555639173,69595.15540584084
1681261237520949363,124,1681261237520949363,camera_1,125,0,0.03479640298761359,0.07733979823825374,1.5535319794514937,0.9994472620219138,0.012480224165973813,0.007359800819672048,0.029920691395123218,0.08196379494620487,0.003414023555574467,69570.32563575557
1681261237531471729,125,1681261237531471729,camera_1,126,0,0.034811014383752836,0.07606024781804831,1.553735271488852,0.9996412819743008,0.012388985722237747,0.005382185733012737,0.023126877919123757,0.06882150314049795,0.002866309427775809,69601.91164084004
1681261237541084766,126,1681261237541084766,camera_1,127,0,0.03481098716910856,0.07530713017272594,1.5537206324674022,0.999624925533577,0.012462111355784412,0.006728921406244221,0.02343983040159772,0.06487809629470576,0.002701984762141133,69597.38843522262
1681261237551397323,127,1681261237551397323,camera_1,128,0,0.0348041079337246,0.07532745223848045,1.5535289729424673,0.9995348982648556,0.012553637188367125,0.0066191319957347675,0.026992229171202167,0.06292344955727458,0.0026205115266128057,69592.64953780173
1681261237561023235,128,1681261237561023235,camera_1,129,0,0.0347948219702658,0.07617171400823189,1.5535667873897212,0.999520988948675,0.012578560568849912,0.0073626519654456275,0.027301352001580098,0.07369730417849496,0.0030694646477330964,69585.31634164229
1681261237571057558,129,1681261237571057558,camera_1,130,0,0.03487881404996463,0.077656438904397,1.5535191151760226,0.9994884157919185,0.012136711638903255,-0.016507372616986805,-0.02455837082624005,0.09184703609207645,0.0038260994651313886,69560.56129228068
1681261237581007242,130,1681261237581007242,camera_1,131,0,0.034853403799421034,0.07891009004185175,1.553191544075959,0.9995503171172593,0.012229629155163695,-0.01667631939822872,-0.021714052888445804,0.08564120245864615,0.003565991793521528,69603.72196888458
1681261237591038703,131,1681261237591038703,camera_1,132,0,0.034853365388465556,0.07961116400606257,1.5531578181540857,0.9996018840430329,0.012171343972665422,-0.016417087556646153,-0.019452790022917502,0.0714771731873043,0.002975962971027399,69619.18967203458
1681261237601065158,132,1681261237601065158,camera_1,133,0,0.034845137426145506,0.07954785777819483,1.5532372279769713,0.9996317462871964,0.012121149020740333,-0.016303039584824156,-0.01799056590334963,0.0795772991841659,0.0033130312809681365,69621.90357882842
1681261237611027717,133,1681261237611027717,camera_1,134,0,0.034866010191686794,0.07876915770504977,1.5534423424191444,0.9995405056912147,0.012037207812498554,-0.016702733258624997,-0.02224638874786064,0.07810719276312739,0.0032532505318618545,69578.33252339716
1681261237621143341,134,1681261237621143341,camera_1,135,0,0.034801869903967594,0.07734474907269492,1.5536856884069712,0.9994866858693143,0.012393498966319243,0.0053974420476080405,0.0290453709339236,0.07451951305847615,0.0031046391531069327,69568.7907816314
1681261237631144285,135,1681261237631144285,camera_1,136,0,0.03480622490792332,0.07605646051880516,1.5537768612569143,0.9995923605170451,0.012465388013496849,0.006906553984527473,0.024739167522236653,0.062212458535213955,0.0025914599888923287,69584.40680764196
1681261237641459226,136,1681261237641459226,camera_1,137,0,0.034804837264332665,0.0752945877520369,1.553443926132888,0.999625611475359,0.012535288197553309,0.0066081365676754975,0.023405895911540735,0.06388526014052333,0.002659772657002042,69622.55118401791
1681261237651114463,137,1681261237651114463,camera_1,138,0,0.03480475308186806,0.07533120922739384,1.553377373679103,0.9996226987979842,0.012480904025034222,0.006111346787527242,0.02369258371295434,0.06837297989113722,0.0028463936646090783,69628.3183856846
1681261237661056280,138,1681261237661056280,camera_1,139,0,0.03481784832735908,0.0761856292338384,1.5537890477647769,0.9996398895482141,0.012453604464252355,0.004887342272576727,0.023261832373935032,0.0745368218049407,0.00310449966822082,69598.2066251861
1681261237671038866,139,1681261237671038866,camera_1,140,0,0.03478323478622642,0.07747735164696584,1.5534817091912214,0.9994725732327606,0.012541823164423321,0.00830799931153484,0.02877942276411777,0.07527514843968675,0.0031350577549749147,69579.735724167
1681261237681447982,140,1681261237681447982,camera_1,141,0,0.03485784002722259,0.07893194865868192,1.5534142926149235,0.9995708145011091,0.012143433631160522,-0.016739592106506666,-0.02074873184902706,0.08122854784596711,0.003383024018772977,69590.25795438001
1681261237691421747,141,1681261237691421747,camera_1,142,0,0.03486764750967695,0.07962907205147414,1.5533342212300496,0.9996432968735305,0.012051857432624937,-0.01574169639801905,-0.01789499211385509,0.07705009903293103,0.003208545323986199,69615.35696273655
1681261237701493501,142,1681261237701493501,camera_1,143,0,0.03485865957539755,0.07956347766739436,1.5533416839599559,0.9996499226331255,0.012004604929222524,-0.015888547488392486,-0.017420553917386988,0.07426233764272183,0.0030923468043543363,69617.33811845469
1681261237711421728,143,1681261237711421728,camera_1,144,0,0.034785607382018156,0.07860149737814891,1.553472424605355,0.9994759105124391,0.01238824720844114,0.007568159693335441,0.02893369308072428,0.07337924127932638,0.0030565108455499327,69581.6921583392
1681261237721400022,144,1681261237721400022,camera_1,145,0,0.034794906552143984,0.07733829333188352,1.5536351701916888,0.9995011323723102,0.012448158498242679,0.007079969327332151,0.028149667330118932,0.07297579303849488,0.0030400006481041716,69574.58261616807
1681261237731375455,145,1681261237731375455,camera_1,146,0,0.03479004552097318,0.0760343964464851,1.5534664578602286,0.9995663580201414,0.01248918505590716,0.00759488954497137,0.025562351687385288,0.06413998671632727,0.002670776062087952,69604.70033735353
1681261237741084098,146,1681261237741084098,camera_1,147,0,0.034802553034782746,0.07528875088809014,1.5534487495827551,0.9995472354561765,0.012509258066907086,0.006601827866840655,0.026556702041988105,0.07988113194005564,0.003325914531838485,69602.74722251842
1681261237751421451,147,1681261237751421451,camera_1,148,0,0.03478957202273765,0.07532309930446088,1.5530677555217796,0.9995623454693855,0.012347783924862197,0.007108278557503068,0.025925318278369847,0.07297908667533194,0.0030372162647135516,69639.18444448161
1681261237761013746,148,1681261237761013746,camera_1,149,0,0.034791366452368286,0.07614231860315307,1.5534837848427738,0.9994946494619732,0.01247701509009865,0.006906378884334688,0.028409007762237565,0.057447483253781684,0.0023926322096916607,69586.47622297489
1681261237771290779,149,1681261237771290779,camera_1,150,0,0.034799333446228,0.07748143460739731,1.553737840673229,0.9995454862990023,0.012393734825399176,0.007120433203307761,0.02654271250957474,0.04305696091614664,0.0017940083805214153,69575.91394766618
1681261237781377077,150,1681261237781377077,camera_1,151,0,0.034861988194671296,0.07892568597620461,1.5533538114650165,0.9995674510092468,0.012015983355711114,-0.016281649444176614,-0.021340921213696806,0.06951390800531954,0.0028952422266255717,69593.1699522998
1681261237791057109,151,1681261237791057109,camera_1,152,0,0.03484728506072082,0.0796222432089137,1.5531735466038805,0.9996798673012494,0.01209869973392025,-0.014211750090658011,-0.017082462839577053,0.07486331684049219,0.003116847998257128,69638.86175732965
1681261237801265716,152,1681261237801265716,camera_1,153,0,0.03485503859246116,0.07956807673911315,1.5529572058886563,0.9995147705841432,0.012014678353243928,-0.01729285050621611,-0.02295273860709113,0.07200989668490365,0.002997907052891555,69610.0084159663
1681261237811059474,153,1681261237811059474,camera_1,154,0,0.03485077287861018,0.07875523515840702,1.5532912525807696,0.9995820082380186,0.01211994786923639,-0.01499401122260147,-0.021542871163179888,0.08593153313267976,0.003578188889056537,69602.09641925723
1681261237821103811,154,1681261237821103811,camera_1,155,0,0.03481483324027039,0.07735881368680064,1.5540178567228216,0.9995455898200244,0.01241012626062514,0.00494099941137379,0.027022012551844644,0.07910334982443601,0.003296643951684762,69554.3112870471
1681261237831094980,155,1681261237831094980,camera_1,156,0,0.0348116704419254,0.07607102962336991,1.5537471147430444,0.999629064659797,0.012511275273330258,0.005729677587546882,0.02350259290285426,0.07020428072428331,0.002924008434236978,69597.79527896433
1681261237841089963,156,1681261237841089963,camera_1,157,0,0.034806071581259715,0.0753141738423344,1.553464695103831,0.9995565022545791,0.01249223143851552,0.007923384450066658,0.025844978876651246,0.06980049332196359,0.002906142579267991,69601.73520421152
1681261237851180553,157,1681261237851180553,camera_1,158,0,0.03479819219791189,0.07534163283365243,1.5533017375050537,0.9995337605346624,0.012526001478850147,0.005850160974372485,0.027223821461393228,0.06884476025879849,0.0028662132034095794,69613.56845878088
1681261237861161708,158,1681261237861161708,camera_1,159,0,0.03480492255115481,0.0761454510251112,1.553604101233315,0.9995266285599598,0.012561077627482781,0.007004556589623598,0.027196954156292703,0.0537974398030201,0.002240814358894814,69583.83687671911
1681261237871052503,159,1681261237871052503,camera_1,160,0,0.03480335027725556,0.0774884102446613,1.5538599908436392,0.9995130828396944,0.01243343317954443,0.006097475420667867,0.027961183185883365,0.0684658859972842,0.002853086623370347,69558.85201425618
1681261237881035804,160,1681261237881035804,camera_1,161,0,0.03486707098410377,0.07892742086174838,1.553081611160379,-0.9994840828424283,-0.012085611767854689,0.017528571312822667,0.024046939941661634,0.06983875227160752,0.002907915459455239,69593.33504080876
1681261237891097068,161,1681261237891097068,camera_1,162,0,0.034788455704817894,0.07948424741937674,1.5532768547428806,0.9995313953598347,0.012349406099463918,0.005365254726929968,0.027489923621711047,0.08207595173735172,0.0034177960979511974,69614.74552593773
1681261237901103258,162,1681261237901103258,camera_1,163,0,0.034858345695937334,0.07957412251434991,1.5533076547094384,0.9996275657228628,0.012129400595503497,-0.015343089323146526,-0.019031476511285308,0.07742397353285924,0.0032242472298131567,69612.20147853762
1681261237911052227,163,1681261237911052227,camera_1,164,0,0.034861277859729985,0.07877395207077728,1.5531751296910836,0.9995417391463624,0.01205207607839165,-0.017319120099212486,-0.021705005078436982,0.0911097846692428,0.003793200797565121,69603.67746748486
1681261237921036243,164,1681261237921036243,camera_1,165,0,0.03481155983701001,0.0773054534084702,1.553540936373736,0.9994349443778726,0.012432095222327293,0.0054444951067695885,0.030750486789873587,0.08407734445063397,0.003502457994840797,69569.08647806771
1681261237931130170,165,1681261237931130170,camera_1,166,0,0.03480580939530083,0.07601665277612098,1.5533048773003508,0.9995155146661441,0.01256861658500065,0.006565871541740473,0.027706590366006173,0.06776431012258399,0.0028212199709721462,69608.35428855533
1681261237941100358,166,1681261237941100358,camera_1,167,0,0.03481443196509894,0.0753114780978574,1.553518023124994,0.9996246557812675,0.01252752932469224,0.005058437739437682,0.023833186334144597,0.06542908454139251,0.002724386556839023,69617.88551951526
1681261237951259136,167,1681261237951259136,camera_1,168,0,0.034789470764089114,0.0753417275505794,1.553182570670205,0.9995539615112947,0.012550143871702777,0.007487859885943107,0.026044267511397025,0.07183913921471685,0.002990246516505065,69626.96741402478
1681261237961240530,168,1681261237961240530,camera_1,169,0,0.03480041949672667,0.07615289791365049,1.5533318695383025,0.9994460981601475,0.012506679442205787,0.006626263724324511,0.030119303956809937,0.06822481343988329,0.0028410533297579467,69588.5035812204
1681261237971082210,169,1681261237971082210,camera_1,170,0,0.03480342106874876,0.07746933009358016,1.5536615413639325,0.9995449218591095,0.012247318446207266,0.00628906720053088,0.026840268446705645,0.06923427665606141,0.0028840393356123575,69583.40628818516
1681261237981019020,170,1681261237981019020,camera_1,171,0,0.03487448382627066,0.07890299000814038,1.5534439745739175,0.9996109904300581,0.01211184876723013,-0.01693614570593481,-0.01855634391536457,0.06499986164271832,0.0027068802430748095,69601.19075275285
1681261237991051197,171,1681261237991051197,camera_1,172,0,0.03478590646532507,0.0794800473120342,1.5533105138726342,0.9995180617766936,0.012334230062994604,0.005972572634117027,0.027853892493601422,0.0854441758710891,0.003558031407274921,69607.69940389262
1681261238001008987,172,1681261238001008987,camera_1,173,0,0.03479655315235174,0.07942510004156453,1.5533786591353311,0.9995621875914844,0.01231308792329844,0.0049570610205041535,0.02644330821131049,0.07577242207480595,0.003155492322175215,69613.49205847087
1681261238011023759,173,1681261238011023759,camera_1,174,0,0.0348741562010118,0.0787753177957014,1.5533127624436633,0.9995347393544729,0.012082581810792744,-0.01707642602338981,-0.022197110502025764,0.07126784574938938,0.0029680887647391767,69588.89941401729
1681261238021183729,174,1681261238021183729,camera_1,175,0,0.034795044467337624,0.07733082267710761,1.5537083412820774,0.9994469074206994,0.012458787137110712,0.008464067914304365,0.029648228018117343,0.06936486676568165,0.0028900642438663693,69552.84872247084
1681261238031449079,175,1681261238031449079,camera_1,176,0,0.034803506570619334,0.07603097902549834,1.5534322791934039,0.9996079947649447,0.012502194071669378,0.006699206078495377,0.02413861187637923,0.06979159888578579,0.0029058326617197494,69619.28375373106
1681261238041423559,176,1681261238041423559,camera_1,177,0,0.03481138351331517,0.0752874672269858,1.553513830008336,0.9995864347234409,0.01246715877930194,0.005858201139065034,0.025243037619639135,0.06372488755732775,0.0026534465790703423,69607.55509908873
1681261238051466941,177,1681261238051466941,camera_1,178,0,0.034816630382512384,0.07538252742076253,1.553718625495018,0.9996335326296193,0.012418511566484663,0.005552777034823097,0.023404009915026655,0.0712092128378572,0.0029657456874912207,69601.2400967062
1681261238061074256,178,1681261238061074256,camera_1,179,0,0.0348056346515413,0.07616524848831814,1.5534432680577723,0.999429551584687,0.012546871060394624,0.00664966414500574,0.030641955103810698,0.0829179366119206,0.0034534766200782644,69574.61420610326
1681261238071526050,179,1681261238071526050,camera_1,180,0,0.03479371870854394,0.07748598872407006,1.5535636651329283,0.9994663856594127,0.012395784358787486,0.007324153637446322,0.029319707374658086,0.07998886913992465,0.003332054499237326,69571.96699449095
1681261238081400156,180,1681261238081400156,camera_1,181,0,0.034865854653595936,0.07888921730555543,1.5531842574545336,0.9995909181981364,0.012170384079341621,-0.016817907689559503,-0.019673230240948365,0.06994799216045067,0.002912183187603349,69617.69872369128
1681261238091235637,181,1681261238091235637,camera_1,182,0,0.034836882138739436,0.07961873192198103,1.5531107895709413,0.999594798565752,0.012060143686885008,-0.014626474093682281,-0.02123341400086679,0.08901114849140868,0.003705866237845869,69616.86316597878
1681261238101041316,182,1681261238101041316,camera_1,183,0,0.03484454466814654,0.07958241929432243,1.5533671424842896,0.9996078130289374,0.01211785579777451,-0.015911764292928558,-0.019600853538955763,0.08512844436336309,0.0035453785841536955,69601.44276666606
1681261238111007213,183,1681261238111007213,camera_1,184,0,0.03479452841988849,0.07862994663541718,1.553587642110195,0.9995180485471279,0.012423468223542391,0.005714725031105545,0.02786879946569214,0.08244553947588429,0.0034345098788572453,69584.35774966294
1681261238121074438,184,1681261238121074438,camera_1,185,0,0.03479875492573969,0.0773716413355841,1.5537427403274944,0.9995009397953202,0.01242040673358808,0.006886387919650387,0.028216706155473,0.08084499434335157,0.0033683139537377237,69565.18466337968
1681261238131464004,185,1681261238131464004,camera_1,186,0,0.03479863231787327,0.07604102709645093,1.553635306167208,0.9995850438249005,0.01241799196721192,0.007077873509796709,0.02500874534344666,0.06792021787259728,0.0028287110025682098,69594.80701421376
1681261238141114950,186,1681261238141114950,camera_1,187,0,0.034808561269930975,0.0752804530562567,1.5534473407121714,0.9995638547169318,0.012472070355440922,0.005459169632181499,0.026205825142605034,0.08179543675214518,0.0034056405460345957,69608.46646927869
1681261238151389360,187,1681261238151389360,camera_1,188,0,0.03481231030727482,0.0753453784572063,1.5533882066383402,0.9995482001184018,0.012525827277958554,0.00543526371649979,0.026776056457185837,0.08417964418185875,0.0035049179818034174,69610.1112024833
1681261238161031246,188,1681261238161031246,camera_1,189,0,0.03480311409964088,0.07620692416122352,1.5539141382856179,0.9995722131148191,0.012482048921149423,0.007301741333327016,0.025421915682618593,0.07208357827039436,0.003003048725704177,69566.80634662988
1681261238171069383,189,1681261238171069383,camera_1,190,0,0.034804923156566726,0.07747132041066009,1.5534639807824049,0.999400566764318,0.012435224168307241,0.006765771876224803,0.031592668167832315,0.09768643655115739,0.004068759125776065,69565.68721874873
1681261238181025028,190,1681261238181025028,camera_1,191,0,0.03485899157214667,0.07891460847809253,1.5537583289277763,0.9996553121653532,0.012069520524564992,-0.014765880276360319,-0.018043068296765486,0.0752399365301244,0.003134662812809956,69583.19097753963
1681261238191143751,191,1681261238191143751,camera_1,192,0,0.034851974849939016,0.07961149536705547,1.5530882125478178,0.9995803162710829,0.012103526592143789,-0.016811550068060697,-0.020250129672290177,0.0781373226782307,0.0032529223687775177,69618.80284529124
1681261238201110839,192,1681261238201110839,camera_1,193,0,0.03485468467242819,0.07956479483053192,1.5530150332850374,0.999588918322475,0.01203038095114582,-0.015499016081476817,-0.02090561650802917,0.08856860763626173,0.0036872262771017674,69625.4198072066
1681261238211463928,193,1681261238211463928,camera_1,194,0,0.03486193911405114,0.07877916177219657,1.5535525225050288,0.9996822138042832,0.012025572923183583,-0.014780126565542714,-0.016504691997821043,0.07532219844870269,0.0031371665950627077,69611.40917992455
1681261238221086025,194,1681261238221086025,camera_1,195,0,0.03480424914036853,0.07735072957315992,1.5537861744318529,0.9994807961430892,0.012436601799894365,0.00691324583476613,0.02890806304261169,0.07847311691148207,0.0032694670957247015,69556.45524581612
1681261238231087923,195,1681261238231087923,camera_1,196,0,0.034805544193537374,0.07602829505044525,1.5534226180438815,0.9994965377781497,0.012476234582595074,0.006844645011971718,0.028357809767186336,0.09110498236259446,0.003793399690311219,69592.55602815327
1681261238241083383,196,1681261238241083383,camera_1,197,0,0.034805802970305166,0.07529251658425701,1.5534501273396513,0.9996139076044492,0.012512934080048043,0.00551881416757746,0.024186874429239356,0.07173913321457803,0.0029867730870592017,69620.58860726749
1681261238251060247,197,1681261238251060247,camera_1,198,0,0.03479670667773439,0.07533703116061626,1.5532595869300285,0.9995186630460039,0.012491096770501715,0.0070784621699657505,0.027501092660241234,0.066776480874978,0.00277984467210182,69611.75745329575
1681261238261056184,198,1681261238261056184,camera_1,199,0,0.03481564596805045,0.07620565509111718,1.5538159824175886,0.9995454766489551,0.012438097036511827,0.006095997945739576,0.026776345190655,0.0708979609189555,0.0029537285119326713,69570.6141012302
1681261238271023988,199,1681261238271023988,camera_1,200,0,0.03480104884212883,0.07748710161591604,1.5537721725966895,0.9994469837243142,0.01238695909499103,0.0058099563109032465,0.030307332057028374,0.07690603018272668,0.003205050714644913,69550.78380588537
1681261238281043052,200,1681261238281043052,camera_1,201,0,0.0348583024367183,0.07891255154448558,1.5534958872205702,0.9995955911292485,0.012189671308627017,-0.015776106117641582,-0.020277588222494446,0.08607366075739264,0.00358492088955149,69589.39302963583
1681261238291062831,201,1681261238291062831,camera_1,202,0,0.034848129856095464,0.07961182825518594,1.5532217380080287,0.9996308454610567,0.01208426084922179,-0.015676995960544587,-0.018611159023394646,0.0786659779259935,0.0032752455401520086,69621.18159831362
1681261238301044940,202,1681261238301044940,camera_1,203,0,0.03485403882690634,0.07956815420382755,1.553090483133315,0.9995689209421083,0.012084357510255732,-0.014912252766863433,-0.022216329751133083,0.08958497812272981,0.003730135879066808,69611.26049330586
1681261238311012506,203,1681261238311012506,camera_1,204,0,0.03487278950480372,0.07880907050647082,1.553611139394102,-0.9995290548703618,-0.01203649550120365,0.015973028251649292,0.02327345299870287,0.07116295024752617,0.0029650464885315627,69558.13044521131
1681261238321438789,204,1681261238321438789,camera_1,205,0,0.03479614797214231,0.07735957684701707,1.5537403756757082,0.9995651260356466,0.012364000793653879,0.006461498339345036,0.025979594625918673,0.08148309105308726,0.0033943726088339096,69581.36710445769
1681261238331057548,205,1681261238331057548,camera_1,206,0,0.03480332261244912,0.07603565804633111,1.5537228075030645,0.999568917597165,0.012381598242314966,0.007025626131976862,0.025677141119127365,0.05047405378718395,0.00210254868197669,69583.02859451695
1681261238341227769,206,1681261238341227769,camera_1,207,0,0.03479063971773359,0.07526715290916333,1.5532602146844563,0.9995190444554406,0.012543427662507217,0.007406770253832584,0.02737666794490446,0.057939608304877765,0.002412040950630221,69611.39784586677
1681261238351197719,207,1681261238351197719,camera_1,208,0,0.03480147893328653,0.07534923372378807,1.5533911458402136,0.9995995130848944,0.012482778304472569,0.007784710797845591,0.024174200380519238,0.06863056695146952,0.002857180225365287,69619.04332591861
1681261238361005306,208,1681261238361005306,camera_1,209,0,0.03480009002625104,0.07617627878662689,1.5534001462556795,0.9994714377747607,0.012419765841436763,0.0069754676129313055,0.02922220629037823,0.07007536559831351,0.002918203474893146,69587.98965969731
1681261238371101140,209,1681261238371101140,camera_1,210,0,0.0348086493750433,0.07747228592446932,1.553506326321561,0.9994312627549695,0.012562721897932783,0.0053320187433358035,0.030836644153397385,0.08331989432917908,0.0034705891568243526,69571.826030178
1681261238381028175,210,1681261238381028175,camera_1,211,0,0.03486632606520095,0.07891966269291865,1.5534810414349438,0.9995657446426901,0.012229351910687062,-0.016779053315505568,-0.020910008574474826,0.09090997109888121,0.0037863465296951093,69583.19075402361
1681261238391013622,211,1681261238391013622,camera_1,212,0,0.034854274953652564,0.07961459143871516,1.5530099282564598,0.9995494425724213,0.012053802894863179,-0.01733960160712844,-0.02132969538085025,0.07244889053981751,0.0030159256780165717,69616.53265769615
1681261238401022195,212,1681261238401022195,camera_1,213,0,0.03484546696704616,0.07956018360375548,1.5534448045235025,0.9996574630775957,0.012086749999613651,-0.01498459149004204,-0.017729326145933193,0.0770770768285729,0.0032100355682382685,69609.09826863557
1681261238411051511,213,1681261238411051511,camera_1,214,0,0.034868008061250816,0.07878180631832896,1.5532843882122658,0.9995288064610685,0.01207877050221544,-0.016188170276744625,-0.023113015830005045,0.07808612048393115,0.003252067920484814,69587.73554241052
1681261238421015739,214,1681261238421015739,camera_1,215,0,0.03487140303897243,0.07752768283414241,1.5538723394664635,0.9996554961941807,0.012134796908977218,-0.01413119511489991,-0.01849175376671869,0.07424063561484218,0.003093506897785333,69578.34989366286
1681261238431019067,215,1681261238431019067,camera_1,216,0,0.034815197918843,0.07603684908532994,1.553320759975744,0.999508775808111,0.012511824135967553,0.004858335721358252,0.02832062699482896,0.08527113270247355,0.0035501934144484626,69607.50756484643
1681261238441078901,216,1681261238441078901,camera_1,217,0,0.03488032162959015,0.0754219312531877,1.553271230266676,0.9996319376641122,0.012272869301844722,-0.01727383113668921,-0.01694050291028566,0.07455032297002617,0.0031028802787232196,69638.4053789299
1681261238451001167,217,1681261238451001167,camera_1,218,0,0.03478913974960423,0.07534385060046216,1.5533268508436269,0.9995404083726359,0.012547223826231139,0.008636549625374938,0.02620971604361895,0.08056776791636366,0.0033539412322715267,69609.12609967448
1681261238461031436,218,1681261238461031436,camera_1,219,0,0.03479026215565501,0.07618232845007537,1.5534613935006532,0.9995072664641302,0.012611164042531427,0.0077165555554477945,0.027688221272849034,0.06730073371727485,0.0028025899474748146,69590.89278695443
1681261238471040248,219,1681261238471040248,camera_1,220,0,0.034826527116504635,0.07749253182273524,1.55370867353025,0.999544851349658,0.012327687653252763,0.0028746659584602797,0.027383472262320276,0.08787155809113756,0.0036603197584464575,69585.27459826393
1681261238481034517,220,1681261238481034517,camera_1,221,0,0.03486346210201847,0.07891759217659976,1.5532507052421607,0.9995311577102439,0.012054754290612845,-0.016453652930678474,-0.02283473167456521,0.07555402617435902,0.0031465140049733507,69591.18768788864
1681261238491058826,221,1681261238491058826,camera_1,222,0,0.0348382464088093,0.07962120635415942,1.5531895053174916,0.9996162019138478,0.012109853059024994,-0.014199188013008181,-0.020473968594129047,0.0799741261289455,0.003330084321911102,69616.24621262509
1681261238501070022,222,1681261238501070022,camera_1,223,0,0.03484622534413208,0.07956319311618196,1.553166814090915,0.9996137868827173,0.012045008277210601,-0.01550435251682192,-0.019667483383230544,0.07698171061929315,0.003205130801070602,69620.1333426931
1681261238511049747,223,1681261238511049747,camera_1,224,0,0.03485770666444962,0.0787705830795708,1.5534438382440037,0.9995842077662945,0.01205552710522583,-0.016002562320185452,-0.020736293054288518,0.08312839124118909,0.003462113760049139,69590.93033325623
1681261238521118640,224,1681261238521118640,camera_1,225,0,0.034813039865821446,0.07737708810421319,1.5539150824689492,0.9995564723341448,0.012397290416634921,0.005844875924118794,0.026438669230452128,0.07824984419858082,0.0032606553413785364,69564.77689599174
1681261238531448125,225,1681261238531448125,camera_1,226,0,0.034816189515883056,0.07605209266010979,1.5535502436242752,0.9995506170769695,0.012481867031174983,0.004908987872817653,0.026807997585241064,0.08095159509684892,0.0033713791078476343,69597.24524783247
1681261238541045665,226,1681261238541045665,camera_1,227,0,0.034812743249948784,0.07531068510657654,1.5535212007382377,0.9996150139890242,0.012455014527718994,0.0059449734625397046,0.024069767580242925,0.07672567835834343,0.003194589353807105,69613.81847083181
1681261238551438808,227,1681261238551438808,camera_1,228,0,0.034793869518562025,0.07532609141423963,1.5532056674969614,0.9995333214843477,0.012447084694626307,0.0076153898614393836,0.026836824743824737,0.06928458582842723,0.002883878238135882,69619.3070633578
1681261238561026573,228,1681261238561026573,camera_1,229,0,0.03480449724821844,0.0761816826552831,1.553553391393476,0.9995357802342725,0.012451152935658908,0.007267616963582226,0.02683979444235218,0.0659658767399378,0.0027476704930881855,69589.91449751543
1681261238571108579,229,1681261238571108579,camera_1,230,0,0.034884799454536715,0.0776658765059489,1.5537666011019444,0.9995502159861296,0.012220936859340198,-0.016611836843980203,-0.02177294883635667,0.08531770890112966,0.0035546185985284567,69558.50550422884
