%time,field.header.seq,field.header.stamp,field.header.frame_id,field.image_seq,field.transforms0.fiducial_id,field.transforms0.transform.translation.x,field.transforms0.transform.translation.y,field.transforms0.transform.translation.z,field.transforms0.transform.rotation.x,field.transforms0.transform.rotation.y,field.transforms0.transform.rotation.z,field.transforms0.transform.rotation.w,field.transforms0.image_error,field.transforms0.object_error,field.transforms0.fiducial_area
1681261692025540828,0,1681261692025540828,camera_1,1,0,-0.03921050986150636,-0.06648262556658052,1.5535790629893882,0.9996282843047647,0.012361963270501448,0.00839986933323396,0.022801694612372723,0.06764983608445618,0.0028158914408813996,69619.64948414624
1681261692035562276,1,1681261692035562276,camera_1,2,0,-0.03924861482216454,-0.06514098251153773,1.5543192818883935,0.9996022816173747,0.012391175654886758,0.009057329552051902,0.0236580246980603,0.045277707642526366,0.001886681401458121,69558.96447250922
1681261692045389890,2,1681261692045389890,camera_1,3,0,-0.039260413560996056,-0.06303933106050225,1.5544581942846893,0.9991799085994029,0.012601726932452168,0.007496347213931942,0.03774270138791474,0.09524526355380658,0.003971032348992962,69461.917029511
1681261692055761814,3,1681261692055761814,camera_1,4,0,-0.039215906964947554,-0.06036452066620154,1.5544438421414686,-0.9993327528648254,-0.012135602871083999,0.017939097365814588,0.02941028698032719,0.08323735080193728,0.0034696579290245935,69491.2433860728
1681261692065407991,4,1681261692065407991,camera_1,5,0,-0.03925052848466886,-0.05829341078371926,1.554689936723464,0.999528952147903,0.012236731631412584,-0.016115097173599196,-0.023074658397931696,0.08014726405963302,0.00334040014456628,69532.70516333694
1681261692075641393,5,1681261692075641393,camera_1,6,0,-0.03926541993813857,-0.05672073980970009,1.5540881720474702,0.9994816104215806,0.012013497160105009,-0.015852569555943732,-0.025315654317875455,0.0818187965778634,0.0034079492209868395,69571.64806506883
1681261692085521697,6,1681261692085521697,camera_1,7,0,-0.03926401245930249,-0.05599756513282803,1.5541534882585901,0.9995574261965554,0.012048141507693922,-0.01601898809579132,-0.021981493168462745,0.07560294162249193,0.0031488881362128156,69592.373167315
1681261692095519781,7,1681261692095519781,camera_1,8,0,-0.039265452169300025,-0.05626765753325537,1.5540608302914978,-0.9995173714810037,-0.012019924555476945,0.017006886834875553,0.02305019135650639,0.0653341137804091,0.002720994566920557,69588.8595556001
1681261692105439186,8,1681261692105439186,camera_1,9,0,-0.03927042686414868,-0.05753152283707548,1.5545990377667709,0.9995154597767643,0.011952483383265225,-0.014314686303956032,-0.02492134756059072,0.09141197486314923,0.0038102181965453783,69532.99981936115
1681261692115540504,9,1681261692115540504,camera_1,10,0,-0.039318019228811646,-0.05972921940618592,1.5546380166637925,0.9992281603274282,0.012538847466767925,0.007838947079685615,0.03639246929723784,0.10784595261793585,0.004495894343258391,69485.37279238552
1681261692125557422,10,1681261692125557422,camera_1,11,0,-0.03920283837007282,-0.061778298428462226,1.5545702792023743,-0.9994439327369343,-0.012243780457300672,0.017006578793818002,0.02593629567177297,0.08391245268285275,0.003497467134555451,69509.11004129518
1681261692135438919,11,1681261692135438919,camera_1,12,0,-0.03924525663531602,-0.06421385950541521,1.554637105611339,0.9995094025022573,0.012254903300969355,0.005048426010887874,0.028377544810592178,0.07673590480408166,0.003199052721444291,69521.15331797616
1681261692145377874,12,1681261692145377874,camera_1,13,0,-0.03921830524675506,-0.06598484069352623,1.5537558347834994,0.9994961136687727,0.012449985077650653,0.007961093081293698,0.028091593574186377,0.04994953461573459,0.0020802746712440187,69575.75095313798
1681261692155374288,13,1681261692155374288,camera_1,14,0,-0.03919075872599512,-0.06683808612702935,1.5535177787802823,0.9995933109755318,0.012409735405867373,0.006680428790427373,0.024790784402801972,0.05903256872261409,0.0024575853554678374,69615.26331472976
1681261692165457725,14,1681261692165457725,camera_1,15,0,-0.03920993787987951,-0.06667436476061432,1.553546588631574,0.9996160541335157,0.012503667229520725,0.007538305755074902,0.023549449477569158,0.05365573600283824,0.0022335931729735212,69619.14149594684
1681261692175386905,15,1681261692175386905,camera_1,16,0,-0.03922260232079781,-0.06559688515603679,1.5539430191231756,0.9994593438047563,0.012487469090355134,0.008702977813206905,0.02914346194717102,0.06275898919557221,0.0026143894053226695,69552.66857859412
1681261692185384511,16,1681261692185384511,camera_1,17,0,-0.03926299900959265,-0.06372295938928768,1.5545167492896277,0.999505530348995,0.01226619316783594,0.007739699572906245,0.027898608522016692,0.06567606586031616,0.002737537557649386,69531.35044418002
1681261692195390701,17,1681261692195390701,camera_1,18,0,-0.039302075928045944,-0.061368318413700385,1.5549966500327883,0.9993611605678807,0.012321882982572958,0.006906767172855987,0.03282892802700955,0.07151411141967401,0.0029831109124697215,69474.14466254822
1681261692205360174,18,1681261692205360174,camera_1,19,0,-0.03923033736245582,-0.058859230121165104,1.5547866825881032,0.9994855483962977,0.012057310545454489,-0.01833725910180056,-0.02338813241787682,0.08116438949946314,0.003383048405149972,69512.81512871539
1681261692215403556,19,1681261692215403556,camera_1,20,0,-0.03925390619316981,-0.05705691309132856,1.5542463681520564,0.9995138037050271,0.012068923791061519,-0.016191585470204353,-0.023755627577387653,0.07123766804579645,0.0029677151979059513,69568.71313627959
1681261692225403785,20,1681261692225403785,camera_1,21,0,-0.039249565633768406,-0.056114218983870395,1.5539993215289147,0.9995822710645862,0.012015242192847799,-0.01773820038267145,-0.01939777243900912,0.05867880140431225,0.002443392208604275,69618.28525333057
1681261692235445022,21,1681261692235445022,camera_1,22,0,-0.03926964288496336,-0.056090224157804236,1.554157556714614,0.9995488859826902,0.012189658438646899,-0.016788519639475776,-0.021715947279063116,0.07249833270907402,0.003019421434143005,69591.25708176079
1681261692245457172,22,1681261692245457172,camera_1,23,0,-0.03935913148593745,-0.05726816154558491,1.554810654779783,0.9994496228983377,0.012415253497510883,0.008369657814858203,0.0296017161162187,0.08798303699586539,0.0036670215439043407,69538.94674906356
1681261692255432844,23,1681261692255432844,camera_1,24,0,-0.03932594752277683,-0.05912067179393966,1.5546240572588343,0.9992651068064745,0.012478933700216835,0.0072914839761527885,0.03550150411146655,0.08640871598618105,0.0036019153287185687,69500.80934392821
1681261692265391588,24,1681261692265391588,camera_1,25,0,-0.039271133112279796,-0.061403974793195475,1.5544124981210423,0.9992576195463114,0.012418750788513377,0.006329359825501214,0.03591550656319908,0.09948195109609514,0.00414628307390624,69501.0629436369
1681261692275347232,25,1681261692275347232,camera_1,26,0,-0.03926037564407336,-0.06363452256039924,1.5547121811315063,0.9995413832881824,0.012411265978554924,0.006351607351865953,0.026881976400637445,0.07633740786695853,0.0031820391762582066,69526.24354267144
1681261692285440921,26,1681261692285440921,camera_1,27,0,-0.039204794311320575,-0.06554632207247157,1.5537910671328077,0.9994073441302777,0.012570811222973072,0.0067591293151476415,0.031324900232282245,0.07095468172337861,0.002955442999608036,69556.24994812708
1681261692295728445,27,1681261692295728445,camera_1,28,0,-0.03918139712402257,-0.06667399652274145,1.5535510537815207,0.9996274945122887,0.012354677273031418,0.007617163257197762,0.023113048013544475,0.0606096999545116,0.002522859572811083,69621.37798793177
1681261692305429935,28,1681261692305429935,camera_1,29,0,-0.03917737697778036,-0.06682659339774866,1.5532240520320946,0.9995368493694512,0.012455931167001038,0.00759827095552128,0.026705857219729887,0.06712948286440223,0.002793503893430609,69625.79473260822
1681261692315461397,29,1681261692315461397,camera_1,30,0,-0.039221013272786494,-0.06597596144443202,1.5540376580302164,0.9995758284130509,0.012438020234137929,0.006822608842311132,0.025434443449836336,0.059925140885752626,0.0024962619773751605,69572.88918858043
1681261692325438976,30,1681261692325438976,camera_1,31,0,-0.03926733719712405,-0.06428759964244989,1.5545037897256433,0.9995257100878068,0.01246045609991708,0.008752692955973812,0.026767186502621033,0.054868365594302304,0.002286716437512853,69531.6725209665
1681261692335576534,31,1681261692335576534,camera_1,32,0,-0.039293181212179853,-0.06209437036641683,1.5548037107026031,0.9994276510095355,0.012556986030738706,0.007366519731176802,0.03053566580960878,0.06808506319066511,0.002838546082212942,69501.7757435378
1681261692345487356,32,1681261692345487356,camera_1,33,0,-0.03924038427051669,-0.05949713824277326,1.5547651338858184,0.999479348132206,0.012250160438159014,-0.017759197984294768,-0.023991188245162266,0.09840304066892713,0.004101644507284429,69510.75425115952
1681261692355652570,33,1681261692355652570,camera_1,34,0,-0.03925654702276028,-0.057483615179647035,1.5543878042860249,-0.9994679527816697,-0.012022986026027107,0.015546016981011176,0.026030376975032,0.07575032848399132,0.0031565530806465956,69539.1226602516
1681261692365552425,34,1681261692365552425,camera_1,35,0,-0.03927484503270868,-0.056310740114335525,1.5544290542956245,0.9996420823332575,0.012129738198807468,-0.016640281954975435,-0.01707857418276664,0.07364280615001917,0.00306744484388158,69598.31500849918
1681261692375603199,35,1681261692375603199,camera_1,36,0,-0.03927993281862973,-0.05599690361087115,1.5541626116459366,0.9995986779377765,0.012060729550723502,-0.014379034420533014,-0.021219454208038332,0.07540679717203602,0.0031407881253560006,69601.9143740191
1681261692385880470,36,1681261692385880470,camera_1,37,0,-0.0392732202979759,-0.05666961180783893,1.5543342385798702,-0.9995441034941741,-0.012008982053117286,0.015141974107002689,0.02319677003848964,0.07046889612684026,0.0029359705981451658,69568.93422381836
1681261692396027088,37,1681261692396027088,camera_1,38,0,-0.03924475617920158,-0.05831648924218941,1.5548635628257594,0.9995017072967585,0.012078572278093745,-0.017519905770190268,-0.023313045798255237,0.09636482916539535,0.004017058074461408,69510.73498056925
1681261692405561923,38,1681261692405561923,camera_1,39,0,-0.039236640469022734,-0.06051143243826325,1.555041369006198,0.9994716670041512,0.012034217704295446,-0.013964895873427242,-0.026768379544399125,0.09731216065119953,0.0040593580416829625,69473.56407463999
1681261692415648221,39,1681261692415648221,camera_1,40,0,-0.03926350857041189,-0.06306671246021431,1.5544032330827653,0.9994134466161323,0.012305680815722645,0.007362008726311912,0.031098774413773164,0.08783271753054579,0.003660390094729272,69524.78785058134
1681261692425589799,40,1681261692425589799,camera_1,41,0,-0.03922543928617422,-0.06509110754995288,1.5541956746025218,0.9995097855638573,0.012482194091111551,0.006506403296477277,0.02796515883930494,0.06588925811229274,0.0027453747647822563,69551.03146501575
1681261692436082124,41,1681261692436082124,camera_1,42,0,-0.039197310976893315,-0.06644436021613272,1.5532515090892696,0.999488010620696,0.012505817672746021,0.009897354154967642,0.027737403096734718,0.03909405099693686,0.0016271093197310347,69611.34938835748
1681261692445971965,42,1681261692445971965,camera_1,43,0,-0.03918279346978096,-0.06690772037705896,1.5536549972795541,0.9995956919518886,0.012413307519765928,0.006322455463070902,0.02478687121365443,0.05364865671435837,0.0022336995236701034,69603.61622542626
1681261692455997705,43,1681261692455997705,camera_1,44,0,-0.03921677692003811,-0.06631368037376231,1.5536408581235235,0.9995545965507222,0.012433686302292078,0.009092716144425377,0.02556040829830639,0.056081391812767833,0.0023348128753453196,69596.1693521578
1681261692465869665,44,1681261692465869665,camera_1,45,0,-0.039235112217196326,-0.06479725807373732,1.5545181130017507,0.9995486266228761,0.01239595003182471,0.0052224124014259975,0.02686279672409868,0.0807919945800677,0.0033673866901246,69536.52902065185
1681261692475990056,45,1681261692475990056,camera_1,46,0,-0.0392721915782297,-0.0627099565191145,1.5543696587103086,0.9993184982553693,0.012488952713426094,0.008744403939971546,0.03361696750883006,0.08937746129231527,0.0037247151408327625,69505.62059063523
1681261692485930919,46,1681261692485930919,camera_1,47,0,-0.03927396116534748,-0.06041539095441667,1.5546392146763532,0.999247693210665,0.012510596471067312,0.004347987952966647,0.036450344166603366,0.11155862017767504,0.004651092392946019,69489.73275711821
1681261692495584487,47,1681261692495584487,camera_1,48,0,-0.03925281912312326,-0.0580677368672788,1.5547735306025179,0.9995614738520187,0.01219339629324573,-0.016805274338848285,-0.021113119902378998,0.0878027417929843,0.003659230362010694,69537.68199848081
1681261692505554676,48,1681261692505554676,camera_1,49,0,-0.03927273945360084,-0.056555075735536024,1.5543851451976343,0.9996166052785039,0.011992948943293386,-0.014170177455115483,-0.02054306934257525,0.0653160908841528,0.002721299066961841,69586.80602995913
1681261692515881061,49,1681261692515881061,camera_1,50,0,-0.03927331934748507,-0.055969843028803715,1.5543395694842368,0.9995864511311051,0.012088197151494607,-0.016153044121051285,-0.02049100706097108,0.07303494354709983,0.0030421683898223606,69586.1278503288
1681261692525584459,50,1681261692525584459,camera_1,51,0,-0.0392730878134864,-0.05640508433698311,1.5543147615871151,0.999556155327705,0.012096516070278396,-0.01614223271559529,-0.021922476329423648,0.07944525982020423,0.0033095539061389094,69577.5317548115
1681261692535459518,51,1681261692535459518,camera_1,52,0,-0.03926318108016639,-0.05773026449740714,1.5546595647990389,0.9995511469087593,0.012062325286094315,-0.01626514722722019,-0.022078270035340894,0.07083354785572737,0.0029522159030850544,69543.32531566279
1681261692545436143,52,1681261692545436143,camera_1,53,0,-0.03923830326592928,-0.05977159971992818,1.5546917290068758,0.9993400663171678,0.01205428056527821,-0.016246519161787272,-0.030169136354525002,0.11084769677836448,0.004622220692264354,69469.44970852905
1681261692555433273,53,1681261692555433273,camera_1,54,0,-0.03927980749264864,-0.06239366698817273,1.5548446540649177,0.999363244363023,0.01237064715671366,0.0064299968758852345,0.03284399557473073,0.09409663866972551,0.0039240077942761095,69480.51002658208
1681261692565419435,54,1681261692565419435,camera_1,55,0,-0.03922167401102652,-0.06457910775182081,1.5543291145041518,0.9994957418185821,0.012356904198640734,0.00572117801319411,0.028685137742203746,0.08299900720885489,0.0034583005414431465,69541.18202741933
1681261692575412511,55,1681261692575412511,camera_1,56,0,-0.039203951612708954,-0.06615419303515474,1.5536905577592872,0.9995679114899779,0.012498954622580561,0.007926542974248984,0.025395597440973014,0.047205011898768134,0.0019654729765910687,69598.62123189487
1681261692585418224,56,1681261692585418224,camera_1,57,0,-0.039183223165790704,-0.06687703355048619,1.5533905482782353,0.9995253713168174,0.0125663611227588,0.007523642437704968,0.027101908910268827,0.06590618584596086,0.002743347896688516,69608.00758769643
1681261692595475435,57,1681261692595475435,camera_1,58,0,-0.03919329445818055,-0.06659682552680707,1.553572998533638,0.9996074024059698,0.012528313600314048,0.008266489717947356,0.023658984789399817,0.060556448908755556,0.002520595685085575,69614.60386355306
1681261692605393409,58,1681261692605393409,camera_1,59,0,-0.03922796152130831,-0.06531215354907122,1.554740693681119,0.9995863444141818,0.012344249957350216,0.0045109887642687755,0.02558144902174107,0.07575427276606206,0.003158206859657184,69522.51988944424
1681261692615391731,59,1681261692615391731,camera_1,60,0,-0.0391861912698918,-0.06308113392562682,1.554469284687723,0.999419322671636,0.012226513286743627,-0.01661261102443667,-0.027121043460169632,0.08968511248531286,0.00373818788344293,69505.34895490197
1681261692625384807,60,1681261692625384807,camera_1,61,0,-0.03922118727233917,-0.06085487665380902,1.5548319230471064,0.9995283653409931,0.012010591685698605,-0.015216709266748068,-0.023816891594264922,0.09644818061497062,0.004021212642731874,69511.01071152455
1681261692635384082,61,1681261692635384082,camera_1,62,0,-0.03925133021150846,-0.05865801880175753,1.5547821197649045,0.9995383025916093,0.012085056812130018,-0.014717406477184553,-0.02367553591194513,0.08337419223971665,0.0034758093794042813,69523.48871510498
1681261692645626306,62,1681261692645626306,camera_1,63,0,-0.039256658604634856,-0.056898527649327034,1.5543919408485378,0.9994584710419908,0.011998610992584419,-0.017226076068842727,-0.02533890881480785,0.08441445848438889,0.0035173948352324354,69539.7932861986
1681261692655467748,63,1681261692655467748,camera_1,64,0,-0.039273906731891836,-0.056038433709044794,1.5541478343780397,0.9995874544735609,0.012005781432083956,-0.016352190398568195,-0.020331943843151082,0.06513505923794582,0.002712546178470718,69603.48529609745
1681261692665765047,64,1681261692665765047,camera_1,65,0,-0.03926456862861715,-0.05619401632157498,1.554188361462221,0.9995783873379446,0.012094878774347456,-0.017048643289649792,-0.020152052905111885,0.06709619099274278,0.0027943399620740717,69598.63306431324
1681261692675735473,65,1681261692675735473,camera_1,66,0,-0.03926989396897792,-0.05725035641433626,1.5545519709677842,-0.9995196849746123,-0.012079205043691624,0.01635469539721932,0.0233883751515326,0.06900758732808754,0.0028756230886946973,69543.50315789251
1681261692685418128,66,1681261692685418128,camera_1,67,0,-0.03925553592376371,-0.05905799599842253,1.554717026970053,-0.9994345828868819,-0.01205032249961918,0.0159688593492581,0.027024059437160595,0.08528225944610313,0.0035552746295744037,69497.47636798421
1681261692695420265,67,1681261692695420265,camera_1,68,0,-0.03926763921919848,-0.06167438517972795,1.5548489506327758,0.9993104587709193,0.01244490304012041,0.005242340057542107,0.03458683637018234,0.11051589279668406,0.004608842039291037,69475.07532795763
1681261692705397129,68,1681261692705397129,camera_1,69,0,-0.0392626371294486,-0.06398561694967349,1.5542052407940574,0.9994895727502521,0.012409326292860902,0.00933541516756686,0.027918678480993588,0.0732694366161013,0.0030524850842585526,69550.72149005833
1681261692715413093,69,1681261692715413093,camera_1,70,0,-0.039214477195804176,-0.06579613723773657,1.5537022577017652,0.999501007948393,0.012481917653095026,0.00810944617243891,0.027859894555153756,0.07507443219947163,0.003125938794558902,69583.57259124189
1681261692725462436,70,1681261692725462436,camera_1,71,0,-0.03920305441581352,-0.06675934143503286,1.5534526339646757,0.999607648652647,0.012380984715745013,0.009206416044070749,0.02337737958408708,0.044498511764686555,0.0018522692196289588,69621.84088194203
1681261692735652446,71,1681261692735652446,camera_1,72,0,-0.03918988780715335,-0.06678170983080921,1.5535292671414647,0.9995868741483496,0.01253610236615823,0.006888493543409413,0.02492941685036388,0.04231673415051773,0.001761791320337577,69613.24013999729
1681261692745946407,72,1681261692745946407,camera_1,73,0,-0.039217980462719175,-0.06578346988738208,1.553944423825925,0.9994902546866667,0.0125951520003861,0.007963294287863692,0.02823435631556336,0.06701416373834945,0.002791444331265703,69560.07503399377
1681261692755886793,73,1681261692755886793,camera_1,74,0,-0.039262801969946984,-0.06391725606668532,1.5548354236299993,0.9994879850858658,0.012538012072590867,0.006410428155168576,0.028731034320588867,0.08384068112354726,0.003495957238762709,69499.86238098145
1681261692765446424,74,1681261692765446424,camera_1,75,0,-0.039292050112158326,-0.06163343050828387,1.5548294167128187,0.9994207599912243,0.012417376577629181,0.007671813796151307,0.030742422327626865,0.0902822514763102,0.0037646438276837495,69500.75242070992
1681261692775399208,75,1681261692775399208,camera_1,76,0,-0.03932149817935302,-0.05940362590867697,1.5546666592413807,0.9993257620365199,0.012507044323265331,0.006660356098104558,0.0338708551570703,0.10035324946511535,0.0041834243652916275,69510.74314290368
1681261692785401344,76,1681261692785401344,camera_1,77,0,-0.03924053813606715,-0.05731654229173726,1.5542415543236259,-0.9994440547890678,-0.01197011806070671,0.018796998463891258,0.024798598128687056,0.06520773429656401,0.00271653082560327,69551.12757770321
1681261692795340538,77,1681261692795340538,camera_1,78,0,-0.039268774610306645,-0.05620748690221391,1.5544118610787778,0.9996055835979164,0.012017662137792122,-0.01594159530870822,-0.019751419585047024,0.08374796871794388,0.003488601981095987,69585.21298060566
1681261692805803775,78,1681261692805803775,camera_1,79,0,-0.03927621224934787,-0.05604458125890206,1.5542770764814933,0.9995598173584597,0.012131363735524174,-0.016822098024748912,-0.02121364075978007,0.07862235081847757,0.003274851994635565,69584.21415971173
1681261692815795660,79,1681261692815795660,camera_1,80,0,-0.039261444182923835,-0.05691979812236313,1.5542548454654475,0.9995751952387583,0.012043374283430332,-0.01681016918844096,-0.020537877473672524,0.07429173175478354,0.0030944937822076444,69589.79649411284
1681261692825782299,80,1681261692825782299,camera_1,81,0,-0.0392422869079594,-0.058537875243917105,1.5545082626934152,0.9994548242375185,0.012052382676719728,-0.017417828775697582,-0.025326145006801814,0.08534608728950843,0.0035568195926809452,69526.34311346003
1681261692835853815,81,1681261692835853815,camera_1,82,0,-0.03923389956868895,-0.06070431132210924,1.5547751958286018,-0.9994660238603164,-0.012041029045337775,0.013767292680123475,0.027076602826769006,0.10358348418958485,0.004318692729803655,69494.44946664269
1681261692845396280,82,1681261692845396280,camera_1,83,0,-0.03925688075028954,-0.06331658066108564,1.5546424672629222,0.9993153644898966,0.012488717828855835,0.007568538709246675,0.033993402936794904,0.10577109624864532,0.00441011991685261,69477.12549168569
1681261692855802059,83,1681261692855802059,camera_1,84,0,-0.03921384413096893,-0.06536758000001827,1.5537362260725138,0.9994425138982123,0.012469325330306246,0.007391621847186034,0.030075592514484006,0.053324004184105434,0.002220843437539925,69570.58981143826
1681261692865780830,84,1681261692865780830,camera_1,85,0,-0.0391847229166266,-0.06660122583767927,1.5533716864751457,0.999567328837213,0.012426194663771853,0.008245616438522998,0.025352605723396954,0.05984691368939821,0.0024906782117753226,69621.82658855963
1681261692875751733,85,1681261692875751733,camera_1,86,0,-0.039191997203360286,-0.06688912183565157,1.5533954541105959,0.9995811203696509,0.012474090333450528,0.00761155180858821,0.024980895699948154,0.06002308923052624,0.002498228359196232,69621.38100995956
1681261692885521888,86,1681261692885521888,camera_1,87,0,-0.03920308381897793,-0.06618131375596092,1.5539035416363487,0.9995949902584265,0.012502629890697762,0.0068933613051376285,0.024617499182278343,0.07303488795878366,0.0030413411422493867,69587.9518048003
1681261692895529508,87,1681261692895529508,camera_1,88,0,-0.039250044775316566,-0.06457110802524164,1.5546831540045865,0.9995432857537749,0.012503549539287563,0.006969076027844599,0.02661415286617455,0.08381478243973106,0.0034936418470484253,69520.55523407979
1681261692905326604,88,1681261692905326604,camera_1,89,0,-0.03920170296817183,-0.06212246108668838,1.5546692295042632,0.9995341259920268,0.01214287462287548,-0.016186717752280984,-0.02284888928714854,0.0917022064095363,0.003822072109240781,69525.24913161341
1681261692915302753,89,1681261692915302753,camera_1,90,0,-0.039267065013966665,-0.059773543072169436,1.5549676253738365,0.9994513627297448,0.012048858186874326,-0.014021986577003894,-0.027480583081204463,0.09846593218389899,0.004106836845466811,69475.49321461385
1681261692925367832,90,1681261692925367832,camera_1,91,0,-0.03926898596220092,-0.057812879804584924,1.5546516989546213,0.9995809379549665,0.012053847663468162,-0.014857785641054727,-0.021723246521179282,0.0814669094979763,0.003395295440034028,69550.72542470926
1681261692935375928,91,1681261692935375928,camera_1,92,0,-0.03926650040719458,-0.056446630748467216,1.5543252347721797,0.9995511660392611,0.012085714586400897,-0.01602036993268815,-0.022242970118887994,0.07608960627112538,0.003169791414712182,69574.59816145056
1681261692945451498,92,1681261692945451498,camera_1,93,0,-0.039277685090897616,-0.055978805671877005,1.5543080758695729,0.9995872045599833,0.012006312777402026,-0.015783531349172993,-0.02078819548684182,0.08918487501796334,0.003714868564662212,69587.99459462115
1681261692955785512,93,1681261692955785512,camera_1,94,0,-0.03927310863316443,-0.05657882901424981,1.5544112737889293,0.9995576019845324,0.012119580582296865,-0.017461536828911186,-0.020804105676838876,0.0741648500552401,0.003089559776287998,69572.2353814017
1681261692965760469,94,1681261692965760469,camera_1,95,0,-0.03925918127046011,-0.05806040940080491,1.5547455049818613,0.9994767330918748,0.012154330463979603,-0.016657286183113226,-0.0249212173855886,0.10228623845614493,0.004263706626558982,69512.05521586812
1681261692975362300,95,1681261692975362300,camera_1,96,0,-0.039240895291098934,-0.0600976295391152,1.5548477377485925,-0.9994465141385648,-0.012001475162787625,0.014987882561574397,0.027166032954946937,0.08038267109077422,0.0033525284261956413,69485.53579193921
1681261692985760927,96,1681261692985760927,camera_1,97,0,-0.03921546263453102,-0.062438357779044086,1.5550472366518453,0.9994869332489502,0.012148728959366722,-0.015704450969253603,-0.02513262558975139,0.09254902228713036,0.0038600728770495254,69475.21407226776
1681261692995366096,97,1681261692995366096,camera_1,98,0,-0.03923689848828276,-0.06482396687909245,1.5543939731418015,0.9995393311509582,0.012385251014287365,0.008145497725641352,0.02648361581072138,0.060026514751370996,0.0025013779747219936,69540.84717267376
1681261693005746364,98,1681261693005746364,camera_1,99,0,-0.039205416146045245,-0.06631940733604193,1.553729017550856,0.9995780923539367,0.012440885233445447,0.008360509173279108,0.024878978014307905,0.05688699000165798,0.0023686555612866143,69595.4803340407
1681261693015729904,99,1681261693015729904,camera_1,100,0,-0.03919216627087252,-0.06691164435953448,1.5536357968951906,0.9996179850819678,0.012546349264797082,0.007057675565102431,0.0235936906059728,0.05370000390394125,0.002235608640712981,69610.38822507381
1681261693025719404,100,1681261693025719404,camera_1,101,0,-0.0391954125903044,-0.06648067939617072,1.5532281534675174,0.9995076021015048,0.012479861816344006,0.00858321172372235,0.027479717372102246,0.04530685757345054,0.001885735658276885,69619.84692497282
1681261693035697221,101,1681261693035697221,camera_1,102,0,-0.03922636157601271,-0.06514597506409887,1.5541578378449363,0.9994771774928305,0.012489416089597196,0.006748715599080618,0.02904894136571514,0.06523981812642887,0.0027182375200097597,69545.23954085662
1681261693045568943,102,1681261693045568943,camera_1,103,0,-0.03926502830526493,-0.06305333932811713,1.5548851186038624,0.999502780501204,0.012432483911164433,0.0046606307953878335,0.0285990145765555,0.06869001490122172,0.002864251973057631,69508.68568696504
1681261693055377960,103,1681261693055377960,camera_1,104,0,-0.03921169706303125,-0.060391575663256036,1.5546773802144338,0.9993871613633093,0.01205956246246735,-0.018363565162474477,-0.027251571145976535,0.08360805816482753,0.0034860615587445454,69487.90860737149
1681261693065356969,104,1681261693065356969,camera_1,105,0,-0.03924750826063326,-0.05824479409259846,1.5545520424256254,0.9995475350068276,0.012055024568905335,-0.015216936649648268,-0.022974909867474826,0.07006304466631263,0.002920074566178054,69548.6040593764
1681261693075692176,105,1681261693075692176,camera_1,106,0,-0.03924843995957272,-0.05671051783853469,1.5539811183451722,0.9994674332267903,0.012036774792195589,-0.017435379316744694,-0.024818813826098955,0.07831602200167254,0.0032615086713021595,69580.00308379192
1681261693085418939,106,1681261693085418939,camera_1,107,0,-0.03925413004921921,-0.05599164840963882,1.554060200698594,0.9994821051781756,0.01203198946602278,-0.016528038141812345,-0.024851088774437795,0.09004727454157546,0.003750461962065349,69576.65428029484
1681261693095428466,107,1681261693095428466,camera_1,108,0,-0.03928293486162715,-0.056285061912734594,1.554326975775035,0.9995877431539263,0.01210410272013543,-0.015887553687839985,-0.020625713844541576,0.08378635521512479,0.003489909953026409,69586.65934824583
1681261693105473041,108,1681261693105473041,camera_1,109,0,-0.039260129250623846,-0.057523094652772166,1.5544602089215,0.999500792634539,0.012105702923622466,-0.01823869206131884,-0.022780860202061975,0.0912914322107099,0.0038030790060075933,69549.14678436746
1681261693115428686,109,1681261693115428686,camera_1,110,0,-0.039326857331546304,-0.05969236962510247,1.5545561023711592,0.9993210362005616,0.0124665335714236,0.009006262132102002,0.033480432944579815,0.10281035717343912,0.004284718482674049,69513.61434363898
1681261693125439167,110,1681261693125439167,camera_1,111,0,-0.039285179042801904,-0.061973674262618,1.5543806893266798,0.9994515810756119,0.012524797644461683,0.009027872870183092,0.02929443702931809,0.08928242896217853,0.0037197720519080812,69543.60930674186
1681261693135531425,111,1681261693135531425,camera_1,112,0,-0.0391778362225978,-0.06403615714046772,1.5546161916362669,0.9995406824290008,0.01202199054072665,-0.016253221752172056,-0.022577171999180322,0.06813978275749834,0.002840392296595834,69523.93062901098
1681261693145424127,112,1681261693145424127,camera_1,113,0,-0.03922051269322447,-0.06597617077111792,1.5540447334350298,0.9995458126184154,0.01245785150424032,0.00915242518197552,0.025868968401900772,0.040589790587546304,0.0016909163749105564,69561.45233185985
1681261693155395507,113,1681261693155395507,camera_1,114,0,-0.03920213577548887,-0.06684060128635456,1.553799690701237,0.9996237443809124,0.012435331711677782,0.007253684805955111,0.023347724767968637,0.04921537761401851,0.0020495603093378624,69597.38112560942
1681261693165398597,114,1681261693165398597,camera_1,115,0,-0.03919856200555049,-0.0666603063397402,1.55356071824379,0.9996341268240545,0.012451143071947956,0.007912773679770106,0.022670896268233154,0.05303505396295804,0.0022076585314109013,69622.0849067511
1681261693175344944,115,1681261693175344944,camera_1,116,0,-0.03921828812147124,-0.06558614984737211,1.5541385831785797,0.9995591928707165,0.012472557052128665,0.00516551927375573,0.026441873588225032,0.056810734095051885,0.0023668419584938335,69565.75731428803
1681261693185381412,116,1681261693185381412,camera_1,117,0,-0.039266132937266156,-0.06376282147855253,1.5545451859258428,0.9993837528715314,0.012524225626874221,0.007995839857346847,0.0318013335229309,0.059399650199338794,0.0024764477132021884,69498.26408176149
1681261693195418834,117,1681261693195418834,camera_1,118,0,-0.03929172360433501,-0.06136440529735433,1.5548467210275718,0.9992312776980227,0.012354359598521426,0.006485277944461695,0.03663556521838625,0.11779997090343386,0.004913263505749406,69455.96699342807
1681261693205378055,118,1681261693205378055,camera_1,119,0,-0.03924804363044128,-0.05881170459940996,1.5546391958037669,0.9994283953183825,0.012121969935253515,-0.016204262989679544,-0.027080663529040976,0.09889763954561204,0.004122291149863475,69503.6756748656
1681261693215354204,119,1681261693215354204,camera_1,120,0,-0.0392564842274977,-0.05707823345452242,1.554679255041441,-0.9995958781105504,-0.012019613565148428,0.01674651035590826,0.019574568834121932,0.056403084308840334,0.002350496827093455,69558.67019122338
1681261693225423097,120,1681261693225423097,camera_1,121,0,-0.039264676339383825,-0.05609923795187892,1.5540472435377222,0.9995747537343908,0.012038376718650703,-0.01667132758170082,-0.02067500953991599,0.06328878185013309,0.0026354882802865085,69608.93471165118
1681261693235454320,121,1681261693235454320,camera_1,122,0,-0.03925980400559988,-0.05609819481913518,1.554174024530917,0.9995774142987521,0.012030667787957723,-0.017433077547402132,-0.01990838174294559,0.0676300866762176,0.002816511773792084,69600.38729443483
1681261693245354890,122,1681261693245354890,camera_1,123,0,-0.0392718429938077,-0.057076394041815984,1.5545305448839195,0.9995340163701878,0.012065813464819114,-0.015171916411989422,-0.023579211536876536,0.07480016339104623,0.0031172794682593147,69547.93475966528
1681261693255737543,123,1681261693255737543,camera_1,124,0,-0.03932266459830508,-0.05912941986325884,1.5550089571977563,0.9993771003302719,0.012331581611853912,0.005011337787387458,0.03268378686732185,0.09698087529977784,0.0040448393904853166,69496.74288982025
1681261693265362739,124,1681261693265362739,camera_1,125,0,-0.03927340784721049,-0.06139928364355155,1.554548538883627,0.9993360038715257,0.012333057007559819,0.0044816659636112074,0.03399061254418772,0.08750213508028537,0.003648212558763868,69510.78254437332
1681261693275706291,125,1681261693275706291,camera_1,126,0,-0.03926153705961804,-0.0636328307837238,1.5543071074249322,0.9993641860319252,0.012415520622515419,0.008087611371853052,0.03242944752408945,0.09675056186097208,0.004032170139381255,69515.14224406141
1681261693285397768,126,1681261693285397768,camera_1,127,0,-0.03921721234129877,-0.0655198648296652,1.5540109484048612,0.9995526115011538,0.012448898937081834,0.00709395261916235,0.026254096684421788,0.06464392421185039,0.002692670580408211,69573.36609742907
1681261693295360088,127,1681261693295360088,camera_1,128,0,-0.039189727779302866,-0.06670878738812522,1.5536479267834113,0.9995834454280605,0.0123628018932951,0.0072689243007383235,0.025045149131616908,0.055196451212395914,0.002298247523166068,69601.57956159662
1681261693305401802,128,1681261693305401802,camera_1,129,0,-0.03918988395764165,-0.06683277884571061,1.5535878574757396,0.9995944557207727,0.012488791870330229,0.008035530824631005,0.024297827357157166,0.05560687441902701,0.002315040202632739,69607.87496166724
1681261693315784692,129,1681261693315784692,camera_1,130,0,-0.03921037942415073,-0.06596095637896522,1.5538542341224175,0.9996144066217524,0.012437202051760242,0.006219397875428575,0.024034832419484838,0.07114087704394478,0.002962476813703878,69599.95606116173
1681261693325798749,130,1681261693325798749,camera_1,131,0,-0.039245397907897536,-0.06426969921652247,1.5544542921494737,0.9995075932933625,0.012473093494954048,0.00636166577992689,0.02808063560678581,0.06832020392175764,0.0028473715730649623,69535.21766073999
1681261693335819482,131,1681261693335819482,camera_1,132,0,-0.03928855359279847,-0.06212713128104606,1.5549272765969555,0.9994774665822705,0.01244981952183425,0.005321052271070747,0.029351016862938516,0.05613843986066058,0.0023410753841802325,69505.40404479511
1681261693345778226,132,1681261693345778226,camera_1,133,0,-0.03924312199267395,-0.05952696177218782,1.554971856623842,0.9994774731649237,0.012186830471238395,-0.01672908218202796,-0.02482739632485351,0.09668837336357683,0.004031534357368218,69489.52576781999
1681261693355762958,133,1681261693355762958,camera_1,134,0,-0.039256181832627815,-0.05750644134695327,1.5546191837259733,0.9995171097682073,0.01203587607549079,-0.015978020289784175,-0.023777885425840226,0.08091427007457241,0.0033721804054078846,69535.46182213398
1681261693365549802,134,1681261693365549802,camera_1,135,0,-0.03925518069211471,-0.056268328271730166,1.5540136934579667,0.9995447955857645,0.012064886803832539,-0.01752774878940683,-0.021387336117400336,0.06799866067012772,0.0028312668412198544,69603.62903527656
1681261693375737905,135,1681261693375737905,camera_1,136,0,-0.03926156536840405,-0.05598880259131685,1.5542058775378618,0.9996011886727066,0.012100745515787393,-0.016169048711724334,-0.019738222458772495,0.07838841312332079,0.0032646069568683564,69603.20415626583
1681261693385707855,136,1681261693385707855,camera_1,137,0,-0.039287909738873,-0.0566836249849521,1.5545552040836188,0.9995805733491563,0.012001770085653292,-0.013318899960715093,-0.022742950591766706,0.08559787180274725,0.003567217010916282,69557.64509960043
1681261693395377159,137,1681261693395377159,camera_1,138,0,-0.039232617273555245,-0.05826923436899334,1.5544330621970028,0.9993400421987846,0.012167098446917109,-0.019903507564483586,-0.027844068670820128,0.08635781740304083,0.003598706684045645,69502.43651137516
1681261693405748367,138,1681261693405748367,camera_1,139,0,-0.03930971510006075,-0.06073864513484786,1.5547866724665464,0.9993028867173823,0.0123412855405092,0.005972585698443214,0.034724076511681634,0.09165470680454746,0.003822339496468517,69484.70193395275
1681261693415358066,139,1681261693415358066,camera_1,140,0,-0.0392610938270165,-0.06304814412717089,1.554283130806357,0.9992910000991757,0.012496069353876635,0.008209418807702623,0.03455359336352979,0.10415823246876244,0.0043405330860424324,69504.18244195917
1681261693425374031,140,1681261693425374031,camera_1,141,0,-0.03922084309228266,-0.06509798523164666,1.5541999345235336,0.999487112811285,0.012491759618149858,0.005342165431313082,0.028998767806726725,0.06355725695902947,0.002648291738086531,69546.42181974581
1681261693435354948,141,1681261693435354948,camera_1,142,0,-0.039200989483666196,-0.0664368707921047,1.5534839943787346,0.9995248303091281,0.012578869277429523,0.008408771740055974,0.02685476123583528,0.06742336566094309,0.002806598491297996,69602.71307814134
1681261693445357799,142,1681261693445357799,camera_1,143,0,-0.03918550465756384,-0.06689968174187036,1.553306153970856,0.999547712230891,0.012593171831560957,0.0073954689560268225,0.026288591368370615,0.06430699351767544,0.002676444781156031,69621.25450575026
1681261693455327510,143,1681261693455327510,camera_1,144,0,-0.039199117724164595,-0.06632078333183658,1.5536736968904916,0.9995628887827258,0.012493332431032124,0.006817158677299334,0.02591282232155415,0.06485481817799155,0.0027001845471892856,69598.76403373652
1681261693465350151,144,1681261693465350151,camera_1,145,0,-0.03923590074545322,-0.06478011511510266,1.5543338894298722,0.9995831493168154,0.012369370661356684,0.004889065534987345,0.025624662134627735,0.05855205096304417,0.0024398745571965756,69561.92564009005
1681261693475345373,145,1681261693475345373,camera_1,146,0,-0.03928325750094361,-0.06269383393657435,1.5546896874672056,0.9994081767649698,0.012478402132915215,0.007494037799248156,0.031167693097040945,0.07514893903862684,0.0031330785889970973,69501.59206471055
1681261693485363721,146,1681261693485363721,camera_1,147,0,-0.03930410483427879,-0.060389987606820655,1.5546401394417109,0.9993478349675396,0.012473714251490384,0.008166270298314529,0.032888040803281525,0.09897666063625365,0.0041251006763275855,69508.8660909538
1681261693495352029,147,1681261693495352029,camera_1,148,0,-0.03924961903335464,-0.05805009938490287,1.5546410742573442,0.999432351178526,0.011985232151083184,-0.016845460882762998,-0.026600001422842082,0.08857221144717187,0.003692497023350886,69506.88276453226
1681261693505367994,148,1681261693505367994,camera_1,149,0,-0.03926978956416093,-0.056549292520362435,1.5541253614547983,0.9995338913902659,0.01209287621007609,-0.015314793219682776,-0.023478062437903385,0.07660471292911099,0.0031906118343802844,69584.93251994558
1681261693515352249,149,1681261693515352249,camera_1,150,0,-0.03927717899803013,-0.055990919777369974,1.5544377534083464,0.9996487020674097,0.012024286947341613,-0.015340336765253332,-0.017960040263871255,0.07302733050892128,0.003042160092207032,69596.78711665607
1681261693525401115,150,1681261693525401115,camera_1,151,0,-0.03928992280699491,-0.05638083539066548,1.5543375635783425,0.9995915901339667,0.011966860849696071,-0.014233199232842865,-0.021699382812658548,0.07605098781641573,0.0031683126496994765,69582.72521347133
1681261693535333871,151,1681261693535333871,camera_1,152,0,-0.03926785442960637,-0.057695359689833116,1.5546868577247415,-0.9995079366128795,-0.012047232299677154,0.015323836717785139,0.024574964293535534,0.06493740540463477,0.002707051372090552,69524.84016476198
1681261693545338630,152,1681261693545338630,camera_1,153,0,-0.03924925736791587,-0.05975358582580284,1.554966026044233,0.999443875375273,0.01209619453585958,-0.016545006615545754,-0.026303703326682065,0.0928832654026337,0.0038731170889882986,69478.12931331272
1681261693555396318,153,1681261693555396318,camera_1,154,0,-0.03927919998493736,-0.06241785846406936,1.5545776106872273,0.9992703670059447,0.012508272292394715,0.007095917309211324,0.03538254803720001,0.0817117869737558,0.003407215076955102,69479.9973560589
1681261693565388202,154,1681261693565388202,camera_1,155,0,-0.039244078287305084,-0.06462704775846127,1.55444880792717,0.9994749706097782,0.01250743766524698,0.006489655364999016,0.02917587189573892,0.08076103818893898,0.003365927040450348,69524.16920336861
1681261693575480461,155,1681261693575480461,camera_1,156,0,-0.039198289716030364,-0.06615801950246804,1.553625497402303,0.9995069229650675,0.012478612399230595,0.0064809172344666224,0.028074773183278036,0.06384817895013839,0.002658391861928053,69590.61230030109
1681261693585452318,156,1681261693585452318,camera_1,157,0,-0.03919095822672267,-0.06686827723477812,1.553335662923113,0.9995252903926879,0.012482602496227017,0.008970067834845103,0.026700494066073457,0.05656129292037804,0.002354201366324067,69610.62922877226
1681261693595713853,157,1681261693595713853,camera_1,158,0,-0.03920577381538841,-0.0665938246253699,1.5537940716811292,0.9996469086083692,0.012435584109683965,0.005699260285744391,0.022780096351355205,0.054249946449999704,0.0022589784029351492,69608.22545663643
1681261693605765581,158,1681261693605765581,camera_1,159,0,-0.039225605297348726,-0.06530681881278744,1.5541158951496017,0.9995016580273443,0.012501558144211602,0.00800813904732097,0.02785707008203644,0.07464546855771914,0.003109579887022063,69552.02610813543
1681261693615529298,159,1681261693615529298,camera_1,160,0,-0.039281582335617134,-0.06330375173402056,1.554679323961097,0.9994296366636642,0.012487688627549096,0.007965626780306673,0.03034811000827962,0.08413201139774175,0.0035075259458321084,69501.95611398296
1681261693625378370,160,1681261693625378370,camera_1,161,0,-0.03921788426387633,-0.060815323761956974,1.5545379294082857,0.9994489905018188,0.01194786281875348,-0.01601452891670951,-0.02650469434902792,0.09506833011982962,0.003962915216139659,69513.56375914588
1681261693635450601,161,1681261693635450601,camera_1,162,0,-0.03932858457646052,-0.058832457904282064,1.554813225158429,0.9993984400622724,0.012395991579967626,0.007002698395617201,0.03162371908909379,0.09394924459047616,0.0039164296657009144,69518.59706486476
1681261693645363807,162,1681261693645363807,camera_1,163,0,-0.039267166222440225,-0.05688155609412872,1.5543059092525986,0.9994884104783534,0.012063478247744546,-0.016969469655117097,-0.024278115899818677,0.08507699362235142,0.003544216747843535,69556.85042653231
1681261693655678510,163,1681261693655678510,camera_1,164,0,-0.03926528590231359,-0.056024704946197365,1.5540227738563017,0.999549310710281,0.011994735913095262,-0.015820329563016308,-0.02251708110512663,0.08063409652095288,0.003357920360652621,69600.5423774728
1681261693665421247,164,1681261693665421247,camera_1,165,0,-0.03926266806049685,-0.05620445276026757,1.5540574015342798,0.9995767474871788,0.012031165959120248,-0.016649692422423115,-0.02060011336996769,0.06476299732457846,0.0026969491950840896,69608.51003237217
1681261693675695657,165,1681261693675695657,camera_1,166,0,-0.039253056705577064,-0.057264049395484753,1.5541640730508948,-0.9994875448822665,-0.01208632451417328,0.01804627771093606,0.023513830945580308,0.06921701563987881,0.002882819611617304,69571.01665784381
1681261693685767650,166,1681261693685767650,camera_1,167,0,-0.039242812402204216,-0.0590496819828299,1.554451091661604,-0.9993095312454768,-0.01204635554520633,0.016025246162590157,0.03128158508535522,0.08817052759695798,0.003675308054605054,69482.09806870713
1681261693695757627,167,1681261693695757627,camera_1,168,0,-0.0392036778364715,-0.06145698534105122,1.5548716940147838,-0.9993947659043015,-0.012101791445610839,0.016745501058608968,0.02798636670218981,0.08359078416833654,0.0034861577137120475,69467.39764823226
1681261693705325841,168,1681261693705325841,camera_1,169,0,-0.03925482162014607,-0.06402058584069226,1.5547021284245608,0.99949657747883,0.012212630029779426,0.004827579019690038,0.028881443119582084,0.05142256927501876,0.002144199496047777,69513.95219618012
1681261693715349435,169,1681261693715349435,camera_1,170,0,-0.03920809305445817,-0.06582512855418875,1.5540364458017413,0.9995488871202401,0.012486904356696573,0.006332968525218133,0.026570528521932583,0.05960311202215962,0.002482732698831497,69568.47606532356
1681261693725445747,170,1681261693725445747,camera_1,171,0,-0.03919040125948765,-0.0667787576445961,1.5537478443295214,0.9996169369820723,0.012395111013434542,0.006143601002392102,0.023970746510440857,0.07642126917198766,0.003181937952486422,69602.3150278934
1681261693735469341,171,1681261693735469341,camera_1,172,0,-0.03920817508368504,-0.0667908023656765,1.5536919320923122,0.9995836360607233,0.012440118394450233,0.008231824642802681,0.024698887363721354,0.037783876759931445,0.0015734865882300788,69595.67814448064
1681261693745544672,172,1681261693745544672,camera_1,173,0,-0.03923395270217409,-0.06579011327902418,1.554039321598096,0.9995537356795927,0.012478034363120796,0.009269791118678674,0.025508804754830996,0.05920595351199154,0.0024662354274600667,69565.54012837054
1681261693755548477,173,1681261693755548477,camera_1,174,0,-0.03918530186459949,-0.06375389793586762,1.5547851388516665,0.9995500213431591,0.012259992736211462,-0.016365133872297148,-0.021946065805520738,0.07843566726660356,0.0032701259030226363,69514.1555336605
1681261693765833139,174,1681261693765833139,camera_1,175,0,-0.03919414166641396,-0.0614555310048823,1.55481904871038,0.9995116038198161,0.011893996567371258,-0.016492301349460753,-0.023729531630291803,0.08322602289263159,0.0034705844579824455,69507.07252778983
1681261693775387048,175,1681261693775387048,camera_1,176,0,-0.03921853921285243,-0.05918281857889497,1.5542970647108107,0.9993802451265157,0.0120011372428943,-0.018486542132526467,-0.02744715132258692,0.09537056618137285,0.0039739289704264396,69522.14893614304
1681261693785724163,176,1681261693785724163,camera_1,177,0,-0.039265829361451204,-0.057373318704285234,1.5545895119853306,0.9995986675273145,0.012004425661823599,-0.01661606769013095,-0.019552594115972682,0.06971449608681723,0.0029049357272691277,69566.60298116898
1681261693795425891,177,1681261693795425891,camera_1,178,0,-0.03927020201158487,-0.056195427748781085,1.5541567598590524,0.9995732979621362,0.012040296869916799,-0.01594049092521656,-0.021310889269238294,0.08067976642632857,0.003359994268407124,69596.92304521488
1681261693805422067,178,1681261693805422067,camera_1,179,0,-0.03927943278406288,-0.05603298412058889,1.554209087705799,0.9995996273564128,0.012103090429649799,-0.015147134154915327,-0.020607389884820786,0.0794114099116996,0.003307402209593452,69599.896242211
1681261693815385580,179,1681261693815385580,camera_1,180,0,-0.03935315124985192,-0.05707291483002967,1.5544160231027713,0.999499556942816,0.01243236586677881,0.0070134874644638785,0.0282291151766223,0.0804012329899706,0.0033493616282825067,69588.72207508862
1681261693825586795,180,1681261693825586795,camera_1,181,0,-0.03926301972736186,-0.05857820772701806,1.5547155799368142,0.9995550549860752,0.012147106968668874,-0.015771156536122603,-0.022212844608223703,0.09296031127450988,0.003874359589891136,69537.19513266673
1681261693835607051,181,1681261693835607051,camera_1,182,0,-0.039247532996002324,-0.060757484507874396,1.5551443628826356,0.9995777318258123,0.012208492488479135,-0.015148348903284722,-0.02158328692825818,0.0894834806676954,0.003731344545202075,69499.71184578756
1681261693845638751,182,1681261693845638751,camera_1,183,0,-0.03926902014563001,-0.06329449559008932,1.5546582574704313,0.9994701145512173,0.01248203033969847,0.008293952313353522,0.02889462566982808,0.09365919471019879,0.0039038356150101496,69513.67591130044
1681261693855611324,183,1681261693855611324,camera_1,184,0,-0.039240432243742726,-0.06537000746732304,1.5541549335430271,0.9994053991208232,0.012537408081508123,0.007991191050045122,0.031109523820650003,0.05477372668974567,0.0022824392508495506,69523.28605685307
1681261693865548372,184,1681261693865548372,camera_1,185,0,-0.03919271424906773,-0.06659596511359853,1.5533667924767836,0.9995466752055379,0.01245805044403004,0.007271085054915832,0.026426736211898567,0.05766659569053445,0.0024001247320471746,69618.30777231198
1681261693875524282,185,1681261693875524282,camera_1,186,0,-0.03918635504366588,-0.06690538836718385,1.5534258525849995,0.9995756945645079,0.012495676434202145,0.006327703777413717,0.025539167395176383,0.0610399865108775,0.002540713622899113,69618.9446564399
1681261693885555744,186,1681261693885555744,camera_1,187,0,-0.03920380042856031,-0.06619899102516037,1.5536575150983358,0.9995406434347421,0.012469303433311889,0.0074153073270429625,0.026608867153544942,0.06584165898675565,0.0027412842058972863,69594.75426532437
1681261693895357370,187,1681261693895357370,camera_1,188,0,-0.039250805356158554,-0.06455411345661233,1.5545448804092923,0.9995797709704031,0.012425809437785132,0.006780432645518822,0.025296372461521197,0.049184365081600845,0.002049899120313389,69541.97769751133
1681261693905350208,188,1681261693905350208,camera_1,189,0,-0.039216285528263485,-0.062054123262686424,1.554798344435364,0.9993141594550954,0.011962296025319594,-0.013830848679437579,-0.03219971756344077,0.12148426426574588,0.005068233168817214,69442.35161508342
1681261693915351867,189,1681261693915351867,camera_1,190,0,-0.03923341469505369,-0.05973698858066582,1.5546123876730618,-0.9992991031610234,-0.012178213223231338,0.016654729620890152,0.03123481271784777,0.1063975909492001,0.0044360781958858765,69465.07941455697
1681261693925418376,190,1681261693925418376,camera_1,191,0,-0.03924975767366381,-0.0577984350726786,1.5545153507356673,0.9995427145939981,0.011945837574780753,-0.017110823681657325,-0.021883289963655225,0.0628550315159373,0.002619218078647214,69554.59419664832
1681261693935443878,191,1681261693935443878,camera_1,192,0,-0.03927864815423696,-0.05643058961786959,1.5541454300005404,0.999553665917255,0.012029914117979733,-0.01547894523824956,-0.022542235292937817,0.0891896738903597,0.0037143987860876813,69589.9041965456
1681261693945358037,192,1681261693945358037,camera_1,193,0,-0.0392697174247815,-0.055972972362220014,1.5540816542630198,0.9995379913029903,0.012031538243836107,-0.016323967988692897,-0.02264009934992155,0.08217298344243318,0.0034220752393627337,69592.78197538937
1681261693955366611,193,1681261693955366611,camera_1,194,0,-0.039269113991176434,-0.056539877859678934,1.5542269451212638,0.9995541091929123,0.012005892290485272,-0.01691302419069459,-0.021480013002739808,0.07516329415375367,0.0031306212492923325,69585.77581706177
1681261693965430498,194,1681261693965430498,camera_1,195,0,-0.03924592885168477,-0.05804747940774749,1.5546830472100575,0.9994825585696888,0.011959332282519285,-0.01713756172554035,-0.02445186014290399,0.09264721960062161,0.0038620032178840144,69519.80812827454
1681261693975412845,195,1681261693975412845,camera_1,196,0,-0.03921637422055317,-0.06009167666727242,1.554489428570212,-0.9994768751521728,-0.01216207047453196,0.016934021112245762,0.02472446170881554,0.07111115957377478,0.0029635846405308753,69531.05142412242
1681261693985398054,196,1681261693985398054,camera_1,197,0,-0.039207923893911006,-0.0624606679609918,1.5549525916695306,0.9995469944289961,0.012100324366335374,-0.014967236707614464,-0.023138061792823104,0.0767344108899124,0.003200046659369946,69500.61626924388
1681261693995564460,197,1681261693995564460,camera_1,198,0,-0.03923580627287762,-0.06479573431020257,1.5544601758330134,0.999596914079648,0.01239145043851881,0.007145784843706922,0.024523439347733645,0.0677803954022238,0.0028244243778941126,69551.14621427857
1681261694005442857,198,1681261694005442857,camera_1,199,0,-0.039211777449969586,-0.06633628588956292,1.5537903351447215,0.9995417439661592,0.012451003052654936,0.006616246950599364,0.026786188014730903,0.05857426465081517,0.0024393928321415842,69582.88624847127
1681261694015430927,199,1681261694015430927,camera_1,200,0,-0.03919327701042445,-0.06688446866846617,1.5534189767204223,0.999585530546028,0.01246406243656911,0.0076165724622204445,0.02480729921859563,0.05926938042102847,0.002467035427980571,69620.43397023133
1681261694025406122,200,1681261694025406122,camera_1,201,0,-0.03917919971719297,-0.06646777794772477,1.55345050359627,0.999552401055381,0.012454980382876995,0.008137568201943564,0.0259547874551798,0.0711228171858238,0.00296024003466396,69612.6456960454
1681261694035402536,201,1681261694035402536,camera_1,202,0,-0.039237461629996896,-0.06514872106112743,1.5548108805639818,0.9996274715825989,0.012380131841919157,0.004727182263005627,0.023860095155080127,0.05606076943513471,0.0023374187353123006,69527.87766722748
1681261694045381546,202,1681261694045381546,camera_1,203,0,-0.03927427507071608,-0.06305975487084281,1.554537154233282,0.9994102269570324,0.012548502568357794,0.007454956930135072,0.031083065391862622,0.06752030488860328,0.0028144513953673516,69512.7126149605
1681261694055351257,203,1681261694055351257,camera_1,204,0,-0.03923842487618589,-0.060401870893333307,1.554833935651689,-0.9994327915388265,-0.012184564797324512,0.015735543820752262,0.027166601522345665,0.08142500562826172,0.0033952899541783064,69483.6851639268
1681261694065324783,204,1681261694065324783,camera_1,205,0,-0.039255216348682676,-0.05825890704563063,1.5547147667611143,0.9994935614139888,0.012090591726187377,-0.015380641338478182,-0.025097293792532345,0.0903560133301653,0.0037664124277202522,69517.08445218133
1681261694075360298,205,1681261694075360298,camera_1,206,0,-0.03934825486623587,-0.05687797721662927,1.554702899070871,0.9995487997187589,0.01232645763059613,0.006118211538072084,0.0266987436154841,0.07696857146220282,0.0032074173335061595,69576.84417663689
1681261694085383415,206,1681261694085383415,camera_1,207,0,-0.03927582057152364,-0.05601019908579448,1.5542265358200746,0.9995843248569051,0.012027390118629324,-0.01543735786973681,-0.02117090856107024,0.08004165295278654,0.003333877165028495,69593.5319761259
1681261694095354795,207,1681261694095354795,camera_1,208,0,-0.039277801875742244,-0.05628574437339977,1.554270076166727,-0.999564990230638,-0.012099704826648213,0.016026182388610217,0.021600669581740607,0.06561061285901815,0.002732917865958052,69584.30902240929
1681261694105351448,208,1681261694105351448,camera_1,209,0,-0.039269488357046925,-0.0575185715991238,1.5545679383660376,0.9995014077695809,0.012101124715978377,-0.01546549754651911,-0.02472482624555382,0.08852393022971228,0.003689094970682376,69533.98978660894
1681261694115706205,209,1681261694115706205,camera_1,210,0,-0.03924863576207406,-0.059517423031106916,1.5546886412154775,0.9994320510771851,0.01207835566352581,-0.01569163145773461,-0.0272664868714493,0.10378641553688794,0.004327124084290994,69497.92818496609
1681261694125456094,210,1681261694125456094,camera_1,211,0,-0.039198791317134565,-0.06179848261970339,1.5547139781824548,0.9995075779527269,0.012122971773820573,-0.016674948399066813,-0.023655470114402666,0.09818495775107294,0.004093245343863918,69515.074465564
1681261694135460853,211,1681261694135460853,camera_1,212,0,-0.03923945134384668,-0.06419349187727671,1.554682081213588,0.9995687300923906,0.012462237012596637,0.0054776639037221325,0.02602002437134327,0.08178749926446471,0.003409074287998611,69532.35844191124
1681261694145341157,212,1681261694145341157,camera_1,213,0,-0.03920524547730421,-0.06597459931830982,1.5539368470167128,0.9995084722721804,0.01242826487542662,0.00531471256912545,0.028286143579951767,0.059766631049569696,0.002489735159001789,69566.62873273547
1681261694155394315,213,1681261694155394315,camera_1,214,0,-0.03918966840174067,-0.0668581802201065,1.5533733199941497,0.9995468486143994,0.012562282295327552,0.007828279858041104,0.0262107711260056,0.05232678395987021,0.002178039584198344,69614.77685172157
1681261694165377140,214,1681261694165377140,camera_1,215,0,-0.03920403249943148,-0.06669548349472612,1.5534769123215975,0.9995433181458012,0.012510522279051639,0.008145745078389255,0.026273348083275024,0.05158543898141943,0.0021474153864975685,69605.61847126391
1681261694175359249,215,1681261694175359249,camera_1,216,0,-0.03921158861599505,-0.0655634817768679,1.5542742706586536,0.9995532651642385,0.012432675659040347,0.0035180678051426936,0.026950359448163982,0.08071551163448021,0.0033635830589773255,69554.59947987419
1681261694185428142,216,1681261694185428142,camera_1,217,0,-0.03926750212711106,-0.06372253000867849,1.5544105793655427,0.9993554299414378,0.012349520709584626,0.00956840556853544,0.03232119427997406,0.07787902433483396,0.003245700553079487,69500.64495485397
1681261694195470809,217,1681261694195470809,camera_1,218,0,-0.03929633078944987,-0.06138495026871965,1.5551078506319465,0.9994082065913433,0.012383062985007754,0.00465417697495471,0.03175271619358075,0.0776578140212223,0.0032397518874058115,69479.14839806072
1681261694205376625,218,1681261694205376625,camera_1,219,0,-0.03925136361811613,-0.05883986836086311,1.5547679422154563,0.9994664087446206,0.012177695551603513,-0.017066405026013018,-0.02504674313501857,0.08352582296356559,0.0034821754053325463,69506.18678812656
1681261694215392589,219,1681261694215392589,camera_1,220,0,-0.03925277651666657,-0.05708407391348237,1.5546201654576635,0.999545463606384,0.012089848915565624,-0.016502633375914236,-0.02214418272950504,0.07023539685178548,0.002927126224332342,69546.76982223615
1681261694225524187,220,1681261694225524187,camera_1,221,0,-0.039269236905794924,-0.05610598460548846,1.554136562481765,0.9996008087978493,0.012022438057546249,-0.016715568466555086,-0.01934615736207223,0.053417156683281064,0.002224597549259817,69609.9324046101
1681261694235353946,221,1681261694235353946,camera_1,222,0,-0.039259449811823,-0.05609818267303203,1.5540530533264825,0.9995866266956154,0.012021747952151138,-0.016829307795003936,-0.019970671160388163,0.06423712114337832,0.0026748976972981583,69612.8139693155
1681261694265366077,222,1681261694265366077,camera_1,224,0,-0.039304888904304426,-0.06140791082531466,1.5551136618367434,0.9995386270157258,0.012334884433664919,0.005644675169628667,0.027175749699965394,0.06454286997905001,0.0026918873532617345,69508.69949645162
1681261694275376081,223,1681261694275376081,camera_1,225,0,-0.03925906574808954,-0.06363579923222765,1.5544502666655255,0.9995138089701872,0.012336382274415955,0.007170794252217146,0.027722537042629794,0.057168512721545994,0.0023825673070836987,69541.0795809502
1681261694285353899,224,1681261694285353899,camera_1,226,0,-0.039226610497618275,-0.06552003752509099,1.5540902235349106,0.9995546047886843,0.012512886162517438,0.006883792577017341,0.026203685339615514,0.05909121464355849,0.002461545068661731,69567.26674487646
1681261694295360088,225,1681261694295360088,camera_1,227,0,-0.039190426356607,-0.06668676269795151,1.5535494706799782,0.999591992671272,0.012486958000985727,0.008085177335818062,0.024383477496161248,0.07268913823645562,0.003025498519408175,69612.02170257714
1681261694305328607,226,1681261694305328607,camera_1,228,0,-0.03918932579220672,-0.0668541906933359,1.5536145516811395,0.9996027546510291,0.012385750394864984,0.006530915305555022,0.024459624414585268,0.05507146347372327,0.0022928621111763373,69609.12221265951
1681261694315384864,227,1681261694315384864,camera_1,229,0,-0.039210157838969376,-0.0659682163593388,1.55390589717193,0.9995344417504154,0.012490825412907237,0.007058536258634719,0.026926865786336292,0.05871608435700182,0.002445588143267224,69573.95216183265
