%time,field.header.seq,field.header.stamp,field.header.frame_id,field.image_seq,field.transforms0.fiducial_id,field.transforms0.transform.translation.x,field.transforms0.transform.translation.y,field.transforms0.transform.translation.z,field.transforms0.transform.rotation.x,field.transforms0.transform.rotation.y,field.transforms0.transform.rotation.z,field.transforms0.transform.rotation.w,field.transforms0.image_error,field.transforms0.object_error,field.transforms0.fiducial_area
1681261801135324478,0,1681261801135324478,camera_1,1,0,0.03765361225326076,0.09085307523284311,1.553106278288048,0.9995246009835592,0.011961291010667794,-0.01690251029054486,-0.02284304471590442,0.07203233905602247,0.003002929503243715,69522.14197050428
1681261801155356645,1,1681261801155356645,camera_1,3,0,0.037723934041683845,0.08629423925266533,1.5535419974686204,0.9992742407375188,0.011930921630491307,-0.01772668873796667,-0.03153425778244331,0.10396314936224371,0.00433637089518576,69439.69685614436
1681261801165668964,2,1681261801165668964,camera_1,4,0,0.03775464274959718,0.08327755250729768,1.5537911722484707,-0.9989323357198091,-0.011840052305998935,0.012873070235584707,0.042758459718137166,0.15811381913954392,0.006600764240241513,69326.61045880604
1681261801175344944,3,1681261801175344944,camera_1,5,0,0.03785079351592471,0.0797364069388009,1.554266287470673,0.9992348624934018,0.012333183178442399,-0.019442504255141914,-0.031615995931938236,0.11537305556703359,0.004812677650137267,69408.44002905115
1681261801185341835,4,1681261801185341835,camera_1,6,0,0.037809130169079136,0.07610983356553642,1.5544088155827702,0.9993024017760768,0.01237258096403684,0.007641351846362211,0.034398238135300074,0.05462165527569596,0.002278883791014082,69424.46354072954
1681261801195281744,5,1681261801195281744,camera_1,7,0,0.03783623225950662,0.07333128238828264,1.5536357184516798,0.9993880987986623,0.012663322153355146,0.009486748648743925,0.031194067572398024,0.0735694140457781,0.0030647292323734425,69506.550322014
1681261801205277204,6,1681261801205277204,camera_1,8,0,0.037858100496903496,0.07137718403908219,1.5533214668977113,0.9995361303168508,0.012488526260989737,0.006929261227937955,0.026898814878708436,0.05537586176069453,0.002305506289843405,69570.19654943995
1681261801215312480,7,1681261801215312480,camera_1,9,0,0.03786369553307426,0.07034274069943727,1.5528081686870303,0.9996349254768729,0.012370282276146314,0.006118903709810065,0.023228234987731345,0.04956836703058798,0.00206209856127162,69639.7847228518
1681261801225279092,8,1681261801225279092,camera_1,10,0,0.037846023850702015,0.07036941739270396,1.5529270160271886,0.9995662027123742,0.01249933709560537,0.009486031899589017,0.02492364672625862,0.04061877020285465,0.0016901710245582323,69606.56573746793
1681261801235510349,9,1681261801235510349,camera_1,11,0,0.03784032594906172,0.07149471894443955,1.5532450689734913,0.9995297722553147,0.012548444404105154,0.009200058963232102,0.026422146645362285,0.06361950877180789,0.0026482525512184414,69573.13955540478
1681261801245228767,10,1681261801245228767,camera_1,12,0,0.037850467698898806,0.07359730059005484,1.553966657228593,0.9995314063381131,0.012644071942341361,0.006223792877423612,0.027172772966513516,0.08576628583250567,0.0035737388495676466,69520.43762812068
1681261801255455017,11,1681261801255455017,camera_1,13,0,0.03780739072314454,0.07630457011481326,1.554114083648606,0.9993364362382114,0.01252333840359016,0.0072083469968677255,0.0334349059444334,0.10412155657832045,0.004341267230902405,69461.24589812069
1681261801265479326,12,1681261801265479326,camera_1,14,0,0.037757446036723985,0.07938275903051915,1.5542445836064787,0.9993065112737496,0.01244166957776789,0.007215920153683521,0.03434576946787705,0.06697294593323022,0.0027937834906171014,69446.69851281101
1681261801275637388,13,1681261801275637388,camera_1,15,0,0.03769827547384369,0.08267231315485131,1.5535839244256664,0.9986714359248872,0.012646815953860907,0.007957894791839299,0.04931625517448932,0.13203121616970748,0.005509186995876714,69346.84376074222
1681261801285465955,14,1681261801285465955,camera_1,16,0,0.03773497254021493,0.08632231790820849,1.5539406261131303,-0.9992399964915736,-0.01187831840784781,0.015209927006953018,0.033867286336008905,0.10261066741077231,0.004283317710093877,69388.66691266766
1681261801295291900,15,1681261801295291900,camera_1,17,0,0.03767855786065827,0.08899134888234904,1.5535556842642586,-0.9994551752346589,-0.011823374472851226,0.014153994576976624,0.027371973809847912,0.06287790392525494,0.0026232323370855852,69468.05310622462
1681261801305335760,16,1681261801305335760,camera_1,18,0,0.03764703235840648,0.09080629922612074,1.5531661808180361,0.9995877639132107,0.011997744412401087,-0.015223476428969583,-0.021180229682865096,0.06533271219814196,0.0027235888332494953,69535.49196406349
1681261801315276861,17,1681261801315276861,camera_1,19,0,0.037618640246331124,0.09176971068444861,1.5527274602884091,0.9996026936651102,0.012086532062865116,-0.016297597849486554,-0.01956422409618091,0.07174291822593659,0.0029888751135751044,69574.38013355157
1681261801325332641,18,1681261801325332641,camera_1,20,0,0.037614958827031954,0.0918115759600217,1.552688084445914,0.9995850560697452,0.011994284001895603,-0.014965537962673029,-0.021491521742631647,0.07266870455350727,0.00302786793008905,69567.29872205747
1681261801335281610,19,1681261801335281610,camera_1,21,0,0.03765430944773852,0.09084791052585575,1.5534918419599908,0.9995965171663503,0.012065013919905465,-0.015689962166166724,-0.020373104702991925,0.06986724556190893,0.0029135891829032965,69510.93197743503
1681261801345252513,20,1681261801345252513,camera_1,22,0,0.037671305108846635,0.08888527940840169,1.5540397946091915,0.9995932427914501,0.01214383286424458,-0.012473144877887655,-0.022589753117143365,0.092702160065528,0.003868252551885636,69470.41031317975
1681261801355278253,21,1681261801355278253,camera_1,23,0,0.0377130550703464,0.08630877362848617,1.5536268254358265,-0.999258708339131,-0.012023100929348314,0.015466686610125324,0.03314001294143714,0.10557587974471971,0.004404481729146252,69423.25644520437
1681261801365466117,22,1681261801365466117,camera_1,24,0,0.03777259276010217,0.08328224986778843,1.5538160093622881,-0.99911252849452,-0.012107838905739386,0.015709756951896484,0.037158568040655884,0.09940143272979185,0.0041475422885323045,69384.03189954956
1681261801375359296,23,1681261801375359296,camera_1,25,0,0.03782607638389605,0.07985929145281881,1.5539530740786398,-0.9988653327982654,-0.012065351480088818,0.01599319156219722,0.043205231756434946,0.15074005344649777,0.006291324573199364,69320.34114774567
1681261801385288715,24,1681261801385288715,camera_1,26,0,0.03780432734395431,0.07609428469643897,1.5540815480077552,0.9990104909208698,0.01254098160026664,0.007615896054507359,0.041985246668699676,0.11578925914363936,0.004830607255642241,69377.29474356389
1681261801395292520,25,1681261801395292520,camera_1,27,0,0.037850118229790966,0.07331755288789908,1.5537856567828259,0.9993519726878298,0.012560114595144167,0.007188772063945286,0.03295754484958813,0.06716427371429745,0.002799077933711724,69485.98660448287
1681261801405495405,26,1681261801405495405,camera_1,28,0,0.03786359464207819,0.07143126011420683,1.5538709309873557,0.9996830974452883,0.012460717192019362,0.00684612918874305,0.020774160016374207,0.04929498258570675,0.002053466557850272,69561.70153411056
1681261801415282487,27,1681261801415282487,camera_1,29,0,0.03785127386013391,0.07036613970653827,1.5527368027313515,0.9996070984710382,0.012455288692782143,0.007117604248126185,0.0240801615372203,0.047908544380334206,0.001993059635000325,69637.58082300061
1681261801425293207,28,1681261801425293207,camera_1,30,0,0.03784200915205618,0.07038260801725381,1.5529597418815502,0.999608128168677,0.012500131414421835,0.008202505849588471,0.023665496223904296,0.03857573338609655,0.0016053291999329471,69616.83263768873
1681261801435673713,29,1681261801435673713,camera_1,31,0,0.037836283168554294,0.07149190090580919,1.553447920079738,0.9994959266860683,0.012548394843255066,0.009439258925446977,0.0275922220155173,0.03458066227904055,0.001440186414892181,69545.36091785616
1681261801445775985,30,1681261801445775985,camera_1,32,0,0.03785127110691694,0.0735997120623057,1.5540341273106126,0.9994551911710939,0.012643283473992722,0.00492076549303606,0.030087444077402967,0.07558996866282541,0.0031508139203422682,69495.64272640362
1681261801455559015,31,1681261801455559015,camera_1,33,0,0.03781836573119158,0.07636389542826062,1.5545967083398957,0.9995030239647479,0.012494002679282069,0.006237132786967338,0.028261336786718057,0.0857775131589733,0.003577737033652858,69462.97768337029
1681261801465412139,32,1681261801465412139,camera_1,34,0,0.03776707917646915,0.07932041629581281,1.5539116727005413,0.998826269389889,0.012541002253599285,0.005960975140065483,0.04640337934387495,0.13947234653460328,0.005819860063196907,69354.82408052022
1681261801475491046,33,1681261801475491046,camera_1,35,0,0.037701087661103895,0.08272248904302976,1.5540034606979336,0.9989278170570158,0.012436378612497932,0.008047476519084207,0.04386104100892517,0.1211089079733938,0.005054659748246934,69373.78518620844
1681261801485494852,34,1681261801485494852,camera_1,36,0,0.037716382918366445,0.08635997857464572,1.553417191540555,-0.9990450743054842,-0.01200273104728442,0.015436872755638969,0.03907143346337335,0.12579266738612205,0.0052484824008487444,69374.8040829202
1681261801495496273,35,1681261801495496273,camera_1,37,0,0.03767336730878019,0.08896234896110464,1.5532348529599167,-0.9993567917032661,-0.012129292217197867,0.017881336745741626,0.028620638410949792,0.0807013544254005,0.003364685679251964,69473.14865283575
1681261801505502462,36,1681261801505502462,camera_1,38,0,0.03765980460950377,0.09079423152817363,1.553057435242806,0.999521534372791,0.012130959273682674,-0.01650053162480036,-0.023179184805785794,0.07072618318488821,0.002948350983962333,69525.65642500037
1681261801515525579,37,1681261801515525579,camera_1,39,0,0.03761734472830131,0.09177987205637059,1.5528745179953751,0.9995957461505939,0.012048338167919847,-0.015375869430237613,-0.020658278347754102,0.08369375858455896,0.0034878818615389252,69556.23266672983
1681261801525858402,38,1681261801525858402,camera_1,40,0,0.03761363921440404,0.09183925916719035,1.5527647669700797,0.9995277725246137,0.011977747505820159,-0.01700472574253473,-0.022618682965465823,0.08165395609103143,0.0034026688575707685,69544.9242971245
1681261801535876274,39,1681261801535876274,camera_1,41,0,0.03763539992705635,0.09083800236044308,1.553182823287625,0.9995655924802964,0.012121219742944505,-0.014595262746036623,-0.022553950138093058,0.0765858813538216,0.003192897735148172,69524.94857443962
1681261801545877695,40,1681261801545877695,camera_1,42,0,0.03767451189292608,0.08887442616701144,1.5538943221032706,0.9995152174153762,0.011952172525417368,-0.01455712117128513,-0.02479044070243032,0.10686653439188376,0.0044587852835566155,69460.46944806547
1681261801555858612,41,1681261801555858612,camera_1,43,0,0.03772911697778071,0.08630209673276647,1.5535128091699133,-0.9991462047409463,-0.012022386868601225,0.017866397102029974,0.03525784480562024,0.11595149844652042,0.004836945138534652,69402.65127638611
1681261801565517902,42,1681261801565517902,camera_1,44,0,0.03776774957056543,0.08327555182082186,1.5536161476630015,-0.9990144339752387,-0.012020657210612759,0.014788153371509837,0.04008709305024355,0.12494794378289953,0.005213319485893742,69370.32475503694
1681261801575482368,43,1681261801575482368,camera_1,45,0,0.037816835640669275,0.07981191311981961,1.5539277677153882,-0.9986916139249236,-0.011939691180186231,0.014372846202306772,0.04760173676031384,0.18909827050811145,0.007896277620438007,69269.5595376661
1681261801585599899,44,1681261801585599899,camera_1,46,0,0.037793125115113346,0.07610446507618698,1.5541722456242435,0.9993096667015563,0.012406838462740627,0.009813883539861023,0.033614700445641466,0.04257220745785162,0.001775753264399113,69444.48063134056
1681261801595539093,45,1681261801595539093,camera_1,47,0,0.037861252737500156,0.0732913991431778,1.5536453998493231,0.9993903850724104,0.012234937749175036,0.004737939793355737,0.03235299753666851,0.05560382247495,0.0023171649919466503,69510.67149150712
1681261801605557441,46,1681261801605557441,camera_1,48,0,0.03785795379878203,0.07139542619567187,1.5533928028916513,0.9996011992620583,0.012374646588125088,0.007027622304555076,0.024391045086639765,0.0535650510864798,0.002230392585181963,69581.24632144615
1681261801615693569,47,1681261801615693569,camera_1,49,0,0.037840010968408444,0.07035200508151454,1.5528389146338772,0.9995854563893258,0.012506361550515741,0.008005212360642645,0.024666229358618928,0.046282386538223357,0.001925648837221797,69621.4649747945
1681261801625316381,48,1681261801625316381,camera_1,50,0,0.03784430706258868,0.07039725561139826,1.5530092687945116,0.999639278274611,0.01255452454912685,0.009146925678247085,0.021909609640452198,0.04626279884541873,0.0019250111772417268,69620.24172558259
1681261801635371685,49,1681261801635371685,camera_1,51,0,0.037848295876114754,0.07147415220309447,1.553371641882178,0.999463247628055,0.012602708494755704,0.009058012143919408,0.0288503170758653,0.03856626752531156,0.0016060885060364455,69543.85386066555
1681261801645361661,50,1681261801645361661,camera_1,52,0,0.0378640486491253,0.07361710305550706,1.5542589952182346,0.9995884166677383,0.012263802155298697,0.00501068133954242,0.02544581484042438,0.06207763358543161,0.0025883260925401107,69509.92878354772
1681261801655307292,51,1681261801655307292,camera_1,53,0,0.03780909908835244,0.07629268277113661,1.5540688535687672,0.9993430257017123,0.01240472223127777,0.005391130020522586,0.03362403254836331,0.09684283880051225,0.00403829140274766,69468.89347991295
1681261801665296077,52,1681261801665296077,camera_1,54,0,0.03774450745271905,0.07932786007947536,1.5540780313756781,0.9992247228395628,0.012398829369083592,0.00785395622831462,0.03653132447693648,0.06780925422208384,0.0028285509002370745,69439.51734010948
1681261801675285339,53,1681261801675285339,camera_1,55,0,0.03772569331944531,0.08275574662709582,1.5541554516158513,0.9988388721367775,0.012334671199835726,0.0055902136898876185,0.04623324459546004,0.15633351128781214,0.006527007692617476,69341.11806016511
1681261801685299873,54,1681261801685299873,camera_1,56,0,0.03773139316729904,0.08635628920397874,1.5531141351738722,-0.9989512896487877,-0.012081543310262007,0.018485663079782295,0.04010782318659351,0.09654341795248911,0.004026710415442144,69378.40603893675
1681261801695370912,55,1681261801695370912,camera_1,57,0,0.037689731092770226,0.08895374450410565,1.553318860310012,0.9994047360936156,0.012088409209037055,-0.015947219477150963,-0.028102135637582442,0.08934619015781209,0.003725913893875569,69477.40283534977
1681261801705327510,56,1681261801705327510,camera_1,58,0,0.03764603941306968,0.0907906495743042,1.5529791703274454,0.9995054979335318,0.012082072845050022,-0.015364887351787121,-0.02463134899018928,0.0837232613703236,0.0034900021033924737,69524.17253554796
1681261801715285539,57,1681261801715285539,camera_1,59,0,0.0376156207300741,0.09178735574899083,1.5529040879974658,0.9996653625879428,0.012009375966639773,-0.01465786306075227,-0.017609224324228057,0.07411307620350271,0.0030881928927061503,69577.09656508022
1681261801725336313,58,1681261801725336313,camera_1,60,0,0.03761035664121893,0.09181717423656288,1.5528658816362304,0.9996131724997407,0.012116474449906923,-0.01453584175511165,-0.020381504271737117,0.07305227546021342,0.003044456275125167,69561.12992246634
1681261801735288143,59,1681261801735288143,camera_1,61,0,0.03765041838884556,0.0908490117440867,1.5536094238200395,0.9995987709281031,0.012075665950587695,-0.014859519140785446,-0.020872712851472103,0.08270547271240503,0.003449583789680232,69499.35219295789
1681261801745338439,60,1681261801745338439,camera_1,62,0,0.037685415706167846,0.08889260510269532,1.5541618573362541,0.9996438404773137,0.012053977440258426,-0.013157848089284151,-0.019843509198130046,0.0821416843100451,0.003427972686402631,69478.25318703937
1681261801755307435,61,1681261801755307435,camera_1,63,0,0.03771977809218038,0.08628324086829753,1.5535371382216219,0.999273527873299,0.012026137037434737,-0.016306737726789516,-0.03227814778325321,0.12157554336590692,0.005071347203985727,69437.66871029987
1681261801765308856,62,1681261801765308856,camera_1,64,0,0.03776116063594419,0.08330772298947299,1.5537605267862376,-0.9992092893394803,-0.011984816734183642,0.013975508744875359,0.035239827196808,0.11711490590823814,0.0048854353690944135,69414.78459537588
1681261801775684833,63,1681261801775684833,camera_1,65,0,0.03782355703053107,0.07981868283243655,1.5538423432349544,-0.9988974561534489,-0.011992008051460494,0.015289265146444788,0.042735257157808036,0.14246663474477828,0.005945873246019758,69338.4684352236
1681261801785277843,64,1681261801785277843,camera_1,66,0,0.037788620875019885,0.07608573167163699,1.5538136453324756,0.9990489243078032,0.012691413957354276,0.010723031074019982,0.04031366338811377,0.09162912625470199,0.003820618369216496,69407.5535781465
1681261801795603752,65,1681261801795603752,camera_1,67,0,0.037827381266475966,0.0732938947255711,1.5534164160813948,0.999328271961829,0.012442201475842974,0.008396804626306124,0.033431873299101286,0.06277873174985871,0.0026151813277691983,69510.39152502667
1681261801805614709,66,1681261801805614709,camera_1,68,0,0.03783880383930861,0.07137900645409126,1.5532400509090492,0.999501616200931,0.012653242823651439,0.008650035789845396,0.027596947994419876,0.03803695159149357,0.0015836990331506164,69566.35184751882
1681261801815475940,67,1681261801815475940,camera_1,69,0,0.037840048151831944,0.07032971898552054,1.5526504419962266,0.9995284589641203,0.012439487420400085,0.009898332578029741,0.026270551682505233,0.04885047145944555,0.0020319484962147112,69619.91636636427
1681261801825731515,68,1681261801825731515,camera_1,70,0,0.0378644227653172,0.07037983411742206,1.552928903261706,0.9996295505918653,0.012387976181099613,0.006588248192019251,0.023321548306280873,0.03964668361004442,0.00164974899862207,69627.14602338179
1681261801835698366,69,1681261801835698366,camera_1,71,0,0.03785580117000817,0.07152594781153729,1.5536585531840688,0.9994630355933846,0.012605353210579184,0.00634761841216066,0.02957115644318548,0.06510035794053692,0.002712341694910014,69521.83517590881
1681261801845494270,70,1681261801845494270,camera_1,72,0,0.03783309086314075,0.07358440165230754,1.5538204828171436,0.9995385686076192,0.012538162274366466,0.008418595960811029,0.026354726230073667,0.07870843850832898,0.0032789208714826402,69532.13156959886
1681261801855649709,71,1681261801855649709,camera_1,73,0,0.03780140552094834,0.07623572510159521,1.5539783979257684,0.9991364120058661,0.012305826398008868,0.007486483355188284,0.03897370148803702,0.09463653639249969,0.003947480897853339,69419.44443701801
1681261801865317821,72,1681261801865317821,camera_1,74,0,0.037761265069308346,0.07928194347053025,1.5538550818144037,0.9989503373665467,0.01264103843832169,0.008531754717109721,0.04319301776804374,0.09485292225144804,0.003956377192881154,69388.71781429813
1681261801875301122,73,1681261801875301122,camera_1,75,0,0.03778052049441029,0.08306629470363523,1.5541860602209296,0.9989243600618628,0.012016477545723603,-0.013372501509870125,-0.04274228989840984,0.19422514119651169,0.00811269477315766,69292.47811783815
1681261801885293722,74,1681261801885293722,camera_1,76,0,0.03770755969172409,0.08635075676839346,1.553905464169145,-0.9992851252453675,-0.011972899226639846,0.012548880331091323,0.0335918702946844,0.12797159631736577,0.005341136609396064,69401.28262585253
1681261801895275831,75,1681261801895275831,camera_1,77,0,0.0376869503478774,0.0889690464558967,1.553768302533174,-0.9995460295420034,-0.012047535764371073,0.014557034466333631,0.02346666692073317,0.06462773686507717,0.002696159401891985,69481.65594603911
1681261801905309200,76,1681261801905309200,camera_1,78,0,0.037643041695802924,0.09079797225038977,1.5532069511297764,-0.9995834436592543,-0.01195092480593145,0.014883812639971973,0.021646863049587364,0.05345877353101969,0.002228934260825339,69529.397040708
1681261801915637493,77,1681261801915637493,camera_1,79,0,0.03762066996128771,0.09176762269956652,1.5527019815899523,0.9996022694984986,0.012025677288688811,-0.01664264315822871,-0.01933153713254871,0.07113676058361307,0.0029636082078580337,69577.18809244571
1681261801925339460,78,1681261801925339460,camera_1,80,0,0.03761846585212423,0.09180905592703952,1.5527707586184165,0.9995728715326131,0.012021997642271654,-0.01572335928751031,-0.02150167531731487,0.07935927878133953,0.003306963841933045,69557.67863478187
1681261801935332298,79,1681261801935332298,camera_1,81,0,0.037641877149112296,0.09085147951514498,1.5533169222177705,0.9995633645689647,0.012001112389805663,-0.015417496759834663,-0.022166513181795095,0.07437546440633014,0.0031013588030107107,69513.65473346831
1681261801945412397,80,1681261801945412397,camera_1,82,0,0.037664321969037504,0.08889492929361675,1.5534189022166223,0.9994038066849347,0.01202251599929488,-0.016476415920206183,-0.02785709983348917,0.08849294693209231,0.0036906278029468524,69469.51405008147
1681261801955348730,81,1681261801955348730,camera_1,83,0,0.03771147823352041,0.08633237825777644,1.5536097616609497,-0.9993136256811147,-0.011913422244602262,0.01644795353527362,0.03098084445247396,0.0926766392076388,0.0038653544623274212,69443.25969146515
1681261801965350151,82,1681261801965350151,camera_1,84,0,0.03778771128760012,0.08329119670287809,1.5537511800723551,-0.9991575427241102,-0.011760121487393565,0.015357338031328606,0.036194703047700304,0.08233530115103349,0.0034362183034117788,69401.62905206488
1681261801975785493,83,1681261801975785493,camera_1,85,0,0.03775847528637319,0.07950627130247691,1.5542630358641643,0.9989683848539791,0.012421151337652505,0.008282620118179096,0.042886819253205595,0.16457112174248323,0.006869117134652392,69357.27124203241
1681261801985394954,84,1681261801985394954,camera_1,86,0,0.03781356868082163,0.07607597910000258,1.5541282009702357,0.9992362759914467,0.012384202269817077,0.007259709851287918,0.036342714397260334,0.0798606696916977,0.003331094261145781,69432.56197492036
1681261801995258092,85,1681261801995258092,camera_1,87,0,0.03784875552970917,0.07332920546366975,1.5540451809706848,0.9994286475402112,0.01244921548756816,0.005662483879741767,0.030908441985969284,0.05333277858153451,0.0022233910658884075,69485.01071659222
1681261802005286931,86,1681261802005286931,camera_1,88,0,0.037833247769611764,0.07135477427484424,1.552906476878205,0.9994868643061767,0.012425546594073389,0.008493062522396823,0.028275108492023672,0.042928434908390045,0.0017865351499300147,69591.36707462698
1681261802015714406,87,1681261802015714406,camera_1,89,0,0.037834767036225396,0.07033607632553093,1.5525404554644204,0.9995720320840387,0.012418178929563624,0.009517283530225839,0.02471766213994294,0.047653145928052254,0.001981895291139178,69642.22101503302
1681261802025637149,88,1681261802025637149,camera_1,90,0,0.03783116711143669,0.07037653613794523,1.552776482749055,0.9995905576885141,0.012526458307505924,0.009335293635468736,0.023972006903370435,0.048586493998300284,0.002021193514340978,69627.02848674546
1681261802035374164,89,1681261802035374164,camera_1,91,0,0.03783236086876472,0.0715273053558024,1.5534738354367243,0.9996029629300782,0.012527650583188176,0.009858091640000384,0.02323343499123141,0.05434294523729477,0.002262731035698343,69571.95255956813
1681261802045739412,90,1681261802045739412,camera_1,92,0,0.03792196902593719,0.0737812157683283,1.5539930217605247,0.9994933071507356,0.012276073769587602,-0.016789085989098514,-0.02409467919146095,0.08907984000688884,0.003711992795086949,69522.7084854389
1681261802055516719,91,1681261802055516719,camera_1,93,0,0.03780944713953887,0.07628040407354637,1.5542717281052234,0.9994629499674962,0.01236902672610593,0.0067851211480556145,0.029576696081969927,0.07543894954142161,0.0031458307430401846,69480.13854228362
1681261802065497159,92,1681261802065497159,camera_1,94,0,0.037766980709999995,0.0793423654288696,1.5539907983132455,0.9991846552219117,0.012479811324656009,0.006970462177262537,0.037758333323994225,0.09201064713124651,0.0038371840810886705,69438.67381368825
1681261802075699567,93,1681261802075699567,camera_1,95,0,0.03779902186253935,0.08303904636993777,1.554387777555921,0.9992780777181199,0.011736019487907956,-0.014504876409857011,-0.033093772811413145,0.13250817317748442,0.005532901183740428,69382.28156503593
1681261802085670709,94,1681261802085670709,camera_1,96,0,0.037741663515645264,0.0863429927167051,1.5538081601728477,-0.9992011232842486,-0.012080502633522413,0.016593080085120088,0.03429061645561662,0.10226816224167123,0.004267898988073766,69391.30174357012
1681261802095683574,95,1681261802095683574,camera_1,97,0,0.03769150359850146,0.088950060708902,1.553312161170944,-0.9994018154589415,-0.012097787763157173,0.01786020160235999,0.027030871005810145,0.07784937031101434,0.0032461109954850915,69481.18539909388
1681261802105281114,96,1681261802105281114,camera_1,98,0,0.0376474023477796,0.09080226537014348,1.5531835416536268,0.999554844547961,0.012129519513943685,-0.014915157755324893,-0.022815029392841683,0.0848824594868347,0.0035386998641541616,69522.25174902429
1681261802115708589,97,1681261802115708589,camera_1,99,0,0.03760760598027105,0.09176752776532343,1.5526610007115484,0.9995536971743875,0.012067583867692324,-0.015399786426801327,-0.022574907809737848,0.0743398506892845,0.0030975843869573178,69560.29347320029
1681261802125675678,98,1681261802125675678,camera_1,100,0,0.03760932562546155,0.09180916042501468,1.5527459136769146,-0.9996134093345868,-0.011960336289263645,0.014202439175934976,0.020694756722065395,0.06477420375449584,0.0026991029531830447,69570.3605238403
1681261802135689496,99,1681261802135689496,camera_1,101,0,0.037649083230144785,0.09084462159275894,1.55332420150501,0.9995942091742154,0.012058945346523057,-0.014981644505116857,-0.021013070942315963,0.07710790017154068,0.0032152022235250725,69523.20891644413
1681261802145294666,100,1681261802145294666,camera_1,102,0,0.03769403495472121,0.08890200335646309,1.5537027410560136,0.9994899171940838,0.012091927262254356,-0.01669008545474915,-0.024395322706646773,0.10584393091266975,0.004414811747571145,69473.9267268743
1681261802155301332,101,1681261802155301332,camera_1,103,0,0.03772048546425779,0.08629822911382197,1.5533754271411357,0.9991437099770194,0.0120279702132142,-0.017386400334944072,-0.035565261552546544,0.12398545368341729,0.005171502809198701,69413.16836428955
1681261802165298938,102,1681261802165298938,camera_1,104,0,0.037747062737415835,0.08329140707878747,1.5533478761016026,-0.9989979601036364,-0.012150309662002114,0.014092204187583151,0.040704489494724036,0.147961949754972,0.006170770769901921,69388.182643426
1681261802175758123,103,1681261802175758123,camera_1,105,0,0.03783412882143254,0.07978732358369833,1.5541998344732988,-0.9989142053489791,-0.012158156039130185,0.016940461598680567,0.04166065715479479,0.14459366200026125,0.006036125524084399,69315.03075685218
1681261802185681581,104,1681261802185681581,camera_1,106,0,0.037808754293469034,0.07607621576478076,1.5540915618834872,0.9991056421578506,0.012447965431854257,0.0076144501837370066,0.039686069512560054,0.08304308730293997,0.0034640102047508153,69401.13650101278
1681261802195318222,105,1681261802195318222,camera_1,107,0,0.037811862028757706,0.07334683814397659,1.5536386026300573,0.999452460896388,0.012524403798951665,0.01108423256010835,0.028549212006438347,0.03099884362018202,0.0012915340544736495,69520.86612082462
1681261802205271959,106,1681261802205271959,camera_1,108,0,0.03786365185414663,0.07140196643816457,1.553560836523535,0.9995740425107581,0.012525178644277341,0.006530149532423762,0.025538413923230235,0.0463065933145117,0.0019285616020951162,69559.95047305516
1681261802215257883,107,1681261802215257883,camera_1,109,0,0.03783745421189739,0.07034407404572765,1.5525867298502731,0.9996043001328038,0.012553325114058614,0.009358994642885187,0.023368063759388494,0.03505242444225587,0.0014579372516734237,69647.71436786807
1681261802225344181,108,1681261802225344181,camera_1,110,0,0.03785414614895534,0.07039813844857791,1.5531676997596346,0.9996775503980591,0.012589739221667083,0.007626757820724314,0.020691212183211304,0.046925761227612384,0.0019530199040173142,69618.69785727069
1681261802235700845,109,1681261802235700845,camera_1,111,0,0.03784451560098115,0.0715064034819077,1.5536883187773203,0.999542534972156,0.012544866371413829,0.00972365164272405,0.02574485789222511,0.044300692577962764,0.001845402336687576,69536.47237638712
1681261802245633125,110,1681261802245633125,camera_1,112,0,0.03780912746518571,0.07359694060740139,1.5536701007497522,0.9995216846788855,0.012454189441869176,0.009170931463664591,0.026780385324291,0.05984796668053605,0.002493132995033678,69539.6565853456
1681261802255374193,111,1681261802255374193,camera_1,113,0,0.03780879039494173,0.07628296823787922,1.5542425021992363,0.9994220505155565,0.012388919897512982,0.007044486533135483,0.030861866705336787,0.09053540474269539,0.0037750192838739457,69471.87110783692
1681261802265436410,112,1681261802265436410,camera_1,114,0,0.037759393733117194,0.0792972958438381,1.5541057621911218,0.999092729011742,0.012590695388085275,0.006449935045273989,0.04016953526524891,0.09937236591940746,0.004145445940885027,69405.813133689
1681261802275455474,113,1681261802275455474,camera_1,115,0,0.03778563023969475,0.08304991049442018,1.5544113957667454,0.999243388717799,0.011571584163350895,-0.012213797306734914,-0.03506524916594952,0.14757850201567635,0.006164086658685281,69365.30282521353
1681261802285444259,114,1681261802285444259,camera_1,116,0,0.037728535511280525,0.0863448343332971,1.553929576047712,-0.9991477256779934,-0.011773801796597719,0.012799162011693836,0.03743502792233884,0.1150793227716349,0.004805452774182647,69356.20821615343
1681261802295270442,115,1681261802295270442,camera_1,117,0,0.03768428676379558,0.08899523147256597,1.5534585165220727,-0.999374733932495,-0.012028274038345685,0.016051889643764795,0.029116981984363195,0.08620753756258637,0.003595728327058513,69454.7932750732
1681261802305748701,116,1681261802305748701,camera_1,118,0,0.03763876713918195,0.09079277146825869,1.5530868419406636,0.9995387391510734,0.012007168981634625,-0.01621079072413565,-0.022701257529649032,0.07928616815479472,0.0033050767190896846,69527.7897239077
1681261802315726518,117,1681261802315726518,camera_1,119,0,0.037610628777225,0.09178021588336055,1.5528338606801477,0.999633019334984,0.012057735908684593,-0.014490194312352718,-0.019454355007817656,0.07151504192734137,0.0029799120194288382,69571.11324046284
1681261802325684070,118,1681261802325684070,camera_1,120,0,0.037620808014324145,0.09179508745284723,1.5527229023143267,0.9995516070422901,0.012115547090774668,-0.016902986386732734,-0.02154268852944468,0.06600230629555881,0.002750164741357371,69557.82801560263
1681261802335645675,119,1681261802335645675,camera_1,121,0,0.037644357554256824,0.09082493293595356,1.5533129677501771,0.9995905479616879,0.01208891295881457,-0.01533328817829131,-0.020916139289275035,0.07563819631468506,0.003153912906514587,69524.0453202317
1681261802345684051,120,1681261802345684051,camera_1,122,0,0.03761700414037946,0.0887314323105107,1.5540100532931735,0.999418610586448,0.012349033142298954,0.006696642738381878,0.03106601310015196,0.08405051392037421,0.00350677942857037,69485.19625649648
1681261802355691432,121,1681261802355691432,camera_1,123,0,0.037704007039962066,0.08630949857291553,1.5535609918474844,0.9992924026714483,0.01194658263639395,-0.013711721382745252,-0.032923575491704785,0.11484706093324348,0.004791348097910734,69436.24311452906
1681261802365647554,122,1681261802365647554,camera_1,124,0,0.03776471005002559,0.08332610496753712,1.5537359046840329,-0.9990498727919138,-0.012041351129909963,0.014588778867646143,0.03926226010532099,0.11226157553028314,0.004684616888481605,69369.81226373801
1681261802375634431,123,1681261802375634431,camera_1,125,0,0.03786127199432113,0.07977018739399261,1.5540411000868761,-0.9988818715597898,-0.012004830843022212,0.018913308769334187,0.04163144793347956,0.1454536254168488,0.006071768247386325,69322.25689022022
1681261802385745048,124,1681261802385745048,camera_1,126,0,0.03780868186448327,0.07604484103844852,1.5539348733630278,0.9991472565109193,0.01248205845849516,0.007858302395388393,0.038564298344514095,0.09183222363935784,0.0038293588880052337,69425.79025267845
1681261802395471334,125,1681261802395471334,camera_1,127,0,0.0378205402547257,0.07332358383404144,1.5536289215305648,0.9994907679584443,0.012417819670237045,0.009241261701871667,0.02790343352768864,0.046396699617616825,0.0019327632546137959,69534.0334423884
1681261802405273914,126,1681261802405273914,camera_1,128,0,0.037850465080227484,0.07141098869276456,1.553262180204159,0.999568114707124,0.0125198262077679,0.008244635104954153,0.02527575922814979,0.04700387211050838,0.0019567163745972485,69582.85290471575
1681261802415706157,127,1681261802415706157,camera_1,129,0,0.03782354285151837,0.07033949926889366,1.5527856108519278,0.9995539841127224,0.012443876936104058,0.009669214494812242,0.025367086199163582,0.04079421232745517,0.0016972672033634486,69615.15829218275
1681261802425672054,128,1681261802425672054,camera_1,130,0,0.0378333780942887,0.07036954874204603,1.552713654977502,0.9995939132522256,0.012477941535903625,0.009518654525912747,0.023784549189442925,0.04120572465762962,0.001714151290686415,69633.14532783814
1681261802435362100,129,1681261802435362100,camera_1,131,0,0.037854241579257764,0.07150584942395247,1.553502072676368,0.9995235874997804,0.01263253202536086,0.007922636447316162,0.02702311969260635,0.06601335523009766,0.002748863123531912,69550.46890850592
1681261802445363283,130,1681261802445363283,camera_1,132,0,0.03784749773564398,0.07358294328400442,1.5540316197511248,0.9995433999299382,0.012581817491685474,0.006690818698349223,0.02664437032941817,0.06903577671619132,0.002877007978985093,69516.97343570332
1681261802455296277,131,1681261802455296277,camera_1,133,0,0.037887560065795446,0.07648677571011998,1.5540261300289657,0.9993230765526308,0.011902898682128444,-0.014879002471223864,-0.03146942893999197,0.11229173246829305,0.004682844672112261,69460.31468018238
1681261802465255498,132,1681261802465255498,camera_1,134,0,0.03774937737400465,0.07935575032475922,1.5538233476220735,0.9989162435320046,0.01257343465326344,0.00829076306720415,0.0440398728051354,0.13568749076512177,0.005659786807531414,69383.00917206431
1681261802475254297,133,1681261802475254297,camera_1,135,0,0.03779171034844821,0.08309854736391559,1.5540753084999972,0.9991194087661065,0.011806785650219288,-0.014436928718173167,-0.03758433089283542,0.16260535444598645,0.0067893183161960215,69361.51378479239
1681261802485281229,134,1681261802485281229,camera_1,136,0,0.03771724656484232,0.08636426021993857,1.5537387262540516,-0.9992804936548236,-0.01176933397956547,0.01290914397729724,0.03366499339704573,0.08171871333615854,0.0034107131577294945,69414.34545890438
1681261802495264768,135,1681261802495264768,camera_1,137,0,0.03769398921640836,0.08895434834954813,1.55368098704041,0.9994879039405379,0.01197773314221175,-0.0156181705900328,-0.0252296756369283,0.0827959974994883,0.003454247878768824,69471.94066326904
1681261802505236387,136,1681261802505236387,camera_1,138,0,0.03763428126076027,0.09079591468858883,1.5530164818549732,0.9995099190698745,0.011992306709212027,-0.01651607951870927,-0.023734476570105027,0.07005259150173515,0.002920206775379887,69524.6084003915
1681261802515263557,137,1681261802515263557,camera_1,139,0,0.03761116776315486,0.09177096001354909,1.5527002014963882,0.9995977260025826,0.012106249755047985,-0.015545710394018364,-0.020399896462476426,0.0744752194150351,0.003102920539492057,69573.09237687777
1681261802525668859,138,1681261802525668859,camera_1,140,0,0.03762218910488477,0.09181480701726752,1.5530281767425629,0.9996755515833475,0.012049002228416622,-0.014010183163695724,-0.01753076950818742,0.06992939428891987,0.0029146913344019892,69568.22918117643
1681261802535276889,139,1681261802535276889,camera_1,141,0,0.03764795836725028,0.09083473825617885,1.553363764544994,0.9995909627409701,0.012095393046340839,-0.01571897181759491,-0.020603946190785444,0.07811028335709125,0.0032567737744246083,69520.57776828203
1681261802545272827,140,1681261802545272827,camera_1,142,0,0.037688051834612116,0.0889003624867509,1.5537011095435784,0.9994793377545634,0.011985218202318876,-0.015468960924968491,-0.025653833909259894,0.07643373514292762,0.0031887655500622567,69467.39184862238
1681261802555279970,141,1681261802555279970,camera_1,143,0,0.03771636315506866,0.08630586262170757,1.5535374408956701,0.9992540017270339,0.012051403155954604,-0.014830754177811125,-0.03355968481674161,0.12970140058314428,0.005410214212585139,69428.6767924705
1681261802565271377,142,1681261802565271377,camera_1,144,0,0.03777024663267538,0.0832887024003138,1.5538771046017228,-0.9990989557569349,-0.011680219914313946,0.012641117528022272,0.0387949895708001,0.1140507519012317,0.0047618569277178184,69368.17671211157
1681261802575354099,143,1681261802575354099,camera_1,145,0,0.03784109793764358,0.07980974887406808,1.553542809815704,-0.9986747095071477,-0.012244031129848551,0.019972950918091655,0.04582564264829496,0.14258532581152394,0.005948466496686705,69307.9865509058
1681261802585480213,144,1681261802585480213,camera_1,146,0,0.037833722039986015,0.0761012299826908,1.5544949472349954,0.9992235667474236,0.012413160518264873,0.0033033006619274516,0.03724601062183484,0.10497077542822808,0.004380682993469401,69401.93426548927
1681261802595600366,145,1681261802595600366,camera_1,147,0,0.037833437525564104,0.07332102831022277,1.5538927369454705,0.9993829081657292,0.012530160255298973,0.007636138250251454,0.031913748491981475,0.052729110233485706,0.0021977870484698476,69484.01200191099
1681261802605745553,146,1681261802605745553,camera_1,148,0,0.03786362697371073,0.07139918539423815,1.553411293550882,0.9995707980828832,0.012411440690778352,0.006965589599532142,0.025605786874423157,0.0446412746241549,0.0018588285708374837,69571.4669708795
1681261802615721464,147,1681261802615721464,camera_1,149,0,0.03784769220507103,0.0703551239759934,1.5527816304878708,0.9995779318022859,0.012528164918589163,0.007239822673779452,0.025191036209130338,0.0500413397239754,0.002081966825988431,69625.52577553526
1681261802625691652,148,1681261802625691652,camera_1,150,0,0.0378312054836978,0.07041158684440245,1.5529914923872539,0.9996465563788056,0.012475343256992216,0.010203762351173555,0.021142643271276785,0.032769557161373086,0.0013635665514392828,69622.2910257854
1681261802635753393,149,1681261802635753393,camera_1,151,0,0.037839839461352824,0.07149443159531005,1.5533054556575787,0.9995321883131177,0.012316439133291154,0.007855287564466022,0.026870137892198484,0.04697444628982339,0.001955844891177008,69569.20106517297
1681261802645699024,150,1681261802645699024,camera_1,152,0,0.037813154495672935,0.07356552031518966,1.5535639163259871,0.9994298817820712,0.012593218756732163,0.008740570786344973,0.03008196577268839,0.043719222128856934,0.0018213549519751609,69525.43184603055
1681261802655664443,151,1681261802655664443,camera_1,153,0,0.03781788225008596,0.0761988271806777,1.5538710273323944,0.9992186574350174,0.012408573579596523,0.006967842343459132,0.03687209118775153,0.11920988066412974,0.004969153246277093,69451.73084379543
1681261802665698528,152,1681261802665698528,camera_1,154,0,0.03778881010062501,0.07935294969168633,1.5542878795876316,0.998978145831464,0.012302315633491327,0.0026111361903556306,0.043410818340358676,0.1624833401874639,0.006782857548501161,69364.44579849996
1681261802675687789,153,1681261802675687789,camera_1,155,0,0.037785222406828696,0.08314351532993987,1.5542543490635563,0.9990856076793864,0.01188441507399827,-0.014906446839799307,-0.038268878333086453,0.16840946685988456,0.007031277877694368,69336.12250338541
1681261802685655355,154,1681261802685655355,camera_1,156,0,0.03774374360570919,0.0863915784480367,1.5535726660344464,-0.9990726278941311,-0.012026798634692783,0.019385533164471596,0.036516317054775226,0.0903277000761591,0.0037688223865864562,69376.64771994969
1681261802695691108,155,1681261802695691108,camera_1,157,0,0.0376891027087576,0.08895391389264795,1.553394692767858,-0.9994312944348224,-0.011881339349120359,0.01560100963108295,0.02743227985598698,0.07050762145081535,0.002940743608228718,69477.90571274265
1681261802705660820,156,1681261802705660820,camera_1,158,0,0.03764876019242884,0.0907808853425652,1.553139320488166,0.9995671291479233,0.012200047102076474,-0.015124284476238875,-0.022090024824964787,0.07343279861379415,0.0030611619901180463,69531.43595617687
1681261802715603113,157,1681261802715603113,camera_1,159,0,0.037627920002659236,0.09177871429641157,1.5529737156792676,0.9996545375030729,0.01206292665682353,-0.01610365719535914,-0.016910460517804284,0.05796106188790873,0.002415463755192898,69571.23216585812
1681261802725348949,158,1681261802725348949,camera_1,160,0,0.03761839137551924,0.0918296997648123,1.552959763817764,0.9996467970727703,0.01202385569809521,-0.014480436330261878,-0.018762328213425748,0.07663273648358881,0.0031935267930521443,69564.4719812246
1681261802735335111,159,1681261802735335111,camera_1,161,0,0.03762653911880671,0.09085030757176824,1.5529164469632089,0.9994664303713828,0.012157925235095705,-0.015382079636121069,-0.026123381112166208,0.09578953468007967,0.003992744900503001,69516.12841546946
1681261802745331525,160,1681261802745331525,camera_1,162,0,0.0376954160350013,0.08890672203181357,1.5536321603164052,0.9994619651129447,0.011849914587613917,-0.015279824889808485,-0.026493145682878808,0.09491848864126952,0.0039596663299693285,69466.73999483128
1681261802755329370,161,1681261802755329370,camera_1,163,0,0.037711821503991994,0.08634618099985693,1.5539567866411654,-0.999433010833598,-0.011862835256901865,0.011455000130862538,0.029354947926350405,0.10409056575736031,0.0043439903018689455,69441.27779775125
1681261802765300035,162,1681261802765300035,camera_1,164,0,0.03775671634640425,0.08325201974161336,1.554008089575109,-0.9992391584361867,-0.011939895662178745,0.01295491424841934,0.03479530623710805,0.10381244320888072,0.0043328545818728924,69400.63258577848
1681261802775382280,163,1681261802775382280,camera_1,165,0,0.03774413084053596,0.07946671755692708,1.5543791437952292,0.9991233214451537,0.012368239455057953,0.009714262292587195,0.03879752962879806,0.11260299927380402,0.00470015660662832,69384.35190356488
1681261802785478591,164,1681261802785478591,camera_1,166,0,0.03780570983835193,0.0761118379828627,1.5543668808920796,0.99933714271909,0.01238007764141833,0.007906057839310645,0.0333092045698941,0.051445338598568924,0.0021459760234203012,69436.96714829013
1681261802795288801,165,1681261802795288801,camera_1,167,0,0.037844096397343444,0.07333777205479207,1.5537837420686311,0.9993924733034079,0.01244538423717517,0.0053708804215417665,0.032108415706540064,0.06906093182624318,0.0028782391161717292,69498.96501094314
1681261802805515527,166,1681261802805515527,camera_1,168,0,0.037838585849609245,0.07140531647063307,1.553353371024001,0.9995772395547327,0.01248287685872863,0.009426663087807154,0.024508324555128812,0.04114594882412348,0.0017130846981360309,69575.5795554612
1681261802815464258,167,1681261802815464258,camera_1,169,0,0.03783970284603304,0.07033151216959158,1.5525773263905365,0.9995714456154458,0.012458608732573952,0.009505585422108503,0.024725533856313056,0.047058264433871955,0.0019571864617712723,69638.9207003296
1681261802825475931,168,1681261802825475931,camera_1,170,0,0.03783746813420076,0.07038485800503191,1.552727557544438,0.9996083766113689,0.012435712684418475,0.008471055239819652,0.023594229835666843,0.048219073229120106,0.002005791991962519,69637.1135197983
1681261802835531234,169,1681261802835531234,camera_1,171,0,0.03784855719259864,0.07153180092638205,1.5535278664456331,0.9996373818340671,0.012368624484734986,0.007694174938103353,0.022647773407309228,0.04839245433686301,0.0020151542271443466,69578.71106274903
1681261802845448732,170,1681261802845448732,camera_1,172,0,0.03782750922400927,0.07357751926734964,1.5538922379680278,0.9994311967977726,0.012413504374853035,0.009054970950745554,0.030019914683235,0.06809044315014035,0.0028379985555511116,69495.70871964442
1681261802855394124,171,1681261802855394124,camera_1,173,0,0.037809890280151914,0.07628035117455267,1.5541564382463182,0.9994052175245952,0.012280963752392217,0.007102134334547273,0.0314316528649561,0.08194977704260964,0.0034176001820741867,69474.66337614879
1681261802865348100,172,1681261802865348100,camera_1,174,0,0.037772333245391976,0.07931805660300123,1.5543970479613682,0.9991378566596604,0.012273148942838801,0.005292610451028859,0.03930523475544419,0.0813484278623946,0.0033956531354661684,69392.07174302853
1681261802875343322,173,1681261802875343322,camera_1,175,0,0.03779452043689373,0.08312464543923337,1.5542444833292823,0.9991294002353365,0.01175712468372484,-0.01513856511328952,-0.03705449299152319,0.14082461077487096,0.005880397930557585,69350.33395709645
1681261802885295152,174,1681261802885295152,camera_1,176,0,0.037715967757620365,0.08639495600716524,1.5535873852292612,-0.9992014981021285,-0.011993326132642592,0.015310867809918409,0.03490134160236933,0.10774439375381917,0.004495093507265754,69407.74263446522
1681261802895649194,175,1681261802895649194,camera_1,177,0,0.03768592281923524,0.08895771576279095,1.5534188517362648,-0.9994662241207393,-0.012015121016352407,0.015701015091687708,0.026007341922720743,0.0779639272368513,0.003251291060578217,69488.07501425501
1681261802905379772,176,1681261802905379772,camera_1,178,0,0.03766209849911874,0.09078540582337796,1.5533124531634026,0.9995726621388618,0.012070003330880399,-0.016197283733687444,-0.02112950836796033,0.08496272133197635,0.003542288806697794,69520.15320431488
1681261802915620565,177,1681261802915620565,camera_1,179,0,0.03763211414771489,0.09177262825038884,1.5530056152529625,0.9996450042595707,0.012211010896835003,-0.015194211308357358,-0.018162946194859555,0.07933875522576272,0.003306213200781304,69563.01388570076
1681261802925313234,178,1681261802925313234,camera_1,180,0,0.03761558940750753,0.09182184557715362,1.5527493465559306,-0.9994893581648397,-0.012085758806052073,0.01701557879848988,0.0241956076069853,0.06460561481071636,0.002692531266299162,69533.41521004027
1681261802935357093,179,1681261802935357093,camera_1,181,0,0.03764070793581898,0.09083827592669116,1.5534046332129252,0.9996228805551302,0.012108560806121101,-0.015053658922246835,-0.01951580843626315,0.07219962624367326,0.003010375935341801,69526.76575568496
1681261802945340394,180,1681261802945340394,camera_1,182,0,0.03769171975810873,0.08893381040158299,1.553924157137833,0.9995029935491775,0.012119310523063196,-0.015085297683101443,-0.024886180753393782,0.10320036939810961,0.004306215482936358,69455.11697517324
1681261802955415964,181,1681261802955415964,camera_1,183,0,0.03772065337674377,0.08636106859643124,1.5533728427648363,-0.9992016994380997,-0.011929220183651286,0.015248422202336694,0.03494485893751686,0.10515338683035223,0.004386132258626168,69426.7069896191
1681261802965298891,182,1681261802965298891,camera_1,184,0,0.0377575058429813,0.08332972673478958,1.5543058118530055,-0.9991632102047495,-0.011665882123160349,0.011662175957115615,0.03742699853813343,0.08767752745188773,0.003662496518704047,69347.81672286132
1681261802975301027,183,1681261802975301027,camera_1,185,0,0.03775852673896821,0.07940907683322301,1.5542372433515494,0.9986317306504419,0.012530671672580094,0.006783052807239645,0.05031539525981566,0.18687259498983622,0.007804095378601612,69274.48079156551
1681261802985393524,184,1681261802985393524,camera_1,186,0,0.0377876339027798,0.07604772406311094,1.553824247874567,0.9990921806163847,0.012634075514294005,0.008139498528639193,0.039861552037008655,0.07541957448120229,0.003144832456108165,69421.07729522127
1681261802995248794,185,1681261802995248794,camera_1,187,0,0.037853933910003856,0.07334898109671611,1.5537156998265527,0.9994796488551843,0.01242895688434494,0.0060706108301948345,0.029139324618683994,0.062447979609714835,0.0026018519801088323,69527.5946280249
1681261803005270719,186,1681261803005270719,camera_1,188,0,0.03784416476226708,0.07138387949064798,1.553155116602033,0.99948656223007,0.01253506064091594,0.007813072353201505,0.02843308067460334,0.05737542174756527,0.0023885303465611624,69570.51391011776
1681261803015253543,187,1681261803015253543,camera_1,189,0,0.03784628618863071,0.07033853897114392,1.5526271514143508,0.9995407813608078,0.012470081486571616,0.008668426278706275,0.02622178197976819,0.0515768929180922,0.002145416825286816,69627.04653119948
1681261803025279045,188,1681261803025279045,camera_1,190,0,0.03785451152233349,0.0704168317375466,1.5531717937722938,0.9996748200944141,0.012393179642386676,0.005630490016459601,0.021562948539734037,0.04420604127517436,0.0018399363889180479,69619.31093973562
1681261803035330295,189,1681261803035330295,camera_1,191,0,0.03786245644095508,0.07149401050483255,1.5534379824022204,0.9994859497213399,0.012494959966657471,0.006732913763026725,0.028746828648090937,0.062377454072702676,0.0025978432578836154,69546.82445971355
1681261803045310020,190,1681261803045310020,camera_1,192,0,0.03784750390965547,0.07361827074674251,1.554215930317684,0.9996317097454613,0.012578547172889434,0.004919991372143285,0.023537601986674768,0.0711913978739176,0.002966998531919175,69526.36697944246
1681261803055416584,191,1681261803055416584,camera_1,193,0,0.03777883682802713,0.07625860330782769,1.5540055318942145,0.9993338770083329,0.012532319064589204,0.010714787571840788,0.03255666705373836,0.07566558726830408,0.003154602596891809,69465.27602410133
1681261803065431594,192,1681261803065431594,camera_1,194,0,0.037745910069621434,0.07928324526216207,1.5537058093758354,0.9992186402929418,0.012394124353395191,0.008756832680525132,0.0364940057275495,0.06405057643132749,0.0026703725722088552,69469.74277173914
1681261803076023340,193,1681261803076023340,camera_1,195,0,0.0377808884537679,0.08310896090423851,1.552861760406826,0.9985732664649224,0.012355417272599036,-0.02118759651481388,-0.04743269884289137,0.20445480331545696,0.008525049946669935,69318.27172310208
1681261803085706233,194,1681261803085706233,camera_1,196,0,0.037722593913387836,0.08636880534949425,1.5538404080538661,-0.9992582499230744,-0.011896351701383876,0.015121711290842279,0.033358066858079016,0.0892023509950377,0.003722566609222952,69402.67879894772
1681261803095268726,195,1681261803095268726,camera_1,197,0,0.037686709781071526,0.08895374458964811,1.5533450189957523,-0.9995156288908373,-0.011973481237456686,0.016116743473698864,0.02377801358005994,0.06703458685660735,0.0027947880348934504,69511.9636509126
1681261803105373382,196,1681261803105373382,camera_1,198,0,0.03764405069132437,0.09078210257343865,1.5530543433728992,0.9995075494869442,0.01209880136542643,-0.015649982774517346,-0.024358890846698865,0.08018012053798884,0.0033424809140642367,69519.00748917226
1681261803115294933,197,1681261803115294933,camera_1,199,0,0.0376251873802768,0.09178315904398412,1.5527030193435487,0.9995405911851822,0.012055409497843991,-0.017736292125396208,-0.02141722710013175,0.06388247676659375,0.002661903816581122,69557.72127656557
1681261803125648021,198,1681261803125648021,camera_1,200,0,0.03760368177951829,0.09181883154224936,1.55277048613715,-0.9995935240122282,-0.0119873219325523,0.014824649689848327,0.021197184418539405,0.062208489573094994,0.002592314394005945,69562.55203779032
1681261803135284900,199,1681261803135284900,camera_1,201,0,0.03764598797440522,0.09080251520800064,1.5530206044732777,0.9995417267345115,0.011964422638586351,-0.015580286697914152,-0.02303136500356227,0.07488297758391127,0.003121636822586401,69532.9596379538
1681261803145266294,200,1681261803145266294,camera_1,202,0,0.03767779563220022,0.08890572388238008,1.5540097059306615,0.999635433251515,0.012114202575053386,-0.014768740599349562,-0.01908221646286177,0.0828818780137226,0.0034576904373075563,69492.55244180142
1681261803155306577,201,1681261803155306577,camera_1,203,0,0.03772237289162949,0.08635402348148422,1.5533343037163003,-0.999232793541209,-0.012013903726361871,0.016685202023892096,0.033333083603341064,0.09992354264250024,0.004166723718986526,69442.8003670316
1681261803165298461,202,1681261803165298461,camera_1,204,0,0.037766059602819424,0.08330924518129043,1.5538324247381576,-0.9989698001747934,-0.01189403385388458,0.013387822791599512,0.04169696030068128,0.136086163809523,0.005681618033882553,69335.0205468652
1681261803175346851,203,1681261803175346851,camera_1,205,0,0.03782222355107871,0.0797348779368459,1.5539086701360072,0.9987764767972762,0.012122216811677073,-0.014436455232135386,-0.04571859595746092,0.207761458659661,0.008672931561086885,69297.08345669531
1681261803185305118,204,1681261803185305118,camera_1,206,0,0.03781549554594401,0.07605914518383164,1.554211405529182,0.9991174516025384,0.012567662760513888,0.0056209834156434515,0.03968345122879751,0.09081343765137716,0.0037890191928343702,69396.52727414067
1681261803195339202,205,1681261803195339202,camera_1,207,0,0.03782635465407159,0.0733246628215756,1.553526809742804,0.9994057017853825,0.012397623923973094,0.007717508595321436,0.031224705298659918,0.04339616899960674,0.0018080490389296101,69522.13244784866
1681261803205301046,206,1681261803205301046,camera_1,208,0,0.03783121327180279,0.07138969880193727,1.5532126410254028,0.9995354699244056,0.012516360094594425,0.009752641075640577,0.02602058963647875,0.029793597073876292,0.001240365379088884,69576.25722513947
1681261803215339183,207,1681261803215339183,camera_1,209,0,0.03783429670946305,0.07034804459020447,1.5526299942756925,0.9995780454589009,0.012476825519965524,0.009327994416523013,0.02451628808920834,0.03416087545338087,0.0014209661428626916,69636.31722203601
1681261803225325107,208,1681261803225325107,camera_1,210,0,0.03783468207851512,0.07038584844338797,1.5528084949134626,0.9995610835931054,0.012491503614213873,0.009133174303106537,0.02526237579449267,0.03773772800923325,0.0015701869925688128,69616.1157329457
1681261803235375881,209,1681261803235375881,camera_1,211,0,0.03784899015105092,0.07151877281579863,1.5534453439649427,0.999598472723126,0.012447430213674478,0.00836460269779099,0.02404138582481617,0.04361141941626556,0.0018159953074260839,69574.82252125196
1681261803245295286,210,1681261803245295286,camera_1,212,0,0.03783232433222546,0.07360527979663367,1.554198196799793,0.999545429859542,0.01251869808744222,0.007449221764761259,0.026395547734391362,0.06348193513986189,0.0026464991027957013,69501.4989176782
1681261803255293607,211,1681261803255293607,camera_1,213,0,0.03779265972789223,0.07620311160797903,1.5536883429230484,0.9991786024349035,0.01249245672163619,0.006520720145138597,0.03799393596456987,0.11597380078455899,0.004834602787865492,69458.16632994762
1681261803265256404,212,1681261803265256404,camera_1,214,0,0.03776571290703354,0.07921560292364012,1.5534641889665424,0.9987983983430357,0.012474388185926527,0.00686796235634223,0.046893285231951375,0.11876139884407166,0.004952753794052989,69385.65443386004
1681261803275252819,213,1681261803275252819,camera_1,215,0,0.03778609566364461,0.0831353843321235,1.5537771658234565,0.9990172253230598,0.012160914733276601,-0.016547857156347576,-0.03927930860132324,0.14560840127523988,0.006076410391142557,69361.4114842317
1681261803285372257,214,1681261803285372257,camera_1,216,0,0.03770112202434232,0.08639055194098684,1.553624730201403,-0.9991058310036586,-0.011759069239578352,0.011758261124050182,0.0388716611485325,0.12168081779964268,0.005079923611151426,69367.95356342965
1681261803295320510,215,1681261803295320510,camera_1,217,0,0.03768918259632368,0.08892974501514243,1.5530747363543602,-0.9993837767948648,-0.012069744613169568,0.015667930332902032,0.02899834311280921,0.07139811740489677,0.0029768404005227193,69491.61459308077
1681261803305320262,216,1681261803305320262,camera_1,218,0,0.03766358020164187,0.09077967727415696,1.5530878804064991,0.9994951748963762,0.01205007157834893,-0.01733304674525013,-0.023743559639329864,0.07507852202979848,0.00312989130587471,69515.62925174556
1681261803315313100,217,1681261803315313100,camera_1,219,0,0.03762070683272742,0.09177898169605786,1.5528581649352406,0.9996135171569067,0.012083804481479424,-0.015421062311021735,-0.01972279958960216,0.07063121459214017,0.0029434737609578027,69564.41748867693
1681261803325292587,218,1681261803325292587,camera_1,220,0,0.03760985729295811,0.09181686457207586,1.5526737112486326,-0.9995862345448018,-0.0120616438525752,0.01537340422005148,0.02110769761970877,0.06332658120663837,0.00263862133858125,69570.23500600798
1681261803335275888,219,1681261803335275888,camera_1,221,0,0.03764081351614834,0.09082604956694616,1.5530714272490616,0.999501581137788,0.012147622528362354,-0.016182747617682507,-0.02423103896890693,0.09767945378553122,0.004071805814109493,69516.50849590855
1681261803345284461,220,1681261803345284461,camera_1,222,0,0.037686703587405924,0.0889194107362504,1.5537772371354788,0.9994541911350927,0.012050239033340803,-0.01669990873416401,-0.025830691241382892,0.10381488618440926,0.004331061064783657,69455.05474265339
1681261803355436325,221,1681261803355436325,camera_1,223,0,0.03773041577815272,0.08634120084097552,1.5538138598874032,-0.9993366860977604,-0.011976644958152033,0.016539448487944888,0.03015285124838519,0.08422545791836455,0.003514376261783212,69433.01983593378
1681261803365504741,222,1681261803365504741,camera_1,224,0,0.03777838765012343,0.0832941569954969,1.5534361452578003,-0.9988575890126036,-0.012158918982689688,0.017725049850846403,0.04267903664431021,0.13203813944710419,0.005508978834157317,69344.38730989382
1681261803375466346,223,1681261803375466346,camera_1,225,0,0.03778759512677155,0.07936127103369314,1.554093650954904,0.9986128756192914,0.012123445396903125,0.0013917407793317944,0.051219232488207624,0.18440796225331724,0.007703279950335885,69287.8075545617
1681261803385496854,224,1681261803385496854,camera_1,226,0,0.03778999635883612,0.07602205974770744,1.5538902145763944,0.9991014849698111,0.01280737691448412,0.00828659895495555,0.03954144794324395,0.07326672939234413,0.003055210144275613,69417.98303299845
1681261803395451068,225,1681261803395451068,camera_1,227,0,0.03782331124792329,0.07333081203743728,1.5535258302930721,0.9993779371169006,0.012660019453477623,0.009761179429982838,0.03143536364576773,0.060773107354179956,0.0025313779990218718,69513.14497454205
1681261803405460596,226,1681261803405460596,camera_1,228,0,0.037844650920777614,0.07137677359923687,1.553179850924617,0.9995233911776059,0.012522720819395119,0.009423523528840022,0.026596412472350096,0.038604179353569634,0.0016069575727370763,69576.32492246525
1681261803415259599,227,1681261803415259599,camera_1,229,0,0.03783950617106322,0.07035634957137686,1.5528229511957363,0.9996513827890443,0.012519731919178718,0.008080064710238881,0.021796370223089563,0.04442479374120012,0.0018481195990112346,69641.18700118286
1681261803425284385,228,1681261803425284385,camera_1,230,0,0.037842786998492216,0.07037660833816319,1.5528437102380648,0.9995637840254528,0.012492416021405868,0.009485420611147457,0.02502414838702728,0.03862505948927719,0.0016070552554741514,69613.31288414929
1681261803435279846,229,1681261803435279846,camera_1,231,0,0.0378467118389523,0.07147641339861013,1.5533227337277604,0.9994866411271913,0.012533552474994318,0.007777863885635416,0.028440624184752517,0.04909787695214618,0.0020445340569627836,69555.97622655798
