%time,field.header.seq,field.header.stamp,field.header.frame_id,field.image_seq,field.transforms0.fiducial_id,field.transforms0.transform.translation.x,field.transforms0.transform.translation.y,field.transforms0.transform.translation.z,field.transforms0.transform.rotation.x,field.transforms0.transform.rotation.y,field.transforms0.transform.rotation.z,field.transforms0.transform.rotation.w,field.transforms0.image_error,field.transforms0.object_error,field.transforms0.fiducial_area
1681260096639133453,0,1681260096639133453,camera_1,1,0,-0.03181498279293728,-0.06705173596205008,1.5540490167253451,0.9995992786627831,0.012510613752991227,0.006014585890456923,0.024669645253502282,0.07379718974698335,0.0030728822852926696,69612.07041150596
1681260096648829221,1,1681260096648829221,camera_1,2,0,-0.03180690423868964,-0.06700149874890447,1.5538152404683323,0.9995692378765632,0.012439879413756618,0.005647143794710402,0.02597494673719201,0.06810098176356405,0.0028351213474225945,69626.31823400591
1681260096658772468,2,1681260096658772468,camera_1,3,0,-0.03179732523633317,-0.06736175180203186,1.5538381346303078,0.999548273038489,0.012440248844083108,0.0051564156379807925,0.026868223838575806,0.07479306374443695,0.003113992787788897,69617.11537564408
1681260096668796300,3,1681260096668796300,camera_1,4,0,-0.031733219580127085,-0.06751014790658492,1.5539755912136382,0.9996999912078358,0.012029856497855611,-0.014555819007230743,-0.015599303340947132,0.06177758181001991,0.0025723299882533237,69631.26001408766
1681260096678750753,4,1681260096678750753,camera_1,5,0,-0.03179560175101043,-0.06745432858274347,1.553625931281607,0.9995424982793305,0.012422666916865312,0.008752879568282261,0.026150689846548666,0.06090749992290512,0.002534967618704063,69628.50504744939
1681260096688838720,5,1681260096688838720,camera_1,6,0,-0.03183028649288656,-0.06706105792492456,1.5537871578174423,0.9995288168081865,0.012481889156844323,0.007797270066376384,0.026936024068432388,0.06118279107613489,0.0025473450551215557,69615.41071566124
1681260096698753833,6,1681260096698753833,camera_1,7,0,-0.031808167915169584,-0.06700110613117916,1.5539323582950704,0.9995745432962325,0.012330095749582548,0.005209497872930249,0.02591451841818125,0.07230317837093025,0.003010615566796482,69617.52465516192
1681260096708784341,7,1681260096708784341,camera_1,8,0,-0.03171994460954141,-0.06723175512737199,1.5539454040757237,0.9996271773628312,0.012164531309499571,-0.017528903261575732,-0.017037253478348093,0.0763482945621945,0.0031787188745708277,69617.97515518169
1681260096718820810,8,1681260096718820810,camera_1,9,0,-0.03177972060648166,-0.06764441040586311,1.5537176568777193,0.9995683228612937,0.012476049563972183,0.005687023398878842,0.02598410830485406,0.0742905486258678,0.0030926221069345976,69629.83288354432
1681260096728723526,9,1681260096728723526,camera_1,10,0,-0.031804306972731525,-0.06744738138580067,1.554034216165309,0.9996638749576899,0.012419541437974043,0.005641620622333191,0.0220468639901514,0.06515871488954872,0.0027129347998517146,69625.9306987708
1681260096738919496,10,1681260096738919496,camera_1,11,0,-0.031828012324060316,-0.06705728839691572,1.5539810290925216,0.9995905186581879,0.012401370659043155,0.005360205975308724,0.025224377223913116,0.05764403234934434,0.002400596118099525,69616.40729462377
1681260096748972654,11,1681260096748972654,camera_1,12,0,-0.03181307019224838,-0.06699515614623745,1.553602764575187,0.9994920290251588,0.012533201757159057,0.006419565486922713,0.028590067293462154,0.07637057889951393,0.0031790413551351718,69625.64335787926
1681260096758905172,12,1681260096758905172,camera_1,13,0,-0.031813838285392124,-0.06737578969215088,1.553816518689803,0.999546092858814,0.012507621412921771,0.0067293231287462755,0.02656847506912981,0.05781729647424072,0.002407172535559027,69616.21003580547
1681260096768909454,13,1681260096768909454,camera_1,14,0,-0.031720089324470076,-0.06749666540885776,1.553893181334844,0.9996271338791327,0.012143693660918602,-0.016652033543080206,-0.017911831166592874,0.07489735179115087,0.003118405701228571,69619.57408957134
1681260096779291152,14,1681260096779291152,camera_1,15,0,-0.031811103801133944,-0.06745829014574634,1.5539048292180158,0.9995865976930592,0.01254695419541042,0.0054737806231726195,0.025283302365824364,0.05914573487825692,0.0024628384489523035,69619.42651252217
1681260096789289474,15,1681260096789289474,camera_1,16,0,-0.03182078451362155,-0.06705236863333663,1.553641647746176,0.9994801147602217,0.012382880119384444,0.007145004817616002,0.028898328411850943,0.0680054152617231,0.002831130936572929,69617.26854942154
1681260096799230575,16,1681260096799230575,camera_1,17,0,-0.031824405670911,-0.06701300702676648,1.5538013336758936,0.9995409114737156,0.012455693829527006,0.007140420219085726,0.026680262004220807,0.0677238300559111,0.002819459887749268,69618.41188024473
1681260096809367656,17,1681260096809367656,camera_1,18,0,-0.03179856854918181,-0.06736181833779084,1.5537341447904378,0.9995808339207987,0.012439107793142497,0.005189313717034353,0.02562217942833079,0.07522875996073708,0.0031315044845963546,69634.11508860986
1681260096819245100,18,1681260096819245100,camera_1,19,0,-0.031802602784425954,-0.0676360079069172,1.553652464116522,0.9995653730124547,0.012349683425643269,0.006292524014808294,0.02601834997231277,0.057290333963464946,0.002384833716999446,69633.50171091
1681260096829260349,19,1681260096829260349,camera_1,20,0,-0.031805104368820045,-0.06743206602043911,1.5538286831788364,0.9996094023634969,0.012431891362538453,0.0068508563687108585,0.024073980781292647,0.07229798671323806,0.0030095163713836615,69629.60985180177
1681260096839076042,20,1681260096839076042,camera_1,21,0,-0.03175380842337198,-0.06690860417728381,1.5539979666859929,0.9996298604896405,0.0121391758723416,-0.015582422578081288,-0.01870749938395305,0.0744243593653664,0.00309910920050118,69611.2515785197
1681260096849027395,21,1681260096849027395,camera_1,22,0,-0.031821996386840384,-0.06699592579462171,1.5538064045365314,0.9996030640168736,0.012446703999342019,0.006535478510737998,0.02441478011915144,0.05751806654734537,0.00239449679312852,69633.83245775464
1681260096858866453,22,1681260096858866453,camera_1,23,0,-0.03180837496639734,-0.06735988133776145,1.5536286565972761,0.9995543180233644,0.01239444085932023,0.007584046444127156,0.026077296565504803,0.07304948248201981,0.0030402402528511723,69633.44468788651
1681260096868923425,23,1681260096868923425,camera_1,24,0,-0.03179245642340183,-0.06763320000077838,1.5536598600215703,0.9995400638893406,0.01250856521728383,0.006630618223179211,0.026818489485358078,0.0774508054018952,0.003224037344212968,69626.84570698359
1681260096878814935,24,1681260096878814935,camera_1,25,0,-0.031737669339128395,-0.06729879482415768,1.5538387930029505,0.9996119956971155,0.012224349060977526,-0.01775609546356301,-0.01763928633348012,0.0792615370010026,0.003299668392530086,69622.79347543174
1681260096888896942,25,1681260096888896942,camera_1,26,0,-0.0318111037018801,-0.06703664196246922,1.5535617952739547,0.9995172075360813,0.01245435263789996,0.007154865941818661,0.027550840876456924,0.06788165593752638,0.002825373700250388,69633.76020104528
1681260096898774385,26,1681260096898774385,camera_1,27,0,-0.03182106867618163,-0.06699059314675253,1.5540436115269831,0.9996626368616179,0.0123397662921684,0.006546772514321756,0.021897086572815094,0.04546117677818984,0.0018931826985797242,69626.59625501628
1681260096908935070,27,1681260096908935070,camera_1,28,0,-0.0317960435641865,-0.06737150165316436,1.5538582046488632,0.9995437653200351,0.012467091723840366,0.00557729006042561,0.026939314567707887,0.08165517676388845,0.0033995840757711847,69613.69228818675
1681260096918762207,28,1681260096918762207,camera_1,29,0,-0.031796567798491424,-0.06762577572418903,1.55349030367034,0.9995450925956172,0.012441810052181066,0.009345617530302285,0.025835414910966137,0.06645311752799898,0.002765355573352812,69638.89105356518
1681260096928946495,29,1681260096928946495,camera_1,30,0,-0.03173613622242006,-0.06731214573236725,1.5540369114671073,0.9997031871662518,0.012242244723116389,-0.01646692831426499,-0.013134126757058776,0.06556339614326134,0.0027296810528578326,69632.73324207438
1681260096938724756,30,1681260096938724756,camera_1,31,0,-0.03182595899591465,-0.06704268888503637,1.5538241348810582,0.9995578083142719,0.012471644551913807,0.005901572351321037,0.026340413131198812,0.07073045952711254,0.0029447421466683465,69622.03783877881
1681260096949013710,31,1681260096949013710,camera_1,32,0,-0.03182521531357352,-0.06699487673712082,1.5537908108873284,0.9995576532193947,0.012504237297386376,0.006781888567069983,0.026117961781323338,0.06897820677841082,0.002871651246393265,69624.17067244778
1681260096959113121,32,1681260096959113121,camera_1,33,0,-0.03172860282485568,-0.0672404254364191,1.5541481635645271,0.9996431836145843,0.012035105585733407,-0.01722373611854937,-0.016492561976768943,0.07660837430739775,0.003190358260955364,69604.00899835076
1681260096968975067,33,1681260096968975067,camera_1,34,0,-0.0317929072446022,-0.06763980220441392,1.553736935634815,0.9996596721035705,0.012436699275286515,0.0062027500448141575,0.02207701005117105,0.04683785361703485,0.0019497708346586456,69649.03697241307
1681260096979008197,34,1681260096979008197,camera_1,35,0,-0.03179458445426834,-0.06743284054338392,1.553775737028368,0.9995646242374632,0.01247169971298062,0.007126896767095603,0.02577258275299256,0.07558279420481995,0.0031461798860435253,69623.35222240305
1681260096989074707,35,1681260096989074707,camera_1,36,0,-0.03180338247334097,-0.06705792506384142,1.5539667520492146,0.999594727674678,0.012379918068769952,0.005660777664130624,0.025001472553310852,0.06771915988065302,0.0028196579853163374,69618.41383550686
1681260096999031305,36,1681260096999031305,camera_1,37,0,-0.03181222235335468,-0.06698693472238464,1.5536345728004366,0.9995340891041598,0.01248450180102599,0.00678547734895117,0.02701294561214081,0.07649084902368486,0.0031837336046795558,69632.43687700879
1681260097008692741,37,1681260097008692741,camera_1,38,0,-0.03172540824633493,-0.06723480380507918,1.5538787137754748,0.999607759353292,0.012223712858172303,-0.017885375727780727,-0.017748848405683956,0.07763945206534117,0.003232282456992694,69618.49440184061
1681260097018711090,38,1681260097018711090,camera_1,39,0,-0.03179480270299565,-0.06764459320281613,1.5536862918699441,0.9995745404647851,0.01242182040869073,0.005817870095433194,0.02574080068491362,0.04927153809694573,0.0020512805208463183,69633.588160472
1681260097028923273,39,1681260097028923273,camera_1,40,0,-0.03180196320357876,-0.0674445841187986,1.5537001787511309,0.999568578615126,0.012452550040045775,0.006980129186669728,0.025668432740910144,0.061983898165635765,0.0025801475174037406,69630.95740788616
1681260097038981676,40,1681260097038981676,camera_1,41,0,-0.03181023371431346,-0.06705288960805496,1.554150487556674,0.9996620876750854,0.01235780782220185,0.004536701525025397,0.022414579857591904,0.06575445790076628,0.0027384762869572515,69619.59929845083
1681260097048834800,41,1681260097048834800,camera_1,42,0,-0.031811335128666296,-0.06697974755077767,1.5536213557223124,0.9995527614408034,0.01241071636747561,0.007299645179906423,0.02621004379160705,0.06550860276911408,0.0027267178633293915,69637.18097645091
1681260097058703184,42,1681260097058703184,camera_1,43,0,-0.031796900612716304,-0.06736487386628198,1.5538343897747777,0.9995758513679225,0.01239579160301264,0.004931394429785102,0.025887121539590042,0.07600674557033928,0.0031643780911899807,69624.26908813359
1681260097069013357,43,1681260097069013357,camera_1,44,0,-0.031798704898677026,-0.06763616298791464,1.5535904865029129,0.9995646090096713,0.012427356812262827,0.00820875686782036,0.025470954608902713,0.0664300553034991,0.0027648564080161703,69636.30466140655
1681260097078737974,44,1681260097078737974,camera_1,45,0,-0.031802083800667624,-0.06744396376154493,1.553759595870271,0.9995497960297571,0.012464632695147467,0.00569112535880698,0.026691745555441158,0.06697688298299909,0.0027882799362873366,69623.03445845083
1681260097088746309,45,1681260097088746309,camera_1,46,0,-0.03182056347105221,-0.06704031090344956,1.5540040806560664,0.9995749189931776,0.01254248742490759,0.005536019828631967,0.025729745693170516,0.0657937615760602,0.0027398941793664216,69611.01950388576
1681260097098782539,46,1681260097098782539,camera_1,47,0,-0.03181577561238446,-0.06698072172547495,1.5539316238244487,0.9996353589252244,0.01238143492359309,0.005718511824145236,0.023305533209687243,0.06555546121671796,0.002729298772625551,69631.57719760414
1681260097108923435,47,1681260097108923435,camera_1,48,0,-0.031797524371972495,-0.06737677339173966,1.5539153627758369,0.9995774680723565,0.012306772938812504,0.005407710979524587,0.02577179318269495,0.0712264149915427,0.0029655576339932895,69616.47080870453
1681260097119251251,48,1681260097119251251,camera_1,49,0,-0.031722200913205614,-0.06752318248455999,1.553870046111811,0.9996503756878631,0.012135255129370106,-0.01641936204335216,-0.01680078927159736,0.0703740079770796,0.0029297891231803504,69628.52317955288
1681260097128778457,49,1681260097128778457,camera_1,50,0,-0.031790753568446795,-0.0674481027112156,1.553675708424087,0.9995362174656066,0.012370675302009962,0.0058628816292724895,0.027201893061345468,0.07023444573860615,0.00292362595141032,69626.70496233014
1681260097138733625,50,1681260097138733625,camera_1,51,0,-0.031749296284238046,-0.06690745028011012,1.5539544187361427,0.9996331397389384,0.01215309110662747,-0.015914967953576376,-0.018237382138417312,0.07701994763920084,0.003207000134487539,69616.93303111303
1681260097148829698,51,1681260097148829698,camera_1,52,0,-0.03174223880277207,-0.06684904746964822,1.553848755063587,0.9996386262798569,0.012194675757075191,-0.016253942354903576,-0.017598752524654933,0.0717990502016619,0.002989184949200122,69629.2262011694
1681260097158741474,52,1681260097158741474,camera_1,53,0,-0.0318038315572162,-0.06736109419130949,1.5540244682417514,0.999603323527115,0.012393413183555184,0.006721625025745023,0.02438070261950946,0.0650859972811304,0.0027101826295344873,69611.48822770012
1681260097168788194,53,1681260097168788194,camera_1,54,0,-0.0317995471982611,-0.06765560782983901,1.5535263842194662,0.9995212688385474,0.012461477968447942,0.007580468606497708,0.027285182827458773,0.07143237977288663,0.0029729376732566745,69632.31568166267
1681260097178717374,54,1681260097178717374,camera_1,55,0,-0.031724630689016466,-0.06730088408799537,1.5537790637400295,0.9996160568310491,0.012169097254008457,-0.01688301887483457,-0.01829250314307715,0.07693245314294472,0.003202759442326369,69627.48559510846
1681260097188864469,55,1681260097188864469,camera_1,56,0,-0.031817316802049765,-0.06704808072097562,1.5537165108204651,0.999493516626103,0.01247595277512387,0.008029939990565664,0.028152813154051857,0.07159775757463649,0.0029804143783475918,69612.99275447734
1681260097198868989,56,1681260097198868989,camera_1,57,0,-0.031815538903893735,-0.06698306959758704,1.5538474223529561,0.99959379756432,0.012368579542116676,0.006457008387179816,0.02485085820931649,0.055519686720799655,0.002311618408891341,69628.033410068
1681260097208874702,57,1681260097208874702,camera_1,58,0,-0.031796397798328796,-0.06737631578376405,1.553822857188141,0.9995679179584143,0.01241151183742701,0.006154118433057684,0.02592409281927366,0.07470256061060354,0.0031097604259545434,69621.628443751
1681260097218904018,58,1681260097218904018,camera_1,59,0,-0.031791463005870824,-0.06763948222510408,1.5532469476968849,0.9994872629909167,0.012453828528990279,0.008070319941975782,0.028372226030587443,0.07203093223506585,0.0029970003176136143,69648.1816793314
1681260097228704929,59,1681260097228704929,camera_1,60,0,-0.0317148997779407,-0.06730871957240199,1.5538215232872188,0.9996285061854439,0.012111186270730519,-0.018629188851837536,-0.01578360260828211,0.0750284957466647,0.003123198074905102,69631.2624621098
1681260097238748073,60,1681260097238748073,camera_1,61,0,-0.03181056311981817,-0.0670494134713159,1.553642049030109,0.9994581435438529,0.012424156356751004,0.007651299013801504,0.02950452958614552,0.07174289115937427,0.0029864484549920536,69611.39433154813
1681260097248694181,61,1681260097248694181,camera_1,62,0,-0.03182557137036721,-0.0669812100623255,1.5534087822620386,0.9994584007210962,0.012453002904845984,0.00929716788357523,0.029006733977221498,0.06573773396667093,0.002735574229235526,69630.16444657986
1681260097258780002,62,1681260097258780002,camera_1,63,0,-0.03180819436769006,-0.06735850844054161,1.5540081029119326,0.9995845613723684,0.01246571933404397,0.005201583984286821,0.025460833284659007,0.07659193349536508,0.0031893387087271667,69610.80301655168
1681260097268703222,63,1681260097268703222,camera_1,64,0,-0.03178995905329286,-0.06763342283010845,1.5535460059025992,0.9996072808781999,0.012388202770660483,0.006840945688421164,0.024187143475259354,0.06291921518277377,0.002618479063996897,69652.48983720483
1681260097278679847,64,1681260097278679847,camera_1,65,0,-0.03179532958905225,-0.06746337813032133,1.5535837878366268,0.9995428451532532,0.012425090172566993,0.007313567244528933,0.026574980175026807,0.06219960143789649,0.0025886360428827174,69634.36068170657
1681260097288729667,65,1681260097288729667,camera_1,66,0,-0.03182655716834492,-0.06704475426936252,1.5536907857040956,0.9995236878394204,0.012458954310827405,0.0077638840102080935,0.027145791763030523,0.05346838041441515,0.0022258625349077864,69622.82379991878
1681260097298656225,66,1681260097298656225,camera_1,67,0,-0.03181516135724713,-0.06699549896008211,1.5537616901760598,0.9994913184288046,0.0124450264382399,0.007024861466794379,0.02851099829493819,0.06204021273879334,0.0025831633425269936,69610.24569488209
1681260097308647632,67,1681260097308647632,camera_1,68,0,-0.0318022028499956,-0.0673498177065224,1.5536233791581218,0.9995020687469198,0.01251485147262953,0.007405537987159517,0.028002697555173636,0.06721847655717283,0.0027980439362323443,69621.97416179575
1681260097318639755,68,1681260097318639755,camera_1,69,0,-0.03180126716921358,-0.06763844004168763,1.5538302148686332,0.9996170261214155,0.0124370332751212,0.00812827122021244,0.023346359426293654,0.059089400398079306,0.0024600682070217463,69627.7808332661
1681260097328698396,69,1681260097328698396,camera_1,70,0,-0.031797655293272234,-0.06745944128580295,1.5540363647689794,0.9996172319346529,0.012371580622643718,0.005025406326654651,0.024229711171449016,0.07403699023416266,0.003082812995043444,69615.37686000412
1681260097338675975,70,1681260097338675975,camera_1,71,0,-0.03173075971929911,-0.06689173176024193,1.5537733609358289,0.9995654154562396,0.012170748495758856,-0.017105747378302918,-0.020694117798975675,0.0866319818305783,0.0036067260480058616,69613.78549051817
1681260097348695993,71,1681260097348695993,camera_1,72,0,-0.03182436319577294,-0.0669882836327786,1.5538241407919726,0.9995464447285934,0.01251041858556169,0.00755097544559828,0.026332053225352838,0.061912837612908334,0.002577659902732411,69617.47642857024
1681260097358759641,72,1681260097358759641,camera_1,73,0,-0.03180693441704742,-0.06735486227953294,1.5538250185537674,0.9995833000669622,0.012490101181795167,0.006599395427632264,0.025172834161054723,0.07659441314172,0.003188440095611892,69624.8269000222
1681260097368906736,73,1681260097368906736,camera_1,74,0,-0.03178818352998639,-0.0676365531785443,1.553598319814676,0.9995327539092206,0.012456842312593638,0.0065519169600079035,0.027132514192347225,0.059890117263421416,0.002493116074082114,69630.43622948226
1681260097379020214,74,1681260097379020214,camera_1,75,0,-0.03179790134134462,-0.06745293837554853,1.5539831157878226,0.9996393886450231,0.012455488564926,0.004524985936112675,0.023355469943710978,0.06943210976896808,0.002890994607365945,69626.34290042343
1681260097388780355,75,1681260097388780355,camera_1,76,0,-0.031827380158374,-0.06705227897852907,1.5536605067689755,0.9994980580534542,0.01234512592291976,0.008680049289289065,0.02785474030855526,0.06441604410065338,0.0026813911226231373,69617.55772207651
1681260097398758649,76,1681260097398758649,camera_1,77,0,-0.03175224833937405,-0.06687825599491702,1.5541620200516648,0.999715975179122,0.012139352298677868,-0.015320611871635376,-0.013633926408208225,0.06519193615531549,0.002714874039887685,69624.88836590476
1681260097408695697,77,1681260097408695697,camera_1,78,0,-0.03180280824458123,-0.06734546566492657,1.5539312321952996,0.9996342725391768,0.01239845670817889,0.00573106845749215,0.023339971950751878,0.05919570225523785,0.0024646200968776767,69628.65334716965
1681260097418740749,78,1681260097418740749,camera_1,79,0,-0.03179724818310818,-0.06764604816872186,1.5540362861624801,0.9996436225400975,0.012475711379953344,0.0054496673604895835,0.0229627016297099,0.06148135307012126,0.0025602357432818685,69619.89011438099
1681260097428720712,79,1681260097428720712,camera_1,80,0,-0.03179632774785484,-0.06744590270436615,1.5536527589697684,0.9995382792698351,0.012444382678458453,0.006875637080699295,0.026853141879187397,0.0836515495320782,0.0034815199543071617,69628.02275337765
1681260097438674211,80,1681260097438674211,camera_1,81,0,-0.03182075971909803,-0.06705253599563443,1.5538108770993486,0.9995240612344711,0.012476706781003858,0.006870411325792072,0.02736384931739244,0.07889370719203725,0.003284769762426606,69613.6771567216
1681260097448767185,81,1681260097448767185,camera_1,82,0,-0.031813351927150534,-0.06697381921142476,1.5537750390243152,0.999614550751145,0.01249452258292576,0.005386166042595509,0.024199711720862393,0.0675383914494887,0.0028115300895910247,69641.37836236067
1681260097459051847,82,1681260097459051847,camera_1,83,0,-0.031732761507257685,-0.0672306519242501,1.5540472221262307,0.9996273805330583,0.012242122867519837,-0.01757838877526324,-0.01691835584146563,0.07362192479195075,0.0030656891418480905,69609.36852210181
1681260097469016313,83,1681260097469016313,camera_1,84,0,-0.03180094114064118,-0.06763699071577915,1.5536915763866843,0.9995314804158192,0.012524683247143056,0.008215797757277805,0.02669180837881139,0.061799905844964094,0.002572704137036104,69619.58228109323
1681260097478971481,84,1681260097478971481,camera_1,85,0,-0.031810525554807095,-0.06744475451207689,1.5538986460062212,0.9996099294683803,0.01256518748936502,0.006873169453524884,0.023976332355888544,0.058829863206483424,0.0024493255763689344,69623.74074719555
1681260097488964557,85,1681260097488964557,camera_1,86,0,-0.031824014698699415,-0.06705850408915115,1.55366228875855,0.9995160768233949,0.012423618584747014,0.0079218971170701,0.027395426970509666,0.06897502491483465,0.002871077102823102,69623.11027557543
1681260097498638629,86,1681260097498638629,camera_1,87,0,-0.031827880093891044,-0.06700538740385933,1.5539413645066043,0.9995733682881897,0.012420590327240572,0.007033600499610293,0.025482127245147528,0.0630461671971716,0.002625129365587714,69613.90165036904
1681260097508814811,87,1681260097508814811,camera_1,88,0,-0.03173109573441399,-0.06721247583322817,1.5539235697868468,0.9996412677433445,0.012150829767986053,-0.016810135910407555,-0.016944394090731885,0.07534908287925646,0.0031370175314015657,69622.9664831888
1681260097519073486,88,1681260097519073486,camera_1,89,0,-0.03179479199558605,-0.0676285364997451,1.5537921029534694,0.9995931827229589,0.012326897636357902,0.0075613316195650955,0.024583386922612735,0.06566187343560159,0.002733502731991229,69626.11620445922
1681260097529053211,89,1681260097529053211,camera_1,90,0,-0.031742491606864424,-0.06732656612521369,1.5541874113053722,0.9997082152287825,0.01222683290100744,-0.015576938371228359,-0.013832857704469006,0.06369114358676597,0.002652404836543821,69618.95127342724
1681260097540097236,90,1681260097540097236,camera_1,91,0,-0.031805108043444795,-0.06704540211599605,1.5536075496386543,0.9995148813520278,0.012359704212599847,0.005494553618743895,0.02805440336470579,0.08134917478309944,0.0033860718448425146,69631.21913688199
1681260097549083232,91,1681260097549083232,camera_1,92,0,-0.031812930859363715,-0.06700096961384179,1.5538727708180227,0.9995576580994526,0.012380820949071116,0.006524182768114882,0.026241921548792346,0.07069005665834993,0.0029431215753468387,69616.9935251664
1681260097559040546,92,1681260097559040546,camera_1,93,0,-0.03179847968185295,-0.06734856563369748,1.5534998461091873,0.9994758361912726,0.012426466876276946,0.006773269215016346,0.02911629466244637,0.07547488703858107,0.00314130287973159,69627.17885984082
1681260097569052696,93,1681260097569052696,camera_1,94,0,-0.03179156235473289,-0.06763316889103241,1.5538349437891952,0.9995906194045335,0.01243722362136158,0.005999734259111616,0.025058177425213723,0.06119022908387706,0.002547702590420238,69624.26423801655
1681260097579055070,94,1681260097579055070,camera_1,95,0,-0.0318090380267654,-0.06745484645147917,1.5538267577100666,0.9995863456733519,0.012541011271164821,0.006042461452933349,0.025166430801376725,0.06744355394039303,0.002807811487193999,69625.51298775626
1681260097588778972,95,1681260097588778972,camera_1,96,0,-0.03183071761795886,-0.06705549547213721,1.553816225199616,0.9995294433952497,0.012484717354867048,0.0077092638098698405,0.026936793982602916,0.05229840456740931,0.0021775264384909067,69613.15676788811
1681260097598705291,96,1681260097598705291,camera_1,97,0,-0.03181594313484313,-0.06699342577104442,1.5537843168528291,0.9995361918867307,0.01242577700466714,0.008386080084722114,0.026508014546846648,0.06129390496062115,0.0025516847385645166,69617.07524181544
1681260097608747005,97,1681260097608747005,camera_1,98,0,-0.03180173766298174,-0.06736759997310131,1.5536951774224732,0.9995353249083673,0.01247871771487341,0.006703552833415501,0.026990336121042405,0.07406200986588374,0.0030828843254666065,69624.48194394377
1681260097618745326,98,1681260097618745326,camera_1,99,0,-0.03179603859317148,-0.06762250476837756,1.553829745994409,0.9995666808952468,0.012399720637088102,0.007532879612397881,0.025611581304696696,0.0688847090350464,0.0028679629081422224,69616.70158582702
1681260097628731727,99,1681260097628731727,camera_1,100,0,-0.03180412046334512,-0.06743886934181549,1.5537112626914573,0.9995957657392869,0.012393544726470107,0.006844187367218562,0.02465486289728807,0.06659287778893486,0.0027718775954491356,69636.57219312829
1681260097638713121,100,1681260097638713121,camera_1,101,0,-0.031813923914280756,-0.06704417431317254,1.5537771765215613,0.9995579146811249,0.012440005542528762,0.006261297324393263,0.026268186390362103,0.0755470028379932,0.0031449398421344752,69625.71170123329
1681260097648787260,101,1681260097648787260,camera_1,102,0,-0.03181395691022222,-0.06699824218708497,1.553890311388421,0.999590457917753,0.012340361445777723,0.005875246478615431,0.025141865443517486,0.0708300854312256,0.0029490161256938287,69624.11792071359
1681260097658684492,102,1681260097658684492,camera_1,103,0,-0.03181530930085606,-0.06736817995489641,1.5538616794809201,0.9995717471383393,0.012479800206049989,0.006261084445399384,0.025717226351080896,0.06436377792852,0.0026797070895180847,69619.05912982179
1681260097668662786,103,1681260097668662786,camera_1,104,0,-0.03178482896684168,-0.06761573477882023,1.5538062714199847,0.9996099953991001,0.012359366727376373,0.005641575698854934,0.024398274036158383,0.07029736432014033,0.002926593010945304,69631.9439500221
1681260097678654909,104,1681260097678654909,camera_1,105,0,-0.03179921596339381,-0.06743481277931201,1.5536073027429558,0.9995629696943257,0.012321408191985668,0.00739100947898769,0.02583457944129804,0.07017093111062422,0.002920291479709132,69636.95124787903
1681260097688599824,105,1681260097688599824,camera_1,106,0,-0.03182742483097517,-0.06705107640372418,1.5538801529466124,0.9995574128231015,0.012347840991585196,0.00665383169760837,0.026234248931011277,0.0545377679518424,0.0022709430866845823,69615.44265172142
1681260097698600769,106,1681260097698600769,camera_1,107,0,-0.03182448977962042,-0.0670058924927494,1.553724303489311,0.9995121347771776,0.012467968772307846,0.007319172479076637,0.027685228951258526,0.07738537836121395,0.003221427965405449,69618.11935878525
1681260097708624601,107,1681260097708624601,camera_1,108,0,-0.03180498574269267,-0.06735648657163958,1.5537806264063192,0.9995650275472566,0.012491756976878309,0.007426323202175357,0.025662451866096492,0.06363240454811603,0.002649021127646618,69623.1467821696
1681260097718598365,108,1681260097718598365,camera_1,109,0,-0.031808306580423544,-0.06761920092864816,1.5535107556725998,0.9995364765954842,0.012423360750583616,0.00916462422444312,0.026239316408222624,0.0681678435066715,0.0028370132334801703,69635.15755998995
1681260097728706598,109,1681260097728706598,camera_1,110,0,-0.031793951077426066,-0.06744410162527109,1.553745683245614,0.9995864642215161,0.012488730521523255,0.005206271907302612,0.02537374406578142,0.07160284148994833,0.002980547961337578,69633.94138217717
1681260097738955974,110,1681260097738955974,camera_1,111,0,-0.03182330902541346,-0.06705244513707698,1.553728909814056,0.9995289146195735,0.01241517388895081,0.006350387642356297,0.02734016959560095,0.053494233114179224,0.0022271442682551103,69622.58979022967
1681260097748733043,111,1681260097748733043,camera_1,112,0,-0.03181604393196557,-0.06698569931150908,1.5538693056270951,0.9996071930156245,0.01236769174214245,0.005713643878939462,0.024491920014976666,0.07154920505126938,0.0029786730749994444,69630.35384342259
1681260097758711099,112,1681260097758711099,camera_1,113,0,-0.031805428495860225,-0.0673776588549891,1.5541621399157675,0.9996261758515874,0.012449879368542388,0.004781219475270606,0.023867320678476602,0.06119553092867135,0.0025487097561406507,69607.52382388874
1681260097768646001,113,1681260097768646001,camera_1,114,0,-0.0317995625179108,-0.06762714042631064,1.5537240668954617,0.9996042912212332,0.012425525672296964,0.0061658389154656944,0.024471406055470886,0.05792949988972396,0.002411745880046585,69637.05435317334
1681260097778658151,114,1681260097778658151,camera_1,115,0,-0.03179353064482577,-0.0674349448442488,1.5538032814561276,0.9996242219242393,0.012307388564287215,0.004929480434266376,0.02399256867730579,0.07520386565010995,0.0031304172367314902,69637.83390867521
1681260097788723230,115,1681260097788723230,camera_1,116,0,-0.031822396713740486,-0.06706186290251291,1.5539095615793397,0.9995350130177212,0.012473518350985396,0.007980003241842209,0.026654992775686018,0.06020167010137811,0.0025067781910852213,69605.85669538498
1681260097798697471,116,1681260097798697471,camera_1,117,0,-0.03182543306218797,-0.06700453323954049,1.5539895185709358,0.9995943692248105,0.012419681544763889,0.006532782036320828,0.02478247936034814,0.06256310670869425,0.0026050571835815267,69615.41119181729
1681260097808669090,117,1681260097808669090,camera_1,118,0,-0.03179719509301418,-0.06736703469994562,1.5537679804151727,0.999503698121668,0.01248607261805569,0.007442334201172804,0.027947577593134793,0.07141016999958083,0.0029728454751341304,69609.36186114643
1681260097819034576,118,1681260097819034576,camera_1,119,0,-0.0317970491593134,-0.06762469416632332,1.5537978497918996,0.9996686710396777,0.012355591843462355,0.005131623236635105,0.021989859820373193,0.049287537811324,0.002051953559429179,69647.15322044505
1681260097828736543,119,1681260097828736543,camera_1,120,0,-0.03181214145865795,-0.06743110473352917,1.5538883552168268,0.9995777903817077,0.012480878495719399,0.006998012430291291,0.025288267430241464,0.06681591324741021,0.00278182553494967,69616.6294802651
1681260097838675260,120,1681260097838675260,camera_1,121,0,-0.03182669735216942,-0.06704734436842578,1.553775774779926,0.9994908186753877,0.01246234026089538,0.007615378942753299,0.028368987686965268,0.07159611827228218,0.0029807961182988113,69607.58334707891
1681260097848710536,121,1681260097848710536,camera_1,122,0,-0.03183069229110859,-0.06699829726496498,1.5539618619935023,0.999589079253368,0.012451385920696736,0.00722115621847306,0.024788919478796655,0.061751462577376515,0.0025712239496445883,69615.68603695113
1681260097858993053,122,1681260097858993053,camera_1,123,0,-0.031807339537134875,-0.06735675419927013,1.5536562607729967,0.9995322435102333,0.01245185378286679,0.0066347665975523525,0.027133473661986474,0.06430949701461941,0.00267697160748384,69627.2134744775
1681260097868947982,123,1681260097868947982,camera_1,124,0,-0.031792186788605376,-0.06763647704040676,1.5538537211008996,0.9995606560181566,0.012404680115425832,0.005586187843669625,0.026332743061856907,0.07663856650469825,0.003191085039426366,69615.83580467314
1681260097878641128,124,1681260097878641128,camera_1,125,0,-0.031715402849622015,-0.0673182173543071,1.5539206883866774,0.9996431799787748,0.01214972345844878,-0.018460033056811265,-0.015004136807807473,0.07601175684249029,0.0031642539937651796,69627.05968570778
1681260097888962745,125,1681260097888962745,camera_1,126,0,-0.03182068923192082,-0.06704173130708378,1.5538468587395253,0.999569293790548,0.012490813598530218,0.006155633989418919,0.02583243420392885,0.05776663561118767,0.0024051874428109663,69622.5133482297
1681260097898598909,126,1681260097898598909,camera_1,127,0,-0.03181004166335273,-0.06699969135306036,1.5538335006755357,0.9995853935592729,0.012469577184415204,0.005459600468642512,0.025372098662079325,0.06645797856617719,0.002766804092477461,69628.9098912884
1681260097908607244,127,1681260097908607244,camera_1,128,0,-0.03179658739612447,-0.06736570937951565,1.5536855403626766,0.9995485261674656,0.012368449675725313,0.006814824957535118,0.026520246037033936,0.07727026456268504,0.003216127543974563,69628.10984490823
1681260097918571233,128,1681260097918571233,camera_1,129,0,-0.03180173430009388,-0.0676397190882736,1.5535619411152675,0.999480457754212,0.0124067140200585,0.007854598776512399,0.028691345258024498,0.07343083218438552,0.003056544835048432,69618.74177333643
1681260097928578376,129,1681260097928578376,camera_1,130,0,-0.03180909029676281,-0.06743344439404547,1.5535905795429195,0.9995259008542634,0.012550533115788133,0.0053894819464846535,0.027593679064803048,0.06652695790398866,0.00276922246983678,69632.8736200725
1681260097938602447,130,1681260097938602447,camera_1,131,0,-0.031817157892160323,-0.06704171030935778,1.5539615767790376,0.9995564091116214,0.012351081813667104,0.006228548671495737,0.026375006414409135,0.0687725993921049,0.002863793907365875,69608.81193140743
1681260097948590755,131,1681260097948590755,camera_1,132,0,-0.031826929536535625,-0.06701483836410373,1.5536791713659461,0.9994958634685418,0.012480789385466937,0.008180908110549385,0.02802358913623694,0.058384334086440504,0.0024304896745544675,69616.81143619004
1681260097958650112,132,1681260097958650112,camera_1,133,0,-0.0318049201930363,-0.06737407390446945,1.5536329559884292,0.9995551027961084,0.012438898383140438,0.0066518018510165,0.026279722475897285,0.07550135377096012,0.0031424228610398984,69634.64995865396
1681260097968636512,133,1681260097968636512,camera_1,134,0,-0.03179028248730532,-0.06762690835656247,1.5537652573480016,0.9995674949443105,0.012452549568988372,0.0063414593532116065,0.025875528076919112,0.07764968957053497,0.0032325414588630845,69624.49632173961
1681260097979005098,134,1681260097979005098,camera_1,135,0,-0.0318054414951497,-0.06743178343002511,1.5537998761022715,0.9995819270048105,0.012467675479507934,0.0062360917575590745,0.025330602698685104,0.07665282883681357,0.0031907694788095554,69626.56501664605
1681260097989026308,135,1681260097989026308,camera_1,136,0,-0.03182598187602459,-0.0670462101067622,1.553791760422933,0.9995305430094624,0.012470753650373931,0.008067076267371883,0.02679731656523451,0.06411975028458983,0.0026694837808814713,69615.15594088065
1681260097998669862,136,1681260097998669862,camera_1,137,0,-0.03182249605390799,-0.06700712490659014,1.5539467391231667,0.9995728907388449,0.012459473018316429,0.00641398237496736,0.025644852547611258,0.06345064257038757,0.002641996065176674,69614.35533797776
1681260098008646726,137,1681260098008646726,camera_1,138,0,-0.031796019728044994,-0.06737044933164499,1.5538382520024394,0.9995922587376304,0.012469383145296177,0.0050757253144052775,0.025180702299795767,0.06616183341247961,0.00275443829583812,69627.83738624385
1681260098018981456,138,1681260098018981456,camera_1,139,0,-0.031801254092229864,-0.06764577667142489,1.5535567181847392,0.9995739273033606,0.01242682601122471,0.007185876321386776,0.025414583060054053,0.06884937215363607,0.0028653956644567906,69642.94344764204
1681260098028904676,139,1681260098028904676,camera_1,140,0,-0.031733308808643196,-0.06729460577256972,1.5536356407173455,0.9996295884239381,0.012134350583269933,-0.017346253698448603,-0.017104121314452964,0.06867474655155092,0.0028581344449489466,69645.34482160583
1681260098038582086,140,1681260098038582086,camera_1,141,0,-0.031818821820667684,-0.06703784418045479,1.5538235071526774,0.9995848920295448,0.012412770345941338,0.007516992013154518,0.02488898530870095,0.045632002293132246,0.0018999340853977646,69626.12636214239
1681260098048977613,141,1681260098048977613,camera_1,142,0,-0.03181396743856947,-0.0669918361027703,1.5537784095970417,0.9995467998072581,0.012371614796203625,0.006563452770788454,0.02664693659933503,0.07545770850265399,0.0031413391187655564,69622.71044545856
1681260098058949708,142,1681260098058949708,camera_1,143,0,-0.03172344284713187,-0.06722389463230778,1.5538147828552498,0.999625331009389,0.012248721577386153,-0.01644871035408521,-0.018127502634858725,0.07512486993800849,0.003127427291655176,69627.07475925345
1681260098068696498,143,1681260098068696498,camera_1,144,0,-0.03172677600787899,-0.06750137823334966,1.55368606514008,0.9996700820079533,0.012143259161326128,-0.014407763968701845,-0.017455220782766036,0.06394806603202596,0.0026618812760275715,69647.36850958316
1681260098078629493,144,1681260098078629493,camera_1,145,0,-0.03180507286269264,-0.06744501133786003,1.5537807401787265,0.9996275293598272,0.012542652513215083,0.005687051168823503,0.023561448658855122,0.06187204166781157,0.002575527871680096,69640.04398261277
1681260098088953495,145,1681260098088953495,camera_1,146,0,-0.031815370343134586,-0.06704392849007758,1.5537469784142852,0.9995310028579114,0.01238632929071154,0.006345174808894156,0.02727804848599967,0.06879947881679982,0.0028644088765530607,69621.58288176291
1681260098098769903,146,1681260098098769903,camera_1,147,0,-0.0318199281332361,-0.0669870159088987,1.5535426396066658,0.999489513684931,0.01240012507692855,0.008778488572330535,0.02810492964449798,0.060122046503238394,0.0025022522002168856,69626.50814056769
1681260098108820676,147,1681260098108820676,camera_1,148,0,-0.03181425998966909,-0.067360279474867,1.5537594661673424,0.9995397512608668,0.01245154425167745,0.006361901009062578,0.02692156961738688,0.08455569465877488,0.003519836938800176,69620.24676543479
1681260098118752241,148,1681260098118752241,camera_1,149,0,-0.031801206822386144,-0.06763747124193721,1.553915346424041,0.9997104098052827,0.012372562952285724,0.005425539244600053,0.01991430985123266,0.05055334715871141,0.0021047784051706317,69646.03226951743
1681260098128677368,149,1681260098128677368,camera_1,150,0,-0.031797858676203786,-0.06745223172638502,1.5538243584696292,0.9995965427626443,0.012416317164462306,0.006653739247132181,0.024664032903633292,0.07077110809041187,0.0029460474870667496,69627.05356183926
1681260098138599395,150,1681260098138599395,camera_1,151,0,-0.031804680858281295,-0.06703245073417419,1.5537173380883447,0.9995438772189026,0.012329366726072575,0.005657500764530313,0.026981788588543103,0.07466823601862416,0.003108530450352278,69628.30897168115
1681260098148682355,151,1681260098148682355,camera_1,152,0,-0.031807462279285305,-0.06699956815546035,1.5539170932816597,0.9995212425028808,0.012451953104543806,0.005955892066557864,0.027690467657142347,0.0798075437778607,0.0033229239976118896,69605.37830204703
1681260098158589124,152,1681260098158589124,camera_1,153,0,-0.03180057523663973,-0.06736859419169566,1.553945518993735,0.9996247540482823,0.0124750703270448,0.004810189687602926,0.023907860410663492,0.06564683897886425,0.0027333320427685207,69626.48785794523
1681260098168610572,153,1681260098168610572,camera_1,154,0,-0.03179791579115189,-0.06764952422438021,1.5535190687704319,0.9994812495115695,0.012493865314854713,0.0076326737910714934,0.02868584136965883,0.06061953026801348,0.002523218141433344,69623.23223354573
1681260098178926229,154,1681260098178926229,camera_1,155,0,-0.03180564534779409,-0.06745204511403051,1.553510301433399,0.9994746017421458,0.012571676476563997,0.008557718358965615,0.02862234929973816,0.061034549900796264,0.00254017672494094,69622.8682298751
1681260098188961029,155,1681260098188961029,camera_1,156,0,-0.03182626213381926,-0.06705511368695798,1.5538606941559028,0.9995260202494114,0.012546982476583621,0.006484393458944952,0.0273543546181451,0.06102628790540621,0.002541090900687359,69610.41291144941
1681260098198920726,156,1681260098198920726,camera_1,157,0,-0.03182405655629013,-0.06698336221295408,1.5535480590814827,0.9994950674520127,0.012493495861443096,0.008132049185494747,0.028060514540928855,0.06283576472196728,0.0026153305492369818,69628.60938862595
1681260098208974599,157,1681260098208974599,camera_1,158,0,-0.031800276869631855,-0.06736014064395082,1.5538425012898585,0.9995775024721039,0.012499468271581634,0.005714775305394652,0.025610958353174926,0.07449359685415402,0.0031011729185056723,69623.17742113945
1681260098218913316,158,1681260098218913316,camera_1,159,0,-0.031721336976467396,-0.06748454219786003,1.5538434382024473,0.9995996484536493,0.012121910667703097,-0.01730532914141973,-0.018818280378720516,0.0701259586494416,0.0029195425856435495,69616.3755447437
1681260098228797197,159,1681260098228797197,camera_1,160,0,-0.031803648652400984,-0.06745714863448739,1.5534386585286717,0.9994823690470948,0.012422903950597827,0.007372674456926953,0.028745592580316184,0.0746079582022503,0.0031046800505666063,69632.37363915061
1681260098238570928,160,1681260098238570928,camera_1,161,0,-0.031833443677736176,-0.06705157062662566,1.5539951699958545,0.9995582447897372,0.012524805551422285,0.007386556437821149,0.025920711848825394,0.05724969954462722,0.0023841485852799413,69604.88503267754
1681260098248641014,161,1681260098248641014,camera_1,162,0,-0.03181450330976176,-0.06700060960692603,1.5538917017456249,0.9995733706562021,0.01242575582647989,0.006859305641665189,0.025526989506277832,0.06706347980070859,0.0027921467465896093,69618.72097213309
1681260098258584976,162,1681260098258584976,camera_1,163,0,-0.03179799192839163,-0.06735226316596025,1.5539180150272511,0.9996012742064195,0.012459608289181757,0.005269140612905565,0.024784812353214225,0.0709155626827851,0.0029526596054581444,69622.79068181336
1681260098268592596,163,1681260098268592596,camera_1,164,0,-0.03179106238616032,-0.06763777114943667,1.55387604060323,0.9996148400711088,0.012369626752055732,0.0057035887770945206,0.02417918358192202,0.06841795035870746,0.0028488533813328266,69626.63945097626
1681260098278598070,164,1681260098278598070,camera_1,165,0,-0.03178698314094883,-0.06745769057503842,1.5533899032579876,0.9994774392769815,0.01249755995570763,0.0062255016784102755,0.029153087320783085,0.07385022490052506,0.003073148408191648,69637.45153155563
1681260098288548946,165,1681260098288548946,camera_1,166,0,-0.03181628841771483,-0.06705762946737427,1.5541199791038083,0.9996057378881678,0.012386699816254497,0.0049848595725044695,0.024699992383726818,0.0626192184863612,0.002607971104510483,69608.3450373622
1681260098298561811,166,1681260098298561811,camera_1,167,0,-0.031816968437805064,-0.06698957877090937,1.553705150350875,0.9995597396374513,0.012391306278636632,0.00725826476965154,0.02596343615844096,0.06758372497279197,0.0028131916480770226,69631.33256888649
1681260098308562278,167,1681260098308562278,camera_1,168,0,-0.03173218368141845,-0.06721894471834405,1.5540490250108847,0.9996548197466807,0.0121185757275603,-0.016545705782157423,-0.01642014310951705,0.0698174244025722,0.0029073308471461562,69615.60049460584
1681260098318567276,168,1681260098318567276,camera_1,169,0,-0.03178668284872849,-0.06763066104021995,1.5537888752230242,0.9995641471160976,0.012355902373195726,0.006590567419112012,0.02598868787966185,0.06633972650161013,0.0027619339118828213,69620.93840222796
1681260098328830242,169,1681260098328830242,camera_1,170,0,-0.03181188782734267,-0.06744720599628554,1.5539983056717444,0.9996400302788617,0.012441949928754952,0.006196706575335404,0.02294795358339866,0.0541116128442809,0.0022531035924666853,69622.66312638775
1681260098338551282,170,1681260098338551282,camera_1,171,0,-0.03182409202780706,-0.06706400975203074,1.5537918765317746,0.9994939161753875,0.012448851864754445,0.0076606795254716845,0.028253346790159287,0.06545954890316352,0.0027254374431427445,69606.68057010397
1681260098348551273,171,1681260098348551273,camera_1,172,0,-0.03182255089355757,-0.06700363325402686,1.5540753365990858,0.9996302833273383,0.012437268186804129,0.0052529319511225615,0.023601222868146445,0.06193510943558067,0.0025790994860731835,69618.25406914135
1681260098358532667,172,1681260098358532667,camera_1,173,0,-0.03180124166584578,-0.06735609580982381,1.5538091269646275,0.9995831403769299,0.012443332698859416,0.005204628815563498,0.02552686397568069,0.06125226814765483,0.0025500431028430194,69628.02685691825
1681260098368558645,173,1681260098368558645,camera_1,174,0,-0.03180041019809519,-0.0676306671487141,1.55356761367152,0.9995363577345088,0.012438276995728218,0.00844649032868247,0.02647669981959544,0.057005863811355084,0.002372770728826263,69631.1742294197
1681260098378599643,174,1681260098378599643,camera_1,175,0,-0.03180186795034005,-0.06743503220939147,1.55377701552294,0.999576897582183,0.012452812512494077,0.006442265031146279,0.02548431874261209,0.06826749868923798,0.002841975456238437,69627.02959472037
1681260098388657331,175,1681260098388657331,camera_1,176,0,-0.03181629320870192,-0.06705349804753019,1.5539293776085195,0.9995753719384316,0.012418619532382559,0.005150272700277361,0.025852048161968504,0.07424906024243683,0.0030916345458818764,69617.84827229042
1681260098398545265,176,1681260098398545265,camera_1,177,0,-0.031822922280205244,-0.06698391528519472,1.5538795920145878,0.9996529353442543,0.012410579215718347,0.005782302172193132,0.022506695953340927,0.06030627526342869,0.0025106877519982056,69640.20981677668
1681260098408674478,177,1681260098408674478,camera_1,178,0,-0.03180029079957956,-0.06737253303473105,1.5538938610578157,0.9995591016398903,0.012388620770387803,0.005486214939458369,0.02642017883931148,0.07264757278608158,0.003024618735565478,69614.08021598973
1681260098418586730,178,1681260098418586730,camera_1,179,0,-0.031791266761539205,-0.06763308745982832,1.5534878807797161,0.9994917802326015,0.012455910187562483,0.007779810897949491,0.028293216346977488,0.07176364527549595,0.002986752893763882,69628.46634672559
1681260098428573608,179,1681260098428573608,camera_1,180,0,-0.03179516956854975,-0.06744428301453571,1.5535889138349483,0.9995104174893188,0.012454547487485612,0.0071889131018103266,0.027787211188318058,0.07408205844694749,0.0030831909468582437,69626.47646008688
1681260098438596725,180,1681260098438596725,camera_1,181,0,-0.0318208402855627,-0.06705004624566724,1.5538822137514858,0.9995563702619575,0.012364960177244783,0.006661976904881315,0.026263824783808305,0.06538487406214699,0.002722461488593376,69615.13506306752
1681260098448742151,181,1681260098448742151,camera_1,182,0,-0.03182350418528177,-0.06699557782794016,1.5539566199695243,0.999594045480287,0.012370117209848932,0.006982344830110873,0.024697597074250167,0.06390621804166585,0.0026608448390523405,69617.53299703053
1681260098458605289,182,1681260098458605289,camera_1,183,0,-0.03180191768496303,-0.06736578677850254,1.5539666308978837,0.9995795961322511,0.01239445357931709,0.006138152032579093,0.025481985915175035,0.06907818437321112,0.00287623719151927,69611.7343942963
1681260098468981027,183,1681260098468981027,camera_1,184,0,-0.031788449277551985,-0.06761950473280724,1.5533664446151136,0.9994804048124701,0.012413639745963698,0.008325843674565793,0.028557000389832853,0.08258856198517606,0.003436513395378563,69635.66003032934
1681260098478570222,184,1681260098478570222,camera_1,185,0,-0.03179748193924943,-0.0674429577631,1.5537955816769475,0.9995387912109419,0.012480931346275065,0.005618527095987339,0.027108363480118507,0.06587917701108381,0.0027429113299440888,69617.37853850232
1681260098488737106,185,1681260098488737106,camera_1,186,0,-0.031827590863347306,-0.06704791571709989,1.5537869789465486,0.9995484047856664,0.012412156385949056,0.007118800296845372,0.026424374100703533,0.0639123233850114,0.002660784274609221,69621.07422297218
1681260098498733997,186,1681260098498733997,camera_1,187,0,-0.031816340065721996,-0.06699496806118113,1.5538868123691667,0.9995734374770767,0.012500391564960774,0.005961450549092586,0.025712728527599742,0.07382642070297152,0.003073715756426552,69620.71576700092
1681260098508771657,187,1681260098508771657,camera_1,188,0,-0.03172434415829845,-0.06722219965659293,1.5538695413094339,0.999622563569748,0.012169028412297944,-0.017355418490664493,-0.017476687293642663,0.08003406447824091,0.0033319274814783643,69622.8634944649
1681260098518751144,188,1681260098518751144,camera_1,189,0,-0.031795234192889744,-0.06762689414140038,1.5537556037733886,0.9995596094583216,0.012388873683796377,0.007498864519672349,0.025901157875480002,0.08123535470804201,0.0033817424764960293,69621.5536903583
1681260098528579235,189,1681260098528579235,camera_1,190,0,-0.03181008830717582,-0.06744125305583563,1.5540326453672653,0.9996197953319319,0.012431094655429206,0.006210380943660772,0.023815201757473193,0.0696331555955112,0.0028994433812244954,69614.85948642807
1681260098538588762,190,1681260098538588762,camera_1,191,0,-0.031812547677407224,-0.06704365560520814,1.553611784614616,0.9994981008412068,0.012458710883156745,0.006819114530695347,0.02831654313237924,0.06750559090869501,0.0028100200800514176,69625.12656614637
1681260098548720598,191,1681260098548720598,camera_1,192,0,-0.031827750903625635,-0.06700835123987639,1.5540045266085392,0.9996109657278812,0.01249160959448159,0.006780195839441486,0.02399803805919951,0.05218756519025192,0.0021732127202161076,69617.8096659049
1681260098558544874,192,1681260098558544874,camera_1,193,0,-0.031778956405335554,-0.06735565474851857,1.5547944588796618,0.999841683593729,0.012345929089266159,-0.005784679186001778,0.011433427749162178,0.08355491497786716,0.0034810514680863425,69614.43296133762
1681260098568559408,193,1681260098568559408,camera_1,194,0,-0.03179749327047139,-0.06763535553150292,1.5539030686994861,0.9995776125620641,0.012366801543858765,0.006403860285641544,0.0255078273818219,0.06975133332889526,0.0029041920010897423,69614.2752011429
1681260098578534841,194,1681260098578534841,camera_1,195,0,-0.03180351629989032,-0.06744119076981561,1.5537392923264963,0.9995256533509594,0.012550091821859052,0.006367977549701016,0.027393655296936156,0.0724482067162171,0.003016010042780032,69618.29943650437
1681260098588623285,195,1681260098588623285,camera_1,196,0,-0.031827684612602325,-0.067039893761259,1.5537086792271475,0.9995155247121216,0.012408875864188403,0.008483654206204495,0.027253683614317556,0.06519656290765852,0.002713977191345952,69618.1109703597
1681260098598543167,196,1681260098598543167,camera_1,197,0,-0.03182171308626884,-0.06698765601105718,1.5538407496328766,0.9995876994397755,0.012440773275078925,0.006533804506108341,0.025039322828122462,0.0691278275917284,0.0028779007547058864,69627.20764207575
1681260098608517646,197,1681260098608517646,camera_1,198,0,-0.03179991217099771,-0.06737316026037722,1.5538541400371881,0.9995721658298952,0.012457335120596918,0.006841924134423457,0.025563414755555246,0.05682318564504385,0.0023657995724041237,69619.0063231705
1681260098618540525,198,1681260098618540525,camera_1,199,0,-0.031789610487110445,-0.06763944847047411,1.5538720986592176,0.9996332429571527,0.01233472734138128,0.0055022252340961595,0.023472528492969696,0.06841072102542967,0.0028481547713203118,69631.5753820632
1681260098628523111,199,1681260098628523111,camera_1,200,0,-0.031804785730033244,-0.06744664150735853,1.5537669018216262,0.999546834444835,0.012552459020837705,0.0066077449232894376,0.02654993843436705,0.05676039686659351,0.002363008533138784,69620.57842347352
1681260098638603210,200,1681260098638603210,camera_1,201,0,-0.03182622904647471,-0.06703675430511748,1.5540789267913881,0.9996166590023873,0.012422122324344692,0.0066237033479692375,0.02384014420724604,0.06405149382771924,0.0026673760910060295,69612.42036491763
1681260098648610115,201,1681260098648610115,camera_1,202,0,-0.03181893948420379,-0.06698862247631655,1.5538365825377711,0.9996118253698465,0.012411570582697172,0.006635451218136126,0.024044173588752993,0.049503550748340786,0.0020609930711041015,69633.06373471486
1681260098658617019,202,1681260098658617019,camera_1,203,0,-0.03180394056129937,-0.06735147659567116,1.553474088161842,0.9994814318900446,0.012449439112929787,0.007233450079037033,0.02880201334549084,0.08172097068745643,0.0034009369307416953,69630.18518348623
1681260098668568611,203,1681260098668568611,camera_1,204,0,-0.031804138813988116,-0.06764932034853871,1.5536545908649133,0.9995384047425957,0.01247292469744395,0.008140406631006328,0.02647899873485604,0.0660311130923219,0.0027484744559172158,69624.3743538399
1681260098678928136,204,1681260098678928136,camera_1,205,0,-0.03178097328259498,-0.06743080144720191,1.5535348329710956,0.9995390640012337,0.012416279577354765,0.005257179608321946,0.0272003235194098,0.07699774514185265,0.0032043789852778844,69641.05825892815
1681260098688628673,205,1681260098688628673,camera_1,206,0,-0.031819064585611845,-0.06704730894212405,1.55394550040694,0.9995973636943417,0.01242402153519238,0.006494159507568287,0.024669415811999877,0.051688008359633386,0.002152247928903098,69619.7823816392
1681260098698652505,206,1681260098698652505,camera_1,207,0,-0.03182157804379552,-0.06698357809652004,1.5536899092034873,0.9995693067286071,0.012419777540273836,0.007160671908241725,0.025606150623714116,0.06113164173439145,0.0025445695401934147,69635.19677768575
1681260098708948135,207,1681260098708948135,camera_1,208,0,-0.03179953454210177,-0.06735164388700478,1.5537718385194619,0.9995747864502763,0.012432586365177556,0.006512703537562032,0.025558986321622117,0.05414822709280998,0.0022542476416344014,69627.48180412874
1681260098718600988,208,1681260098718600988,camera_1,209,0,-0.031801222256362685,-0.06762584289896797,1.5537445973061486,0.9996831219725397,0.012341056207040717,0.0067381320977556464,0.020879452836806422,0.05152979918057099,0.0021449074486477983,69652.8629384275
1681260098728598594,209,1681260098728598594,camera_1,210,0,-0.031812033971649736,-0.06743834661472842,1.5538249266313138,0.9995859983128604,0.012449068188846328,0.007168319807890989,0.024929257294259943,0.08035661291796714,0.0033449040039210173,69623.8332994332
1681260098738894939,210,1681260098738894939,camera_1,211,0,-0.03180580471814691,-0.0670400556249408,1.5538437798800286,0.9995622215222296,0.012241829278776577,0.005069594604857623,0.02645377349258662,0.07470410043606535,0.003110462095573064,69622.042401616
1681260098748710155,211,1681260098748710155,camera_1,212,0,-0.031825995336518774,-0.06699504593644116,1.5538552742639178,0.9995872403658077,0.01239860729542705,0.007371567343672439,0.024845189270775,0.053925507119856775,0.0022450994613119448,69624.3461015988
1681260098758621931,212,1681260098758621931,camera_1,213,0,-0.03180684970434545,-0.06735794886737408,1.5539254309543384,0.9996023959402369,0.012476715440181554,0.005829898839567066,0.024604753237598437,0.07219494564924389,0.003005805299132945,69621.55056141572
1681260098768663644,213,1681260098768663644,camera_1,214,0,-0.03178709264397257,-0.06763521782717212,1.5538454244095252,0.999636543974299,0.012399592763345122,0.005671374859560639,0.02325651645507098,0.06371922965627164,0.0026528882952109225,69634.71713435299
1681260098778592348,214,1681260098778592348,camera_1,215,0,-0.031725723106861024,-0.06731410368496935,1.5538804246720386,0.9996307913783825,0.01221477954649838,-0.017638243122880794,-0.016672506362195638,0.07766864931909367,0.0032334766519115043,69624.96579480104
1681260098788637876,215,1681260098788637876,camera_1,216,0,-0.031817468534006584,-0.06704108717346775,1.553612072007119,0.9994853734281985,0.01239036833946751,0.006933645508126373,0.028764416133038543,0.07002821192145349,0.0029150779898483347,69621.61927940615
1681260098798578500,216,1681260098798578500,camera_1,217,0,-0.03180772446526593,-0.06698078632513835,1.5537058512838955,0.999584698450137,0.012341007767277326,0.006022226866290449,0.025335014016328317,0.05975597753422335,0.002487359835102227,69639.0167700773
1681260098808602571,217,1681260098808602571,camera_1,218,0,-0.03179643769699851,-0.06735539817171218,1.5538794272040195,0.9995837566445813,0.01242026853016375,0.005588448539743737,0.02543264879763642,0.07329331192886457,0.0030513399146476993,69621.42728040484
1681260098818613529,218,1681260098818613529,camera_1,219,0,-0.03172560718300493,-0.06750505417056843,1.5539546731436753,0.9996372938567384,0.012082430723768979,-0.016279914944705733,-0.017727379049802396,0.0774586593033746,0.00322517542381842,69616.34524333311
1681260098828547000,219,1681260098828547000,camera_1,220,0,-0.03180949356135994,-0.06744257686539022,1.553525397091332,0.999532298640634,0.01247716126497692,0.007759853001119039,0.02681956566276635,0.06909706484293565,0.0028755725821637307,69636.54422771954
1681260098838578224,220,1681260098838578224,camera_1,221,0,-0.031823539458685116,-0.06705812410675442,1.5540452734778074,0.9995855284713702,0.012409218747773143,0.006734792232386117,0.02508834658298754,0.05587991792708636,0.0023270390390487516,69607.63364994815
1681260098848578453,221,1681260098848578453,camera_1,222,0,-0.031818044630778,-0.06698865545507496,1.5537898123625664,0.999585808970061,0.01241727590456187,0.007341428890543095,0.024902312876996333,0.06420396658359095,0.0026726270389367257,69630.03062806756
1681260098858574151,222,1681260098858574151,camera_1,223,0,-0.03179627263955641,-0.0673602610885116,1.5534009931146664,0.9994103175210163,0.012527774001741222,0.007539691332448082,0.031068073093037246,0.0649781659594737,0.0027043443413038923,69618.91737921689
1681260098868548631,223,1681260098868548631,camera_1,224,0,-0.03179782021246188,-0.06763166581432911,1.5539294848295213,0.9996189524790293,0.012383511276892396,0.006477935730211761,0.023804092964411952,0.05524336273083463,0.002300198176532797,69621.81722397017
1681260098878536701,224,1681260098878536701,camera_1,225,0,-0.03180608957203454,-0.06744670728297392,1.55378042688567,0.9995646248565019,0.012402172670023403,0.007457022937874155,0.02571263614349514,0.07743720838334411,0.0032234525265296423,69622.04536854231
1681260098888539552,225,1681260098888539552,camera_1,226,0,-0.0318165813357262,-0.06704992730096396,1.5539512502392192,0.9995781542648271,0.012439207187941764,0.004847526030588911,0.025793044264681243,0.071459767408669,0.002975820062551797,69617.07851301835
1681260098898514986,226,1681260098898514986,camera_1,227,0,-0.031813064547689666,-0.06696958376085442,1.5537308920338764,0.9995883319007441,0.012363706137207163,0.007759976633080554,0.02469996479946318,0.06765944918151945,0.0028162262868431194,69635.2622964466
1681260098908655166,227,1681260098908655166,camera_1,228,0,-0.031726372867165814,-0.06718570158989375,1.5536801388336114,0.9995440633670926,0.012212033876211306,-0.01778123147741211,-0.021127219962755066,0.08775797591079025,0.0036531570247468545,69615.61573584555
1681260098918571233,228,1681260098918571233,camera_1,229,0,-0.03178791310051162,-0.06761784421831829,1.5537957413379997,0.9996157111945009,0.012359549101136165,0.005442814513323945,0.024208412779493167,0.06699672224931419,0.0027891825015236814,69634.47551607108
