%time,field.header.seq,field.header.stamp,field.header.frame_id,field.image_seq,field.transforms0.fiducial_id,field.transforms0.transform.translation.x,field.transforms0.transform.translation.y,field.transforms0.transform.translation.z,field.transforms0.transform.rotation.x,field.transforms0.transform.rotation.y,field.transforms0.transform.rotation.z,field.transforms0.transform.rotation.w,field.transforms0.image_error,field.transforms0.object_error,field.transforms0.fiducial_area
1681927843075206041,0,1681927843075206041,camera_1,1,0,0.6614678023176463,0.48607138807012873,1.817611067251886,-0.9796558505609805,-0.04535724466852251,0.1588988486058264,0.11387840326183203,0.0765121019212529,0.007211630251399205,20514.225239453837
1681927843085215568,1,1681927843085215568,camera_1,2,0,0.6614406595615223,0.48600716851574804,1.8175216618484418,-0.9796554624585038,-0.04539499423944625,0.15875771350754592,0.11406339366804748,0.07325166929513216,0.006903390554814919,20516.70979939821
1681927843094885349,2,1681927843094885349,camera_1,3,0,0.6617617824209393,0.48659256736500384,1.8184188222403643,-0.9798374149718202,-0.04520787659334827,0.1580859272490221,0.11350650959781358,0.06784617126686499,0.006400630073386465,20510.492578999718
1681927843104909658,3,1681927843104909658,camera_1,4,0,0.6616343959193629,0.4871170612869009,1.818128300639767,-0.9797979026776104,-0.04527476281570696,0.15796254356165934,0.11399166895904454,0.07247668068157509,0.00683564803254674,20509.9335766906
1681927843114886045,4,1681927843114886045,camera_1,5,0,0.6618125284602749,0.487970177824499,1.8186775932966048,-0.9798564256101089,-0.04511987172327095,0.1581406128810581,0.11330105438106107,0.07516838418086991,0.00709523469199651,20497.347319526605
1681927843124996662,5,1681927843124996662,camera_1,6,0,0.6616029526505134,0.48841211167867554,1.8180942364682762,-0.979754182672696,-0.04543882835458771,0.15838317264609003,0.11371818252011733,0.05690653354395181,0.005368353143550004,20498.1410741281
1681927843134899616,6,1681927843134899616,camera_1,7,0,0.6613490901330815,0.48855809062198335,1.8174296930751013,-0.9796982494604983,-0.045138611325167985,0.15899507460401147,0.11346546621477235,0.07142079685581848,0.006733703696915469,20503.97647746373
1681927843144912242,7,1681927843144912242,camera_1,8,0,0.661568030076128,0.4886549550611034,1.8180245261706478,-0.9797697971698827,-0.04525189045960817,0.15835726849066037,0.1136942675762312,0.06438895524479449,0.006074120910053194,20498.618178907192
1681927843154956102,8,1681927843154956102,camera_1,9,0,0.6615283807841947,0.4881689671077044,1.8178970742824376,-0.9797159258777935,-0.04540001721086608,0.15851886034819987,0.1138741144096363,0.0588067946373485,0.005546214556656975,20500.217193095596
1681927843165056467,9,1681927843165056467,camera_1,10,0,0.6615098749963683,0.4874921773728878,1.8178178112554713,-0.9796986214872718,-0.04529440801846637,0.15882050649268184,0.11364450877892766,0.06488337344489992,0.006118410438097645,20504.155313445957
1681927843174919128,10,1681927843174919128,camera_1,11,0,0.6615023032354391,0.48675686122016026,1.8176449063928404,-0.9797150726042378,-0.045282721058693125,0.15825630901392207,0.11429257343713711,0.07290752686094493,0.006872448190762484,20514.131067992414
1681927843185207128,11,1681927843185207128,camera_1,12,0,0.6615830523718687,0.486321074452238,1.8179529970966297,-0.979832846099452,-0.045135812015267195,0.1578951993153732,0.11383961617788772,0.06629293895093724,0.006250422833338954,20521.65868450259
1681927843195223331,12,1681927843195223331,camera_1,13,0,0.661529913565945,0.4860691962835377,1.8177234239635942,-0.9797581102751652,-0.045213720575039175,0.15814640868465268,0.11410292827945359,0.08076243026880547,0.007612695307009065,20521.016901026487
1681927843205191373,13,1681927843205191373,camera_1,14,0,0.6616563918121928,0.48638854208486354,1.8181438481676013,-0.9798187781873341,-0.04518565184559024,0.15806322132454934,0.1137076815491182,0.0760542779462412,0.007172562922523622,20515.909613803262
1681927843214937925,14,1681927843214937925,camera_1,15,0,0.661613131400182,0.48685065925971055,1.818044215836129,-0.9797939612561194,-0.04533117532717943,0.157911572114684,0.11407371924228431,0.07711263152305037,0.007271874300642136,20513.311983453586
1681927843225011825,15,1681927843225011825,camera_1,16,0,0.6614816523178473,0.48742679586373366,1.8176281418469393,-0.9797092244335762,-0.04526792275231201,0.15875309961761233,0.11365783779067597,0.0879507142235525,0.008292224076212645,20508.7719018415
1681927843234996080,16,1681927843234996080,camera_1,17,0,0.661396136968955,0.48807774419067435,1.8175272684431325,-0.9796583536466308,-0.04546248518580483,0.15858779124824046,0.11424791043212928,0.06106461107265205,0.005756665661435076,20503.4619867492
1681927843244949817,17,1681927843244949817,camera_1,18,0,0.6615684682361553,0.48864210497080685,1.818061072765516,-0.9798107743046891,-0.045086562624008196,0.15850127211336654,0.11320510220675489,0.06614853825885803,0.006240679388356847,20501.016211191545
1681927843254947900,18,1681927843254947900,camera_1,19,0,0.661537125368596,0.4886610256294118,1.8179626480091797,-0.9798370158462097,-0.0451710609014341,0.1581332865149307,0.11345863268443013,0.06282349122921005,0.005926065993582431,20505.922394101628
1681927843264933824,19,1681927843264933824,camera_1,20,0,0.6615893610291187,0.4883727735021128,1.8180767545329042,-0.9797916442698564,-0.045346561597928436,0.15786467988577355,0.11415238067941855,0.07045926002319902,0.00664630893790248,20502.307284155635
1681927843274987936,20,1681927843274987936,camera_1,21,0,0.6616059867323626,0.4877757773188972,1.818020538359306,-0.979778362052642,-0.045163264370409476,0.1586799217701437,0.11320478449196238,0.08376066276105121,0.00790113004676988,20504.395810949034
1681927843285433292,21,1681927843285433292,camera_1,22,0,0.6616164488992935,0.48706269967630844,1.8180738934083756,-0.979748708598386,-0.04533871962277516,0.1582768756604213,0.11395305671169141,0.07387460488826036,0.00696722625089485,20506.905813074438
1681927843295433998,22,1681927843295433998,camera_1,23,0,0.6617006899492637,0.486523877957508,1.8182511689020386,-0.9798482026725579,-0.04508131657859986,0.15789386668927563,0.1137308290517896,0.08225160127039999,0.007758081731720963,20515.038193124463
1681927843305322170,23,1681927843305322170,camera_1,24,0,0.6613263432104516,0.4859750338087344,1.81720513652,-0.9796873783074669,-0.04524080716032317,0.15864986904848466,0.1140005666802735,0.07543424417963251,0.007106709208799856,20525.82050321578
1681927843315427303,24,1681927843315427303,camera_1,25,0,0.6614162742360045,0.48613646991188714,1.817473627719182,-0.9797312894540532,-0.045289530238408884,0.1584921693768956,0.11382306954957715,0.07354788255179301,0.006931124059831659,20523.56757167657
1681927843325358867,25,1681927843325358867,camera_1,26,0,0.6617235767794682,0.4867722806028484,1.8183064898467014,-0.9798575655251673,-0.04514723770279861,0.15799528830891418,0.11348289334997862,0.07776627986459062,0.007335953705210731,20513.130010946417
1681927843335515737,26,1681927843335515737,camera_1,27,0,0.6614148060604834,0.4872709949386671,1.8175324262063668,-0.9796894508275115,-0.04524266491081302,0.15870789337450686,0.1139012106594261,0.07945580669911578,0.007489971957865484,20510.47590981715
1681927843345190048,27,1681927843345190048,camera_1,28,0,0.6615975536232784,0.48806237370224903,1.8180671687904668,-0.9797945083662645,-0.045145574309620205,0.15822085562704535,0.11371349673724133,0.06618855480337515,0.0062434794162522815,20503.642607430695
1681927843355234146,28,1681927843355234146,camera_1,29,0,0.661603514911153,0.4885583580030109,1.8181012749789476,-0.9797590336359928,-0.0452667644442935,0.1585075803734371,0.11357157659189601,0.06297215766971931,0.00594097961489342,20496.56283273571
1681927843365124464,29,1681927843365124464,camera_1,30,0,0.6616271661684539,0.48873123901826754,1.8182236042102,-0.9798130380781377,-0.045165688511535296,0.15848101402529977,0.11318232718442307,0.06703876872779801,0.006325855665276518,20497.549836496473
1681927843375088930,30,1681927843375088930,camera_1,31,0,0.6615328049523055,0.4883932240178762,1.817922051518305,-0.9797665805041329,-0.04540656752492679,0.15793250480459303,0.11424979334331489,0.06727371428860351,0.006344750977474634,20503.302016005266
1681927843385055065,31,1681927843385055065,camera_1,32,0,0.6615580972734844,0.4877984042113116,1.8179399460608048,-0.9798036644775058,-0.04520727171873181,0.15845737233280502,0.11327993120400041,0.07368424214655535,0.006949746944471948,20508.833825031765
1681927843395075798,32,1681927843395075798,camera_1,33,0,0.66140669019866,0.4870132370672261,1.8174611560688136,-0.979720824080062,-0.04515140292990586,0.15840089485105924,0.11409475968566299,0.07602056139148772,0.007165018735951325,20516.32896639045
1681927843405111551,33,1681927843405111551,camera_1,34,0,0.6616978896452855,0.48661697860278896,1.8182449880747407,-0.9798173774979559,-0.04505372661826379,0.15856410432388032,0.11307295561185451,0.06664222705876455,0.006286429081175363,20511.02075256651
1681927843415075778,34,1681927843415075778,camera_1,35,0,0.6615932921498952,0.48623948700591213,1.8179657591323213,-0.9798176706212526,-0.04524180429596234,0.15813730534505094,0.11359183131103451,0.08091496676206589,0.007629503637074811,20520.611333593843
1681927843424978494,35,1681927843424978494,camera_1,36,0,0.6614864058127806,0.48618714783686917,1.8176622399747242,-0.9797282116825574,-0.04526199403464078,0.15857475496126203,0.11374546240743771,0.06745063292328268,0.006357885235301982,20518.850786932046
1681927843434923171,36,1681927843434923171,camera_1,37,0,0.6616594612700131,0.4867101396937951,1.8181346697350385,-0.979857493326613,-0.04513615610545513,0.15823262449691505,0.11315677941921587,0.07655508042080328,0.007220644780011314,20516.838645319807
1681927843445036172,37,1681927843445036172,camera_1,38,0,0.6614433778569896,0.4872176174206262,1.8176128069495112,-0.979705875426592,-0.045167995513255496,0.1589059805413522,0.11351272696980286,0.07126977253938094,0.006719083430433053,20510.238036832772
1681927843454953193,38,1681927843454953193,camera_1,39,0,0.6616631423289224,0.4880079218950788,1.8182165490614388,-0.9797969696937081,-0.04522258798083335,0.15829657520213825,0.11355619751742418,0.07033842231612653,0.006636086231741341,20501.27365619597
1681927843465253591,39,1681927843465253591,camera_1,40,0,0.6615964858338707,0.48849310691005726,1.8181062673841748,-0.9797524573475948,-0.04522227718953659,0.1587031522663395,0.11337273670450727,0.0653873096453026,0.006168998232029584,20496.061651941738
1681927843474888563,40,1681927843474888563,camera_1,41,0,0.6617218403762061,0.4887290420964108,1.8184358557846967,-0.9798346060776529,-0.045096596838677186,0.15839481558817012,0.11314382033947014,0.0648537534289062,0.006121052755179554,20494.74142849376
1681927843484874010,41,1681927843484874010,camera_1,42,0,0.6614505394900583,0.48831544576865527,1.8176647813873523,-0.9797426818696787,-0.045295239819093246,0.15845223692480956,0.11377832476383387,0.06770709680859,0.00638438572893957,20505.867541806998
1681927843494917392,42,1681927843494917392,camera_1,43,0,0.6617610380364941,0.4879839590452272,1.8184795192937688,-0.9798669534520807,-0.04504390062313704,0.15806165096077462,0.11335040822487086,0.07708820106927307,0.007274982836239539,20501.755513341282
1681927843504913091,43,1681927843504913091,camera_1,44,0,0.6616204026203898,0.4872200398277969,1.818107981691812,-0.9798093754415769,-0.04526683604417201,0.15789591217905663,0.11398851814319123,0.0684073690790683,0.006451747276876784,20510.81547705573
1681927843514930248,44,1681927843514930248,camera_1,45,0,0.661690158213396,0.486654627099352,1.8182473486912727,-0.9798667432925032,-0.045143639822929134,0.15808744856270632,0.1132765455856372,0.07815394934732467,0.007372063696589846,20516.044526110178
1681927843524972438,45,1681927843524972438,camera_1,46,0,0.6615937240139371,0.48627705828101314,1.8179816574977006,-0.9798606395400042,-0.04529357210119522,0.1579097349405115,0.1135171133247553,0.07563515257788822,0.007131683919283085,20524.41919396584
1681927843534900903,46,1681927843534900903,camera_1,47,0,0.661601703291753,0.48631572595317946,1.8179604473531135,-0.9798180293874502,-0.045265530724640686,0.15825117548389817,0.11342057341362226,0.06916084920521826,0.006521343852968726,20520.113281965736
1681927843544974088,47,1681927843544974088,camera_1,48,0,0.6615748366217669,0.48666186119347743,1.8179002332556256,-0.9798119945068863,-0.04515336311376167,0.15823252684723932,0.11354336910402217,0.07079478347441182,0.006675350190865948,20518.011094446534
1681927843554992198,48,1681927843554992198,camera_1,49,0,0.6614006147609816,0.4871935947483979,1.817486659347716,-0.9796581266476445,-0.04534916215755147,0.15856809169485178,0.11432221429402581,0.08840469445567578,0.00833271023397752,20509.6030128767
1681927843564872264,49,1681927843564872264,camera_1,50,0,0.6614685422863055,0.48786241605366826,1.8177043462151545,-0.9797933422088572,-0.045193827820361125,0.1583411835811749,0.11353675207726267,0.074608146736864,0.007035007606934532,20512.41917733242
1681927843574913024,50,1681927843574913024,camera_1,51,0,0.6615370688445497,0.4884142352369843,1.817903364988482,-0.9797513949002453,-0.04529077128123276,0.15851747540403954,0.11361408459915708,0.06828475336078554,0.006440715698522094,20500.956376296817
1681927843584920406,51,1681927843584920406,camera_1,52,0,0.6615133887149524,0.4885547268994167,1.8178948641412094,-0.9797548964935087,-0.04512303482173058,0.15881590887575942,0.11323321780042027,0.06571593426633626,0.006198838242835252,20499.757157553213
1681927843594941854,52,1681927843594941854,camera_1,53,0,0.6616090102525756,0.4883521226893817,1.8180762007195839,-0.9797579541729793,-0.04531194822618448,0.1581056234813927,0.11412182265581773,0.07481263543013483,0.007057176172721885,20498.784810942707
1681927843604998588,53,1681927843604998588,camera_1,54,0,0.6616493560483484,0.4878403655802668,1.8181714430941618,-0.9798580510691565,-0.04513402263205864,0.15834799557611126,0.11299129193451629,0.08471920975716785,0.007992837186149243,20508.342357960762
1681927843614988327,54,1681927843614988327,camera_1,55,0,0.6617674990312589,0.4873021005229167,1.8184792594933281,-0.9798521585405959,-0.04508242493816856,0.15808073111233636,0.11343634697934589,0.08759946515783668,0.008265987544328076,20505.227569492763
1681927843624953746,55,1681927843624953746,camera_1,56,0,0.6617860523289345,0.48669843458700734,1.8184983254233866,-0.9798953775345391,-0.04511815077525801,0.15789635839489444,0.11330552308998634,0.07008318969747052,0.006612394674532202,20513.218161382712
1681927843635314464,56,1681927843635314464,camera_1,57,0,0.6614926801904493,0.48621492597698657,1.8176985981038352,-0.9797565970402642,-0.04516788453770145,0.1588318043170546,0.11317831373482731,0.07236109272344038,0.006821544201009653,20519.92082198802
1681927843645384550,57,1681927843645384550,camera_1,58,0,0.6616917433082361,0.4864241760766096,1.8181946200031645,-0.9798356684881364,-0.045158060981802584,0.15800100529277442,0.11365955574980685,0.07757551356917247,0.007316544498641853,20515.84353684739
1681927843655262231,58,1681927843655262231,camera_1,59,0,0.6616018939177198,0.4867695896997589,1.8179564740384955,-0.9797809883573009,-0.04527399361001566,0.15840094681207875,0.11352805999059434,0.07515936077106744,0.007087587969494587,20513.516950322537
1681927843664955854,59,1681927843664955854,camera_1,60,0,0.6614701899968926,0.48730740726776023,1.8176554212128044,-0.9797003828297592,-0.04535869599747681,0.1587065016023093,0.11376288907103196,0.08630519482539967,0.008136920607828163,20508.955397070742
1681927843675052404,60,1681927843675052404,camera_1,61,0,0.66166705473317,0.48807900837485424,1.8182189050070081,-0.9797762209162282,-0.045159356290841515,0.1583504651249548,0.11368517784312099,0.06687249371316284,0.0063091369973741224,20498.521952487063
1681927843685240983,61,1681927843685240983,camera_1,62,0,0.6615524422352281,0.48846148547823665,1.8179974644638217,-0.9797781763677766,-0.045271082494848375,0.15838244963279305,0.11357928442939971,0.06643075926695019,0.006266400108186664,20501.42815916752
1681927843695207357,62,1681927843695207357,camera_1,63,0,0.6615523462449046,0.48854791600028696,1.818020877532821,-0.9797846653253093,-0.045176807082401516,0.15816599110246735,0.11386213134218591,0.06999241065932438,0.006602390925117808,20500.836145401237
1681927843704908847,63,1681927843704908847,camera_1,64,0,0.6614785918298653,0.48816167806020533,1.8177422103576035,-0.9796755416017938,-0.04539431126999274,0.15850179520048777,0.11424697199391204,0.0721405825461261,0.006802565195921715,20499.623701247154
1681927843714949607,64,1681927843714949607,camera_1,65,0,0.6615471138612184,0.4876439385577155,1.8178662769549598,-0.9798008810050113,-0.045017588800958325,0.15861157697463452,0.11316367760890174,0.07352527731563896,0.0069342601626873,20510.069584248704
1681927843724969625,65,1681927843724969625,camera_1,66,0,0.6616117318875455,0.48706497198449183,1.8180489499448935,-0.9798053852377321,-0.0452243740163902,0.1579439729682917,0.11397308654658941,0.08283669361844659,0.007812158965421748,20512.305741654018
1681927843734894990,66,1681927843734894990,camera_1,67,0,0.6616302567582156,0.48651517416902673,1.81804916514547,-0.9798347778451991,-0.045086803177540206,0.1584283063749062,0.11309933706020632,0.063995148811955,0.00603527214286218,20517.596026072504
1681927843745289802,67,1681927843745289802,camera_1,68,0,0.6616523010029038,0.4863252214477369,1.8181235607045354,-0.9798029753192108,-0.045212567699789846,0.15858454388346382,0.11310568384872492,0.06583703047363088,0.0062093043346819225,20514.902472500922
1681927843755376338,68,1681927843755376338,camera_1,69,0,0.6617804602572054,0.4865773822904409,1.8184477150117753,-0.9798967568462978,-0.04502653013606202,0.15813259483918324,0.11300017679384619,0.09345805662451312,0.008817905148901486,20514.325984455412
1681927843765238523,69,1681927843765238523,camera_1,70,0,0.6615593231895319,0.48688826383481654,1.8178653740168402,-0.9797860695373135,-0.04517782309399993,0.15855018460505677,0.11331399385253467,0.074385880085174,0.007014329263830063,20514.626631639432
1681927843775319337,70,1681927843775319337,camera_1,71,0,0.6614734952130649,0.4874883389614032,1.8176985307195075,-0.9797380494614352,-0.04523925371297636,0.15880304462285189,0.1133505949675959,0.06271313049364835,0.005913173327993826,20509.912149614425
1681927843785293102,71,1681927843785293102,camera_1,72,0,0.6615208829827518,0.48809958636957235,1.8177989856955006,-0.9796995859149821,-0.04535643088827685,0.15809958979036845,0.11461254400460173,0.06978740863269195,0.006580622285966473,20501.053682836347
1681927843795337677,72,1681927843795337677,camera_1,73,0,0.6613755985419432,0.48834555281232267,1.8174701890835316,-0.9797219563196788,-0.045256201827296366,0.1585626964297698,0.11381843349049023,0.06212613789830357,0.005856950348768488,20507.61583519355
1681927843805258274,73,1681927843805258274,camera_1,74,0,0.6615767972818711,0.488465736963173,1.8180284306111032,-0.9797926454094921,-0.04531388871202282,0.15823771427267572,0.11363911858608773,0.06266510381828994,0.005911288147568936,20502.207154354543
1681927843815282344,74,1681927843815282344,camera_1,75,0,0.6614434947403358,0.4879769088907405,1.8176230580198496,-0.9797176799214947,-0.04521859312849106,0.1586301700181508,0.11377616465998643,0.0685484838904813,0.006463161044627362,20506.301488478668
1681927843825286865,75,1681927843825286865,camera_1,76,0,0.6615020245962733,0.48740203014397526,1.817758498541049,-0.979680941198539,-0.04519369083828102,0.15909918546337193,0.11344704908304208,0.0639013588661328,0.006025622605602691,20503.537452458404
1681927843834905862,76,1681927843834905862,camera_1,77,0,0.6614414143635597,0.48671920666165813,1.817583531910188,-0.9797277723173244,-0.045358618422856496,0.15870204773797966,0.1135330257179581,0.07469828275498003,0.0070413530638271755,20517.13520520472
1681927843844867467,77,1681927843844867467,camera_1,78,0,0.6616021971064577,0.4864192412645225,1.817977187641063,-0.979856008130093,-0.04505388069945075,0.15829612907709173,0.11311360079357208,0.069693329394795,0.006572027575579178,20521.63709810387
1681927843854845046,78,1681927843854845046,camera_1,79,0,0.6615904077480529,0.4863336119487058,1.8179338608209679,-0.9797911661775177,-0.045052240553522825,0.1588024184139618,0.11296618169826064,0.0768809987930581,0.007249832944774079,20516.710136386802
1681927843865000009,79,1681927843865000009,camera_1,80,0,0.6618365269067026,0.4867457896605264,1.81863287611925,-0.979861318653873,-0.04500939997870931,0.15838603926953626,0.11295934084421098,0.06613543879939243,0.006241282070898125,20506.114720462705
1681927843874964237,80,1681927843874964237,camera_1,81,0,0.6613900986841001,0.4869942809184539,1.8173997671937638,-0.9797153252579835,-0.04514686399615829,0.15850023730528262,0.1140057757314292,0.08134846517350525,0.007666849946272011,20517.011279962266
1681927843884893417,81,1681927843884893417,camera_1,82,0,0.661672178577049,0.4878580885277633,1.8182602139117545,-0.9798247490418975,-0.045137613291900164,0.15834330147151732,0.11328484413368692,0.06918479024898261,0.006527537613607833,20503.62218007643
1681927843894925594,82,1681927843894925594,camera_1,83,0,0.6615183432756865,0.48825893373379375,1.8178359928530947,-0.979682106806385,-0.04536481760234055,0.15808425627559464,0.11477966215798557,0.07011898758355528,0.006612190288429585,20497.8607923491
1681927843905258893,83,1681927843905258893,camera_1,84,0,0.6616127729141452,0.4885374767039494,1.8181758968600052,-0.979780889472675,-0.045249146344052665,0.15837691598965245,0.1135723375689472,0.06323021004209295,0.005965657213446997,20497.459887528792
1681927843914925336,84,1681927843914925336,camera_1,85,0,0.6614751352408786,0.4882436229690814,1.8177513279870177,-0.9797021944238279,-0.045327092091632,0.15863853150410182,0.11385464982105505,0.060800574836321175,0.005733541327829346,20501.044227453647
1681927843924904108,85,1681927843924904108,camera_1,86,0,0.6615218062017011,0.4877775455871584,1.817828213802131,-0.9797658628547268,-0.045170428755448286,0.158566175952673,0.11346917728761155,0.07475804426940158,0.007050143409383564,20507.555824754876
1681927843934931039,86,1681927843934931039,camera_1,87,0,0.6615646640888035,0.48717335593713346,1.817897093470744,-0.979783637498961,-0.04511042670453428,0.15808273561206523,0.11401281416246764,0.08443080284632742,0.007961527357038888,20511.974602919538
1681927843944942474,87,1681927843944942474,camera_1,88,0,0.661716282688915,0.4867170292618012,1.8182930671512791,-0.9798636810053594,-0.04517226257065655,0.15833276616796932,0.11294852145324479,0.08184400119353086,0.007721026581407698,20514.07393844984
1681927843954998016,88,1681927843954998016,camera_1,89,0,0.6615969309631896,0.48636059720413916,1.817954632901502,-0.9798384675892718,-0.04509131867844186,0.1580849247139223,0.11354517598885569,0.07840842026052997,0.007393278853795054,20521.201984320534
1681927843964932203,89,1681927843964932203,camera_1,90,0,0.6616391220511418,0.4864660081602665,1.8180490702232495,-0.9797962151879877,-0.04502928853085429,0.1588461457735784,0.11287002193044315,0.07821677817264572,0.007377013242162358,20513.58411395318
1681927843974952936,90,1681927843974952936,camera_1,91,0,0.6614293823525297,0.4867096698017438,1.8175514414262612,-0.9797274370764356,-0.045337417253809076,0.15850884591559541,0.11381394204094229,0.07241511030588299,0.006825595318213438,20517.974977414826
1681927843984909296,91,1681927843984909296,camera_1,92,0,0.6613822699967515,0.48731247546458345,1.8174064804510741,-0.9796882773197538,-0.0451533830611622,0.15888180550904699,0.11370410352564438,0.08042940881568938,0.00758111844585759,20511.948806572123
1681927843994894742,92,1681927843994894742,camera_1,93,0,0.6616507541186014,0.4880707373154586,1.8181836053925013,-0.9797805823083314,-0.045229732598917397,0.15830919663651616,0.11367708687716471,0.07419282651972026,0.006999538367155629,20500.012034332147
1681927844004923105,93,1681927844004923105,camera_1,94,0,0.6615912317443132,0.4884355340143907,1.8180565965836426,-0.9797570830834017,-0.04544624641596939,0.1582394084451342,0.11389023860514626,0.07904575241263956,0.007456660645998187,20499.030902583967
1681927844014902591,94,1681927844014902591,camera_1,95,0,0.6615663781313159,0.48841264098249004,1.8180006075810895,-0.9797523117655215,-0.04523674976054588,0.15841295715916798,0.11377336711772895,0.06173191190464422,0.005823044765692749,20499.057843086775
1681927844025297641,95,1681927844025297641,camera_1,96,0,0.6614215811227803,0.48795975809023184,1.8175799782660655,-0.9796936311410555,-0.0453376290154081,0.15872137373533768,0.11380867285265307,0.06577825348358601,0.0062016392828875945,20505.60393122048
1681927844034953832,96,1681927844034953832,camera_1,97,0,0.6614104647318568,0.4873679345664871,1.817508968831981,-0.9796777669458145,-0.04530806103992608,0.15909119092954044,0.11344005256295175,0.06640569207957014,0.006260089379931404,20509.108804686457
1681927844045005559,97,1681927844045005559,camera_1,98,0,0.6615238667309393,0.48682688141682345,1.8177605043945024,-0.9797628149202057,-0.04547134134922916,0.15812372929791985,0.11399153410870037,0.08087418612558395,0.007624517888254608,20516.691545927195
1681927844055242061,98,1681927844055242061,camera_1,99,0,0.6616071364430107,0.48646939072224393,1.8180110865713768,-0.979849320863263,-0.045173961926786736,0.15827694073859275,0.11315048209385459,0.06830785202328116,0.006441580113657981,20520.58107944066
1681927844065330982,99,1681927844065330982,camera_1,100,0,0.6616246262817058,0.4863949715291811,1.8180591715544183,-0.9798203698084043,-0.04516582103665214,0.15854693707017295,0.11302636977393288,0.07085093471687287,0.006681884614577053,20517.19138519152
1681927844074966192,100,1681927844074966192,camera_1,101,0,0.661758049519063,0.48674082077973463,1.818416989751665,-0.9799185777220892,-0.04518252225275091,0.1577372821214959,0.11330079676207461,0.0692904296447523,0.0065369931052511685,20517.107206047513
1681927844084906101,101,1681927844084906101,camera_1,102,0,0.6614109769908398,0.48704974761394954,1.8174701230935986,-0.9797005036652565,-0.045164352945315164,0.15862985656655945,0.1139459211501082,0.07590248988708481,0.007154228792496057,20513.853384768474
1681927844094888687,102,1681927844094888687,camera_1,103,0,0.6616996197120947,0.4878808706223883,1.8183259243488428,-0.979823205133109,-0.04513454876737335,0.15808729447649728,0.11365635272763407,0.07386982516618446,0.006969761632952326,20502.11650405998
1681927844104892969,103,1681927844104892969,camera_1,104,0,0.6614328278032684,0.48815440201097626,1.8176391081343362,-0.9796825348285524,-0.045439149095054136,0.15895529015085536,0.11353691212322653,0.05391788703855127,0.005084008936685185,20502.426257044768
1681927844115194320,104,1681927844115194320,camera_1,105,0,0.6615988744949376,0.48845280149334613,1.818100694906685,-0.979752661526094,-0.045183896482366134,0.15856552423171982,0.11357866109585003,0.058253499504644424,0.005495683172309849,20496.44697810768
1681927844124906063,105,1681927844124906063,camera_1,106,0,0.6615053781491264,0.48816543102018595,1.8178245573094385,-0.9796940718724931,-0.04537023189040016,0.15855855895320445,0.11401864311939831,0.06402252579573542,0.006037664554214754,20499.518814303214
1681927844134943962,106,1681927844134943962,camera_1,107,0,0.6616268337295815,0.487752880886936,1.818096576659511,-0.9798285639307548,-0.0450461773801676,0.1583226609549395,0.11331708713595104,0.07382485753623769,0.006964067792939144,20507.51376505941
1681927844144925594,107,1681927844144925594,camera_1,108,0,0.6617015561627683,0.4871925871421849,1.8183214614955394,-0.979839941054733,-0.04534940127525701,0.15781143195220007,0.11380981356205186,0.07341126957908273,0.006925313278301891,20509.669867519056
1681927844154882907,108,1681927844154882907,camera_1,109,0,0.6616208948763646,0.48659399963055044,1.817999647869219,-0.9798221313931591,-0.04508256193694873,0.15834649059680897,0.11332494146057491,0.07918727659853175,0.0074677207846080475,20516.776426365017
1681927844165280342,109,1681927844165280342,camera_1,110,0,0.6616451088964405,0.4864299307969403,1.8181029490212668,-0.9798221340762406,-0.045020518281003216,0.15851006859810035,0.11312071720519232,0.07484602741897106,0.007059029296242077,20515.577383380965
1681927844175056219,110,1681927844175056219,camera_1,111,0,0.6618041966320096,0.48666770208117377,1.818489373191707,-0.979860744822342,-0.04515504846867638,0.1578612997417188,0.11363869234486929,0.08692074235295877,0.008200883614438909,20510.32463586807
1681927844185006856,111,1681927844185006856,camera_1,112,0,0.6616526002340177,0.4870311130558721,1.8181362190350943,-0.9797923368049852,-0.04535264938738807,0.15803361922100315,0.113910004510939,0.06843088142341003,0.006454094428970927,20509.940612791215
1681927844194989204,112,1681927844194989204,camera_1,113,0,0.6615441028729341,0.4875662454247465,1.8178493724414473,-0.9797598514160093,-0.04518945825374573,0.1587601597738894,0.11324203320579108,0.07758025190560147,0.007316502171438643,20507.759055921582
1681927844205012083,113,1681927844205012083,camera_1,114,0,0.6615661228966384,0.48808083436114696,1.8179637272326812,-0.9797553483877338,-0.04528187466483943,0.15851187426884308,0.11359135023515904,0.06219423416769132,0.005866237892199831,20502.337904429063
1681927844214965581,114,1681927844214965581,camera_1,115,0,0.6614664116766499,0.48828835811672994,1.8176688920582773,-0.9797164827446893,-0.04536207904406368,0.15851385717584346,0.1138914057618552,0.07267325458815321,0.006852698514759844,20503.605791390873
1681927844224929809,115,1681927844224929809,camera_1,116,0,0.6614071795953839,0.4881600199485298,1.8175307927129687,-0.9796466711351672,-0.04534096464586339,0.1587775057476209,0.11413281880043295,0.06498223071685061,0.006126342006059444,20500.914177689694
1681927844234912395,116,1681927844234912395,camera_1,117,0,0.6616904297151898,0.48791118914714676,1.8182294395043672,-0.9798475903312859,-0.045075856955482954,0.15806574831456127,0.11349927775743422,0.08686855540145189,0.0081957722060211,20505.50905912451
1681927844244940996,117,1681927844244940996,camera_1,118,0,0.6615431416978355,0.4872426457812534,1.8178934837681422,-0.9797411931369948,-0.045263065138584205,0.1588075413484711,0.11330760881605337,0.0711068962700665,0.006705786686340946,20507.942459202135
1681927844254854679,118,1681927844254854679,camera_1,119,0,0.6617121729343771,0.48679569966272224,1.8182617017846816,-0.9798215398681,-0.04515019838827391,0.15834937157841328,0.11329910024676532,0.08240951440529898,0.007774036693495915,20510.19960865588
1681927844264911174,119,1681927844264911174,camera_1,120,0,0.6616814638841902,0.4864993571452526,1.8182008615406287,-0.9798569734077021,-0.045129920037079066,0.15828274398173844,0.11309365561054403,0.07689105492318049,0.0072526286788895935,20516.842547133096
1681927844274907827,120,1681927844274907827,camera_1,121,0,0.6617778078193521,0.48661468359842946,1.8184823534658316,-0.9798860163281248,-0.04514118291358233,0.15790988822894725,0.11335843951502576,0.08417662454303354,0.007941971007009649,20513.306095671607
1681927844284937143,121,1681927844284937143,camera_1,122,0,0.6617317867015492,0.48697219917507095,1.8183476307390782,-0.979823556339985,-0.04521503368466636,0.15800091650281467,0.1137414152999226,0.07976125658024102,0.007524559181321197,20508.156653482
1681927844294962167,122,1681927844294962167,camera_1,123,0,0.6614019379848074,0.48731216912795766,1.8174881969650498,-0.9797005381281069,-0.045226153827908955,0.15908163692639193,0.11328937900020442,0.07554526126477867,0.007121640035023356,20511.640472857514
1681927844305124759,123,1681927844305124759,camera_1,124,0,0.6617202559004016,0.4880871373378622,1.818421868818632,-0.9798564514376077,-0.04524996859734343,0.15787557448195377,0.1136181231143683,0.07712622272083536,0.007277888052582007,20502.52035568701
1681927844315112590,124,1681927844315112590,camera_1,125,0,0.6615085343671571,0.48827076572907,1.8178142401230173,-0.9797027209047136,-0.045394516311533656,0.1582426485063269,0.11437298953182012,0.0617547917063348,0.005823527818659895,20500.11270596832
1681927844324881553,125,1681927844324881553,camera_1,126,0,0.6613955319016843,0.48818645739987265,1.8175445669211046,-0.9796767550360235,-0.04540585859009131,0.15828530000921257,0.11453177484339228,0.06357964599737898,0.005993730755275736,20504.11575797247
1681927844334923267,126,1681927844334923267,camera_1,127,0,0.6616903992281088,0.48802900413652434,1.818305235745083,-0.9798060595579897,-0.045276250748005266,0.1581086458324735,0.11371808512576306,0.07724953105207533,0.00728865484598157,20500.5306809775
1681927844344930648,127,1681927844344930648,camera_1,128,0,0.6614359623712082,0.48728576032810467,1.8175894240457013,-0.9796842003867774,-0.04521269066968519,0.1585514972010674,0.11417575421352921,0.07695248478557914,0.007254157493520438,20508.793582350714
1681927844354980945,128,1681927844354980945,camera_1,129,0,0.6616400110603382,0.4868609305827766,1.8181169802062889,-0.9797655524485281,-0.045391953902475225,0.15847586076011896,0.11350962211409803,0.07069579942617565,0.006667835903908425,20508.847580065252
1681927844364903211,129,1681927844364903211,camera_1,130,0,0.6617677017783109,0.48660587873196515,1.8183985115574168,-0.9798774317401379,-0.04505637119403244,0.15817102338755576,0.11310203155430155,0.0933222909225151,0.008804641476143089,20513.42209183378
1681927844375075101,130,1681927844375075101,camera_1,131,0,0.6616572126787174,0.4865011423210387,1.8181307899914552,-0.9798435069364952,-0.0452280505678512,0.15849434857716457,0.11287456234831006,0.06692734832176939,0.006312486331226651,20517.28075605096
1681927844385024309,131,1681927844385024309,camera_1,132,0,0.6616580957425664,0.4868485075480431,1.8181434172384112,-0.9798257966889291,-0.04530597690222893,0.15802037505659658,0.11365886532432268,0.08097795251524076,0.007637591474153752,20513.78341745783
1681927844394936800,132,1681927844394936800,camera_1,133,0,0.6613864449111841,0.4872210113316831,1.8174543533745067,-0.97971923713839,-0.04513142215656564,0.15879423442121274,0.11356831525420286,0.06731326639419422,0.00634492205008171,20514.636562173735
1681927844405033826,133,1681927844405033826,camera_1,134,0,0.6616374819239965,0.48795661031816306,1.8181507590723167,-0.9798097036824613,-0.04516925620500877,0.15826972370551448,0.11350496650699292,0.08611153240781277,0.00812376137283167,20503.86459954735
1681927844415303468,134,1681927844415303468,camera_1,135,0,0.6614449648766226,0.48817217622486886,1.8176353450263498,-0.9796468174821514,-0.04539804671763985,0.1588155383988896,0.11405592976424432,0.05834369541844353,0.005501093934674844,20498.905147937585
1681927844425329685,135,1681927844425329685,camera_1,136,0,0.6614831411386929,0.488260374349481,1.81775423585967,-0.9797078799327098,-0.04530460067848944,0.15870299714096542,0.11372476358996152,0.06915494392160326,0.006521611523750904,20501.088829850552
1681927844435424804,136,1681927844435424804,camera_1,137,0,0.6617400593266399,0.4880811998345704,1.8184385267200331,-0.9798577616558372,-0.045167212009259515,0.15816140343444304,0.1132416016566829,0.07249407155904919,0.006841288214619341,20501.590505739674
1681927844445327758,137,1681927844445327758,camera_1,138,0,0.6615265067783044,0.48739361747753557,1.8177895938395243,-0.9797939840380986,-0.045204684825748444,0.1585606340018791,0.11322018661650894,0.07786071748705581,0.00734216885335787,20513.50108716182
1681927844455324888,138,1681927844455324888,camera_1,139,0,0.6616147001039112,0.486888125505084,1.8180151448986264,-0.979774976872744,-0.04527634311681859,0.15829519789989843,0.11372632839327122,0.08016661152942106,0.007560230247589452,20511.14361984632
1681927844465244531,139,1681927844465244531,camera_1,140,0,0.6617926643962678,0.4866531669998954,1.8184890955911635,-0.9798863525227222,-0.04514036970022616,0.15803586731015717,0.11318015641696696,0.0799374045454897,0.007542303424781068,20512.661901243144
1681927844475247859,140,1681927844475247859,camera_1,141,0,0.6616068792940716,0.4864902944314134,1.8179917032356143,-0.9797999078216586,-0.04504592263933235,0.15837861197933295,0.11348665451823275,0.0793850381160155,0.007486054166323033,20515.621773007908
1681927844484951019,141,1681927844484951019,camera_1,142,0,0.6617374453974971,0.48692292865455056,1.8183990721652243,-0.9798170285761381,-0.045428632839119194,0.1577873606677636,0.11400867793329142,0.07878690649522468,0.007432573049233511,20508.144971842295
1681927844494923353,142,1681927844494923353,camera_1,143,0,0.661476781587234,0.4872876005423273,1.8176951534623405,-0.9797094269092459,-0.045217398887996585,0.15891065751865974,0.11345584423002769,0.07551409472944215,0.007120018339765461,20508.472373629345
1681927844505270004,143,1681927844505270004,camera_1,144,0,0.6616141857702926,0.48806270717288774,1.8181331011096336,-0.9797866258472335,-0.0453246551786116,0.15816732870361422,0.1137846192356253,0.06523021019529551,0.006153369937559118,20502.501672777107
1681927844515319347,144,1681927844515319347,camera_1,145,0,0.661685730358457,0.48879922203489135,1.818343567520679,-0.9798452831434065,-0.04518663659146226,0.1581855169444633,0.11330812505809801,0.06255219475133345,0.005903106039761245,20497.731828555807
1681927844524914503,145,1681927844524914503,camera_1,146,0,0.6617544553609926,0.4895223004566673,1.818575599994873,-0.9798782157677604,-0.045197173230745284,0.1574595712764291,0.1140279843248291,0.061711983929853886,0.005825280883043802,20491.75239910721
1681927844534915924,146,1681927844534915924,camera_1,147,0,0.6615420676302712,0.48996820958118475,1.8181133918484265,-0.9798159137335531,-0.045031715281224995,0.15850872666305912,0.11317200795677579,0.062405936361756176,0.005889256706395445,20491.336237437674
1681927844544908523,147,1681927844544908523,camera_1,148,0,0.6618933350140681,0.490658665962342,1.8190777430262295,-0.9799271830594825,-0.04511243774502136,0.15752221738084857,0.11355322493540156,0.06071394053287804,0.005735468491051097,20477.869104122154
1681927844554947376,148,1681927844554947376,camera_1,149,0,0.6616867703489252,0.4907852853545836,1.8185276151838523,-0.9798381433182077,-0.04513511757355184,0.15795788022650709,0.11370726509197951,0.057134523638524115,0.005394413531955248,20480.01812632091
1681927844565269470,149,1681927844565269470,camera_1,150,0,0.6616267025177457,0.49089462177052473,1.8183820517733669,-0.9797865238081691,-0.04525061248774821,0.15806446225603019,0.11395777992353089,0.0610212777974084,0.005760539856384558,20477.998074003488
1681927844575389146,150,1681927844575389146,camera_1,151,0,0.6616118137707064,0.49088786778310656,1.8183217984531117,-0.9797395581860879,-0.04532900198049633,0.15810016987660822,0.114280426975791,0.05205217067850754,0.0049133277970214995,20475.310616733972
1681927844584972858,151,1681927844584972858,camera_1,152,0,0.6617630565933342,0.4908438760063698,1.8187150603454498,-0.9798672386399355,-0.045198834727558194,0.1579186721686678,0.1134854746648372,0.05650989001151174,0.005336633519373425,20478.579959703264
1681927844594938516,152,1681927844594938516,camera_1,153,0,0.6618227933467189,0.49063085178937493,1.8188953873837,-0.9798858068238399,-0.04506896022432248,0.1581921957359975,0.11299479464875686,0.06019242980983108,0.00568564994469848,20477.354521472364
1681927844605103969,153,1681927844605103969,camera_1,154,0,0.6616146011281077,0.4900744180163079,1.8182722092125916,-0.9798955163606564,-0.044972792466509565,0.15843584688977153,0.11260687090212491,0.06027622672263533,0.005689624394354168,20494.14989506302
1681927844615023612,154,1681927844615023612,camera_1,155,0,0.6615674873590046,0.48954819861600773,1.8181041497187473,-0.9797661401557534,-0.045316100807101654,0.15805007641160632,0.11412683715157826,0.07030041597317904,0.006632984893301871,20491.20311112516
1681927844624907016,155,1681927844624907016,camera_1,156,0,0.6614781997889365,0.4888312569728117,1.8177712835011839,-0.9797600920988352,-0.045109289598129335,0.15860106908185873,0.1134945584974269,0.07403993204934524,0.006983305522854358,20500.788773217708
1681927844635212182,156,1681927844635212182,camera_1,157,0,0.6616194573690977,0.4882088747361728,1.8181305046874212,-0.9797526753519563,-0.04529053474736736,0.15814194524067124,0.11412531602794428,0.07442183664534241,0.007020519113748996,20498.18799703475
1681927844645207643,157,1681927844645207643,camera_1,158,0,0.6614694829754,0.4873231310356681,1.8176451772269178,-0.9796845394199277,-0.045182003371374346,0.1586968471588683,0.11398289562363424,0.08351356867933646,0.007873527663804883,20506.900843930667
1681927844654960393,158,1681927844654960393,camera_1,159,0,0.6617579206489536,0.486676687514354,1.8184020939194436,-0.9797679374937646,-0.045075981969530214,0.1586782638226003,0.11333204797824166,0.07197464170167223,0.006790579314463777,20502.850708474867
1681927844664892196,159,1681927844664892196,camera_1,160,0,0.6617244801018497,0.4857007159932051,1.8182035693575902,-0.9798380509256912,-0.04524558026954263,0.15827445341411786,0.11322291649960797,0.07577477494487539,0.0071463244380117665,20520.598329570726
1681927844674962997,160,1681927844674962997,camera_1,161,0,0.6618524283995366,0.484765787366303,1.8185304985651625,-0.9799167717315838,-0.04526061013821004,0.1577975878775365,0.11320123192394692,0.06637502112425864,0.006260648821676203,20527.855038549285
1681927844685241937,161,1681927844685241937,camera_1,162,0,0.6617358954657894,0.48356057958768744,1.8180743567967075,-0.9797710925108177,-0.04525686690494497,0.15866458669062675,0.11325180443771994,0.06512884562835097,0.006139357836401675,20530.947093289466
1681927844695387125,162,1681927844695387125,camera_1,163,0,0.6616993186397309,0.48239346199626876,1.8179180514267421,-0.979702026334903,-0.045326050613133384,0.15824978021553973,0.11439622280842163,0.06647296692244709,0.006262922683163105,20536.482837260584
1681927844705510139,163,1681927844705510139,camera_1,164,0,0.6615463648987738,0.4811405390694574,1.817389097456909,-0.9797213778071837,-0.045291055587450384,0.15863049780470542,0.11371502678889644,0.08897549530956894,0.008377734073264491,20556.433249110123
1681927844715120553,164,1681927844715120553,camera_1,165,0,0.6618962677038697,0.48018061492009134,1.8182596245749594,-0.9798952500170746,-0.04521381345316622,0.1575104500505032,0.11380451744937628,0.09697087557287887,0.009136766594337885,20560.825155838982
1681927844725211381,165,1681927844725211381,camera_1,166,0,0.6618936403608437,0.4789144349840601,1.8181135227200005,-0.9798755364099917,-0.045255283762162875,0.1576033980230969,0.11382908841069903,0.07618790661217645,0.0071758793973699525,20570.087732922173
1681927844734918594,166,1681927844734918594,camera_1,167,0,0.6617991399735271,0.4774966144388807,1.8177517405759993,-0.9798321928523506,-0.04531126288630507,0.1574491209910684,0.11439203470933645,0.06297290895599872,0.005927121301393335,20583.14642231504
1681927844744942426,167,1681927844744942426,camera_1,168,0,0.6616704883625173,0.4761270710520582,1.8173589634620824,-0.9797654065168715,-0.04529990276044348,0.15788558287361268,0.11436699577843072,0.07458268565824255,0.007015749064701247,20593.52411778515
1681927844754961967,168,1681927844754961967,camera_1,169,0,0.6615196439794033,0.4747698726923483,1.816911678263327,-0.9798009467064622,-0.045158559749157494,0.15812737006380118,0.11378288162640177,0.06588598189409822,0.00619378948040095,20613.839104410727
1681927844765012264,169,1681927844765012264,camera_1,170,0,0.6614868101572302,0.4734141985603581,1.8166694413320679,-0.9797289342118229,-0.0452671490063042,0.15825225179367555,0.11418548721811193,0.07146959810052067,0.006715528033154629,20620.702603171576
1681927844775352239,170,1681927844775352239,camera_1,171,0,0.6614619471229675,0.4721006335967944,1.816506530406077,-0.9797286050183233,-0.04518331753581644,0.1580387843356907,0.1145166842473391,0.05594973673578352,0.005254907158136211,20632.132404344855
1681927844785284042,171,1681927844785284042,camera_1,172,0,0.66154910282906,0.47085914155044223,1.8165866296666862,-0.979723007286979,-0.045024804922417234,0.15833123954896136,0.11422265325733581,0.088399056752678,0.008302745797012491,20635.7644767249
1681927844795289039,172,1681927844795289039,camera_1,173,0,0.661737474587295,0.46975538695838653,1.8170035550858712,-0.9797291790928434,-0.045277353865618285,0.15751125377845226,0.11519940014657555,0.0744507695781067,0.006993349948962579,20636.229943323415
1681927844804951667,173,1681927844804951667,camera_1,174,0,0.6616602199575932,0.4685091148937562,1.8166737251343883,-0.9797830123694061,-0.04505896465404578,0.15786833838871564,0.11433514818735169,0.06659907300490886,0.006253191260898925,20653.73525753047
1681927844814889192,174,1681927844814889192,camera_1,175,0,0.6615119826366493,0.4672569827467965,1.8161899977567497,-0.9796873057074402,-0.045197870989923734,0.1583231344034743,0.11447148381293204,0.059565605712123215,0.005588997481672393,20662.714744567405
1681927844824900865,175,1681927844824900865,camera_1,176,0,0.6615877136041324,0.46622486575705063,1.8163343765342816,-0.9797151343405057,-0.0451170750555525,0.15847441004807072,0.11405510265881309,0.0724782842444256,0.0068011229121372856,20667.447662913124
1681927844835150003,176,1681927844835150003,camera_1,177,0,0.6615080092401073,0.4650782182179086,1.8160234735805636,-0.979692018516174,-0.045220734201116254,0.1584220039165368,0.11428518158136343,0.07467561459634453,0.007003722710038991,20678.887151250157
1681927844845139503,177,1681927844845139503,camera_1,178,0,0.6615873481870357,0.4641927955292665,1.8161513027561458,-0.9797256438619332,-0.045020715295096256,0.1581201935575951,0.11449367817895892,0.07965136150596663,0.007470265966841948,20683.70938315778
1681927844855315685,178,1681927844855315685,camera_1,179,0,0.6615813416490292,0.4633288880087519,1.8160133358023,-0.9797247615704151,-0.044982743168379004,0.158318167075457,0.11424229670620577,0.0773927026311867,0.007256880787623213,20690.633018821827
1681927844864928722,179,1681927844864928722,camera_1,180,0,0.6615207262149002,0.4625073407400238,1.8157613260207737,-0.9796958461229316,-0.04505586337457248,0.15838621350353102,0.114367065351258,0.06464265141403303,0.006058918418535398,20698.14525618311
1681927844875006437,180,1681927844875006437,camera_1,181,0,0.6616664248352233,0.46194057715645315,1.8161360780990565,-0.9797525078676979,-0.04496382099426064,0.15790965939044038,0.1145766887274549,0.06608504086034372,0.0061957358266548,20698.747951888952
1681927844884958982,181,1681927844884958982,camera_1,182,0,0.6612878940404479,0.46109604725446324,1.8150490025242343,-0.9796491187755916,-0.04511360669382565,0.15913614329124,0.11370160276650286,0.05403343291254714,0.005060312596362707,20716.092495009536
1681927844894949436,182,1681927844894949436,camera_1,183,0,0.661300741581567,0.4606809184825602,1.8151125422805485,-0.9796197624961697,-0.045017559591725015,0.15913659731518803,0.1139915946475758,0.07248742179945111,0.0067885805060865795,20714.283210488735
1681927844904865503,183,1681927844904865503,camera_1,184,0,0.6615568702056049,0.460498848946048,1.8157842747576078,-0.9797355758850876,-0.045042455070476974,0.15816237935509814,0.11434176989654259,0.06303079525241628,0.005906231094507502,20712.752277977757
1681927844914918184,184,1681927844914918184,camera_1,185,0,0.6615350674205247,0.46028778055426295,1.8156568122317567,-0.9795987636365407,-0.0451089481768957,0.15842380541562903,0.11512316427967877,0.07390172668965533,0.006923520649054251,20704.291984300024
1681927844924896240,185,1681927844924896240,camera_1,186,0,0.6614407037818827,0.4601445691295855,1.8153686008509653,-0.9795893812599799,-0.04534202495393429,0.1583969975961272,0.11514832195172985,0.06391585298115388,0.005985894832393293,20711.332201197278
1681927844935009002,186,1681927844935009002,camera_1,187,0,0.6612089699106013,0.46004202100474034,1.8147091443235248,-0.9795086521089801,-0.04519322580310622,0.15895063160968154,0.11513066270999195,0.07430468656821176,0.006954372227287715,20717.284242230817
1681927844944917917,187,1681927844944917917,camera_1,188,0,0.6615915420391962,0.4605118360782182,1.8157795345220031,-0.9797223780466344,-0.045095295872189356,0.15838570508442862,0.11412468913322753,0.059340461739338934,0.005560695671624162,20711.00262684236
1681927844954964399,188,1681927844954964399,camera_1,189,0,0.661391721425692,0.4607058209982093,1.815319506542372,-0.9796161312472079,-0.04493547557382844,0.15944818887367912,0.1136191599164098,0.08176620007725433,0.007659951620065569,20708.30592317647
1681927844965028285,189,1681927844965028285,camera_1,190,0,0.6616614524090811,0.4613718034901869,1.8161195051930719,-0.9797090499872675,-0.04507499516431883,0.15824505647533255,0.11444179431091281,0.06723073782632127,0.006302780391992082,20698.47403439041
1681927844974969387,190,1681927844974969387,camera_1,191,0,0.6617296999895241,0.46203202712789915,1.816356684461548,-0.9797865489914135,-0.04506967055199739,0.1576575825771928,0.11459114218711051,0.07913988613290712,0.00742139509337268,20697.449977284185
1681927844985106706,191,1681927844985106706,camera_1,192,0,0.6616582722499472,0.4627448424112608,1.8162151571654992,-0.9796905761317345,-0.045030488976763816,0.15807030350346524,0.11485821368759827,0.07743357762228698,0.007261042433708187,20687.413821705617
1681927844995328426,192,1681927844995328426,camera_1,193,0,0.6614592193819563,0.4634859430974749,1.815741580656867,-0.979615916526093,-0.045056043430263384,0.15903111216117677,0.11415653465278243,0.08457857341272756,0.007929107110912591,20685.391978123345
1681927845005234241,193,1681927845005234241,camera_1,194,0,0.6613870804780612,0.46437214894439366,1.8156151634910342,-0.9796341867883729,-0.04501671938983999,0.15878810374908853,0.11435336968637416,0.07836662681074813,0.00734629056234108,20685.017736077425
1681927845014877557,194,1681927845014877557,camera_1,195,0,0.661666040131978,0.465721097458848,1.8164869928589413,-0.9797615394169865,-0.04504839079301256,0.15782958231840938,0.1145765740080121,0.07093617576174438,0.006656350057194081,20671.786273196456
1681927845025173187,195,1681927845025173187,camera_1,196,0,0.6616160981362078,0.46693373989164955,1.8164717220180793,-0.9796839137911156,-0.045118489121158345,0.15822028473046393,0.11467385272221803,0.06621723517309874,0.006214562662159146,20658.254532360716
1681927845034961938,196,1681927845034961938,camera_1,197,0,0.6617519298654072,0.46842696716523746,1.8169584561195182,-0.9797426297238991,-0.04514641602840036,0.15792522585325983,0.11456789978299443,0.0697588757611811,0.006551632069851298,20645.086047101533
1681927845044964551,197,1681927845044964551,camera_1,198,0,0.6615942069312288,0.4697844858683659,1.8166671482497487,-0.9797141810390896,-0.04514430258455802,0.15781416233084478,0.11496436657883834,0.07771828904515132,0.0072980446973191695,20641.109133510734
1681927845055007219,198,1681927845055007219,camera_1,199,0,0.6615684367375387,0.47126299756767953,1.8167026536738913,-0.9797280723248797,-0.04516687630841185,0.15807376990101046,0.11447943418971981,0.07517471740720794,0.007061444969257738,20632.521826253265
1681927845065212488,199,1681927845065212488,camera_1,200,0,0.661592227089226,0.4728962836653458,1.8168999280715208,-0.9797486064114057,-0.04521904285903286,0.15799613183119413,0.11439024750476492,0.06890037364792079,0.006474929102382719,20620.83195254266
1681927845075093269,200,1681927845075093269,camera_1,201,0,0.6618416132533291,0.47478264676836734,1.8176786804386933,-0.9797511226453205,-0.045277210553498835,0.15815847098851624,0.11412103195425047,0.07667670992668718,0.007214098241441865,20593.042557978653
1681927845084946155,201,1681927845084946155,camera_1,202,0,0.6617091850621277,0.4765071819379666,1.8174535441358117,-0.9797589377806012,-0.045256996721891256,0.1580665760477516,0.11418925353676253,0.08677232440095395,0.008164136791332016,20587.958035546355
1681927845094957113,202,1681927845094957113,camera_1,203,0,0.6618938562516893,0.478415455972409,1.818106896547268,-0.9798737133769678,-0.04535720449737882,0.15756115436250318,0.11386269129513148,0.07731888873968273,0.007281698228795117,20573.73452974228
1681927845104917049,203,1681927845104917049,camera_1,204,0,0.6617374030067781,0.4800921251791766,1.8178495410093418,-0.9797422776026552,-0.04526381129974599,0.15823457411821956,0.11409678531057985,0.08646176295587793,0.008143012262935685,20555.88033683261
1681927845114928245,204,1681927845114928245,camera_1,205,0,0.6617199906896181,0.481893820958325,1.8179533179376741,-0.9797237904941318,-0.04528974129442302,0.15854126074950045,0.11381916496466485,0.07357604702701792,0.006932444627286505,20540.41353702359
1681927845125311136,205,1681927845125311136,camera_1,206,0,0.6620126650951732,0.48396415222996086,1.818901492499127,-0.9798001260408632,-0.0453441204567483,0.15808244503165386,0.11377857585295527,0.07359786512097344,0.006943557095061446,20514.915090441937
1681927845135416507,206,1681927845135416507,camera_1,207,0,0.6617287633455086,0.4856415324331335,1.8182696724858438,-0.9797393582710308,-0.04532248254940643,0.15832078807219804,0.1139789037253204,0.07359290577005595,0.0069404137016713125,20511.326239394133
1681927845145324945,207,1681927845145324945,camera_1,208,0,0.661880785124377,0.48746804003937594,1.8187818060283112,-0.9797982343010665,-0.04522085168373867,0.158040969419823,0.11390147768291829,0.07364406355191022,0.006951108983751826,20493.60170315172
1681927845155256271,208,1681927845155256271,camera_1,209,0,0.661692690563519,0.48897796233956436,1.818383333466313,-0.9797744033855725,-0.045187425714827936,0.15804133276631155,0.11411902630657389,0.06319316028384492,0.0059635375468754265,20489.49208963709
1681927845165008783,209,1681927845165008783,camera_1,210,0,0.6617362424253269,0.4906568031291414,1.818625450626254,-0.9797417470371051,-0.04511458132883576,0.15854122552200373,0.11373417900607677,0.06395543424878271,0.006039235183802332,20469.391131000946
1681927845174930572,210,1681927845174930572,camera_1,211,0,0.6615969148284023,0.49212824261940796,1.8183804434572854,-0.9797898360441367,-0.04501030333590707,0.15817512109228507,0.11387089551616963,0.06884014134993777,0.006500313943993649,20468.65901657089
1681927845185260534,211,1681927845185260534,camera_1,212,0,0.6618050290626667,0.49377133721899624,1.8190783065121678,-0.979865279600103,-0.0451738709996912,0.15791764555652085,0.1135137543868601,0.059045436035376035,0.005581117259209316,20450.805908230133
1681927845195079565,212,1681927845195079565,camera_1,213,0,0.6615913843874857,0.4949717709846955,1.8186590881837814,-0.979843777712108,-0.04513944497556713,0.15790596981670693,0.11372909250674622,0.05396172089967877,0.0050992876429940244,20449.262759739184
1681927845204922437,213,1681927845204922437,camera_1,214,0,0.6615207672237663,0.4960889418884922,1.8185562980093466,-0.9797607871039039,-0.04523693105471057,0.15810230211779136,0.11413186315549553,0.0672974933986552,0.0063601073559154744,20436.07219192269
1681927845215044260,214,1681927845215044260,camera_1,215,0,0.6614422805128819,0.4970945032044404,1.8183789026826744,-0.9797725461488782,-0.04517412629245003,0.15815209775190014,0.11398671020488178,0.07047043944476172,0.006660160774438287,20433.157215066843
1681927845224886894,215,1681927845224886894,camera_1,216,0,0.6613176888756844,0.4979015573530987,1.8180845779024133,-0.9797236370550535,-0.04496714745352839,0.15842251879760902,0.11411334796303135,0.06463012320455164,0.006107306956172923,20427.787059375427
1681927845234943389,216,1681927845234943389,camera_1,217,0,0.6615125081582741,0.4988633112859806,1.81871428722069,-0.9798464887971705,-0.045110309394618985,0.15778826025264717,0.11388056596549348,0.07998343871440738,0.0075643810299211404,20420.362593464666
1681927845244950294,217,1681927845244950294,camera_1,218,0,0.6613105575180611,0.49924763770198183,1.818139999457988,-0.9797041073755788,-0.04523605670216737,0.15844839530702923,0.11413880667891309,0.06671678886050358,0.006306449926155681,20416.14773423504
1681927845254903078,218,1681927845254903078,camera_1,219,0,0.6613381326525349,0.49965979298617014,1.8182505504889552,-0.9797541319756818,-0.04509930528314292,0.15794908544647931,0.11445514381702988,0.06293888273648918,0.005950128253061977,20415.283506656873
1681927845264957666,219,1681927845264957666,camera_1,220,0,0.6612669262833445,0.49989158663054106,1.8181546065656928,-0.9797456930532429,-0.0450967386085529,0.15805216806457667,0.1143860711825514,0.06945435691159219,0.0065657882223370745,20415.02100665344
1681927845275023221,220,1681927845275023221,camera_1,221,0,0.6613410863007136,0.49998218004411454,1.8183418792011177,-0.9797486172471082,-0.04507319054583055,0.15818149407411372,0.11419137195462709,0.06360243272501975,0.006013980917419252,20410.597783759236
1681927845284923553,221,1681927845284923553,camera_1,222,0,0.6613118253930296,0.49982694343250694,1.818258760613795,-0.9797919009665266,-0.04504569087743562,0.15814641700271057,0.11387900299431597,0.062010997149627656,0.005862939837247138,20417.344169638935
1681927845294960975,222,1681927845294960975,camera_1,223,0,0.6612764883697361,0.499471164756233,1.8180841160504402,-0.9797832926026898,-0.045005593066962855,0.15830895654012314,0.11374300158031837,0.06958473206032068,0.006577644237932589,20422.121647797525
1681927845305236816,223,1681927845305236816,camera_1,224,0,0.6613481795014752,0.4990864711778975,1.8182736076358725,-0.979739795111482,-0.04517268160468524,0.15814049134257055,0.11428450336543247,0.06176743586547673,0.005838976987808355,20418.04607040983
1681927845314976215,224,1681927845314976215,camera_1,225,0,0.6613429577478896,0.49843120044898503,1.818193557565212,-0.9797356307674769,-0.04498289051450396,0.15829614415317703,0.1141795257997291,0.0715072145103477,0.006758573559588484,20422.973727264325
1681927845324936628,225,1681927845324936628,camera_1,226,0,0.661369308307495,0.4976473133640018,1.8181892196202343,-0.9797616890537212,-0.045069039257955607,0.15810730718182883,0.11418359680214613,0.07097318291198461,0.00670697019131452,20431.526835342294
1681927845334989070,226,1681927845334989070,camera_1,227,0,0.6616140910902596,0.4968563178209333,1.8187907650033381,-0.9798218979754585,-0.044998044593646355,0.157470724974348,0.1145739717674646,0.08213932684157044,0.007765443154009288,20430.486433026155
1681927845345033407,227,1681927845345033407,camera_1,228,0,0.6615905468777056,0.4957533108170027,1.818647757793802,-0.9797839123343364,-0.04521249617229388,0.158106155466691,0.11393752202077446,0.06915154599118978,0.006535745409284774,20438.253487528527
1681927845354932308,228,1681927845354932308,camera_1,229,0,0.6614558562168277,0.49446386976664874,1.8182158813395854,-0.9797182726909541,-0.04529793612812117,0.1582963600484051,0.11420361436229524,0.056589914427604526,0.005344631596488707,20450.634815404657
1681927845364967346,229,1681927845364967346,camera_1,230,0,0.6615208747754411,0.49320893705950997,1.8182809319157716,-0.9796931224459111,-0.04534532637721734,0.15843889244800413,0.1142029096291963,0.0656736203818582,0.006201707906803342,20455.702997353616
1681927845375048398,230,1681927845375048398,camera_1,231,0,0.6617882416070585,0.4919542914658429,1.8188969231936627,-0.979837219109345,-0.04524388311629206,0.1575170820332351,0.11428203689276761,0.07231600728118792,0.006831420206934526,20465.083757126362
1681927845385060310,231,1681927845385060310,camera_1,232,0,0.6617727756537112,0.4904090797304649,1.8187027608833608,-0.9797737933461634,-0.045207724483387016,0.15804242225162812,0.11411471547500579,0.0687830108217895,0.006494891325197564,20473.218392982853
1681927845395131349,232,1681927845395131349,camera_1,233,0,0.6618340086612131,0.48888923777491106,1.8187915767064997,-0.9798838890006067,-0.04506370314826455,0.15757412132079907,0.11387371525330159,0.06179171439725906,0.005833587289637821,20491.667249416925
