%time,field.header.seq,field.header.stamp,field.header.frame_id,field.image_seq,field.transforms0.fiducial_id,field.transforms0.transform.translation.x,field.transforms0.transform.translation.y,field.transforms0.transform.translation.z,field.transforms0.transform.rotation.x,field.transforms0.transform.rotation.y,field.transforms0.transform.rotation.z,field.transforms0.transform.rotation.w,field.transforms0.image_error,field.transforms0.object_error,field.transforms0.fiducial_area
1681924544356428384,1,1681924544356428384,camera_2,2,0,-1.2306270439211926,0.31316554006355213,1.7467101445367543,0.9572939987300516,-0.0039636038600071935,0.2804795560067254,-0.0700264842908671,0.06090472114738077,0.008478337189867612,13079.211541503668
1681924544366706132,2,1681924544366706132,camera_2,3,0,-1.2310932034997655,0.3132900268783289,1.7473886747181584,0.9573860208565014,-0.003921400053759528,0.28014395029957384,-0.07011416975706988,0.06256210233550519,0.008713979479911111,13075.271091939885
1681924544376637220,3,1681924544376637220,camera_2,4,0,-1.2308311190566774,0.3132264887661436,1.7469975737193542,0.9573144886412795,-0.004019049020878917,0.2804031435414646,-0.07004922679457738,0.05770054564345628,0.00803475104395922,13076.20594655978
1681924544386365652,4,1681924544386365652,camera_2,5,0,-1.2308199274756493,0.3132243281612734,1.7469903146196275,0.957354200027171,-0.00400111571070967,0.28029635171551165,-0.06993484094769566,0.05595908092800528,0.007790607278264105,13079.045085728398
1681924544396652460,5,1681924544396652460,camera_2,6,0,-1.2307129021899463,0.31320785336341395,1.7468539408993196,0.9572580864658314,-0.003884769845715665,0.2805892044707874,-0.0700825427155107,0.056833661743439734,0.007913785732256961,13074.812676181324
1681924544406337261,6,1681924544406337261,camera_2,7,0,-1.2310487527327423,0.31327607924034806,1.747316574487015,0.9573407399834022,-0.0038754991232375826,0.2802785384234311,-0.07019707240194067,0.06399150780634955,0.008913883167434097,13073.296346809715
1681924544416248083,7,1681924544416248083,camera_2,8,0,-1.2310223175311028,0.31328470679045367,1.7472810518233741,0.9573599999871292,-0.003927919069197828,0.2802038202922119,-0.07022977267569501,0.04935124731855467,0.006874150276448738,13074.962288678393
1681924544426651716,8,1681924544426651716,camera_2,9,0,-1.2308575930232362,0.3132259975402967,1.7470503230706993,0.9573877096591548,-0.004005344996349183,0.28015838151676403,-0.07002865035801757,0.06480502220802009,0.009022564780604782,13080.411402627826
1681924544436479568,9,1681924544436479568,camera_2,10,0,-1.230915456114591,0.3132392255827118,1.7471160383355313,0.9574006525521607,-0.0039310113027876134,0.28006428696870256,-0.07023199276360169,0.05590440361993387,0.007784601662440406,13080.114644576326
1681924544446260452,10,1681924544446260452,camera_2,11,0,-1.2308802798728355,0.3132589316011653,1.7470754505726804,0.9573790152852434,-0.00394202884761819,0.28010983890009217,-0.07034457798143935,0.05068072193535045,0.007057947286237894,13079.203722454378
1681924544456244707,11,1681924544456244707,camera_2,12,0,-1.2307424165290521,0.31321612487647543,1.7468850714584816,0.9573608681764556,-0.003890326341189787,0.28022648320089943,-0.070129534136757,0.06115165969822556,0.00851337094151872,13080.977938616883
1681924544466422319,12,1681924544466422319,camera_2,13,0,-1.2306914217745375,0.31318464929055956,1.746804636150787,0.9573117378293389,-0.0038838732286852313,0.2804335498911085,-0.06997268208655283,0.055356551019940525,0.007705997552905399,13078.951963531556
1681924544476816415,13,1681924544476816415,camera_2,14,0,-1.2309087507901701,0.313230996510098,1.7471228249947692,0.9573301286392262,-0.003873667119216307,0.2803827409010778,-0.06992523226597978,0.05815157725010067,0.008097280407815013,13075.532189090038
1681924544486415863,14,1681924544486415863,camera_2,15,0,-1.2310264061379341,0.31328828820181165,1.747296024405757,0.9573584010314059,-0.003948294294056113,0.2803081850158324,-0.06983283153279189,0.052832648740150034,0.007357261121836867,13074.756490942094
1681924544496611595,15,1681924544496611595,camera_2,16,0,-1.2305864512058566,0.31316313436041676,1.74667048879378,0.9572705195100928,-0.004001549059073789,0.28057654152246614,-0.06995673255160492,0.06106330477632583,0.008500196411739994,13078.398804372415
1681924544506500005,16,1681924544506500005,camera_2,17,0,-1.2310387384938821,0.3132742835811575,1.7472977252876611,0.9574042464301368,-0.003921445127328592,0.2800911392029484,-0.07007627933651808,0.057033787248656154,0.007942630564955006,13077.639392842548
1681924544516568660,17,1681924544516568660,camera_2,18,0,-1.2310802371322391,0.31329646553587,1.747351817698882,0.9574407771715626,-0.003884528432177166,0.27996059754967195,-0.0701008735152747,0.05699101468781009,0.007936478873170137,13079.163265978916
1681924544526479244,18,1681924544526479244,camera_2,19,0,-1.2309606882446915,0.31325281775515385,1.7471805668880427,0.9573909518162353,-0.003903418880154202,0.2801168450467185,-0.07015612462587678,0.05231317674042657,0.007284897612202868,13078.421818024945
1681924544536638736,19,1681924544536638736,camera_2,20,0,-1.2307761408434426,0.3132198231210522,1.7469320835212756,0.9573372344762636,-0.0038631080916537762,0.28028749255780144,-0.07020980983361391,0.05497375514823944,0.007654504062542495,13078.72452735063
1681924544546618461,20,1681924544546618461,camera_2,21,0,-1.231269847449863,0.3133365942821103,1.7476389715934662,0.9574316253199743,-0.003900055419085237,0.27997799870076817,-0.07015548908241745,0.05720411299262196,0.00796923889658943,13074.406585741555
1681924544556529998,21,1681924544556529998,camera_2,22,0,-1.2307929746349566,0.3132190227244321,1.7469606359444947,0.9573810652205795,-0.003982488870184795,0.2801593662696547,-0.07011679706670032,0.053671908914111555,0.007472322258227441,13081.220876887211
1681924544566691637,22,1681924544566691637,camera_2,23,0,-1.2310448002429144,0.3132796380966873,1.747293262974523,0.9574029271791902,-0.003818959337623156,0.2801495909458951,-0.06986599509878534,0.055636705190408975,0.007746875362589042,13077.430346922018
1681924544576681137,23,1681924544576681137,camera_2,24,0,-1.2311716918766484,0.3133011325002385,1.7474734410013364,0.9574804922401262,-0.003959002183661673,0.27978201594321805,-0.070267039471323,0.05619253369513899,0.007826537268435107,13079.921994364355
1681924544586555719,24,1681924544586555719,camera_2,25,0,-1.231420690457615,0.3133753676116982,1.7478498126399258,0.9575097036361317,-0.003923724917306166,0.2797129260051522,-0.07014592540594924,0.04680829943390563,0.006521134885484695,13076.307465946535
1681924544596718072,25,1681924544596718072,camera_2,26,0,-1.2309028609904464,0.3132571114127403,1.7470859073678122,0.9573516471888257,-0.003793998823748778,0.28024383716919526,-0.07019131660293247,0.051859982195310295,0.007221819824991397,13077.112026234627
1681924544606871843,26,1681924544606871843,camera_2,27,0,-1.2307151616135377,0.3131998626828193,1.7468355373795392,0.9573247255653806,-0.00398041565908038,0.28037309827575757,-0.0700317918919821,0.051995676942169666,0.007238662741204936,13079.251258437054
1681924544616527557,27,1681924544616527557,camera_2,28,0,-1.2308104581271404,0.31322852316131516,1.7469722668962824,0.9573466653477014,-0.0039061628144239293,0.28033503185924546,-0.06988829767693151,0.04889422963606194,0.006806710609693576,13078.680856722174
1681924544626627445,28,1681924544626627445,camera_2,29,0,-1.2308561784490422,0.31323986903454365,1.7470335719782342,0.9573217200313561,-0.003958541116840585,0.28040837780558714,-0.0699327960607289,0.053949495137203485,0.007511866533428983,13076.121613455938
1681924544636474609,29,1681924544636474609,camera_2,30,0,-1.2308237112013962,0.31321200540077687,1.7469569333204302,0.9573584845667552,-0.003881279550347604,0.280270519369818,-0.06998645346972876,0.05582527746446431,0.007771848352447315,13079.42455456173
1681924544646567106,30,1681924544646567106,camera_2,31,0,-1.2312757585993541,0.3133534558962847,1.7476267651459652,0.957416628646124,-0.003932730908567359,0.2800624294726424,-0.07002119977101177,0.05250135698588565,0.007313744807177459,13073.412877280502
1681924544656477451,31,1681924544656477451,camera_2,32,0,-1.2307845171207563,0.3132342625843943,1.7469333950137744,0.9573510638330008,-0.0038939237979395956,0.2802409467342068,-0.07020533960314466,0.054735280689783394,0.007621089298699678,13079.53366625169
1681924544666622877,32,1681924544666622877,camera_2,33,0,-1.2311677115004818,0.31332316362969365,1.747475754098858,0.95742701264214,-0.003921455767242137,0.280037149457341,-0.06998094434644136,0.04697076749289408,0.006541770009411209,13076.336090843655
1681924544676582336,33,1681924544676582336,camera_2,34,0,-1.2305749935774422,0.31315705700596475,1.746648663202641,0.9572482180015027,-0.003919669128011947,0.28058334208723956,-0.07023868926759284,0.05663114495109767,0.007884858039386622,13077.174556256501
1681924544686549663,34,1681924544686549663,camera_2,35,0,-1.2305484234267674,0.31316554688948495,1.7465973390238845,0.9572805412713372,-0.003946303194099436,0.28049015768406343,-0.07016882097288732,0.06126860930817202,0.008529057219082198,13079.946983522039
1681924544696566581,35,1681924544696566581,camera_2,36,0,-1.2308289862671002,0.31322167498860376,1.7469937064828434,0.9573579848488244,-0.003956961042688252,0.28025445428564666,-0.07005335222927712,0.050470818125177175,0.007027053658204892,13079.06262433738
1681924544706522703,36,1681924544706522703,camera_2,37,0,-1.2308731315455077,0.31322842258386735,1.7470539596000694,0.9573506489444616,-0.0039195830057509075,0.2802859562107472,-0.07002966932455282,0.05930770846316591,0.008257966504180574,13077.714675114494
1681924544716668128,37,1681924544716668128,camera_2,38,0,-1.230901946744698,0.31325306499331507,1.7471319111679353,0.957385623978342,-0.003912452638242044,0.2801745598803109,-0.06999768360330365,0.057020562468096614,0.007939139286964589,13079.128400711808
1681924544726623296,38,1681924544726623296,camera_2,39,0,-1.230735325818847,0.3131984478246074,1.7468704052252624,0.9573190402222715,-0.003954655795207986,0.28034682687366624,-0.07021589981846513,0.054439669533167034,0.007580152526369651,13078.467316771854
1681924544736532688,39,1681924544736532688,camera_2,40,0,-1.231323323512333,0.3133500272997277,1.7477058720122978,0.9574819513753916,-0.003998847317253501,0.27982398365167077,-0.07007752980674392,0.0570271362666972,0.007943868936659283,13076.694213405015
1681924544746522665,40,1681924544746522665,camera_2,41,0,-1.2306498454555885,0.3132047155073902,1.7467747188172815,0.9573356001476033,-0.00401061078895915,0.2802956546168721,-0.07019123658995284,0.056332306761760265,0.007842432087982354,13081.145974789048
1681924544756564617,41,1681924544756564617,camera_2,42,0,-1.2307965662310305,0.3132284896380305,1.746951846906525,0.9573731906460159,-0.003946993844091225,0.2802117942983394,-0.07001675090981771,0.055315426376182586,0.007700725152978424,13080.69742900552
1681924544766888856,42,1681924544766888856,camera_2,43,0,-1.230797019872187,0.3132299824971515,1.7469542985546933,0.9573610587390592,-0.003991418295458943,0.2802020582706038,-0.07021878901644218,0.05535633658291772,0.007707788136287406,13079.916296535632
1681924544776543140,43,1681924544776543140,camera_2,44,0,-1.230900302765361,0.3132289531828285,1.7470946161761438,0.9573030289478144,-0.003955494554665757,0.2804232034445073,-0.0701291080799462,0.05174111423548311,0.00720615805012588,13073.985821353037
1681924544786540508,44,1681924544786540508,camera_2,45,0,-1.2308626527237827,0.3132288528683146,1.7470430763235305,0.957352310896518,-0.0039906211133387635,0.2802649813632057,-0.0700868602928459,0.055465246841777116,0.007723184250558065,13078.04144763108
1681924544796365261,45,1681924544796365261,camera_2,46,0,-1.2311017643564075,0.31329674571479943,1.7473925337423846,0.9573935138237744,-0.00392835089769159,0.28016019985718543,-0.06994633774096402,0.06043489824514836,0.008416690249352442,13075.59225021233
1681924544806247949,46,1681924544806247949,camera_2,47,0,-1.2309299096893258,0.3132556578011085,1.7471399161918746,0.9573846503861272,-0.004031140464191189,0.28013579766823876,-0.07015921875541846,0.054673951119184494,0.007613658135749765,13078.688733079474
1681924544816284894,47,1681924544816284894,camera_2,48,0,-1.231078849159937,0.31328231762009684,1.747344403178434,0.9573758795246531,-0.003958151838272199,0.2802082358976713,-0.06999359166050051,0.061834439053200185,0.0086118933125152,13075.079641242044
1681924544826247453,48,1681924544826247453,camera_2,49,0,-1.2308289010059164,0.3132222969667566,1.7470004896097826,0.9573539264198698,-0.0038453330673227214,0.28024177766056896,-0.07016565424553688,0.06134963041404262,0.008542277351128072,13078.807185963258
1681924544836390733,49,1681924544836390733,camera_2,50,0,-1.2308853743837234,0.31325188141298876,1.7470644557480113,0.9573401856637027,-0.003975616469910983,0.28029629049824495,-0.0701281178985642,0.05200105189578608,0.00724153435455486,13076.713901181709
1681924544846286773,50,1681924544846286773,camera_2,51,0,-1.2307992693233032,0.31322223932528886,1.7469815413681933,0.9573509682707584,-0.004004987901650242,0.28027612299415167,-0.07005982088412933,0.052336362772621214,0.007286798276027727,13079.098884440493
1681924544856314182,51,1681924544856314182,camera_2,52,0,-1.230935993449554,0.31325307927450663,1.7471619824837958,0.9573614613936231,-0.004033322144064556,0.2802568140033892,-0.06999201922661119,0.054699823376722634,0.007617048535049142,13076.92916763388
1681924544866297960,52,1681924544866297960,camera_2,53,0,-1.2311916290343525,0.31332439152214087,1.7475278999920696,0.9574677128669221,-0.003947595800704057,0.279873682328139,-0.07007650993640764,0.054484916385263205,0.007588365163214793,13078.454259027494
1681924544876343011,53,1681924544876343011,camera_2,54,0,-1.2306464908053232,0.31316782709849,1.7467292533164456,0.9572951845433131,-0.003961655825124251,0.2804670724388426,-0.07006037546925212,0.05512916069710627,0.007674672994045998,13078.899696655104
1681924544886288404,54,1681924544886288404,camera_2,55,0,-1.2309693872017617,0.31328104578839994,1.7471870632506747,0.9573496659677593,-0.003934833256110631,0.28023966810523687,-0.0702272210679958,0.05099966481793672,0.007103314650695041,13075.489799418949
1681924544896553039,55,1681924544896553039,camera_2,56,0,-1.230453789702197,0.31313444280904457,1.746468330449588,0.9572537515321239,-0.004007008961340938,0.28060466218246427,-0.07007298065819659,0.06092820980120451,0.008480531973067366,13080.218817447087
1681924544906651020,56,1681924544906651020,camera_2,57,0,-1.2309247733338131,0.31324361555772806,1.747144198357304,0.9573349352091599,-0.0038864943572781765,0.280358794173388,-0.06995472478202122,0.05960264476016164,0.008299657621235657,13075.501441532746
1681924544916316986,57,1681924544916316986,camera_2,58,0,-1.230700188259381,0.31318765038126184,1.7468263541028368,0.9573075650079649,-0.0039009703194992093,0.2804706758196636,-0.06987995717191507,0.05788814299739898,0.008058194507037658,13078.456538067438
1681924544926349878,58,1681924544926349878,camera_2,59,0,-1.231296799395624,0.3133523554540346,1.7476717906535573,0.9574428311115661,-0.003926780721621227,0.28000658832682995,-0.06988645104598513,0.05478367244359106,0.007630757669182375,13074.62232714053
1681924544936271429,59,1681924544936271429,camera_2,60,0,-1.2308086104027274,0.3132230147794425,1.7469867237656134,0.9573812638281455,-0.003959866354763838,0.2801230898091197,-0.07026015716654338,0.059005020244512714,0.008215720242114208,13080.970770901295
1681924544946418762,60,1681924544946418762,camera_2,61,0,-1.2311377496627014,0.3133132094619996,1.7474509312967164,0.9574195069362729,-0.003908412401749632,0.2800379816918079,-0.07008095932834234,0.051089447515551,0.007115700326432658,13076.424204957671
1681924544956354856,61,1681924544956354856,camera_2,62,0,-1.230609498830096,0.3131728980079427,1.7466901042066507,0.9572854019703125,-0.003854931217883637,0.28050043905680416,-0.07006641398546692,0.054636605200357735,0.0076057552790197375,13078.926404102702
1681924544966461658,62,1681924544966461658,camera_2,63,0,-1.2309144870583661,0.31324796941427036,1.7471227749753344,0.9573505730154637,-0.004047554668558297,0.2802592040512815,-0.07013042273300961,0.05274963943520561,0.007346084013074227,13076.74161621556
1681924544976475715,63,1681924544976475715,camera_2,64,0,-1.231048308518246,0.3132916848018412,1.747317005453508,0.9573629552033078,-0.0039385995082813026,0.2802335486317361,-0.07007009104865737,0.05409993510693312,0.0075350211293450904,13074.690555650748
1681924544986495733,64,1681924544986495733,camera_2,65,0,-1.2306354499735992,0.3131790044930085,1.7467305064045704,0.9572719456775617,-0.003946018442637833,0.2805243492724633,-0.0701494149826413,0.05634157551685348,0.007844365019476371,13077.478234396318
1681924544996464967,65,1681924544996464967,camera_2,66,0,-1.2310232891483117,0.3132845357419866,1.7472807421207301,0.9573829550664564,-0.004016069225825802,0.28017361451562484,-0.07003209453845204,0.05312035896349698,0.007397863067198397,13076.51190033881
1681924545007024526,66,1681924545007024526,camera_2,67,0,-1.230621024423388,0.31317239072704683,1.7467091274423714,0.9572680861273665,-0.003974810140724103,0.2805968024897813,-0.06991027534565131,0.06040092196781188,0.008408131752674169,13077.576097187586
1681924545016461372,67,1681924545016461372,camera_2,68,0,-1.2308803279082747,0.3132414447571662,1.7470733156207927,0.9573827284770572,-0.003924536784037123,0.2801307563379518,-0.07021159860296022,0.05553661391604692,0.007733305863221981,13079.572413692022
1681924545026291131,68,1681924545026291131,camera_2,69,0,-1.230976561468651,0.3132709136186693,1.7472101591809923,0.9573758307818222,-0.003934287473791899,0.28023805565103965,-0.06987612025444843,0.05730669881450012,0.007979386445043847,13077.106556849089
1681924545036383390,69,1681924545036383390,camera_2,70,0,-1.2309285192578048,0.31325564939703276,1.747134089965856,0.95735428049558,-0.003979349577380904,0.28032533981730706,-0.06981869556245508,0.05502352199982852,0.007661089788309207,13076.738523408538
1681924545046559572,70,1681924545046559572,camera_2,71,0,-1.2311977930472444,0.31333671131326857,1.7475219391148622,0.9573590632888151,-0.004007840946817358,0.28023891199251827,-0.07009788409757489,0.051072733534965664,0.00711547486451364,13071.237088257443
1681924545056500911,71,1681924545056500911,camera_2,72,0,-1.2309449613063568,0.31326258456112055,1.7471550194576544,0.9573326975557902,-0.004007104812447134,0.28025973226094253,-0.0703742266358991,0.056621895520947874,0.0078873600502624,13074.941661459157
1681924545066576719,72,1681924545066576719,camera_2,73,0,-1.2309915141881225,0.3132602965402296,1.7472434932526548,0.9573837662657371,-0.003861488454464642,0.28019301993628193,-0.06995201624495793,0.06128356675617397,0.008533507747945125,13077.245590571078
1681924545076846599,73,1681924545076846599,camera_2,74,0,-1.2309303274870564,0.3132502044361096,1.7471414539013945,0.9573988309650697,-0.0037390900049954286,0.28013416293411986,-0.069988202076154,0.056353239400777966,0.007845738010144876,13079.592036936428
1681924545086547613,74,1681924545086547613,camera_2,75,0,-1.2309365599225268,0.31326151319024276,1.7471631329531825,0.9573817617067847,-0.0039876582947376595,0.28021124641889034,-0.06989934415221503,0.049159789574332535,0.006844709609898831,13078.20368531043
1681924545096460819,75,1681924545096460819,camera_2,76,0,-1.2309444114290762,0.31326585113390065,1.7471757682916207,0.9574051237814893,-0.0040493744543283515,0.2800826516291208,-0.07009093935652629,0.052162006264552474,0.00726341404903676,13079.58518375969
1681924545106301546,76,1681924545106301546,camera_2,77,0,-1.231286079356719,0.3133483726944862,1.7476713503004884,0.9574619340458468,-0.003924905300477925,0.2799176799377929,-0.06998094333325304,0.05749934446066618,0.008009044810790584,13076.030041611753
1681924545116441249,77,1681924545116441249,camera_2,78,0,-1.2310563266187995,0.31327910609309145,1.7473338869464703,0.9574038324618853,-0.003929225403142629,0.280070443444831,-0.07016416096299653,0.058173622004687786,0.008102141216400453,13077.19209392322
1681924545126402616,78,1681924545126402616,camera_2,79,0,-1.2307565396877318,0.31320640654486365,1.7468982515809606,0.9573036326457436,-0.004018870339106249,0.2804114495578991,-0.07016425415622005,0.054847445455379784,0.007637331671285807,13077.057224896274
1681924545136277437,79,1681924545136277437,camera_2,80,0,-1.2310737020246174,0.3132896846749888,1.747356491786862,0.9573604053435715,-0.0038882226903685004,0.28025895771042164,-0.07000608993345453,0.05705312418285757,0.007946321934204801,13073.96143622975
1681924545146407365,80,1681924545146407365,camera_2,81,0,-1.2305728040500676,0.31315970254344433,1.7466274207130956,0.9573022272352539,-0.0038776302389835738,0.28041987710889105,-0.07015769548942179,0.04981384822167456,0.006934091654176403,13080.83478019014
1681924545156262874,81,1681924545156262874,camera_2,82,0,-1.2310219380949898,0.3132724317703397,1.7472651186375474,0.9573989900100134,-0.004009898219180649,0.28016004582954745,-0.06986732687647305,0.05429493385599926,0.007560146863593387,13077.724764949879
1681924545166436195,82,1681924545166436195,camera_2,83,0,-1.230865637978578,0.3132525776948194,1.74708125079803,0.957339692981727,-0.004044132409976728,0.2803254676264586,-0.07001420880586084,0.05685792525764555,0.007917370263505613,13076.887779741783
1681924545176326751,83,1681924545176326751,camera_2,84,0,-1.2308455657539672,0.3132262804206001,1.7470289348903385,0.9573637087945451,-0.004023511832108267,0.2802822520279318,-0.06985985709863367,0.0615576357813552,0.00856987559713227,13079.096783085726
1681924545186264038,84,1681924545186264038,camera_2,85,0,-1.230567023035005,0.3131620943734628,1.7466465558515414,0.9572819534559068,-0.004032034602738542,0.28048651933299895,-0.07015922431914963,0.050756223034113646,0.007065996989224536,13079.469763220051
1681924545196222543,85,1681924545196222543,camera_2,86,0,-1.2305549760688026,0.3131542345129324,1.746612269232371,0.9572841460200145,-0.003979726708874501,0.2804735342843115,-0.07018420135700958,0.05750875506782904,0.008005772192645226,13080.045140839415
1681924545206379175,86,1681924545206379175,camera_2,87,0,-1.2310579817226266,0.3132845505681649,1.747345121054547,0.9573507386879131,-0.0038122321730063506,0.2802615724045693,-0.07013188328345747,0.04759123089024797,0.006628936751991578,13073.527673237026
1681924545216641902,87,1681924545216641902,camera_2,88,0,-1.230675026170441,0.3131949629269428,1.7467829112512492,0.9572658558409036,-0.0039804094382812774,0.2805905227711287,-0.06996567810655893,0.05450424994342029,0.0075882770272146976,13076.253144325687
1681924545226818084,88,1681924545226818084,camera_2,89,0,-1.2308663477965782,0.31323701904740103,1.7470652703083045,0.9573893046441174,-0.00397419983909613,0.2801284913738382,-0.0701281213872855,0.060986387776210904,0.008491483831375348,13080.302604259923
1681924545236593008,89,1681924545236593008,camera_2,90,0,-1.230647126228836,0.3131822479941303,1.7467554827617602,0.9572750067324288,-0.0039679635481371725,0.2805669887591539,-0.0699355529707878,0.05377562588546425,0.007486175678387464,13077.376397466523
1681924545246515989,90,1681924545246515989,camera_2,91,0,-1.2310459955943183,0.31327817321143014,1.7473139654704641,0.9574263771186537,-0.0038784683065229033,0.28004770713861554,-0.06994977918084544,0.0632072107400745,0.008801177158569597,13078.894664161606
1681924545257391691,91,1681924545257391691,camera_2,92,0,-1.2310116886469604,0.3132721917671616,1.747272705166009,0.9574399763114508,-0.004086238505008959,0.2800118622366584,-0.06989528898550516,0.06138857780024409,0.00854724473281146,13080.544263203861
1681924545266543149,92,1681924545266543149,camera_2,93,0,-1.2308173884040285,0.31323480913988094,1.746996121930902,0.9573258548815896,-0.003972199659474304,0.2803791086112946,-0.06999274719165448,0.059741479344666004,0.008318220220621921,13077.111433264101
1681924545276440382,93,1681924545276440382,camera_2,94,0,-1.2306764861838124,0.3131863584903759,1.7467710332401907,0.9573524262795087,-0.003991107438065328,0.2802401825493368,-0.0701843504128249,0.05735790339531377,0.007984841009160748,13082.021849093495
1681924545286235570,94,1681924545286235570,camera_2,95,0,-1.2306297251829594,0.3131657055687808,1.7466943945455968,0.9573364177172048,-0.003886228861626105,0.28032440779799755,-0.07007215517112825,0.0516194436349906,0.007184968541187351,13081.976448453963
1681924545296503305,95,1681924545296503305,camera_2,96,0,-1.2308938935418765,0.313245360096296,1.7470945732470133,0.9573168205633571,-0.00407870819067671,0.28037486909599096,-0.07012704175542098,0.050939014297910035,0.007094359267056597,13074.97311836528
1681924545306545495,96,1681924545306545495,camera_2,97,0,-1.2307815282131054,0.31321995988902473,1.7469457548519134,0.957328017547262,-0.004011406408487724,0.280333469872528,-0.07014357495083802,0.06005303846905008,0.008361970189457247,13078.041160137389
1681924545316432714,97,1681924545316432714,camera_2,98,0,-1.2306660377085958,0.3131885403621335,1.7467564540387508,0.9573415130815264,-0.004000198387466611,0.2802416337438656,-0.07032675493867002,0.05726330081233755,0.007972601319763956,13081.481072995808
1681924545326456785,98,1681924545326456785,camera_2,99,0,-1.2308369089850821,0.313236678611384,1.7470178002484449,0.9573679366994247,-0.0038971282152790204,0.2801561455223142,-0.0703134432213369,0.05520119616994634,0.007686883538572299,13079.464538331373
1681924545336328744,99,1681924545336328744,camera_2,100,0,-1.2310191372020272,0.3132660520325667,1.7472638340540245,0.9574193937185975,-0.0038649510786505606,0.2800567417565009,-0.07000991416510474,0.0598755469545722,0.00833718767484764,13079.157921947302
1681924545346289157,100,1681924545346289157,camera_2,101,0,-1.230917404643744,0.3132639933127508,1.7471521039971765,0.9573208640876286,-0.003929469123161426,0.2804160079158525,-0.06991555591899959,0.0562518032384105,0.007833267515085158,13074.555920098906
1681924545356307983,101,1681924545356307983,camera_2,102,0,-1.2307712653827467,0.31321930147346577,1.7469296429553693,0.957347014707631,-0.003958823353453556,0.280280561104139,-0.07009870337739621,0.05346612865105271,0.007443965654780053,13079.441803562924
1681924545366420030,102,1681924545366420030,camera_2,103,0,-1.2306752814422466,0.313190648943627,1.7467930546662407,0.9573487321949211,-0.003968834594313002,0.28029193997714746,-0.07002914893519264,0.051965967868454754,0.007233579937326595,13081.621623215033
1681924545376364707,103,1681924545376364707,camera_2,104,0,-1.2308692096970857,0.31324422948053143,1.7470515406752154,0.9573835307945897,-0.003946236658024998,0.280172620979093,-0.07003216856009246,0.0471921821590513,0.006570447945294463,13079.837565603659
1681924545386378765,104,1681924545386378765,camera_2,105,0,-1.2308947937718437,0.3132518280837222,1.7470992125722802,0.9573882650732126,-0.0038632650560198327,0.2800938463565034,-0.07028671507781781,0.05480522383004427,0.007631875899496679,13079.528400342446
1681924545396340847,105,1681924545396340847,camera_2,106,0,-1.2308956844544963,0.31323540542392064,1.7471157961232329,0.9573911015666915,-0.003993752709279452,0.2801334932231337,-0.07008248393727616,0.05248942651087418,0.00730852567549089,13079.716085958291
1681924545406271219,106,1681924545406271219,camera_2,107,0,-1.2308318210322882,0.3132363178904337,1.7470066974982363,0.9573666336470977,-0.003952478696203976,0.28016947218484695,-0.07027498521553834,0.05751513736322522,0.008008955694001145,13079.532484976568
1681924545416549682,107,1681924545416549682,camera_2,108,0,-1.2309388504551044,0.31327189564205726,1.7471615074964535,0.9573786322536452,-0.003884253400896162,0.2801258928591383,-0.07028905483450265,0.057399821060243994,0.007994013595303417,13077.993020276768
1681924545426542043,108,1681924545426542043,camera_2,109,0,-1.230812143142828,0.31322832613097207,1.7469808912124203,0.9574018470772504,-0.003935818017699114,0.28005428947707983,-0.07025530225605056,0.0533788331085816,0.007431891761037812,13082.229980309956
1681924545436612367,109,1681924545436612367,camera_2,110,0,-1.2308298698223439,0.3132436322135714,1.7470216009974768,0.9573587012328986,-0.003888984506782085,0.28025799905107046,-0.07003318457027287,0.04980038839858025,0.0069336343302157065,13078.882235618774
1681924545446504354,110,1681924545446504354,camera_2,111,0,-1.2307514960495554,0.31321532491534143,1.7469068378548402,0.9573322438381437,-0.003927549038649389,0.28034723272266715,-0.07003555076613951,0.05690720007987693,0.007922712768379024,13078.916121577378
1681924545456309795,111,1681924545456309795,camera_2,112,0,-1.2306721862682999,0.3131834008841776,1.7467811233337223,0.9573032405179872,-0.003923220154857358,0.28047030159577485,-0.06993943065362,0.06811150192515925,0.00948149333112843,13078.806573320642
1681924545466368436,112,1681924545466368436,camera_2,113,0,-1.2311998919326854,0.3133210808215453,1.7475378246233946,0.9574373463169912,-0.00391785868793834,0.2800035316448094,-0.06997428475671177,0.049846919311676174,0.006942521630616729,13076.273700963704
1681924545476567983,113,1681924545476567983,camera_2,114,0,-1.2309644092062377,0.31326697296154304,1.7471926685007024,0.9573745090569125,-0.003845692771450784,0.280217394069115,-0.0699819413581679,0.054156876751221716,0.007541065392226439,13077.231174095994
1681924545486278295,114,1681924545486278295,camera_2,115,0,-1.230792865396002,0.3132217898406223,1.7469521083613295,0.9573603554890011,-0.003969441971211809,0.28021312622015043,-0.07018544836603079,0.05837210931349546,0.00812740341201901,13080.001694237815
1681924545496647834,115,1681924545496647834,camera_2,116,0,-1.2311761835857693,0.3133034835346298,1.7474900343453377,0.9574129886027913,-0.003839172635569377,0.2800189549451838,-0.07024966106361477,0.05942094756755977,0.00827751871038206,13075.31068644975
1681924545506253004,116,1681924545506253004,camera_2,117,0,-1.2309739482994575,0.31326079734485623,1.7472066112700997,0.957371385550339,-0.004019117347544032,0.28020169025832403,-0.07007773970062862,0.054613019165117294,0.007605571171640724,13076.854595093751
1681924545516249895,117,1681924545516249895,camera_2,118,0,-1.2305972517547927,0.31317817043375834,1.7466914464333854,0.9573223785183623,-0.003977215074204798,0.280395703390842,-0.06997352976772125,0.056585711194202304,0.007876049123340199,13081.454517280215
1681924545526294708,118,1681924545526294708,camera_2,119,0,-1.230894737296943,0.3132416618434567,1.7471158886257097,0.9573840614425985,-0.003964282015991467,0.2801079509051923,-0.070282140003467,0.061109468806535,0.00851008971839212,13079.254970996873
1681924545536384344,119,1681924545536384344,camera_2,120,0,-1.230817356637506,0.3132163725361612,1.7469920197528988,0.9573716134903109,-0.003864111883635594,0.28024868098548017,-0.06989520103847059,0.05887112149503082,0.008195186758801709,13080.168762716465
1681924545546312093,120,1681924545546312093,camera_2,121,0,-1.2308206370739707,0.3132347039318554,1.7469775238888507,0.9573860418556634,-0.003921360724171001,0.28013701333501906,-0.07014159643002195,0.04664906772086397,0.006494717962300647,13081.027876427162
1681924545556540250,121,1681924545556540250,camera_2,122,0,-1.2305695839665796,0.31317125450961414,1.7466177699890548,0.9573302719855157,-0.003931969108142626,0.2803174517687316,-0.07018130942748327,0.04704352986300364,0.0065481403284511274,13082.71575731831
1681924545566295385,122,1681924545566295385,camera_2,123,0,-1.230856728649852,0.31322770580170667,1.7470572127132915,0.9573171628036427,-0.004023735484496052,0.28036618137632185,-0.07016027148461022,0.05892781523289159,0.008206645979040255,13075.721402828109
1681924545576410531,123,1681924545576410531,camera_2,124,0,-1.2311389691466152,0.3132977987599414,1.747431131861657,0.9573749163909572,-0.003932685986178771,0.280175162169389,-0.07014044446464816,0.05550525279249996,0.007731912924238822,13073.668958108641
1681924545586440086,124,1681924545586440086,camera_2,125,0,-1.2309663348412871,0.31326717686602396,1.747203346292007,0.9573699871103095,-0.003994967489686575,0.28025053844691034,-0.06990267316332922,0.05469684611307457,0.007616322155470168,13076.825535811719
1681924545596296548,125,1681924545596296548,camera_2,126,0,-1.2309252323866522,0.3132578836129609,1.747149005113887,0.9573534366915346,-0.00403146640233015,0.2802320750221677,-0.07020063149520106,0.05832751025445759,0.008123370928605381,13076.667494283993
1681924545606425285,126,1681924545606425285,camera_2,127,0,-1.230748782996684,0.31320673212895106,1.746880346840607,0.9573592050864939,-0.003942931284582332,0.2802389635509214,-0.0700994225150754,0.053103387414012104,0.007392859636598535,13080.80509509705
1681924545616311311,127,1681924545616311311,camera_2,128,0,-1.230717504782488,0.3132011587671884,1.746843775760721,0.9573298246151132,-0.003989759487846291,0.28029995382358314,-0.07025400065564212,0.05453953385585919,0.007593905021232622,13079.532632762564
1681924545626302719,128,1681924545626302719,camera_2,129,0,-1.230919314264834,0.3132424161362558,1.7471485549696701,0.957381628446666,-0.003887839096056248,0.280187027726092,-0.07000379785405396,0.06317853956716135,0.008796756167640451,13078.64191460609
1681924545636356830,129,1681924545636356830,camera_2,130,0,-1.2306889929799487,0.31319759347771214,1.746806121883457,0.9572974605915996,-0.003917717068396815,0.28041046712308815,-0.07025804840485222,0.05953280167886987,0.008289415514347158,13078.000138970321
1681924545646316766,130,1681924545646316766,camera_2,131,0,-1.2308634709663124,0.3132276514403838,1.7470689728189546,0.9573263343085812,-0.004006864222145649,0.28029950518915775,-0.07030236176056624,0.057769564737100154,0.008045982076517438,13076.147677304689
1681924545656336069,131,1681924545656336069,camera_2,132,0,-1.2304959273974656,0.31314779546220023,1.7465437528222112,0.9573058616903085,-0.0040126684653105415,0.2803781583464515,-0.07026716151528756,0.057042192260269076,0.007940218556986286,13082.587361314338
1681924545666363954,132,1681924545666363954,camera_2,133,0,-1.2304227168114439,0.3131424550387805,1.7464333334207076,0.9572621790343643,-0.004012353954676803,0.28056348677257287,-0.07012240366772775,0.052153548458591104,0.0072589911340073445,13081.267549738996
1681924545676191568,133,1681924545676191568,camera_2,134,0,-1.2308608588695387,0.3132375947374783,1.7470454103604265,0.9573194057115842,-0.003967509423097704,0.2804310937543373,-0.06987285576490303,0.055049893679097295,0.007664932085110202,13075.83972532675
1681924545686256170,134,1681924545686256170,camera_2,135,0,-1.2305226613922127,0.3131512538702381,1.7465693827418858,0.9572865179967917,-0.004073507167123578,0.2804417098006445,-0.07027358255439209,0.051869642513338476,0.00722092792494796,13080.848011525813
1681924545696192026,135,1681924545696192026,camera_2,136,0,-1.230569343409175,0.3131557635538801,1.7466395046886252,0.957289927255523,-0.003932482006415003,0.28050729031955174,-0.069972786409914,0.05901579582132399,0.008214434258135077,13080.050599554557
1681924545706372022,136,1681924545706372022,camera_2,137,0,-1.2307706392700999,0.31322829897733795,1.7469357980387927,0.9572929597964629,-0.004057827000273513,0.2804427302684577,-0.07018260613383207,0.04892650048714131,0.006813466386228787,13075.868312794715
1681924545716307640,137,1681924545716307640,camera_2,138,0,-1.2306586275795859,0.3131664161429568,1.7467632745420398,0.957315562069045,-0.0039657940003371365,0.28041839972364,-0.0699764831554739,0.05929631635081023,0.008254077503787365,13079.952419523146
1681924545726323604,138,1681924545726323604,camera_2,139,0,-1.23092372683197,0.3132549031159616,1.7471522018774366,0.9573018227658181,-0.003891160162017353,0.28042879256120135,-0.07012682300305986,0.06090801418758929,0.008483230129208652,13073.289953446949
1681924545736420392,139,1681924545736420392,camera_2,140,0,-1.2307340637159854,0.31319865704114397,1.7468790445795976,0.9573522385212107,-0.0038391863668674644,0.2802709805206018,-0.07007231639162621,0.05868904327508062,0.008170103403282062,13080.634474703575
1681924545746460676,140,1681924545746460676,camera_2,141,0,-1.230539217642677,0.31316026437875993,1.7466194432592952,0.9572725074998912,-0.0038096304169270294,0.2805578806506205,-0.07001506056406218,0.056841170182451606,0.007911815230628436,13079.38318095775
1681924545756470680,141,1681924545756470680,camera_2,142,0,-1.230761540843676,0.3132145520252683,1.7468882268743822,0.9573031174160844,-0.003891007600929722,0.28039854444110174,-0.07023003432013604,0.049708035599906,0.006921833321183014,13076.894450661952
1681924545766384124,142,1681924545766384124,camera_2,143,0,-1.2309790724963086,0.31326012081203825,1.7472154486178273,0.9573705264709181,-0.003989760535703743,0.2802043948643401,-0.07008033928552104,0.060520485334564,0.008428326575132424,13076.713249977442
1681924545776302099,143,1681924545776302099,camera_2,144,0,-1.230588020341294,0.31316662591067096,1.7466769514032379,0.957266447367335,-0.004066358777376772,0.28056475414870324,-0.07005592195162752,0.06217365252086893,0.008655557106654907,13078.13928708458
1681924545786285400,144,1681924545786285400,camera_2,145,0,-1.2309421098805586,0.3132652349314084,1.7471763327142809,0.9573700108995213,-0.003903082141167598,0.2801354576040102,-0.07036727629403679,0.05722731217974797,0.007970678320255553,13077.33446691488
1681924545796314954,145,1681924545796314954,camera_2,146,0,-1.2307264738124084,0.31320055325010304,1.7468566088605464,0.957356759848699,-0.0038886840030947756,0.2802647556276324,-0.07003270137377468,0.05750494572566822,0.00800492638408832,13081.135733481497
1681924545806554317,146,1681924545806554317,camera_2,147,0,-1.2307657131852336,0.31321032436153945,1.7469285291434882,0.9573386228727111,-0.004011240676267704,0.2802833579179522,-0.07019907676497872,0.05933152441866696,0.008261377279881417,13079.04396062763
1681924545816490650,147,1681924545816490650,camera_2,148,0,-1.2309990816362453,0.31327358382340165,1.7472393897859393,0.9573613794060069,-0.004012476224076672,0.28027898607313473,-0.06990550208814002,0.060945686185732484,0.008487071195065646,13075.709684733069
1681924545826453924,148,1681924545826453924,camera_2,149,0,-1.2308150598332648,0.31322542815098275,1.7469873045574476,0.9573789324625999,-0.0038060331933685823,0.2802034736142608,-0.06997933382511048,0.05061253166059032,0.007045691648330958,13080.60943750758
1681924545836388587,149,1681924545836388587,camera_2,150,0,-1.2309080863284017,0.31324774792541077,1.7471408456701805,0.9573117347730524,-0.003963422794493331,0.2804138683830676,-0.07004709961165168,0.06204185733804479,0.008640489537297704,13074.186986014014
1681924545846345901,150,1681924545846345901,camera_2,151,0,-1.2310532630028193,0.31330903684999445,1.7473445235934122,0.9574420057894538,-0.003952649031929565,0.280019764029138,-0.06984349553511676,0.060053084627725184,0.008361413645897554,13079.605337846095
1681924545856279373,151,1681924545856279373,camera_2,152,0,-1.230495549137619,0.31314608738347693,1.7465206073004411,0.9572606175351906,-0.0040067130217845,0.28056721024676645,-0.0701291444497457,0.05357877170899883,0.007458215617593243,13079.739041460449
1681924545866529226,152,1681924545866529226,camera_2,153,0,-1.2308358125080845,0.31322714165058835,1.7470119731761802,0.9573332869170013,-0.003867766578638955,0.2803179503360071,-0.07014174835148959,0.05463534785667434,0.00760780579993389,13077.261326777749
1681924545876432657,153,1681924545876432657,camera_2,154,0,-1.2305744313576,0.3131667872560929,1.7466468607530983,0.9573101558705629,-0.00389392685215367,0.2803864218474163,-0.07018231432741055,0.049841214902698994,0.006937990946435553,13081.209640630519
1681924545886438131,154,1681924545886438131,camera_2,155,0,-1.2310374930925867,0.31328366773796457,1.747306309855383,0.9573754565403382,-0.003966105236833662,0.28017960656876073,-0.07011343156916454,0.05892561341170222,0.008207076747661987,13075.718680160586
1681924545896936655,155,1681924545896936655,camera_2,156,0,-1.2308135145034058,0.31322760300317465,1.7469927151415812,0.9572987975299686,-0.003953607071777195,0.28045490302352105,-0.07006017848154393,0.059827589080668986,0.00833106915189036,13075.445563835327
1681924545906528472,156,1681924545906528472,camera_2,157,0,-1.2307667619690565,0.3132175143113079,1.746914642249476,0.9573763493973712,-0.003950121221356932,0.2801670394086705,-0.07015234982436314,0.04778524092398584,0.00665264028120641,13081.467341416515
1681924545916353225,157,1681924545916353225,camera_2,158,0,-1.2310435168355855,0.31327849441265654,1.7473018391207689,0.9573602530015347,-0.0039038359275102496,0.2802904024082222,-0.06988130190348038,0.05084785755025223,0.007081088888962179,13074.620995110603
1681924545926287651,158,1681924545926287651,camera_2,159,0,-1.2306958463879507,0.3132082637290317,1.746810264220628,0.9573432368288928,-0.0040234117069347765,0.28032503706622397,-0.06996865476794138,0.05403397884219885,0.007521612652086406,13080.860347379925
1681924545936289310,159,1681924545936289310,camera_2,160,0,-1.2307422175074856,0.31323923579354884,1.7469014310527942,0.9573182786812825,-0.003924832601027784,0.28035490634294846,-0.07019569417846713,0.053151560947299004,0.007400912551637705,13078.047424234446
1681924545946368694,160,1681924545946368694,camera_2,161,0,-1.2311040832615805,0.31330502254953996,1.7474094276363727,0.9573511910928972,-0.0038943784495384056,0.2803069691727013,-0.06993950073254028,0.057891218282748014,0.008063392029364118,13072.619967156323
1681924545956354856,161,1681924545956354856,camera_2,162,0,-1.2308041294154242,0.3132387992521756,1.74698335610818,0.9573913382532325,-0.003933575531484285,0.28012150503724487,-0.07013055565794099,0.0494101446820423,0.006878908470420711,13081.59844827326
1681924545966404914,162,1681924545966404914,camera_2,163,0,-1.2308716015050956,0.31322948577577175,1.7470839334912542,0.9573742558136747,-0.003999538424948614,0.28018400877616406,-0.07011033606907383,0.06342955894069746,0.008832109642729678,13079.152984997256
1681924545976431131,163,1681924545976431131,camera_2,164,0,-1.2308096067336904,0.31321912473092184,1.7469854814544548,0.9573491973638888,-0.003980491792904647,0.2802442464718363,-0.07021276458904932,0.05811551178339869,0.008092340220414255,13078.870324118529
1681924545986397266,164,1681924545986397266,camera_2,165,0,-1.23083484427874,0.31322918595259464,1.7470185230232098,0.9573736142415741,-0.0040007288307680475,0.28019660605040636,-0.07006867260539375,0.052001333446241915,0.007240172959307566,13079.837988473715
1681924545996371030,165,1681924545996371030,camera_2,166,0,-1.2308603663064221,0.31325621622037253,1.7470385404153637,-0.9573523916960484,0.003876394325363812,-0.2802777873300656,0.07004094238552723,0.0427598028909415,0.005953704434551992,13077.913665680913
1681924546006325244,166,1681924546006325244,camera_2,167,0,-1.2309217689339988,0.3132486772573124,1.7471301001496649,0.9573952419081839,-0.004022427134734495,0.28008855546894623,-0.07020378869288235,0.052887773665133864,0.007364803013914071,13079.552350837737
1681924546016603708,167,1681924546016603708,camera_2,168,0,-1.2307181182459217,0.3132007283935536,1.7468663488160823,0.9573462854792809,-0.003932519299286689,0.28025910541861104,-0.07019586028352406,0.055564155569300056,0.007735911600402341,13080.476121412587
1681924546026573657,168,1681924546026573657,camera_2,169,0,-1.230861952583681,0.31323067586709635,1.7470589091370532,0.9573280214821469,-0.004029514021534907,0.2803196421212773,-0.07019772462713889,0.061111177084967494,0.008510717364418807,13076.39069842756
1681924546036543130,169,1681924546036543130,camera_2,170,0,-1.2310358019485483,0.31328915143694913,1.7473214932192929,0.9573531502484015,-0.003928928910344743,0.28027736035946604,-0.07002935453800123,0.04917392070638016,0.006848887280136078,13074.10035016784
1681924546046698570,170,1681924546046698570,camera_2,171,0,-1.2308921181781183,0.3132557775852377,1.7470895907615043,0.9573441001680745,-0.0038926299767498293,0.2803054335919636,-0.07004273841066812,0.049362677498720586,0.006873635407318781,13076.71665573446
1681924546056606054,171,1681924546056606054,camera_2,172,0,-1.2309309788620308,0.3132624179853005,1.7471468207185155,0.9573720765057048,-0.003969299192071564,0.2802101524873641,-0.07003729173866625,0.05411009705858305,0.007534723647246817,13077.772419205168
1681924546066530466,172,1681924546066530466,camera_2,173,0,-1.2307590429019994,0.3132140470864374,1.746913398912632,0.9573114453799612,-0.003908560628018533,0.2803549451384929,-0.07028957557660664,0.05103625176707283,0.007107020786642964,13077.344769888088
1681924546076744794,173,1681924546076744794,camera_2,174,0,-1.2309966003037647,0.3132838308061591,1.7472389434342972,0.9574039848305673,-0.003986990942443823,0.28009230764737947,-0.07007148443226878,0.05220048374030739,0.007269139517558561,13078.480565146547
1681924546086580514,174,1681924546086580514,camera_2,175,0,-1.231206352356541,0.3133187131256735,1.747544605375586,0.9573867471354381,-0.003953742404283536,0.280198553669794,-0.06988386689201298,0.059168877196498215,0.008241627484597383,13072.918401990086
1681924546096253633,175,1681924546096253633,camera_2,176,0,-1.2309650299930583,0.31327404120538377,1.7472145498240297,0.957388057951977,-0.003990118235827203,0.2801249163505652,-0.07015851115149808,0.050132257980294526,0.006981597664735042,13077.93416112801
1681924546106315612,176,1681924546106315612,camera_2,177,0,-1.2308388627325884,0.3132315772247097,1.7470175721476837,0.9573609522458276,-0.004007744019692942,0.2801697860794196,-0.0703479642281642,0.05494044773513452,0.007651057174515279,13079.049356683157
1681924546116225957,177,1681924546116225957,camera_2,178,0,-1.231069232268995,0.3132918344576051,1.7473616052665946,0.957406122990759,-0.0038962700525077593,0.2801161067163923,-0.06995213719059998,0.05720593989826739,0.007966321035744978,13077.005787325561
1681924546126190900,178,1681924546126190900,camera_2,179,0,-1.2306026353343755,0.3131771077271526,1.7467062657105321,0.9573037642921246,-0.003855307117030494,0.2804834946704936,-0.06988310737645478,0.057055321347434074,0.007941157329831963,13080.099686011206
1681924546136277914,179,1681924546136277914,camera_2,180,0,-1.2307934543354122,0.3132054639992428,1.746958841754604,0.957340591557205,-0.004022078650173179,0.28030933093351695,-0.07006777884189784,0.06431460269959643,0.00895474987029819,13078.694264127404
1681924546146289587,180,1681924546146289587,camera_2,181,0,-1.230805290255296,0.31321916721630505,1.746986702879795,0.9573615186948785,-0.004011689177498969,0.28027644794381734,-0.06991381551721865,0.05655038449913263,0.007872564547074952,13079.745071576675
1681924546156221866,181,1681924546156221866,camera_2,182,0,-1.2310200247664593,0.31326591891694666,1.7472973059666659,0.9573760126527255,-0.00389765340221593,0.2802041089367928,-0.07001168495374424,0.06364976661279798,0.00886404564061488,13076.110884573542
1681924546166112422,182,1681924546166112422,camera_2,183,0,-1.2309652126022896,0.31326029676916295,1.7472107287694658,0.9573798758788307,-0.003940017791806931,0.28018242595529647,-0.07004325597686016,0.05912107817130163,0.008232826714110207,13077.498215079533
1681924546176252365,183,1681924546176252365,camera_2,184,0,-1.230626485217501,0.31317864302088794,1.7467094896732853,0.9572871820236293,-0.003985753317436498,0.28041086154271905,-0.07039256802121639,0.05735262861708179,0.007986052842276596,13078.713667007632
1681924546186174154,184,1681924546186174154,camera_2,185,0,-1.2306916174523415,0.3131956904577469,1.7468009769247332,0.957300534990087,-0.003961519766680602,0.2804589361819721,-0.07001983422222627,0.0535500620608218,0.007455138268447607,13078.207044738574
1681924546196228504,185,1681924546196228504,camera_2,186,0,-1.2308847984456368,0.31326604242439077,1.74709568424124,0.9573362681847623,-0.003841420261116714,0.28034710462517265,-0.06998581311046673,0.0510889834840782,0.007113827036370655,13076.230438220777
1681924546206242561,186,1681924546206242561,camera_2,187,0,-1.2304917313068047,0.3131495039610723,1.7465266568901325,0.957283077913641,-0.0040743684428020495,0.280464281344435,-0.07023030081046194,0.05660672934027389,0.007879892049753192,13081.26972979121
1681924546216266393,187,1681924546216266393,camera_2,188,0,-1.2310970385589886,0.3132932980788924,1.7473940714821914,0.9574397641861918,-0.003808013642706893,0.27994655333271234,-0.07017495467986588,0.05636582901934162,0.007849999240540115,13078.593570656609
1681924546226365089,188,1681924546226365089,camera_2,189,0,-1.2311776679550794,0.31333016736013186,1.7475286644813728,0.9573919177118985,-0.003951480448751434,0.2801412641246531,-0.07004265726568243,0.05636977805988863,0.007852295009356865,13073.613486649001
1681924546236459255,189,1681924546236459255,camera_2,190,0,-1.2309271542112294,0.31326279764879766,1.7471558065117851,0.9573508968666955,-0.004020180820171498,0.2802964639954541,-0.06997850160122182,0.050698258564807475,0.007059824904113264,13076.391319228565
1681924546246666193,190,1681924546246666193,camera_2,191,0,-1.230522728903664,0.31315288811280895,1.7465727319953797,0.9572518594349986,-0.0039970276713442,0.28061600499603995,-0.0700539728930127,0.05848117591813207,0.008140807163620726,13078.557008787058
1681924546256253004,191,1681924546256253004,camera_2,192,0,-1.231131911829188,0.31331577777715774,1.7474354928964912,0.9574145332526928,-0.00391323710025658,0.28008639108310657,-0.06995506859382412,0.05200087005505338,0.007242055631048445,13076.256234118484
1681924546266526222,192,1681924546266526222,camera_2,193,0,-1.2305953230725672,0.31316046109005796,1.7466920935425336,0.9573096016365855,-0.004008966043030435,0.2803511576858923,-0.07032412949939487,0.05703324713977054,0.00794043480077953,13080.743368969765
1681924546276494026,193,1681924546276494026,camera_2,194,0,-1.230953465723985,0.31326111019682196,1.7471797466484111,0.9573969600377448,-0.00408189824490471,0.280061307858257,-0.07028558072553517,0.05037724052090198,0.0070160626015038485,13078.924137818623
1681924546286297798,194,1681924546286297798,camera_2,195,0,-1.2304939415075808,0.31312924106107626,1.7465303919953712,0.9572682770992673,-0.003974211348576412,0.2805439516838363,-0.07011948714283785,0.06102295999880881,0.008494159041711418,13080.2868712924
1681924546296314477,195,1681924546296314477,camera_2,196,0,-1.2308783330914406,0.31324255351793695,1.7470856725866641,0.9573497633727673,-0.003930615646342193,0.2802182407349254,-0.07031158076853751,0.0540477410540916,0.007527205059867416,13077.358322201297
1681924546306588888,196,1681924546306588888,camera_2,197,0,-1.2312132295226499,0.31332895115431647,1.74756137392801,0.9573994395413953,-0.003927602276833748,0.28006222003193315,-0.07025695707161202,0.05409648857312277,0.007536763117707241,13073.541453381298
1681924546316739797,197,1681924546316739797,camera_2,198,0,-1.2308270218368307,0.3132264921408883,1.7470155949350532,0.9573427561302343,-0.003925835894841116,0.2802863430305065,-0.07013559016703907,0.057144358812365674,0.007957045406782505,13077.971492324023
1681924546326526641,198,1681924546326526641,camera_2,199,0,-1.2309643205139738,0.31326911550814984,1.7472002676959841,0.9573969662647354,-0.00396046755654828,0.28005898701974535,-0.07030168897892272,0.058925479010213166,0.008206654158339587,13078.663994796801
1681924546336433887,199,1681924546336433887,camera_2,200,0,-1.2307315543161692,0.3132092033405968,1.7468608191483823,0.9573366833825837,-0.00392243186753779,0.28032503495002975,-0.0700639990190663,0.0572360631194897,0.007968254585770683,13079.694818443151
1681924546346324443,200,1681924546346324443,camera_2,201,0,-1.2305834919541316,0.3131635000853652,1.7466540110647728,0.9573014754483434,-0.004039466071213828,0.2804513634886839,-0.07003285325918324,0.05182702059391886,0.007214211666497767,13080.508450216843
1681924546356482028,201,1681924546356482028,camera_2,202,0,-1.2307470494360284,0.31321263390045084,1.7468971240813662,0.9573237429801915,-0.0038620795614385563,0.28038361150107916,-0.07000975553070615,0.048378053936176,0.0067351602175539154,13078.369839291787
1681924546366268634,202,1681924546366268634,camera_2,203,0,-1.2310374652100238,0.31327793837401474,1.747312221198672,0.9573518064714314,-0.003979564722254851,0.28021462792997054,-0.0702954052878037,0.06177889817627147,0.008606138896905034,13074.156511891171
1681924546376768827,203,1681924546376768827,camera_2,204,0,-1.2309085842897212,0.3132411906465162,1.7471399221760096,0.9573449714711181,-0.003913188402255087,0.2802607171415771,-0.07020842529769146,0.04966886277543381,0.006917277219524639,13076.34458755027
1681924546386715173,204,1681924546386715173,camera_2,205,0,-1.2311670442492382,0.3133147228350202,1.7474763689853305,0.9574546999685485,-0.0038940478600146757,0.27988353399715415,-0.07021781324325488,0.05393430532421917,0.0075121816234315466,13078.215310302101
1681924546396796703,205,1681924546396796703,camera_2,206,0,-1.2307545046317705,0.31321761584069785,1.746909938369161,0.95735888375319,-0.00393230250499386,0.28023045984770834,-0.07013839226413214,0.055432189838029444,0.0077173928075248595,13080.582412863616
1681924546406538724,206,1681924546406538724,camera_2,207,0,-1.2310159997931134,0.3132787115560594,1.7472827495511312,0.9573947610437333,-0.00394365717840042,0.2800897058889026,-0.0702102253887567,0.05028134642634541,0.0070029181264745395,13077.356252881698
1681924546416566610,207,1681924546416566610,camera_2,208,0,-1.2309880807435039,0.31326151550929554,1.7472285466481727,0.9573634871492219,-0.003980079953788119,0.28025055353841677,-0.06999242586490521,0.05324743071105331,0.007415216426640572,13076.028149968475
1681924546426388978,208,1681924546426388978,camera_2,209,0,-1.2308302009781265,0.31323513458362295,1.7470148873509725,0.957350283403596,-0.003879782370813772,0.2802728605453815,-0.07008927020249874,0.059492828615475446,0.008283594031481736,13078.407886050409
1681924546436321020,209,1681924546436321020,camera_2,210,0,-1.2313570728169947,0.3133648836976247,1.7477815345739751,0.9574446898070857,-0.003925025454184737,0.2800018480550259,-0.06988007742674272,0.06313865148695186,0.008795399733242027,13073.395476991778
1681924546446544885,210,1681924546446544885,camera_2,211,0,-1.2310017602986345,0.3132868783653654,1.747277992946231,0.9573745795792215,-0.003887394515584773,0.2802411618329784,-0.06988342975192037,0.051626438507810235,0.007188928293868378,13076.18419435923
1681924546456388950,211,1681924546456388950,camera_2,212,0,-1.2307131421954796,0.31321130754360466,1.7468437171013917,0.9573147889024529,-0.0038373764833744876,0.28045115612441135,-0.06986285507233528,0.051194861822295934,0.007126393042168341,13078.48168748292
1681924546466656923,212,1681924546466656923,camera_2,213,0,-1.2307535811512602,0.3132253605455569,1.746902551582324,0.9573384177609766,-0.0039146440927889,0.2803135295057152,-0.07008676491738748,0.05554428813047707,0.007733125699213956,13079.258814027537
1681924546476355552,213,1681924546476355552,camera_2,214,0,-1.2311596373153237,0.31330886619956216,1.7474778246302027,0.957433985112248,-0.003990406038444317,0.2799602884471534,-0.07018887165580313,0.05295289575587958,0.007375850956702642,13076.988135220714
1681924546486255168,214,1681924546486255168,camera_2,215,0,-1.230973010988624,0.31327547837547276,1.7472294985642025,0.9573818285339751,-0.003978787027738741,0.2801941059321226,-0.06996761141863185,0.053794920502696186,0.007490934026737128,13077.361186143018
1681924546496316432,215,1681924546496316432,camera_2,216,0,-1.230888841684512,0.3132570764774546,1.7470953794347877,0.9573607841769732,-0.004052697031658453,0.28023609826285145,-0.07008304928607058,0.05980748176807538,0.008328225155628373,13077.932339540916
1681924546506529569,216,1681924546506529569,camera_2,217,0,-1.2309560871353216,0.31326295973697865,1.7471996415337558,0.9573611074128104,-0.003920981337813757,0.2802460508245011,-0.0700463197886714,0.05742749205091968,0.007997240708924195,13076.454872405853
1681924546516434669,217,1681924546516434669,camera_2,218,0,-1.230591051169141,0.3131683793299199,1.7466741183044454,0.9572817034375711,-0.003960821283012432,0.28049913878410676,-0.07011622707904695,0.05449274886632338,0.0075860908365002234,13079.011187684247
1681924546526584386,218,1681924546526584386,camera_2,219,0,-1.2307570617591395,0.3132111403262199,1.7469104624444345,0.9573337465241751,-0.004033800122830864,0.28030465341638017,-0.07017925260130849,0.058469643467105925,0.0081412616197557,13078.947284181371
1681924546536607742,219,1681924546536607742,camera_2,220,0,-1.2307167952837121,0.3132074699337204,1.7468563416239022,0.957332446969669,-0.003887080241410439,0.2803513987776317,-0.07001835323462112,0.054533551272470504,0.007591675130020753,13079.624028096438
1681924546546354532,220,1681924546546354532,camera_2,221,0,-1.2309800636477253,0.313260592554115,1.7472133689197167,0.9573710456726625,-0.003951964384370212,0.2801920762119238,-0.07012462700926646,0.05597355362260714,0.007795200341613425,13076.750027737588
1681924546556261301,221,1681924546556261301,camera_2,222,0,-1.2310315722147431,0.31330126048123513,1.747291645718796,0.9573909770523434,-0.0038694904668914523,0.2801629998648097,-0.06997312061810931,0.05098399642156437,0.007099769827548337,13076.800798083652
1681924546566247224,222,1681924546566247224,camera_2,223,0,-1.230617061003573,0.31317303286488446,1.7466984890974169,0.9573033475765869,-0.003987149061284948,0.280480874825008,-0.06989193242729604,0.05687000305624679,0.007915726810959466,13079.957391393837
1681924546576274394,223,1681924546576274394,camera_2,224,0,-1.231061228164509,0.3132948006335499,1.7473655518446631,0.9573527768997011,-0.003956830922427559,0.2802153455053566,-0.07028061037580845,0.060408022545743734,0.008415441319269868,13073.57910184329
1681924546586309671,224,1681924546586309671,camera_2,225,0,-1.2311476598694622,0.3133162949434442,1.7474779030026413,0.9574564188356512,-0.0039350966999808275,0.2799621732201171,-0.0698777690702922,0.059541389578953385,0.00829116976927996,13078.629599540727
1681924546596254348,225,1681924546596254348,camera_2,226,0,-1.2305401291895088,0.31315535812556605,1.7466063055541925,0.9572739808686123,-0.003926072999941395,0.2805720155819335,-0.06993179230543389,0.058804405212868005,0.008184762625262715,13079.584699999308
1681924546606328248,226,1681924546606328248,camera_2,227,0,-1.2311037943814067,0.3132909257138389,1.7473935166378955,0.957467382881401,-0.004052462754364142,0.2798740586327101,-0.07007352972642042,0.051975292386487126,0.007237877513564157,13080.413873781215
1681924546616335391,227,1681924546616335391,camera_2,228,0,-1.2306590190100177,0.31318695772926103,1.7467780880263681,0.9573149929552498,-0.003955749033696083,0.28042293999146617,-0.06996664233200948,0.05616994953015819,0.007818937730360747,13079.754316951377
1681924546626251220,228,1681924546626251220,camera_2,229,0,-1.2309531987044535,0.31326654834869444,1.7471783255351891,0.9573372736683434,-0.003969246983993728,0.2802702260010108,-0.07027225584102072,0.054513394832611084,0.007593088893315845,13075.003007593094
1681924546636324405,229,1681924546636324405,camera_2,230,0,-1.230875771427322,0.31325151225952524,1.7470837728568216,0.9573546522355578,-0.003992290959064655,0.2802580096100207,-0.07008266194474787,0.05634812207426876,0.00784639775931918,13077.71647065575
1681924546646516799,230,1681924546646516799,camera_2,231,0,-1.2307672150881765,0.3132226018853249,1.746922691715819,0.9573147980040158,-0.0039704728223461,0.28032671295715306,-0.07035301607419198,0.05246394645655528,0.0073062729920912155,13077.430306390625
1681924546656508445,231,1681924546656508445,camera_2,232,0,-1.2306519728216547,0.3131929539822115,1.7467763351231065,0.9573661112275148,-0.0038927105787246773,0.2802046721323746,-0.070144975533852,0.056028324645012624,0.0077990381172732826,13083.07205879968
