%time,field.header.seq,field.header.stamp,field.header.frame_id,field.image_seq,field.transforms0.fiducial_id,field.transforms0.transform.translation.x,field.transforms0.transform.translation.y,field.transforms0.transform.translation.z,field.transforms0.transform.rotation.x,field.transforms0.transform.rotation.y,field.transforms0.transform.rotation.z,field.transforms0.transform.rotation.w,field.transforms0.image_error,field.transforms0.object_error,field.transforms0.fiducial_area
1681927928753577470,0,1681927928753577470,camera_2,0,0,-1.2301958329147933,0.31357598494611877,1.7462712251739279,0.9572056661719325,-0.003810403820911618,0.28052881411287106,-0.07103786260505691,0.0967722971108742,0.013457321309491076,13093.219056824222
1681927928763539552,1,1681927928763539552,camera_2,1,0,-1.2311512326540897,0.31511119115193426,1.747627423387792,0.9574012821978545,-0.0037559997605831853,0.27985448908896376,-0.0710643528673701,0.0908752087270841,0.012656412549341873,13082.243932870682
1681927928773978710,2,1681927928773978710,camera_2,2,0,-1.2309359323044675,0.31646437171630687,1.747354925635686,0.9572818886053531,-0.003589542645696143,0.28023800230742657,-0.07116995851133923,0.09143010957632214,0.012740806156067841,13074.927916219225
1681927928783952474,3,1681927928783952474,camera_2,3,0,-1.2310206800606014,0.3179627204274116,1.7474644689481746,0.9573196806219397,-0.0036638278711809856,0.280141102101382,-0.07103920306887516,0.0904780286946334,0.012614715510582027,13071.594059638679
1681927928794001817,4,1681927928794001817,camera_2,4,0,-1.230673630851477,0.3192053703566477,1.7469719400065324,0.9572155460066806,-0.0037872118669913554,0.2805035514915602,-0.07100572589607593,0.08723900164477527,0.012166028825196481,13068.378842914011
1681927928803610086,5,1681927928803610086,camera_2,5,0,-1.2309645267327876,0.32035662364467343,1.7474148672153376,0.9572434904669215,-0.0036605654602815557,0.28046148368085677,-0.07080152816675818,0.09299215633654967,0.012976770161902561,13060.920076291317
1681927928813972949,6,1681927928813972949,camera_2,6,0,-1.230358198902671,0.32084353314457426,1.746549158037657,0.9571218718931553,-0.003594410339179726,0.28099904512053897,-0.07031599533108661,0.09565608866978437,0.013338571943257166,13063.97547858302
1681927928823787212,7,1681927928823787212,camera_2,7,0,-1.230762340279246,0.32128306017348546,1.7471588403963403,0.9572305911767336,-0.0035913417943476376,0.2805319799076481,-0.07070011194228988,0.10321670642588288,0.014403851691334742,13061.42256423179
1681927928833698987,8,1681927928833698987,camera_2,8,0,-1.2305244896496532,0.32110079704085565,1.7468070548494434,0.9571376382942103,-0.0036245964633184347,0.2808987708516229,-0.07050024251807184,0.11240043886937201,0.01568046048769591,13060.88898520126
1681927928843777418,9,1681927928843777418,camera_2,9,0,-1.230754734371998,0.3206562790983359,1.7471420524723689,0.9572139160312709,-0.003765790102144704,0.2805366347836093,-0.07089805586385033,0.10538114642258734,0.014705592086268584,13062.225163694937
1681927928853748321,10,1681927928853748321,camera_2,10,0,-1.2308661371464196,0.31975226708040816,1.7472692985828744,0.9572077283141557,-0.0035893595341945066,0.28056301153605123,-0.07088637324344758,0.103374699188862,0.014422106976292093,13062.35305186082
1681927928863560676,11,1681927928863560676,camera_2,11,0,-1.2306341533531648,0.31852733615620615,1.746913726685566,0.9572242215911156,-0.0036927305061466506,0.28058115830561603,-0.07058588346525427,0.09083265415392816,0.012658922631279365,13071.705683641136
1681927928873955011,12,1681927928873955011,camera_2,12,0,-1.2316304383029084,0.3174121729270814,1.7483318587188519,0.9574770690592338,-0.003530616384091989,0.27967298859048895,-0.0707687531792932,0.08451253228122368,0.011783924850478071,13070.87493562606
1681927928883739471,13,1681927928883739471,camera_2,13,0,-1.2314262562571512,0.315886535820855,1.7480253243205386,0.9573871317454935,-0.003516625006566751,0.2800164303220893,-0.07062798359273077,0.08959622943075374,0.012483413895045934,13073.433882217152
1681927928893995523,14,1681927928893995523,camera_2,14,0,-1.2310858442994788,0.31439577067930097,1.747529180220443,0.9573690916357178,-0.003599541850199911,0.2800388985327393,-0.07077909993521761,0.09373397484887391,0.013047865518780581,13083.410497208128
1681927928903920650,15,1681927928903920650,camera_2,15,0,-1.2305367606489168,0.3130603409851394,1.7467462127303217,0.9573477298841633,-0.0035305554368122234,0.2800491565841241,-0.0710304805028618,0.10129574744496495,0.014084530879215577,13096.915251692986
1681927928913580179,16,1681927928913580179,camera_2,16,0,-1.2303413599109987,0.31217428899972754,1.7464681355219445,0.9572587875634312,-0.00360703977314545,0.2804198651323158,-0.07076229317820576,0.0961949888151139,0.013367800105227355,13097.468748109186
1681927928923590660,17,1681927928923590660,camera_2,17,0,-1.2314150584829007,0.3119878918532384,1.7479728959785197,0.9575551618639316,-0.003761142500191034,0.27932460008650584,-0.07107554840693665,0.09962396754417568,0.01385832281928457,13095.45760645065
1681927928933722972,18,1681927928933722972,camera_2,18,0,-1.2314197254996906,0.31192563233242565,1.747954666214273,0.9575260609240526,-0.003642431099563032,0.2794335467736593,-0.07104553669616367,0.10019846429349855,0.013938334839127582,13093.697951393198
1681927928943721532,19,1681927928943721532,camera_2,19,0,-1.2303100813704644,0.3120585643914485,1.7464034729587579,0.9573045316109965,-0.0037483715791114883,0.28020731138398863,-0.0709777860637539,0.10280170466285199,0.0142853577726591,13101.54715397861
1681927928953723192,20,1681927928953723192,camera_2,20,0,-1.2304203906592126,0.3128818292515311,1.746549433886396,0.9572799010849727,-0.003427726249838234,0.2803939577025358,-0.0705880312475836,0.09420505148591474,0.013093348706035398,13095.444095877465
1681927928963771343,21,1681927928963771343,camera_2,21,0,-1.2307315386476672,0.3140203406485384,1.7470120515409082,0.9573749626523905,-0.003616073751577621,0.279992653482339,-0.0708817246748124,0.10129778017289937,0.014091829943504086,13092.216304913858
1681927928973678588,22,1681927928973678588,camera_2,22,0,-1.2306479060347948,0.31531711411952157,1.7469153393148016,0.957195135841289,-0.0035256969373226314,0.2806687083182995,-0.07064076410840828,0.09173454280244187,0.012770116211716963,13078.425093201455
1681927928983559608,23,1681927928983559608,camera_2,23,0,-1.2311204130670768,0.3168970445724988,1.7476336952163756,0.957265585754988,-0.003643162595575971,0.2804065655727961,-0.07072116853624105,0.07959035021485761,0.011093362601197114,13068.639501254076
1681927928993536472,24,1681927928993536472,camera_2,24,0,-1.231328736156316,0.31837707346798827,1.7479318317756436,0.9573126358940555,-0.0035400362439238476,0.2801777802119308,-0.07099575181996655,0.08909015037352219,0.012428763482586222,13063.446831708312
1681927929003581285,25,1681927929003581285,camera_2,25,0,-1.2305772655445655,0.31938723370895045,1.7468680317065781,0.9571422581654104,-0.0037020374430000156,0.2808050801039492,-0.0708060699418083,0.10249492467846721,0.014293285804881838,13064.971338848118
1681927929013718843,26,1681927929013718843,camera_2,26,0,-1.2311145329249762,0.32045314798749797,1.7476287136627755,0.9572487093500203,-0.003706183674720088,0.2804225106234263,-0.07088291885880661,0.10406081774272025,0.01452604171373074,13057.960287970956
1681927929023730993,27,1681927929023730993,camera_2,27,0,-1.2306961941227255,0.3208544157030305,1.7470177224067764,0.9571928562368481,-0.003680549692240654,0.280665785803274,-0.07067535781683941,0.09470823017181829,0.013214138781891526,13061.720389372433
1681927929033743858,28,1681927929033743858,camera_2,28,0,-1.2301131897546727,0.32085699250517524,1.7462111084372918,0.957064016219524,-0.0036930797987033783,0.28115394983498915,-0.07047897921749302,0.1042035567224957,0.014529285107908595,13065.225772681888
1681927929043661594,29,1681927929043661594,camera_2,29,0,-1.2305367254091941,0.32065795730686386,1.7468049787182567,0.9571587825630757,-0.0037420830730431,0.28067681771314773,-0.0710885769661045,0.09479845978785306,0.013227766522914665,13063.193102502257
1681927929053652763,30,1681927929053652763,camera_2,30,0,-1.2306431612903763,0.319975901231803,1.7469462612585411,0.9571666158389512,-0.003661753713578288,0.28071218070688453,-0.07084724896519382,0.08396138553507626,0.011711980593270834,13063.447955743872
1681927929064129352,31,1681927929064129352,camera_2,31,0,-1.2318788947053239,0.3192892446387261,1.7487280028633598,0.9574219242111635,-0.0037417808172220514,0.2797759313708691,-0.07109631735661076,0.09135514334775507,0.012757690672275532,13056.747700726613
1681927929074058532,32,1681927929074058532,camera_2,32,0,-1.2307464822617185,0.3177208187787333,1.7470979260127217,0.9572125401744687,-0.003737545200590381,0.280564403879739,-0.07080818430253195,0.07934170222142711,0.011058256714435239,13070.65049143136
1681927929083950519,33,1681927929083950519,camera_2,33,0,-1.2307748270224905,0.3162884314682653,1.7471417047829036,0.9572399925808643,-0.0035568848920401884,0.2804294224876554,-0.07098087190850609,0.08583239285508171,0.011956830572809562,13075.856725554684
1681927929093583583,34,1681927929093583583,camera_2,34,0,-1.230657082780601,0.3148471543813061,1.7469409561243185,0.9572659563612589,-0.0037934118969640477,0.28025678097092943,-0.07129961807581406,0.09185255813645199,0.01278839973702662,13084.237251568116
1681927929103585243,35,1681927929103585243,camera_2,35,0,-1.2304145152360837,0.31354784234254696,1.7465371123093358,0.9572945378485628,-0.0036854539269700827,0.28018782464274006,-0.0711924726121246,0.09561595902778208,0.013298240911591269,13094.896667965224
1681927929113581657,36,1681927929113581657,camera_2,36,0,-1.230464143507475,0.31267529870111815,1.7466629411612844,0.957356793102928,-0.0034740983768818323,0.2801045314205179,-0.0706919572358645,0.10046014288673177,0.013961189356952007,13099.89758371003
1681927929123955249,37,1681927929123955249,camera_2,37,0,-1.230206441711387,0.3120471385340884,1.7462680499534249,0.9571994670771625,-0.0037451606138476407,0.280591067926089,-0.07087881629421808,0.09095338720362633,0.012639611591115096,13096.697931190485
1681927929133888244,38,1681927929133888244,camera_2,38,0,-1.2306299107597969,0.3120409120530205,1.7468487220980289,0.9573306406188586,-0.003979716216126495,0.2800207631719692,-0.07134829068529001,0.09348226035945117,0.012999491323393073,13096.815381709024
1681927929143939733,39,1681927929143939733,camera_2,39,0,-1.230218597771845,0.31221736546234075,1.7462910158492098,0.957261673801804,-0.0037143643814383973,0.2804615590801945,-0.0705521455784083,0.0965501373866573,0.013413189901599678,13100.087057437515
1681927929153759479,40,1681927929153759479,camera_2,40,0,-1.2308641895921777,0.31313337187651996,1.747214274286674,0.957345869028767,-0.003676226841608137,0.2801126590644496,-0.07079739148872315,0.0929274937370792,0.012926251422574368,13089.839402657464
1681927929163702011,41,1681927929163702011,camera_2,41,0,-1.2310410914912442,0.3142090608390569,1.7474636844864984,0.9574409947701498,-0.0035673221707688938,0.2797335081080706,-0.07101535177430243,0.09406921017216519,0.013092097680998399,13089.580453315048
1681927929173734664,42,1681927929173734664,camera_2,42,0,-1.2301683324473625,0.3152434154042887,1.746251065320832,0.9570701084808827,-0.003490228532379706,0.28104503109744194,-0.07084007518785693,0.0945500725065358,0.01315821265237752,13080.226958343763
1681927929183656454,43,1681927929183656454,camera_2,43,0,-1.2307539870850335,0.316802211538368,1.7470807474128902,0.9572546419644573,-0.0035746039014589535,0.2804133052904544,-0.07084596573220431,0.08699553279438987,0.012119210090048361,13075.958956354534
1681927929193676710,44,1681927929193676710,camera_2,44,0,-1.2308560761847802,0.3182026652187021,1.7472280901217676,0.9572059090532117,-0.0035677236823641453,0.2805820636528615,-0.07083660478624441,0.09315733570838347,0.012988226160221373,13066.801437080372
1681927929203881978,45,1681927929203881978,camera_2,45,0,-1.2304113274056525,0.31929595932038474,1.746627677209715,0.9571497609584089,-0.003545818667699338,0.28076085394225225,-0.07088797613738038,0.08229398319963366,0.01147278795175336,13069.012295844499
1681927929213581562,46,1681927929213581562,camera_2,46,0,-1.2309569313576818,0.3203076357673965,1.7474226843673364,0.9572210795216554,-0.0037013612657354313,0.2805055717596409,-0.07092763252762815,0.10047979123191908,0.014023567282493769,13059.676140964495
1681927929224288940,47,1681927929224288940,camera_2,47,0,-1.2306571813262668,0.32067130622017054,1.746993931134751,0.9571935809109798,-0.0037509185005836694,0.28067956820208667,-0.07060707660785692,0.08988818863872439,0.012539850586133636,13062.863108770687
1681927929234225034,48,1681927929234225034,camera_2,48,0,-1.2307067095341573,0.32072523545637466,1.747052989229256,0.9571864692447327,-0.0036525198043848074,0.28064320457394576,-0.0708527622633539,0.09693010110640898,0.013525608409422888,13061.33441939321
1681927929244014501,49,1681927929244014501,camera_2,49,0,-1.2309797620562941,0.3204438030728447,1.747432779839666,0.9572598794320675,-0.0037889010875815582,0.2803238510465165,-0.07111755052518837,0.10408173210453242,0.014527942675844478,13061.54745937954
1681927929253967046,50,1681927929253967046,camera_2,50,0,-1.2303613196856393,0.319471260999389,1.7465566092101448,0.957175219795616,-0.0036807705424068537,0.2806896663436707,-0.07081921875668425,0.10257968539372087,0.014299566647040345,13071.354619294878
1681927929264005184,51,1681927929264005184,camera_2,51,0,-1.2309955804079271,0.31856817422727374,1.7474448546728802,0.9572330067099801,-0.0035532931949598333,0.2805560457112194,-0.07057372164854157,0.09413551917532459,0.013125968281571317,13064.641802365197
1681927929273947238,52,1681927929273947238,camera_2,52,0,-1.2314454148709169,0.3173833194817025,1.7480840315314776,0.9574060279744404,-0.0034298466209377945,0.2798973656862375,-0.07084771296426443,0.08905522437999026,0.012416655533119221,13069.950779838484
1681927929283687829,53,1681927929283687829,camera_2,53,0,-1.2312711313938067,0.3159614663071633,1.747832078282982,0.9573903829643394,-0.003467296501185492,0.2799317059465887,-0.07092159380753567,0.08359892410226166,0.011647574016084574,13076.450322370516
1681927929293607950,54,1681927929293607950,camera_2,54,0,-1.2305877919462638,0.3144507935159562,1.7468494241631602,0.9572921312239002,-0.0035047007179771976,0.28028955178965587,-0.07083261767882351,0.09448841481935233,0.01314637028710535,13088.213581340151
1681927929303848981,55,1681927929303848981,camera_2,55,0,-1.2310690940191749,0.313471876395369,1.7475020901169307,0.9574203731050909,-0.0037291076935779283,0.27975485182209836,-0.0712007429814759,0.09290754032554105,0.012930241133337813,13089.635053283304
1681927929313631534,56,1681927929313631534,camera_2,56,0,-1.2304762158561606,0.3126025899578001,1.7466593332020723,0.9573108137198004,-0.003549423055628888,0.2802411830332664,-0.07076925083128494,0.09663558437023312,0.013432076382664606,13096.900065596681
1681927929323654651,57,1681927929323654651,camera_2,57,0,-1.2302226028327274,0.3121714172368741,1.746272914551534,0.9572151470617839,-0.0036711913713552923,0.2805558880641429,-0.07081015648861802,0.10000725800637156,0.01389714905046378,13097.23823482031
1681927929333614349,58,1681927929333614349,camera_2,58,0,-1.2302187570624934,0.3122716120787333,1.7462589709956686,0.9572407724831543,-0.0035911682450697697,0.2804445519852626,-0.07090881657646649,0.10400251514511183,0.01445241906727978,13098.799134308942
1681927929343578100,59,1681927929343578100,camera_2,59,0,-1.2303884755287677,0.3128836410040471,1.7465229562414972,0.9573223072375503,-0.0034643629288066513,0.2802071206729363,-0.07075286410495066,0.09744880633661523,0.013543731670130527,13098.812910916055
1681927929353631496,60,1681927929353631496,camera_2,60,0,-1.230475886885953,0.3138104132497747,1.7466667189011327,0.957245131350373,-0.0036247717458969117,0.2804745087241621,-0.07072955175693815,0.10715589893516153,0.014903598837779027,13089.467879869044
1681927929363550186,61,1681927929363550186,camera_2,61,0,-1.2309623521482245,0.31510677341713356,1.7473836027011609,0.9573487836891784,-0.0037441396055796746,0.28000359605714353,-0.07118478757805291,0.1023494252585806,0.014253700618085742,13082.596892183647
1681927929373618841,62,1681927929373618841,camera_2,62,0,-1.230960613501899,0.3164236138554267,1.7473970171271667,0.9572828165789575,-0.0036859365203426287,0.280257342879656,-0.07107633021380039,0.09241354843834415,0.012877613070337182,13074.587345036683
1681927929383684635,63,1681927929383684635,camera_2,63,0,-1.2308685926385596,0.31776909457846025,1.7472650122502547,0.9572584021950664,-0.003689710340741259,0.28036508785573205,-0.07097996179343638,0.07903163437731563,0.011017029519964588,13071.050923133971
1681927929393602848,64,1681927929393602848,camera_2,64,0,-1.23140555055752,0.31913450134640503,1.748043805255962,0.9572907833856712,-0.003569440584511883,0.28027161655197036,-0.07091851728643926,0.0936831925646402,0.013075051624273354,13058.350386745758
1681927929403893232,65,1681927929403893232,camera_2,65,0,-1.230828122483081,0.31989083769422005,1.747234058377572,0.9572051356832535,-0.003591709104820933,0.28068625416704046,-0.07043191442085195,0.09856869222130626,0.013747688837294245,13062.38197141863
1681927929413861989,66,1681927929413861989,camera_2,66,0,-1.2312230656761167,0.3205567085160921,1.747773942504553,0.9573211716173066,-0.0036987092599965704,0.28014183316203356,-0.07101441568930124,0.09835230326279998,0.01373039449357166,13060.211719187908
1681927929423589706,67,1681927929423589706,camera_2,67,0,-1.2309672686191773,0.3206283764088045,1.747420221131572,0.9572536198128696,-0.003711244138910923,0.280408600743866,-0.07087136693310407,0.09999816777417436,0.013956627594990285,13060.675925621763
1681927929433612346,68,1681927929433612346,camera_2,68,0,-1.231283665448236,0.3203926060772776,1.7478679025500476,0.9573216173597193,-0.003769102696947173,0.28021248616523775,-0.0707253660133869,0.09870680287713186,0.013777855610500192,13059.459659493765
1681927929443543910,69,1681927929443543910,camera_2,69,0,-1.2302480451295388,0.3193628158002664,1.7463937707087407,0.9571067601488438,-0.003578310442207292,0.28093365827635663,-0.07078223660796805,0.0999487629160285,0.013931703770802419,13069.478308793856
1681927929453571081,70,1681927929453571081,camera_2,70,0,-1.2304973290847778,0.31836608999329835,1.746745160356364,0.9571780938850976,-0.0035313109816489984,0.28076429875546116,-0.07049138226475993,0.09189836494624615,0.012804449074615854,13071.771365535908
1681927929463598489,71,1681927929463598489,camera_2,71,0,-1.2311011878665494,0.31724725494225436,1.747592051029383,0.9572997777360972,-0.003456084960297778,0.2803049081143858,-0.07067071182711955,0.09174885071115568,0.012786922220173672,13070.541264244363
1681927929473629713,72,1681927929473629713,camera_2,72,0,-1.231425152814973,0.3160316758063386,1.7480440007103293,0.9574329994976852,-0.0036053476050184464,0.2797668961909111,-0.07098969458461238,0.0808637609006837,0.011268996197219657,13075.924228688233
1681927929483581542,73,1681927929483581542,camera_2,73,0,-1.2307425182842464,0.3145710101782002,1.7470444158664167,0.9573372435007808,-0.0036181772946949674,0.28009491959706245,-0.0709869496126304,0.0961199117009528,0.013376962899310443,13087.909734008368
1681927929493581771,74,1681927929493581771,camera_2,74,0,-1.2306701394883892,0.31349330810473797,1.7469451540212915,0.9573095577481356,-0.0037472072254192863,0.28008723583554046,-0.07138283690135322,0.09780404856428504,0.013609441901346336,13090.467718232652
1681927929503593444,75,1681927929503593444,camera_2,75,0,-1.2303805334496598,0.31271657021015614,1.7465003284098537,0.9573131932363045,-0.003592446656889853,0.28023881926903244,-0.07074424752180176,0.10525974287884311,0.014628890201354562,13098.93538696272
1681927929513624906,76,1681927929513624906,camera_2,76,0,-1.2303074190733112,0.31241878877656076,1.7464045617209085,0.9572631522528282,-0.003532865547539505,0.28042544102920636,-0.07068485144341027,0.0992025596788153,0.013785064291355321,13097.899140811289
1681927929523584604,77,1681927929523584604,camera_2,77,0,-1.2305306191528,0.3126513984821962,1.7467383777518917,0.9573672006795538,-0.0035181609591892634,0.2801274702523339,-0.0704575476190315,0.10603597748558968,0.014734694857026179,13099.421985161023
1681927929533568143,78,1681927929533568143,camera_2,78,0,-1.2312593995136445,0.31346412172864907,1.7477771070492587,0.9574377100237388,-0.0037667261300047138,0.2796062782134607,-0.07154839189232541,0.10310557240154594,0.014356414519842273,13086.985324202804
1681927929543899536,79,1681927929543899536,camera_2,79,0,-1.2310207769618338,0.31436534841085406,1.747448240493711,0.957403139761579,-0.0035329667499895356,0.27993031407092445,-0.0707514338000858,0.08939459087559953,0.012440953824318117,13086.948578213578
1681927929553633213,80,1681927929553633213,camera_2,80,0,-1.2306328584969377,0.3154884119402748,1.7469182204446687,0.9572208175396983,-0.0034531844939421704,0.2805749395505144,-0.07066884236852639,0.09543917170958593,0.013285586000105936,13079.865848938942
1681927929563961267,81,1681927929563961267,camera_2,81,0,-1.2305041308816462,0.3167584121653614,1.746730696007983,0.9572095587815713,-0.003498402183975988,0.2806247696114288,-0.07062124637728565,0.0746307906229049,0.010392042900588835,13078.160854343329
1681927929573705196,82,1681927929573705196,camera_2,82,0,-1.2312327198573243,0.31821155065510537,1.7477963880149572,0.9573710694460731,-0.0035023221338159397,0.28000252645278095,-0.07090101767544027,0.08555441099451855,0.011930199157348704,13069.695268840993
1681927929583622455,83,1681927929583622455,camera_2,83,0,-1.2309794960248894,0.31925629653910914,1.747421190198266,0.9572942405596615,-0.0037183791840181167,0.280236048448249,-0.07100470264465479,0.08251071214908734,0.011509706585947155,13066.96642699651
1681927929593659639,84,1681927929593659639,camera_2,84,0,-1.2305804182746678,0.3199136503443056,1.7468578459610846,0.9571891735697061,-0.003584661120938309,0.28072444019785053,-0.07049698490853823,0.09292646974790841,0.012956851039051427,13066.477441316469
1681927929603581905,85,1681927929603581905,camera_2,85,0,-1.2310698294717892,0.3204321719251102,1.7475664246967013,0.9572287194307761,-0.0036222991910493914,0.2804592111126972,-0.0710118901841841,0.09336848353268579,0.013034005847042349,13057.569405871915
1681927929613634586,86,1681927929613634586,camera_2,86,0,-1.23110641125874,0.32035184146947854,1.7475914371432937,0.9572762539593623,-0.003656273236461894,0.2803433144364449,-0.07082676981438221,0.09344346239231527,0.013041482303694151,13060.285916364519
1681927929623580694,87,1681927929623580694,camera_2,87,0,-1.2307145564280266,0.3197479783239362,1.7470512734403516,0.9571702992455614,-0.003577612520642966,0.280705463060967,-0.07082839782560937,0.09668739326298237,0.013486787108829184,13062.990883820228
1681927929633530139,88,1681927929633530139,camera_2,88,0,-1.2310875972135051,0.3189770413429252,1.747582874083184,0.9572804360777398,-0.003688996867155141,0.28027976401393023,-0.07101979927613178,0.09349058440420777,0.013042554197567138,13064.728832182474
1681927929643578290,89,1681927929643578290,camera_2,89,0,-1.2310218841060716,0.3177599727151747,1.7474916871743675,0.9572661844479697,-0.003604114949578406,0.28037856532909533,-0.07082600208859899,0.08748474263120443,0.012196507953644098,13068.431624777379
1681927929653592586,90,1681927929653592586,camera_2,90,0,-1.2311529721417016,0.3164482997657734,1.7476423114741613,0.9573743769586396,-0.003618182626681734,0.28001380959167854,-0.07080591455162415,0.09013524843612686,0.012558160354380959,13076.702460162332
1681927929663550615,91,1681927929663550615,camera_2,91,0,-1.230736074896284,0.31509282581726783,1.7470687754094558,0.9573257792494207,-0.003777150304997825,0.28011461943818333,-0.07105550996977285,0.09929671656573191,0.013823566525059557,13085.697979487006
1681927929673592567,92,1681927929673592567,camera_2,92,0,-1.2303960772046134,0.3139138286082175,1.746552174381002,0.95725025674169,-0.0035829239951431797,0.28045268744588303,-0.07074884259120898,0.1013455317588523,0.014094098691762515,13091.156299557766
1681927929683764934,93,1681927929683764934,camera_2,93,0,-1.2308124318699145,0.3132279383427199,1.7471567773655043,0.9573598489011241,-0.00373474797170912,0.27997875819183693,-0.0711341432152078,0.10361480026040226,0.014415246590897091,13091.580641851757
1681927929693660974,94,1681927929693660974,camera_2,94,0,-1.2304327334552174,0.3127303253758323,1.7465774113904213,0.9573705878767366,-0.003602329629304967,0.28004250818817356,-0.07074442944480147,0.09815488127060235,0.01364055862412201,13101.53582229
1681927929703608751,95,1681927929703608751,camera_2,95,0,-1.2303950555750323,0.31278241756068387,1.7465311779288348,0.9573280071586326,-0.0034983182016598393,0.2802265314347672,-0.07059702231312877,0.10534880741033703,0.014639702101425825,13099.340181119267
1681927929713638305,96,1681927929713638305,camera_2,96,0,-1.2312365628441964,0.3135068782374736,1.7477310300871556,0.957415951494825,-0.003704435423973932,0.279697311824342,-0.07148696902013255,0.0863293917500414,0.012020182780985503,13085.897774871433
1681927929723580360,97,1681927929723580360,camera_2,97,0,-1.2309474127181128,0.3142531164406198,1.7473273389306154,0.9573646540873659,-0.003632590465298597,0.2799890251034599,-0.07103428195106704,0.10510936338687316,0.014630265613468587,13086.430995690636
1681927929734003543,98,1681927929734003543,camera_2,98,0,-1.23035407009673,0.31525295828971334,1.7465065020435389,0.9572230718633336,-0.003588729345299319,0.28050655945410274,-0.07090262207726582,0.10601834231056273,0.014753356677935356,13086.503582192117
1681927929744152545,99,1681927929744152545,camera_2,99,0,-1.2308348389067896,0.31669549903437827,1.747203194269285,0.9572643918879585,-0.0036849664653996203,0.280366108170272,-0.07089534847210567,0.08517565706279129,0.011867096283198555,13075.203060454456
1681927929753952264,100,1681927929753952264,camera_2,100,0,-1.2311899315664139,0.318072100721282,1.7477284022961002,0.9573049408772971,-0.0036784088039075,0.2802011074488764,-0.07100041454110938,0.08834572351770476,0.012321431430020242,13066.744908926543
1681927929764000415,101,1681927929764000415,camera_2,101,0,-1.231123056020081,0.3191142018501099,1.7476220495227264,0.9572586603794476,-0.0036743356052623185,0.28033072256664826,-0.07111288470921417,0.08628125610994175,0.012039501055582323,13062.165836118162
1681927929773633956,102,1681927929773633956,camera_2,102,0,-1.2307382596558554,0.3197494320675696,1.747092388606999,0.9572231074301467,-0.003593688483399748,0.28056904349213546,-0.0706542273241038,0.09837959060678259,0.013719862841222135,13065.935504139175
1681927929783624649,103,1681927929783624649,camera_2,103,0,-1.230665385987234,0.320108392640767,1.7469795422807495,0.9572080139839149,-0.0035783349816904324,0.280654181061752,-0.07052123181202638,0.09380612510722132,0.013081749584136436,13065.394966447962
1681927929793619871,104,1681927929793619871,camera_2,104,0,-1.2307958033594038,0.3200725139425546,1.7471509977467397,0.9572181980732829,-0.0036403630387789898,0.2806111062543679,-0.07055123018759593,0.09303108346648514,0.012976034665658286,13063.597612976097
1681927929803592205,105,1681927929803592205,camera_2,105,0,-1.2304308806110718,0.3194432440864916,1.746634381128671,0.957126151201671,-0.0037419898175932225,0.28086937220780656,-0.07076668675071394,0.09961569460574538,0.013889009376218453,13066.961581512118
1681927929813585042,106,1681927929813585042,camera_2,106,0,-1.2307033142314758,0.31865685227537616,1.7470444618264753,0.9572358907314439,-0.0034892373954879194,0.28053136538649553,-0.07063588147935675,0.0889362352900207,0.012396209908262922,13070.445665378824
1681927929823681354,107,1681927929823681354,camera_2,107,0,-1.2315951549533042,0.31776444854005453,1.748282874358569,0.9574373045770243,-0.0036706536584849713,0.2797429103578707,-0.07102280063832034,0.08383504545781761,0.011694156165490249,13067.953393393193
1681927929833592176,108,1681927929833592176,camera_2,108,0,-1.2305142938973253,0.31616339708999586,1.7467441574357643,0.9572123909967732,-0.0036208148891836178,0.2805674389817365,-0.07080424002140194,0.07825416699051857,0.01089584516528093,13079.831934806665
1681927929843751907,109,1681927929843751907,camera_2,109,0,-1.231179403225192,0.3150881549529008,1.74769463614794,0.9574028873236298,-0.0037479425824160652,0.2797977019794616,-0.07126647344851962,0.09137852216372266,0.012728754112624963,13081.698313642999
1681927929853968143,110,1681927929853968143,camera_2,110,0,-1.2300658154642587,0.3137636304640418,1.7460742019348572,0.9572277812942902,-0.003554234191323255,0.28054912725161735,-0.0706719840961021,0.09672154870349914,0.013443494489818323,13096.873382957414
1681927929863970041,111,1681927929863970041,camera_2,111,0,-1.2308257531675941,0.3132719950323271,1.7471429599864754,0.9574125370564981,-0.00372499282709529,0.2798284912124623,-0.07101671508338643,0.09945679368684068,0.01383398958369603,13094.7786679503
1681927929873965978,112,1681927929873965978,camera_2,112,0,-1.230565710680115,0.3129279095413356,1.7467845732314544,0.9573796263910661,-0.0035538148590457627,0.28002831376696835,-0.07068072481291254,0.10293274774448946,0.01430758758925075,13098.746188103682
1681927929883616924,113,1681927929883616924,camera_2,113,0,-1.2306181386512547,0.31312262540914265,1.7468667910731777,0.9573496618407351,-0.0036741388852227744,0.280085409781219,-0.07085399709662978,0.10205464327009395,0.014190875090100048,13095.21191752819
1681927929893953084,114,1681927929893953084,camera_2,114,0,-1.2298834467593236,0.313534066117387,1.745824149414676,0.9571606469199814,-0.0036619454694704536,0.28074756279235674,-0.07078765520380832,0.10398907179478556,0.014452461918944132,13096.877883060137
1681927929903753280,115,1681927929903753280,camera_2,115,0,-1.2302292516049202,0.3145887154252829,1.746317643988754,0.9572012002595224,-0.003666999747458532,0.280624833799314,-0.07072565298171028,0.09743043436901644,0.013551608474080755,13089.46847297344
1681927929913557767,116,1681927929913557767,camera_2,116,0,-1.231307555084709,0.31604390038223057,1.7478842510705406,0.9573677483410205,-0.0034981094911408855,0.28004844064555134,-0.07076459961327725,0.0893555277143605,0.012450380496026505,13073.946860091059
1681927929923578977,117,1681927929923578977,camera_2,117,0,-1.230878658573027,0.31715724204741086,1.7472873718977944,0.9573265606582974,-0.0034407356117165024,0.28026565550061516,-0.07046403297722946,0.09495854476699606,0.013226664526070143,13076.988212408964
1681927929933591127,118,1681927929933591127,camera_2,118,0,-1.2307474235967129,0.3183130110912192,1.7470895390303876,0.9571857368968782,-0.00346811751254501,0.2807048508963598,-0.07062735960909225,0.09225743904244155,0.012859874215732649,13067.282468486574
1681927929943600893,119,1681927929943600893,camera_2,119,0,-1.230856364963189,0.3192910266232512,1.7472278069317453,0.9572332821599953,-0.0038643473884944365,0.28040266173665335,-0.07116078720379584,0.08981179917464033,0.012529658274033871,13065.589441711782
1681927929953583478,120,1681927929953583478,camera_2,120,0,-1.2308563297235675,0.3198629946805366,1.747238958980254,0.9572383777415799,-0.003633304393783463,0.28050668404072804,-0.07069290973163968,0.10173503123223782,0.014190777175134043,13064.325223494783
1681927929963629245,121,1681927929963629245,camera_2,121,0,-1.230829719604607,0.31999717126677224,1.747203582160758,0.9572536757089474,-0.0035558171413709377,0.28049389260979474,-0.07054029142817214,0.08750923222396523,0.01220461668566415,13065.378577656807
1681927929973733186,122,1681927929973733186,camera_2,122,0,-1.2304272487567935,0.31957735590157105,1.7466364050803047,0.9571184924703058,-0.003674651953857172,0.2808681317454368,-0.070878634821893,0.10305969684850425,0.014371113242285526,13066.095890665896
1681927929983601570,123,1681927929983601570,camera_2,123,0,-1.2312172876862844,0.31909940415318266,1.7477610742769163,0.957277389506464,-0.0036758633215026046,0.2803327543105346,-0.07085220130102263,0.09516953193815425,0.013278667635809916,13061.512225968065
1681927929993609905,124,1681927929993609905,camera_2,124,0,-1.2307540482175123,0.31790076092783254,1.74710606691694,0.9572760106387043,-0.003651346278773917,0.280362886908091,-0.07075280044323955,0.08600437600398436,0.011985032584100403,13074.221330137227
1681927930003646135,125,1681927930003646135,camera_2,125,0,-1.2312554080422404,0.3167910134708084,1.7478248956517044,0.9573890270258079,-0.003645274357518265,0.27994262598367153,-0.07088786259157222,0.09620606619864702,0.013408608476742814,13074.311542022038
1681927930013599157,126,1681927930013599157,camera_2,126,0,-1.230032964990446,0.3152612357685557,1.7460628064095547,0.9570962043745272,-0.003460487239897663,0.28104019193554947,-0.07050738342021605,0.09018436842598021,0.012544415173985305,13084.586948274628
1681927930023611068,127,1681927930023611068,camera_2,127,0,-1.2306459361854312,0.3143719317101231,1.746919838877347,0.95730366149149,-0.003545605849534391,0.28022089123619676,-0.070946321179735,0.09751139843137933,0.013568401611357144,13088.100125485098
1681927930033561229,128,1681927930033561229,camera_2,128,0,-1.2306120748433946,0.3135661807480855,1.7468493292707616,0.9573364827980677,-0.0038436479488076904,0.28001484043455427,-0.07130059053529539,0.09872990369331092,0.01373581376517068,13093.371652158443
1681927930043832063,129,1681927930043832063,camera_2,129,0,-1.2303946716934755,0.31310169679872735,1.7465399189114381,0.9573011754100255,-0.00366739536603964,0.28023864338632076,-0.07090354379583293,0.10073321481468156,0.014004482431720098,13096.708257226739
1681927930053650140,130,1681927930053650140,camera_2,130,0,-1.23101682506503,0.3133389662642456,1.7474201499170634,0.9573890754171004,-0.003627905898058774,0.279820451309803,-0.07136884193794088,0.09408696863101795,0.013094783990560351,13089.122857111044
1681927930063641309,131,1681927930063641309,camera_2,131,0,-1.2298413234589176,0.3135156527079547,1.745749300269567,0.9570703233883828,-0.0036594314872409202,0.28102970815717054,-0.07088940529826726,0.10442145937122405,0.014516026002336296,13091.909057693787
1681927930073659896,132,1681927930073659896,camera_2,132,0,-1.2304371173991435,0.31452579830920885,1.7466391699126027,0.9572306713806705,-0.003597494051735288,0.2805003888567976,-0.07082394832148217,0.0921072221826762,0.012814788266531013,13087.089448126964
1681927930083583831,133,1681927930083583831,camera_2,133,0,-1.2310744110590581,0.31582349034202706,1.7475348387802563,0.9573194865446452,-0.0034461737532266103,0.2801677412808414,-0.07094759554735719,0.09468220605049282,0.01318982897859079,13076.305874875045
1681927930093569993,134,1681927930093569993,camera_2,134,0,-1.2308633080869376,0.31701088830717106,1.7472668935107083,0.9572663892558101,-0.0035083017695434096,0.28046507979876706,-0.07048468509760712,0.08281002804869786,0.011535758644998883,13073.732770685572
1681927930103653192,135,1681927930103653192,camera_2,135,0,-1.2309579617325324,0.31821966607528407,1.747400113880817,0.9572239733590481,-0.0035939576886387537,0.28055206335380756,-0.07070988645705734,0.10368637496139854,0.01445690027179026,13065.774678522255
1681927930113678216,136,1681927930113678216,camera_2,136,0,-1.2312902529937706,0.3192396257233061,1.7478698341845385,0.957333629912674,-0.003672394108632094,0.280074167527514,-0.07111466264775668,0.08535781956743449,0.011911985506196501,13063.17384490674
1681927930123755693,137,1681927930123755693,camera_2,137,0,-1.2304511419617115,0.3195673630199877,1.7466928442699925,0.957189366712103,-0.0036944462240770044,0.28062082596616583,-0.07090006596927576,0.1079754809034057,0.015054544054287905,13070.224153632527
1681927930133715629,138,1681927930133715629,camera_2,138,0,-1.2306972870072421,0.31979173526399896,1.7470283635579538,0.9572263687028961,-0.003551266435357704,0.28056659322919214,-0.07062191112068054,0.09822152578271925,0.013696644872038255,13066.86277212622
1681927930143784761,139,1681927930143784761,camera_2,139,0,-1.2306464528063241,0.3194688016481404,1.7469438369126236,0.9571972742704491,-0.0037489416149410672,0.2805960045264031,-0.07088868604939226,0.104075456794817,0.014514215314500981,13067.119882390372
1681927930153581857,140,1681927930153581857,camera_2,140,0,-1.231056967918906,0.3188882655588714,1.7475498331942452,0.957266330384076,-0.0036727621439084333,0.2803635280837369,-0.0708800088295637,0.10028614132897928,0.013988720656441134,13064.649361805295
1681927930163582324,141,1681927930163582324,camera_2,141,0,-1.2306149283940315,0.31775144291055374,1.746901838935435,0.9572174246273102,-0.0036594697273641553,0.28056395099183196,-0.07074800120870817,0.09066907467786223,0.01263370133289449,13073.665478600658
1681927930173710346,142,1681927930173710346,camera_2,142,0,-1.231174620718223,0.31673836335207284,1.7477057587045768,0.9573212460353916,-0.0036362440687569835,0.28017224890015385,-0.07089654832605163,0.08063994254916906,0.011239390217824151,13071.723699003454
1681927930183658838,143,1681927930183658838,camera_2,143,0,-1.2303242112837212,0.31529606286476264,1.74648024613643,0.9572071372300075,-0.0036128220006392954,0.2806183541426207,-0.07067378065033865,0.0901789617491886,0.012547534615042892,13085.795271409443
1681927930193609476,144,1681927930193609476,camera_2,144,0,-1.2307088549906373,0.31435420466420577,1.7470168658749081,0.9573813168253036,-0.003694449910170643,0.2798695771670396,-0.07127681958429045,0.10211351164616644,0.014210705547720002,13092.003363741798
1681927930203604221,145,1681927930203604221,camera_2,145,0,-1.2305278848569519,0.31359543721442956,1.7467304097082066,0.9572692489492544,-0.0037539923074605235,0.2802822847259842,-0.07115710383839766,0.08854272571625188,0.012317820532996224,13090.552691795396
1681927930213646650,146,1681927930213646650,camera_2,146,0,-1.2310785682189807,0.31345207090803484,1.747508199324156,0.9574403627914744,-0.003760855371739962,0.2796364703505085,-0.07139504264661554,0.09013985452475026,0.012546103674383753,13090.86530957697
1681927930224171876,147,1681927930224171876,camera_2,147,0,-1.230832191433306,0.31351002334012823,1.7471683774938112,0.9573496297492958,-0.0039052203815359444,0.2799098942318394,-0.0715324177123802,0.10914965625852346,0.015192412241121035,13089.87307439093
1681927930234050035,148,1681927930234050035,camera_2,148,0,-1.230261617292899,0.3139255050387499,1.7463765322240352,0.9571510549662168,-0.00353232343266387,0.28073817350617675,-0.07096096535871914,0.1066184391384013,0.014830462963853677,13087.318279471481
1681927930244009971,149,1681927930244009971,camera_2,149,0,-1.2312164126609697,0.3151194244853788,1.7477285825538553,0.957416212595532,-0.0037123833710309096,0.27979633015657945,-0.07109449837957942,0.09075967385433614,0.012641279928686504,13081.812476011924
1681927930254069566,150,1681927930254069566,camera_2,150,0,-1.2307209804900985,0.31616003872620524,1.7470797772821685,0.9573172501368373,-0.00368283805853737,0.2802530377225198,-0.07062828145706469,0.0837830820819363,0.011665101082432483,13082.266010418538
1681927930263922452,151,1681927930263922452,camera_2,151,0,-1.2315733696456839,0.3175436354500436,1.7482685873915733,0.9574505313900482,-0.0035996937013479096,0.2797504636543305,-0.07081807842181179,0.08700039173709229,0.012132026594065329,13069.823639234532
1681927930273994684,152,1681927930273994684,camera_2,152,0,-1.2307496713962824,0.31838574713205003,1.747086961487572,0.9572273632346844,-0.003697023923363029,0.2805586906340189,-0.07063234527189806,0.09341307706199586,0.01302062638308965,13069.826616165694
1681927930283966541,153,1681927930283966541,camera_2,153,0,-1.2306407584986616,0.31916946621036046,1.7469406048118454,0.9572231668757896,-0.0037441421850795326,0.2804512824484601,-0.07111166127012138,0.0890361075871624,0.01241650442436527,13069.53440836957
1681927930293983697,154,1681927930293983697,camera_2,154,0,-1.2303973390333636,0.31951679499847563,1.7466142558959998,0.9571521852230187,-0.0037088340325665313,0.2807291932924608,-0.07097224039216478,0.10137190629029647,0.014134588068764432,13068.992403046464
1681927930303675174,155,1681927930303675174,camera_2,155,0,-1.2302543001091488,0.31946024914142485,1.746401955952214,0.957134360841281,-0.00371267692890718,0.2808168648540038,-0.07086550458821303,0.11395173572236672,0.015884454111513985,13071.014538722342
1681927930313634634,156,1681927930313634634,camera_2,156,0,-1.2306354852223027,0.31910461729659906,1.7469294007612564,0.9571787900376381,-0.0036819105835039635,0.2805890483282162,-0.07116876698949096,0.09038861247245222,0.012606466126507673,13066.957332315389
1681927930323692798,157,1681927930323692798,camera_2,157,0,-1.230621792910449,0.31829440308056167,1.7469125789497952,0.9571755036126941,-0.0035559068528808998,0.2807799628880857,-0.07046292110609861,0.09027866536052898,0.012580742312659791,13069.253947531572
1681927930333585500,158,1681927930333585500,camera_2,158,0,-1.2309950391449793,0.31728678041013303,1.7474572818403984,0.957290230669301,-0.0034962114375624723,0.2802942137897035,-0.07084027446807754,0.0878105009905994,0.012238209399125151,13071.850753915496
1681927930343990802,159,1681927930343990802,camera_2,159,0,-1.2313100151157255,0.3161303833995527,1.7478892140700086,0.9574094532049093,-0.003674700768132953,0.2798436977872202,-0.0710009879995782,0.09496153390500695,0.013233127159431006,13076.466893201696
1681927930354040384,160,1681927930354040384,camera_2,160,0,-1.2308757765085756,0.31490587564258365,1.7472766121611276,0.957351887117105,-0.0037526820576633626,0.2799052068884433,-0.07152871288811141,0.10293152392841876,0.014334996740614683,13085.107937642606
1681927930363938570,161,1681927930363938570,camera_2,161,0,-1.2303799559962423,0.31395044901325475,1.7465298360575974,0.9573083159316981,-0.003609314831849135,0.28019966356637516,-0.07096414328201982,0.09239036083454266,0.012848528403001208,13095.134378077462
1681927930373657941,162,1681927930373657941,camera_2,162,0,-1.2304914599309207,0.31353960158732946,1.7466950179562208,0.957331772477712,-0.0037632637577331173,0.28007868624244986,-0.07111712004345887,0.08457698166603222,0.01176304579250734,13095.426963224776
1681927930383604049,163,1681927930383604049,camera_2,163,0,-1.2304787217765483,0.3134880590303183,1.7466519271313055,0.9573384164856655,-0.0038801245435851647,0.2799629346586137,-0.07147626299395896,0.0816743925679475,0.011361637209819368,13096.397362877851
1681927930393590927,164,1681927930393590927,camera_2,164,0,-1.229933464229267,0.31373161309923053,1.7458894097811066,0.9571452684390784,-0.0036136779989988117,0.2808247435161975,-0.07069186562162438,0.10956287884619087,0.015228954282655352,13094.311631214805
1681927930403594017,165,1681927930403594017,camera_2,165,0,-1.2309475073190885,0.31481856481392245,1.747351503833682,0.9573832366254138,-0.003834349098429766,0.2798360926112641,-0.071375046533773,0.10081297287251799,0.014038478086445174,13086.067503455797
1681927930413715362,166,1681927930413715362,camera_2,166,0,-1.2313516053430738,0.31597809581211456,1.747971157639466,0.9574214638215479,-0.0035157214773765167,0.2798434283410286,-0.07084797760442864,0.08925262454431504,0.01243559953828481,13076.654166271914
1681927930423651695,167,1681927930423651695,camera_2,167,0,-1.2305321818316286,0.3168918746223813,1.7468030030564765,0.9571938075616244,-0.0034318744181947858,0.28069267911787293,-0.07056810110303649,0.08918095903936774,0.012419388261966466,13076.075274768285
1681927930433620929,168,1681927930433620929,camera_2,168,0,-1.2308915116972277,0.3180953967696121,1.747320185945188,0.957209447840825,-0.00365919071429091,0.28054981506020427,-0.07091180830626712,0.09357947582611814,0.013048200438211113,13066.48012034269
1681927930443607568,169,1681927930443607568,camera_2,169,0,-1.2308067640507772,0.31897414076682323,1.7471920129541252,0.9572625899302809,-0.0037706292430460643,0.2803177871388984,-0.07110593849063432,0.09306263859616593,0.012979032392260302,13069.243924843617
1681927930453607320,170,1681927930453607320,camera_2,170,0,-1.2304159195904014,0.3193241432601591,1.7466199906129218,0.9571463650001136,-0.0036694616877672704,0.28080504171175524,-0.07075238206061352,0.0971791833289899,0.013547466260373883,13068.778990350667
1681927930463797092,171,1681927930463797092,camera_2,171,0,-1.2302338544603142,0.31935682460485515,1.7463694789591744,0.957117001205826,-0.003607997969804363,0.28093295353229697,-0.0706449147004732,0.10061266418779269,0.014022235691422026,13070.51862647408
1681927930473600149,172,1681927930473600149,camera_2,172,0,-1.231020074677827,0.31921385237684113,1.7474727175919365,0.9572307206087426,-0.0037133803164207616,0.2804113118490389,-0.07116919640261693,0.08491425082320347,0.011848767263147273,13062.188611892287
1681927930483595848,173,1681927930483595848,camera_2,173,0,-1.2307565619410872,0.318351712647564,1.747078388462473,0.957206985793596,-0.0035884557646500004,0.28058916946434437,-0.07079284789068141,0.08548045676434413,0.011916346292146192,13068.522218947299
1681927930493594169,174,1681927930493594169,camera_2,174,0,-1.2314801953814525,0.3174748251828975,1.7481307209561683,0.9574342027118171,-0.0034682324204448347,0.27985430794049404,-0.07063487218514727,0.08950642548734322,0.012478054945983332,13070.83123737248
1681927930503713130,175,1681927930503713130,camera_2,175,0,-1.2307404881320751,0.3161126639985603,1.74706326734474,0.9572876266255328,-0.0034244277453639458,0.2803305767634192,-0.07073500502410389,0.08979637187439948,0.012503439531763232,13080.226109979207
1681927930513649702,176,1681927930513649702,camera_2,176,0,-1.2309386749434705,0.31511792277136974,1.7473373303503315,0.95729418246517,-0.003706751642297125,0.28010711453812653,-0.0715130239587807,0.08653268968919292,0.012054899585091688,13079.407761660175
1681927930523585557,177,1681927930523585557,camera_2,177,0,-1.2310419017921606,0.31428779092555037,1.7474750648515012,0.9574196691783984,-0.0036350011793388503,0.27981902882563864,-0.07096248969581692,0.08666382322553545,0.012062358229902094,13087.85132900416
1681927930533748388,178,1681927930533748388,camera_2,178,0,-1.230025079166073,0.31356337904395293,1.746024342545816,0.9571638105701961,-0.003621330899330532,0.280677477190896,-0.0710244992591536,0.09453840274363756,0.013143841153382012,13094.045007424662
1681927930543777465,179,1681927930543777465,camera_2,179,0,-1.2306861575431052,0.31369558294950495,1.7469614065416237,0.9573097308897769,-0.003665748775674412,0.28016197155457323,-0.07109086526629801,0.09174564370187,0.012764772439880473,13089.658862861343
1681927930553881406,180,1681927930553881406,camera_2,180,0,-1.2307872678489344,0.31412400484464315,1.7470877188145302,0.9573594904488549,-0.0035868193869823765,0.28010008330297376,-0.07066741899815887,0.09170374559471384,0.012757318633850758,13089.74054908776
1681927930563660860,181,1681927930563660860,camera_2,181,0,-1.230903849814641,0.3149398022352791,1.7472818640502665,0.9573614329515012,-0.0037185979708708704,0.27995162764391257,-0.07122039669717753,0.091825507406611,0.012785738060749846,13085.153029828101
1681927930573662042,182,1681927930573662042,camera_2,182,0,-1.231220394012209,0.3160311228874177,1.7477600525317025,0.957405328858589,-0.0035784274586710676,0.2798487954111999,-0.07104141634990506,0.0887098201783374,0.01236001424006448,13078.217498221198
1681927930583760738,183,1681927930583760738,camera_2,183,0,-1.2308131921843566,0.31706223634688785,1.7471714622013472,0.957280784450661,-0.00343914384726719,0.2804211986975679,-0.07046717911300403,0.09425863565411419,0.013128875685018667,13075.719203482382
1681927930593981742,184,1681927930593981742,camera_2,184,0,-1.2307909477254761,0.3181486610248864,1.7471869782986962,0.9572512104621003,-0.0036725439464160067,0.28044674339032477,-0.07075490521205587,0.0932073263102211,0.012991921511008172,13071.030651730482
1681927930603587627,185,1681927930603587627,camera_2,185,0,-1.231422446344936,0.31912455662080147,1.7480572114080293,0.9573823604422753,-0.003709505940377076,0.27990803135133424,-0.07111082522848469,0.09072311432100832,0.0126610814519337,13064.057900336338
1681927930613612174,186,1681927930613612174,camera_2,186,0,-1.2305137878236285,0.3192767398831101,1.7467508096150626,0.9572194038981794,-0.0038186206168899445,0.28047481244572403,-0.07106553680184569,0.08902480761753395,0.01241277309150039,13071.758837186731
1681927930623592615,187,1681927930623592615,camera_2,187,0,-1.23041652818775,0.3192236574246168,1.7465990133089808,0.9571891009451446,-0.0036814558994539043,0.2806518002504315,-0.07078162848139433,0.08843478676863015,0.012326642038364794,13071.940775223082
1681927930633813619,188,1681927930633813619,camera_2,188,0,-1.231557079776332,0.3191069451564708,1.748222441633712,0.9573483075981708,-0.003586333893201922,0.2800450799761757,-0.07103597207937624,0.09588260867167264,0.013383672861575317,13059.347210806562
1681927930643777132,189,1681927930643777132,camera_2,189,0,-1.230769178817928,0.31803337102703444,1.7471117734874475,0.9572458291756196,-0.003758539266546733,0.28035707177974223,-0.07117730123818006,0.09367496642516926,0.013059899738593572,13071.746549602827
1681927930653791427,190,1681927930653791427,camera_2,190,0,-1.2304293144603564,0.31687451188837723,1.7466338481121386,0.9571913197725287,-0.0034710015851485885,0.2807859415297106,-0.07022808939017595,0.08987976057687774,0.012511860728570523,13078.195500662787
1681927930663693428,191,1681927930663693428,camera_2,191,0,-1.2311556966500667,0.31596729128312157,1.7476688054492282,0.957320483644073,-0.003525774401435229,0.2801981776326102,-0.07080989875513768,0.08834074577316642,0.012307726224096503,13074.225539478477
1681927930673654556,192,1681927930673654556,camera_2,192,0,-1.2313542129412531,0.31503063510045953,1.747964273593484,0.9574592764986619,-0.0037331192758696704,0.279704774564324,-0.07087338536468993,0.09569396200822668,0.013327697296867565,13081.855924295725
1681927930683601379,193,1681927930683601379,camera_2,193,0,-1.2307331156730807,0.3141165649714244,1.7470251335921976,0.9573352812653962,-0.003518444626362722,0.2800943852247661,-0.07102052631089385,0.10244964697631076,0.01425520675493175,13089.27018755628
1681927930693573951,194,1681927930693573951,camera_2,194,0,-1.2299215941592667,0.31358143089207624,1.745875101097856,0.9571668112028595,-0.0036302231221260702,0.28075136679348894,-0.07069078479845038,0.10926436097361147,0.015185540506390713,13096.343985863961
1681927930703740119,195,1681927930703740119,camera_2,195,0,-1.2299492905729263,0.3137165986900944,1.7459128509122275,0.9571783198215822,-0.0036094492631142464,0.2806583037269213,-0.07090523597504782,0.09506201982731,0.013214217664272455,13096.17143953103
1681927930713724136,196,1681927930713724136,camera_2,196,0,-1.2306076099581635,0.31444129453677605,1.7468530676357301,0.9573594881719021,-0.0035980206648150714,0.28005736236014156,-0.07083599679830624,0.09536243235925213,0.013265958570704867,13092.474462889833
1681927930723598957,197,1681927930723598957,camera_2,197,0,-1.2298633602289235,0.31510468355954624,1.745808591111246,0.9570848527100411,-0.003614983720323824,0.28098573881592187,-0.07086981859558802,0.10014125250745565,0.013929219547025232,13087.916104488539
1681927930733633756,198,1681927930733633756,camera_2,198,0,-1.231166993085908,0.31652450793519926,1.7476738722728022,0.9573474381395194,-0.0036215263691733754,0.28003115907538423,-0.07110075373266614,0.08396437217015773,0.011702277918379602,13074.311110472772
1681927930743711709,199,1681927930743711709,camera_2,199,0,-1.2312622463617486,0.3176735471791173,1.7478402351358957,0.9573382046931653,-0.003740916262449119,0.28010775215721145,-0.07091695539022165,0.07794008293421939,0.010868496689562432,13068.311795768794
1681927930753945350,200,1681927930753945350,camera_2,200,0,-1.2307406747284748,0.31847516019475103,1.7470927874014788,0.9572672430281046,-0.00358426277808846,0.280422909304939,-0.07063689137174205,0.09076834877487272,0.012650679743379538,13072.247435240308
1681927930763657569,201,1681927930763657569,camera_2,201,0,-1.230977983138017,0.3191500898744396,1.7474345170304009,0.9572555314482611,-0.0038368134268105454,0.2802814880216221,-0.07134012788620606,0.08473838120698929,0.0118242258292062,13064.745219850915
1681927930773973464,202,1681927930773973464,camera_2,202,0,-1.230221193688793,0.3191216882443953,1.7463371778880379,0.9570539697036567,-0.003817012164101543,0.28108032009792755,-0.07090122104913132,0.08369696058798581,0.011668088589621492,13067.216367935758
1681927930783757209,203,1681927930783757209,camera_2,203,0,-1.2307438862643676,0.31903011889764255,1.7470800366010253,0.9572425526750798,-0.0036753500444692425,0.2803602608095178,-0.07121314000215656,0.09577752428594977,0.013357973666909474,13069.145028137602
1681927930793716192,204,1681927930793716192,camera_2,204,0,-1.23059920002913,0.31830607774422287,1.7468644284621464,0.9572013831248997,-0.0034448835341192594,0.28065245754257173,-0.07062466280649021,0.08965357975102961,0.012493256905126477,13071.481855010381
1681927930803672790,205,1681927930803672790,camera_2,205,0,-1.2316198686237803,0.31761521325634234,1.7483340544620278,0.957418971067864,-0.0034934007410387436,0.2797945469596086,-0.07107546329277477,0.08785782713675871,0.012255729345175617,13066.545734137066
1681927930813601970,206,1681927930813601970,camera_2,206,0,-1.2309706240039635,0.31636843829920924,1.7474045708658748,0.9573532990458912,-0.0036192971041467833,0.28010141036801356,-0.07074433831954577,0.08325487753609195,0.01159629327622448,13079.105402362533
1681927930823627233,207,1681927930823627233,camera_2,207,0,-1.2300138075462606,0.3150927483738284,1.7460531812305269,0.9570739269773687,-0.0035641579348891696,0.28103498741762756,-0.07082464913790609,0.0846009535016492,0.011770265481001593,13083.88890142296
1681927930833719015,208,1681927930833719015,camera_2,208,0,-1.2309067580801827,0.3144938855960923,1.7472844974974227,0.9574494520530065,-0.003662006680025623,0.27975437529685576,-0.0708140238423094,0.08835470938356593,0.012294100855583344,13091.959191409875
1681927930843755722,209,1681927930843755722,camera_2,209,0,-1.2297735222685096,0.31372000233767233,1.7456980159684465,0.9571260483766988,-0.003536769385448089,0.2808947716297632,-0.07067776207678562,0.10571711708325893,0.014691378039406747,13096.131179193027
1681927930853655338,210,1681927930853655338,camera_2,210,0,-1.2300708710707782,0.3137813000061948,1.7460845452521794,0.9572147391534822,-0.0034997035123154273,0.2805357489684595,-0.07090408150002579,0.09763979591662064,0.013573664118245433,13095.903587406503
1681927930863661050,211,1681927930863661050,camera_2,211,0,-1.2305907174679867,0.3143525700795302,1.746832719604882,0.9573326152235659,-0.0035531523647937997,0.2801460163463163,-0.0708508889342253,0.09204333351226524,0.012804430146897784,13091.244478735145
1681927930873658657,212,1681927930873658657,camera_2,212,0,-1.2307855463572375,0.315147511612417,1.7471194860485348,0.9573305036407537,-0.003636183649626055,0.280055592452735,-0.07123166503287003,0.08716848015319556,0.012137060020572734,13084.851581773259
1681927930883630275,213,1681927930883630275,camera_2,213,0,-1.2312268488810034,0.31632251298454794,1.747765486865777,0.9573922128523806,-0.003680541462224228,0.2798905586094461,-0.07104843126670168,0.08359482418745756,0.011649283740771958,13076.566458710939
1681927930893819093,214,1681927930893819093,camera_2,214,0,-1.2315791634002853,0.3175066729665821,1.7483031442188826,0.9574875356623277,-0.003592433290127887,0.27958445715435165,-0.07097354994676026,0.08519899274688214,0.011880950277248923,13072.069165717581
1681927930903815507,215,1681927930903815507,camera_2,215,0,-1.2306198221214715,0.318220390926731,1.7469486144184563,0.9571599562597426,-0.003459401778218618,0.28072125480023374,-0.07091140793671231,0.08595670154318213,0.011982199379057834,13068.197893684963
1681927930913686037,216,1681927930913686037,camera_2,216,0,-1.2313771532576439,0.31906283013878306,1.747996791802902,0.957356419015403,-0.003771682361290028,0.2800044493079386,-0.07107720977871708,0.09557215869426727,0.013337330895296146,13063.539204466155
1681927930923936843,217,1681927930923936843,camera_2,217,0,-1.2307367949982921,0.3191473871967235,1.7470803798361216,0.9571942963221591,-0.003711837567450598,0.2805538110034215,-0.0710975420226059,0.08634265401633455,0.012043366510216041,13065.652183986273
1681927930933945178,218,1681927930933945178,camera_2,218,0,-1.2310198381856565,0.31906129355413154,1.747475246485883,0.9573092016607561,-0.0036848531724220828,0.28016170432066717,-0.07109805696981382,0.08516492147464305,0.01187986121012803,13067.756327629557
1681927930943939924,219,1681927930943939924,camera_2,219,0,-1.2309304956538556,0.31840835353256924,1.747317483512994,0.9573021992853487,-0.0035761750189907296,0.28029533584568117,-0.07066990108118842,0.09460302744992077,0.013187382234520938,13071.069161307067
1681927930953961610,220,1681927930953961610,camera_2,220,0,-1.2314520272807383,0.3176283317154659,1.7480859378771598,0.9574246528458302,-0.0036673296666440303,0.27976448468359116,-0.07110849404875959,0.09129094949457794,0.012731933125918386,13070.457047321135
1681927930964050531,221,1681927930964050531,camera_2,221,0,-1.2309550826680677,0.3164498389614443,1.7473758766503953,0.9572799766897829,-0.0036125088420826883,0.28032837689195156,-0.07083782265003866,0.10187665850389749,0.014193836861169611,13074.535127841636
1681927930974090099,222,1681927930974090099,camera_2,222,0,-1.2303843611536414,0.31529085164707926,1.7465753466647924,0.9571976178027548,-0.0035133945313672904,0.2806394150973732,-0.07072407811631459,0.0949593887780793,0.013214468605867283,13083.879788015034
1681927930983698129,223,1681927930983698129,camera_2,223,0,-1.2302677637148802,0.3144555788133187,1.7464170319062253,0.9572700354045552,-0.0037346194971212316,0.2803642785073231,-0.07082374792992457,0.09363934985594823,0.01302335390754701,13093.297060768817
1681927930993636846,224,1681927930993636846,camera_2,224,0,-1.230437077426365,0.3140284806734722,1.7466552191400238,0.9572476401637346,-0.003523534022400928,0.28042859209600196,-0.07088261312909212,0.09556178498314694,0.013292676991533503,13089.484681848908
1681927931003747940,225,1681927931003747940,camera_2,225,0,-1.2306243662946004,0.31404839789903005,1.746876204595682,0.9573081622962786,-0.0035145005063165085,0.2802321508370541,-0.0708425883515829,0.10194625903386623,0.01418179957202058,13089.874943994215
1681927931013554096,226,1681927931013554096,camera_2,226,0,-1.2302408156279956,0.3143783158692546,1.7463192372126137,0.9572667124056001,-0.003602541582479837,0.28038538262223855,-0.0707919502916936,0.08761691336985677,0.012183947740480936,13094.139413174242
1681927931023565530,227,1681927931023565530,camera_2,227,0,-1.2302060155568995,0.31511966201345554,1.7462664878403338,0.9571664771227688,-0.003662021010729898,0.28073691823620256,-0.07075102411799243,0.08355521952034906,0.011624705549055087,13086.3009713036
1681927931033660650,228,1681927931033660650,camera_2,228,0,-1.2306867535715331,0.31626305549954153,1.746982723678061,0.9572934998013969,-0.003665201165584258,0.2802342062789608,-0.07102472224239764,0.07992261555045843,0.011130783273882958,13081.401976731606
1681927931043965339,229,1681927931043965339,camera_2,229,0,-1.2314930362915577,0.3175401907557163,1.748158632359654,0.9574294248772758,-0.003570302632199476,0.2797995706588474,-0.07091085655531539,0.08948922605486587,0.012478943760769473,13070.106069207428
1681927931054000854,230,1681927931054000854,camera_2,230,0,-1.2305204900002011,0.3182130468395464,1.7467826504719066,0.9571943396627445,-0.0036210217081953447,0.2806440049287266,-0.0707448006354976,0.09536239109002054,0.013288812203232362,13072.78536040802
