%time,field.header.seq,field.header.stamp,field.header.frame_id,field.image_seq,field.transforms0.fiducial_id,field.transforms0.transform.translation.x,field.transforms0.transform.translation.y,field.transforms0.transform.translation.z,field.transforms0.transform.rotation.x,field.transforms0.transform.rotation.y,field.transforms0.transform.rotation.z,field.transforms0.transform.rotation.w,field.transforms0.image_error,field.transforms0.object_error,field.transforms0.fiducial_area
1681262122112731456,0,1681262122112731456,camera_1,1,0,-0.04954361774730725,-0.13473327937189825,1.5488687427214756,0.9989763593087357,0.012808177709122438,0.012035246021565875,0.041681374488321404,0.10831629371386953,0.004513996597468475,69359.85630842854
1681262122122644424,1,1681262122122644424,camera_1,2,0,-0.049625487032053946,-0.13129216292829135,1.550156697334854,0.9989009903807959,0.012636129653318114,0.007471412972382528,0.04451199424700928,0.16166011622408405,0.006748190948261244,69292.10301411268
1681262122132637023,2,1681262122132637023,camera_1,3,0,-0.04967071256854624,-0.1275527187439717,1.5504623398764013,0.9989096422600361,0.012422398669958047,0.005876991436497215,0.044616942778128395,0.1777318662207108,0.007418556814421755,69330.00771944578
1681262122142980098,3,1681262122142980098,camera_1,4,0,-0.04967190941624153,-0.12366707742872364,1.5511356191908074,0.9990840536737344,0.012027993484510911,-0.015123019426062992,-0.03817951480878127,0.1451678140583681,0.0060606433549913255,69349.82051751926
1681262122152597188,4,1681262122152597188,camera_1,5,0,-0.049760049434994916,-0.12023684760021518,1.5508175770535229,0.9982200906650182,0.012297111872436874,0.00325199023362361,0.05826539446223852,0.18965212331386283,0.007922904779704388,69226.7739467092
1681262122162596702,5,1681262122162596702,camera_1,6,0,-0.049793993875398415,-0.11562689399704584,1.55115538931175,-0.9983460610259157,-0.01185677776892756,0.013414185187163547,0.05463166564128796,0.25077759608393535,0.010478216360675868,69161.90522248088
1681262122172724962,6,1681262122172724962,camera_1,7,0,-0.04991222644102679,-0.11201853763287875,1.5523276487014535,-0.9989451003465221,-0.011678176734038983,0.009651227975581506,0.04334928465856144,0.15176969667663798,0.006346164312277027,69239.69056878376
1681262122182620048,7,1681262122182620048,camera_1,8,0,-0.049913608799231304,-0.10873387353521648,1.5517216010330808,-0.9991718360291647,-0.012083605849577581,0.019330159689487366,0.033704205704324496,0.0818451977102086,0.0034145542513136147,69389.23750411603
1681262122192749977,8,1681262122192749977,camera_1,9,0,-0.050001798382984436,-0.10612290707121735,1.5525839272717843,0.9995210177925804,0.01199270672813895,-0.017397718330638558,-0.02261038197609315,0.06189622642705217,0.0025836281875963414,69430.15961384028
1681262122202632904,9,1681262122202632904,camera_1,10,0,-0.050018128002755374,-0.10392869462084263,1.55273795879618,0.9994931794768551,0.012190197638741527,-0.0189424323176086,-0.022493721761155435,0.06164061202434823,0.0025733393048596957,69412.32458373545
1681262122212644100,10,1681262122212644100,camera_1,11,0,-0.05007884623709642,-0.10226896193108338,1.5526894190517049,0.999600873585792,0.012210524988163295,-0.015148562939807972,-0.020482129940356315,0.05773739604046568,0.002410118229101383,69445.41548743144
1681262122223045110,11,1681262122223045110,camera_1,12,0,-0.050051722210340044,-0.10132224281243615,1.5521976280836487,-0.9995426882259113,-0.012143165033053975,0.018361979719565037,0.020731513641724496,0.04683226195629686,0.0019535344556340845,69475.42828710121
1681262122232961654,12,1681262122232961654,camera_1,13,0,-0.05006232204424451,-0.10121035318412332,1.5523432290520007,-0.9995763685632405,-0.012138219944237675,0.016617980642466418,0.02058129602034017,0.050986225134693086,0.002127098860543928,69469.82034435324
1681262122242641210,13,1681262122242641210,camera_1,14,0,-0.050058873554137864,-0.10186476104779982,1.5525429887446567,-0.9996033609515194,-0.012077592962001853,0.015681677995196236,0.020033409543202305,0.04681163281202316,0.001953613705446634,69460.2145937134
1681262122252634286,14,1681262122252634286,camera_1,15,0,-0.05001705173179843,-0.10315747798683776,1.5525702750234989,-0.9994908822391295,-0.012065254971892607,0.018920523715784458,0.022680822860517168,0.034498382185120136,0.0014398917105777334,69425.32527770664
1681262122262671947,15,1681262122262671947,camera_1,16,0,-0.05000053008794142,-0.10516193266191305,1.5525021807044816,-0.9994488230477998,-0.012090550590410249,0.01836076205213884,0.02487470827272534,0.04394968750420958,0.0018343502884572882,69414.53432003732
1681262122272837638,16,1681262122272837638,camera_1,17,0,-0.04993963070385134,-0.10781505013354348,1.5524409174966725,0.9992062966516679,0.012243353253538307,-0.020456763553891474,-0.031912346477003556,0.11185675795422867,0.004670233648628857,69341.13790395089
1681262122282670021,17,1681262122282670021,camera_1,18,0,-0.05001530007079648,-0.11123965908837205,1.5522683009110425,0.999009746094351,0.012412223104274346,0.007963451951497374,0.04197674783885047,0.1140900508617051,0.004763769114543739,69387.62814636409
1681262122292674779,18,1681262122292674779,camera_1,19,0,-0.049857281495838665,-0.11422271674660438,1.5515069623479423,-0.9989866334602691,-0.011840230555266833,0.01469508519275125,0.040860366852169185,0.13761966064339504,0.0057458517605643985,69329.79116379647
1681262122302640676,19,1681262122302640676,camera_1,20,0,-0.04980384098960257,-0.11779991333755599,1.5514663353296483,-0.9988205681853591,-0.011837804150534573,0.012508447390673446,0.045396890935885975,0.1098017183248885,0.004587286333849658,69268.31209993878
1681262122312668561,20,1681262122312668561,camera_1,21,0,-0.04970686755706795,-0.12192118648879532,1.5508596364683096,0.9977264819645048,0.011927721063211294,-0.013753541552418171,-0.0648878783112588,0.3554895172273973,0.014872627940066377,68990.6576034126
1681262122322620630,21,1681262122322620630,camera_1,22,0,-0.04968099073853201,-0.12649245623615152,1.5498116141558242,0.9980190267223777,0.01306761482717132,0.010956839829681956,0.06055747190721477,0.1726958986982936,0.007208882377528948,69159.94505040866
1681262122333011865,22,1681262122333011865,camera_1,23,0,-0.0496162027621114,-0.1302170174173927,1.550204008366836,0.9991098235580514,0.01244740593783551,0.00597245863303757,0.03986166445464398,0.07496929616900161,0.0031284396577075805,69364.40229254532
1681262122342593908,23,1681262122342593908,camera_1,24,0,-0.049543987946901645,-0.13344478097322127,1.5489848045270425,0.9991513818909953,0.012454517119915565,0.010936476692859447,0.037706691000016536,0.09546077478444204,0.003978065924282079,69422.30084295626
1681262122352614641,24,1681262122352614641,camera_1,25,0,-0.04951189529256553,-0.1365124772610506,1.550018402502925,-0.9997209489113587,-0.012218267083571226,-0.005960072672592595,-0.019318793724892012,0.06049968548177276,0.0025236620385548627,69447.64003876045
1681262122362681627,25,1681262122362681627,camera_1,26,0,-0.04944979393250195,-0.13914861096159103,1.5488268165496362,0.9995852885550905,0.012544954209590557,0.00705375581171968,0.024942324612282428,0.06415992949041538,0.0026739911468287463,69463.40983346174
1681262122372656345,26,1681262122372656345,camera_1,27,0,-0.04939817472083192,-0.14109788282809274,1.5475827180685269,0.999611889316505,0.012509008482212895,0.00951932472364753,0.022999519575098725,0.037813637070939876,0.0015737755924656223,69540.4264871346
1681262122382597208,27,1681262122382597208,camera_1,28,0,-0.049355989971005716,-0.14241542113970115,1.5473838722806252,0.9997040992149147,0.012467403802526675,0.006945556966763606,0.01969865715581029,0.03283499981625937,0.001366440774062544,69563.5935149809
1681262122393077611,28,1681262122393077611,camera_1,29,0,-0.04932972587434416,-0.1430090561170572,1.546977646891321,0.999650304307607,0.012402966850508916,0.009039513103891093,0.021534221923688392,0.04134121672541369,0.0017197574207230798,69567.83979216265
1681262122402721881,29,1681262122402721881,camera_1,30,0,-0.049321432073480456,-0.14292200293136595,1.5472505869675586,0.9997244942503994,0.012452845465116312,0.007339087658346779,0.018493242764543786,0.040099816644215025,0.0016685441084477724,69571.80685204479
1681262122412626504,30,1681262122412626504,camera_1,31,0,-0.04934062364936078,-0.14215349922595794,1.5476207061763523,0.9996588467027682,0.012449210348111923,0.008067197522060423,0.02149715550345978,0.02885053238424007,0.0012009865421575725,69532.63174959559
1681262122422740459,31,1681262122422740459,camera_1,32,0,-0.049402360765433605,-0.1405714035782415,1.5482518915946222,-0.9996996403500615,-0.01235329996595252,-0.008908530050929186,-0.019200603017630144,0.04955557886569295,0.0020638270778303245,69520.04691956058
1681262122432842969,32,1681262122432842969,camera_1,33,0,-0.049456980971328765,-0.13836554451660432,1.5485543052342563,0.9994548689157741,0.012464376537247577,0.007546009940683866,0.029625361636034343,0.05952818978403229,0.0024802781274092093,69461.85134981027
1681262122442777633,33,1681262122442777633,camera_1,34,0,-0.04953093449292768,-0.13570740921425997,1.5493246567420544,0.9995147517948857,0.012420279632971595,0.008466792710920719,0.027282064061159177,0.05708889215020463,0.0023797871755135264,69459.21992636839
1681262122453156709,34,1681262122453156709,camera_1,35,0,-0.049595189392430156,-0.13267490621746225,1.549364806110507,0.999120731415824,0.012459635701408156,0.009078067405787796,0.03898859096547405,0.05750027988688089,0.002397301269158338,69395.60682420552
1681262122462830305,35,1681262122462830305,camera_1,36,0,-0.04962939516527634,-0.12919338989008936,1.5495048661760875,0.9983196151674595,0.012793241688445289,0.007707886115789817,0.05598988686024283,0.1481803448550636,0.006183804824107183,69225.84090176014
1681262122472935676,36,1681262122472935676,camera_1,37,0,-0.0496507034734344,-0.12449394607087794,1.550034089545418,-0.9976936377247003,-0.01157051933111336,0.00874430633431724,0.06631037198504237,0.3096536207740428,0.01295354470179976,69035.3631086943
1681262122482843160,37,1681262122482843160,camera_1,38,0,-0.04970528870513474,-0.12061874714514796,1.5508365639754884,-0.9985992753363201,-0.011873359294036552,0.012844119598940315,0.0499353504902017,0.16674255422549322,0.0069650436468102804,69248.27787950308
1681262122492802858,38,1681262122492802858,camera_1,39,0,-0.049781219762328084,-0.11699767156608509,1.5512998916453316,0.9988527086903787,0.012008162256347004,-0.012425579577022602,-0.0446617885142754,0.21553912886884063,0.009000338983374816,69296.27858659557
1681262122502830028,39,1681262122502830028,camera_1,40,0,-0.049941034271959533,-0.11379813322551698,1.5522642020071398,0.9988392306300928,0.012432130347657566,0.006480489497666114,0.04608293333950889,0.13335180387366563,0.0055710531080684095,69326.66457789743
1681262122512810468,40,1681262122512810468,camera_1,41,0,-0.04992787704250601,-0.10998436981167205,1.5520944492760975,0.9990515390117897,0.011970567487983827,-0.014844831000679829,-0.0391453561070979,0.16741997504141182,0.00699232550503368,69306.28582120153
1681262122522967100,41,1681262122522967100,camera_1,42,0,-0.04998598814483196,-0.10693130992306796,1.5524326840201543,-0.9992961851048067,-0.011911255572539045,0.016909563705148064,0.031294138124693525,0.07065123197389767,0.0029503434044021283,69362.46704811326
1681262122532795429,42,1681262122532795429,camera_1,43,0,-0.05002004080829579,-0.10443831227639339,1.5523471892628957,-0.9994077513889948,-0.012166596555612851,0.017492288223928117,0.02702110738917031,0.06150006747338921,0.0025667429059574717,69411.29358748742
1681262122542998075,43,1681262122542998075,camera_1,44,0,-0.050069181147419935,-0.10270319575642714,1.5528036634353428,0.9995998381465733,0.012273304566032992,-0.01602132691652907,-0.01982035963870195,0.06465506559470668,0.00269902980602837,69438.20208497308
1681262122553198099,44,1681262122553198099,camera_1,45,0,-0.05005669676978902,-0.10157725760347845,1.5524532552037629,0.9996200006398244,0.012030607198242563,-0.01675125061859797,-0.018289735208370166,0.04351033357670531,0.0018154523556648385,69478.04132865509
1681262122562677860,45,1681262122562677860,camera_1,46,0,-0.05007566435302643,-0.10121694558890657,1.5526260548659665,0.9996854252721614,0.012121984544584139,-0.013720627910852379,-0.017142122355496343,0.05466906848596409,0.002281441543141387,69479.86876054155
1681262122572798490,46,1681262122572798490,camera_1,47,0,-0.05004109427507912,-0.10158841049017343,1.552406833187647,0.9995561164995499,0.012054649112461433,-0.017962503232133237,-0.02048423493199546,0.05188100633677095,0.0021646101370167985,69460.75585471405
1681262122582700252,47,1681262122582700252,camera_1,48,0,-0.05003002274727754,-0.10272497038304707,1.552656351022643,-0.9995675949865966,-0.012178180851964912,0.016529442138321797,0.021049762622034507,0.045748969656415284,0.0019095170951713319,69439.93167281464
1681262122593037128,48,1681262122593037128,camera_1,49,0,-0.050000089959857295,-0.10444373084254412,1.5524904328645666,-0.9994449969432745,-0.011964254981672723,0.01781907690933668,0.025476168979869377,0.04514899628702551,0.0018849310750701385,69412.22195284351
1681262122602719068,49,1681262122602719068,camera_1,50,0,-0.04996262805957587,-0.10668498962334012,1.5521279346933274,-0.9992948326268286,-0.012174195012139857,0.017539542225867562,0.03088674342872963,0.06847392127383499,0.0028577330281660154,69391.74103643258
1681262122612655639,50,1681262122612655639,camera_1,51,0,-0.049966340506952985,-0.10968076399573508,1.5524699108675402,-0.9992527411921812,-0.01203581677579179,0.012994557524501545,0.0343546184550752,0.1534191615646705,0.0064074658836416444,69334.86463757383
1681262122622645616,51,1681262122622645616,camera_1,52,0,-0.04992151210895091,-0.11361614016602327,1.5514624577616225,0.9977430721044972,0.012501303972204302,0.00271189237508172,0.06591756295723286,0.26302657451014966,0.010998981245438945,69132.15680156788
1681262122632666826,52,1681262122632666826,camera_1,53,0,-0.04986203839385953,-0.1173668747226874,1.550974773440584,0.9984865788824945,0.012751546849981569,0.010176842095743925,0.05252029826098979,0.17113731714198366,0.007139579545883954,69309.54514620928
1681262122642605781,53,1681262122642605781,camera_1,54,0,-0.04978952935334888,-0.1211015149995989,1.5515581857306104,0.9988549297351199,0.01219554299383747,0.00215775836828982,0.046210844547123965,0.17928859230596572,0.007489268927095745,69315.17405739614
1681262122652701377,54,1681262122652701377,camera_1,55,0,-0.049639062186673966,-0.124325668943772,1.550093681410331,-0.9983197476530069,-0.012076622814917688,0.012676126873834981,0.055237237755896604,0.24102331575704738,0.010063716300094918,69215.13948147034
1681262122662612676,55,1681262122662612676,camera_1,56,0,-0.049533519433551006,-0.1282962712537136,1.549959842425073,-0.9981232640011872,-0.011990325156663468,0.015333210429610831,0.05806095607355219,0.24953364925750066,0.010424386214695675,69150.46091080291
1681262122672773361,56,1681262122672773361,camera_1,57,0,-0.049580281718922335,-0.13249294819113125,1.5500397665100554,0.9992819706770549,0.01260658547972891,0.009227885122811556,0.034517578398320335,0.06830415765580256,0.0028494719019039683,69385.49252772157
1681262122682734251,57,1681262122682734251,camera_1,58,0,-0.04952060017421296,-0.13571332046088377,1.5487709280949429,0.9994257087278067,0.012683542989358726,0.01357995119961873,0.028336644059847066,0.036660378478700295,0.0015268515542986821,69477.24830420181
1681262122692697286,58,1681262122692697286,camera_1,59,0,-0.04945965659462356,-0.1383752946428377,1.5485391959648824,0.9995067313480177,0.012457415282317452,0.008085642520704222,0.02767181200270442,0.03255728824296966,0.0013565694666062389,69477.74295533195
1681262122702615499,59,1681262122702615499,camera_1,60,0,-0.04941365575330971,-0.14045608979100027,1.5479624451426386,0.9996612825116287,0.012519680764652258,0.008915265962853523,0.021002282579964126,0.04621445563680027,0.001923765141307128,69535.80404301593
1681262122712666034,60,1681262122712666034,camera_1,61,0,-0.04938394679459312,-0.142012247709151,1.547507476891223,0.9996414138723754,0.012546646757729985,0.011336766828871773,0.020763021076974267,0.03599050718185026,0.0014979196363971233,69537.29197013035
1681262122722627162,61,1681262122722627162,camera_1,62,0,-0.0493421302489268,-0.14292487031559095,1.5474258453462284,0.9997222245764157,0.01242643564119892,0.007469540466792808,0.018581263424557105,0.032522286142921075,0.0013535809476380117,69555.302574918
1681262122732640504,62,1681262122732640504,camera_1,63,0,-0.04931425507150582,-0.14303306055422926,1.5470656677150787,0.9996911632691755,0.012474327173098274,0.007803866556596695,0.020026704917885607,0.03626993566285818,0.0015089088908206826,69574.41555859713
1681262122742852210,63,1681262122742852210,camera_1,64,0,-0.049317835853332284,-0.14244255396251057,1.547347113154577,0.9997330058374465,0.012230745705983589,0.007757382540111573,0.01800413604776098,0.0305576691753231,0.001271470419422198,69574.54404482301
1681262122752694368,64,1681262122752694368,camera_1,65,0,-0.04935351776810653,-0.14120849154945844,1.547958093892534,0.999717991172676,0.012310702436276091,0.006736794199291474,0.019157252807000723,0.02569963672431186,0.0010700828720076937,69541.32095796068
1681262122762677669,65,1681262122762677669,camera_1,66,0,-0.04944247347204858,-0.13928171887469284,1.5481622825822803,0.9994449149541712,0.01251691014362606,0.011189464468647785,0.0287747253264179,0.031241176315234043,0.0013011410727033247,69472.12658858168
1681262122772684812,66,1681262122772684812,camera_1,67,0,-0.049508341680350496,-0.13669981041734633,1.5491557105448324,0.9993352994883528,0.012390296982914871,0.007289472905877836,0.03350079584060571,0.07028312489273958,0.002930858742653316,69405.1955970868
1681262122782720327,67,1681262122782720327,camera_1,68,0,-0.04958057723623661,-0.1334728857584662,1.5497493855678894,0.9992393266786549,0.012407466999163197,0.006183507548980419,0.03644978759670372,0.12364603698370047,0.005157811645796015,69385.02285773538
1681262122792666435,68,1681262122792666435,camera_1,69,0,-0.049644845812451315,-0.13017027103719858,1.5500277772283595,0.9990493550990628,0.012361944872947148,0.006640141151315003,0.04127319857480864,0.10246727308549453,0.0042753909279184,69362.68070203031
1681262122802647113,69,1681262122802647113,camera_1,70,0,-0.049714413438725125,-0.12662448300860377,1.5503684040409929,0.9989386733686678,0.012549870668618976,0.008584962425680614,0.043477879603273054,0.06464855030935723,0.002697707104821071,69356.4838818527
1681262122812720537,70,1681262122812720537,camera_1,71,0,-0.049711943616031366,-0.12281720320458307,1.5499510179747489,0.9973424736077516,0.012662210104786147,0.0059243538372727705,0.071502173427415,0.2639352224796312,0.011032780345417116,69031.83766532205
1681262122822809696,71,1681262122822809696,camera_1,72,0,-0.04975453419667241,-0.11800645874717569,1.550811359883166,-0.9981639914263543,-0.011515054231311933,0.010494754836199762,0.05853127255396947,0.19542494375491515,0.00817210000282608,69127.73436814826
1681262122832947731,72,1681262122832947731,camera_1,73,0,-0.049791905176075665,-0.11424867797595048,1.5508482275809432,-0.9986886572839627,-0.012083084229794969,0.018480625883214818,0.04618908263665953,0.12692596385022625,0.005295390725135925,69304.23684569637
1681262122843122005,73,1681262122843122005,camera_1,74,0,-0.04989198851585023,-0.11087866374696947,1.5515986321054012,-0.9991693788067519,-0.011865250787640268,0.01524991254505239,0.035877687300660786,0.07869776646839455,0.0032842058661091975,69387.22597872607
1681262122853117942,74,1681262122853117942,camera_1,75,0,-0.05005512482966864,-0.108267321363504,1.552703117286758,0.9990850975624652,0.012460291381000544,0.005680508219188283,0.04051469848921071,0.11616359784966335,0.004851015599463771,69393.33557312633
1681262122862775087,75,1681262122862775087,camera_1,76,0,-0.050039664653481045,-0.10535227173564117,1.5527531389016165,0.999550908812325,0.011948061985281947,-0.015061760773476346,-0.022986253928245954,0.09198258450487629,0.0038401199248439977,69419.85229454238
1681262122873097896,76,1681262122873097896,camera_1,77,0,-0.05003920449998649,-0.10320365090716888,1.5526260543758572,-0.9994739829155047,-0.012208970158167446,0.01806065065800091,0.02401065222987842,0.05756172706605867,0.0024027183122541053,69411.96711512984
1681262122882760286,77,1681262122882760286,camera_1,78,0,-0.05004447952697853,-0.10180129345580631,1.552100040979003,-0.9995140284156427,-0.012081511857604947,0.018556305813162595,0.021941002395901275,0.04615951515734196,0.0019253934991170175,69473.70649327009
1681262122892890691,78,1681262122892890691,camera_1,79,0,-0.05006988323825555,-0.1012217151483027,1.5524064519872798,0.999610855355658,0.012071518059593543,-0.01573483793147481,-0.01961711452118351,0.0509642370743677,0.0021264259433393024,69474.83890197577
1681262122902777433,79,1681262122902777433,camera_1,80,0,-0.05005944269067385,-0.10134748468043171,1.5524054914747807,0.9996091560541335,0.01214919874490674,-0.018143547011953892,-0.01745691279765029,0.042942769709043205,0.0017915223048621176,69483.28857017207
1681262122912772893,80,1681262122912772893,camera_1,81,0,-0.05004209860170372,-0.1022080818546974,1.5526243222416036,-0.9995454380338121,-0.012121522801083435,0.01717194502798165,0.021612734550113304,0.05012211645953357,0.002091980835229552,69435.50579250255
1681262122923092842,81,1681262122923092842,camera_1,82,0,-0.05003821588306467,-0.1038384738686692,1.553011735672221,0.9995854287112718,0.01217267189178015,-0.0160809047990749,-0.020547536785742088,0.06819922116119415,0.0028478434473658827,69414.28222483452
1681262122933135032,82,1681262122933135032,camera_1,83,0,-0.04999541650336679,-0.10612409631591722,1.552709512930182,0.9994958338644653,0.011973770725000105,-0.01687610659079971,-0.024081194499830053,0.08040605304995552,0.003356832336809808,69408.39246230514
1681262122943074464,83,1681262122943074464,camera_1,84,0,-0.049908762997377766,-0.10877360392324553,1.5522951685088435,0.9992906943064955,0.012113279446497554,-0.01962432011585432,-0.029770166164866937,0.10016278241528198,0.0041815972648070404,69379.16914481748
1681262122952706813,84,1681262122952706813,camera_1,85,0,-0.049904300813167726,-0.11184748299623423,1.5522394175282734,-0.9991499237673496,-0.01178594741509155,0.015426640684657534,0.03636674354977237,0.11261206452036276,0.004704659731358823,69322.70343013198
1681262122962732315,85,1681262122962732315,camera_1,86,0,-0.049861246248769885,-0.11527075552898751,1.5513748137553287,-0.9985458443812965,-0.011557709579232562,0.008922335200167076,0.051894199605560375,0.18185244069900364,0.0076042961641726034,69194.93741717814
1681262122973080873,86,1681262122973080873,camera_1,87,0,-0.049803069938033115,-0.11988163972337054,1.5504225351879741,0.9972916261551097,0.01272840107683972,0.007478268142565052,0.0720518959675017,0.29847329680342227,0.012477813747365198,69019.899434464
1681262122983106851,87,1681262122983106851,camera_1,88,0,-0.049708949650481414,-0.12398012939156995,1.5503083068778931,0.9980005573269053,0.012041817410526163,0.0005144407925468221,0.06204528635850733,0.19964830724347848,0.008345822830540202,69161.69001419027
1681262122992973804,88,1681262122992973804,camera_1,89,0,-0.04964924235937515,-0.12765958599940724,1.5500741062403849,0.9987888940731039,0.01266234068412636,0.007118058869067875,0.04700790829808838,0.14551181330170948,0.0060707118966515875,69329.10203086241
1681262123002687215,89,1681262123002687215,camera_1,90,0,-0.049589185354610404,-0.13114996794952097,1.5498294187814572,0.9990514434699322,0.012695151171573984,0.008115842399466104,0.04085559373602309,0.13374566556012724,0.005578598665868277,69364.22653222052
1681262123012666463,90,1681262123012666463,camera_1,91,0,-0.04953098027096146,-0.13450824675769285,1.5493704428518065,0.9992336261310464,0.012596409424232648,0.00843311315876119,0.036088412005364924,0.09986429192940705,0.004163502435762356,69396.63907568363
1681262123022657632,91,1681262123022657632,camera_1,92,0,-0.04949690674436791,-0.13752823877871814,1.549312708072516,0.9995401722119505,0.012343071264160016,0.007581832645903709,0.02663847856019494,0.043339029158232734,0.0018072824823930648,69435.90735565012
1681262123032650470,92,1681262123032650470,camera_1,93,0,-0.049418770818798786,-0.13993249091384966,1.5482095284556214,0.9995500837549876,0.012453083676548234,0.008326338140361256,0.025985050808392085,0.04593083745567128,0.0019130627441352513,69490.05240535259
1681262123042619705,93,1681262123042619705,camera_1,94,0,-0.049365215694500725,-0.1415896059468829,1.5472585768157276,0.9996081103702413,0.012507219347513386,0.007125563487444952,0.024008779461171945,0.04874187656969298,0.002027894576845415,69560.12883526433
1681262123052627563,94,1681262123052627563,camera_1,95,0,-0.049351128618803516,-0.14267496986500758,1.5472491682978986,0.9997645399678897,0.012396046047047337,0.009355256249482191,0.015155258021552851,0.04270818366785534,0.0017764948108991098,69588.542560832
1681262123062640666,95,1681262123062640666,camera_1,96,0,-0.04933487619168296,-0.14308446051986612,1.5471598052477091,0.9997251044991696,0.012454038041051404,0.008838127294305035,0.01779044340441686,0.034130950705730356,0.0014199968309724805,69575.46407914067
1681262123073091745,96,1681262123073091745,camera_1,97,0,-0.049351548697915755,-0.14273278128246775,1.5475728748944502,0.999723220941599,0.012419855751273644,0.008728394488350557,0.017973419900732625,0.03704922141332645,0.0015420876946673984,69545.66816467002
1681262123082834005,97,1681262123082834005,camera_1,98,0,-0.049361578833353896,-0.14161999545440562,1.5475707821494102,0.9995868045519861,0.012474323818875293,0.00870719057512922,0.02438844486841651,0.05105271935462953,0.0021250300882519405,69524.17281894849
1681262123092848539,98,1681262123092848539,camera_1,99,0,-0.049414444595580566,-0.13991166515214126,1.5481999807844784,0.9996626526312609,0.01244248696194494,0.008343488229463413,0.0212167777147681,0.03622153135074768,0.0015084729798954088,69526.0547128942
1681262123102734088,99,1681262123102734088,camera_1,100,0,-0.04948959997033416,-0.1376461000336552,1.5485948385061534,0.9994279445753174,0.012479678055243476,0.01027979896040286,0.029704662444262685,0.04407595169323031,0.0018363890246831747,69460.80829910614
1681262123112687587,100,1681262123112687587,camera_1,101,0,-0.049530372486616556,-0.13484815555186197,1.5488457674330633,0.9990441161981263,0.012568444138410703,0.008682820631382513,0.04095725488515896,0.06101546472928021,0.002543383666799486,69381.75203954452
1681262123122646570,101,1681262123122646570,camera_1,102,0,-0.0496114840337358,-0.1314098053014209,1.5499550451113706,0.9988618808223307,0.01270442109423146,0.006187399444599696,0.04555498669574627,0.17794475187838543,0.007425528955360302,69298.8012751555
1681262123132691383,102,1681262123132691383,camera_1,103,0,-0.04958628936396568,-0.1270991449792299,1.550131721488791,-0.9986157185787888,-0.01237294853490235,0.01568489727936169,0.04865738124126737,0.1676500020257663,0.0069965767765018914,69282.74383306384
1681262123142637729,103,1681262123142637729,camera_1,104,0,-0.049669862780239715,-0.12337167015036496,1.550671168922331,-0.9986584308598272,-0.01206310039710511,0.014149229922461157,0.04832824612996615,0.18200096204236615,0.007599312348644924,69268.39876054131
1681262123152641057,104,1681262123152641057,camera_1,105,0,-0.049781719971679975,-0.12004247716050807,1.5511850740467763,0.9987703785366171,0.012369090497090786,0.004489717858656892,0.04779726970912917,0.14213464019121602,0.0059339797392805845,69337.34251659553
1681262123162646770,105,1681262123162646770,camera_1,106,0,-0.04987666718734642,-0.1162886213843814,1.5514008515772897,0.9983729596669969,0.012571725330997117,0.009020901028124258,0.05488176812570558,0.16015407268423587,0.00668815279224564,69257.19050906782
1681262123172729015,106,1681262123172729015,camera_1,107,0,-0.04997323798751817,-0.11249213396157307,1.5519728772841268,0.9983094948929884,0.012759488414230183,0.010704566458974296,0.05568446927859679,0.22910279192728922,0.009570551582832256,69230.27275808042
1681262123182707786,107,1681262123182707786,camera_1,108,0,-0.04994941546748796,-0.10873902269873517,1.5523292447728496,-0.9993253403078078,-0.011958875217042397,0.017226082479550372,0.030151477652596795,0.06743064487818629,0.00281517731006456,69381.18326516286
1681262123192669153,108,1681262123192669153,camera_1,109,0,-0.05001410976763085,-0.10602733657842822,1.5524318188004043,-0.9994039983567804,-0.012088523413383439,0.0157986688733087,0.028212013965614745,0.07297148660290986,0.0030462042056541494,69397.89404232206
1681262123202650308,109,1681262123202650308,camera_1,110,0,-0.0500497222618493,-0.10390222008833166,1.5529043145850965,0.9995117137718084,0.012274692958802872,-0.01795423569135849,-0.022434601989980957,0.06834671919932589,0.002853609831294226,69401.67270002884
1681262123212723731,110,1681262123212723731,camera_1,111,0,-0.05008375711111827,-0.10228476719821701,1.5528570488079476,-0.9996290644099158,-0.012109682006235665,0.01387050397064834,0.020067344325161,0.0534293990349397,0.0022307568094874536,69437.38939236102
1681262123222662448,111,1681262123222662448,camera_1,112,0,-0.05005509837084326,-0.10133452224184837,1.5521890402208247,-0.9995245140743647,-0.012071191802513457,0.018066641477321725,0.021877581187190884,0.05356139654759317,0.0022342402045927023,69467.6823752959
1681262123232879638,112,1681262123232879638,camera_1,113,0,-0.05004879837636128,-0.10121366010230626,1.5520855369144533,-0.9995555388189066,-0.012104390138246945,0.0169796295429141,0.021304946289816624,0.04855710582341999,0.0020252521356583088,69485.54210886755
1681262123242647647,113,1681262123242647647,camera_1,114,0,-0.05004102413368011,-0.10185855147548246,1.5523596103155364,-0.9995804720427981,-0.012043283798873086,0.01709490370292049,0.020040047241080487,0.04930114501621574,0.00205682764479235,69471.86643648054
1681262123252652406,114,1681262123252652406,camera_1,115,0,-0.05004241111965077,-0.10318413176705937,1.5528384421455983,-0.9995802620896472,-0.012223627375879991,0.01470545056136577,0.021763094870792195,0.05145407759118825,0.0021484842000750043,69423.67966860672
1681262123262670755,115,1681262123262670755,camera_1,116,0,-0.05000859824687555,-0.10511799186266034,1.5526408125700706,-0.9994204472911755,-0.01214505933486084,0.017674757802784526,0.026436149618887243,0.04041520587634295,0.001687432658368393,69390.34976799972
1681262123272685527,116,1681262123272685527,camera_1,117,0,-0.04996581246666197,-0.1077449357207731,1.5524485910806989,-0.9993447679346199,-0.011959580264874278,0.017380461385478486,0.029409569932534855,0.0834699646802619,0.0034849144548536187,69378.5701991329
1681262123282679319,117,1681262123282679319,camera_1,118,0,-0.0499854235294845,-0.11133977560202002,1.5520963752253518,0.9986286684873067,0.012419864379029966,0.005601546545459292,0.050548512543640275,0.14402322965906933,0.006016513140778805,69314.79767663231
1681262123292994499,118,1681262123292994499,camera_1,119,0,-0.04991428853249638,-0.11473528758295737,1.5514450018608272,0.9985441558999969,0.01242997070595049,0.005324784908780543,0.05221792040944571,0.1744560626684688,0.007284262732189569,69318.13247132974
1681262123302678585,119,1681262123302678585,camera_1,120,0,-0.04979632980523328,-0.1180641749777227,1.5515834934497037,0.9989313575292266,0.011920797991595209,-0.01368590547394089,-0.04250568798900385,0.17953671474242583,0.00749922876873353,69292.43040022427
1681262123312744140,120,1681262123312744140,camera_1,121,0,-0.049665239592559245,-0.12156208582317857,1.5501286056073187,-0.997692662209122,-0.012366980437165442,0.018691535758252296,0.06408616122018537,0.22553668782347813,0.009421743560969396,69055.10099148496
1681262123322738647,121,1681262123322738647,camera_1,122,0,-0.049631942205485044,-0.1262541915006151,1.5490531905105387,0.9969840376139277,0.012587725527263548,0.003955658847124733,0.07647699439809202,0.36615631224412937,0.015307501971152,68959.01975647095
1681262123333052873,122,1681262123333052873,camera_1,123,0,-0.04959419881946228,-0.13029533105006202,1.5491093691945694,0.9985974184095193,0.01282282386395509,0.010565001119843188,0.050270785604914235,0.10982429757132195,0.004578679525972307,69313.98140555708
1681262123342720985,123,1681262123342720985,camera_1,124,0,-0.0495320383298438,-0.13359711274253044,1.549328928540251,0.9993112714017419,0.012529508011252907,0.00616057701336469,0.03438083142235776,0.07304832831141539,0.0030449909684585447,69440.52887551254
1681262123352986097,124,1681262123352986097,camera_1,125,0,-0.04950853514672844,-0.1365767352934184,1.54936957236887,0.9995396822644443,0.01249245727029109,0.007697859670109104,0.02655381416186035,0.0545442026341334,0.0022741139266141833,69448.42719771458
1681262123362663030,125,1681262123362663030,camera_1,126,0,-0.049439745040995894,-0.13910070123361454,1.549019813282003,0.999649785335571,0.012266791904191547,0.004868763268282156,0.022937472379570757,0.05232622640323825,0.002181387120981185,69468.43059559396
1681262123372804164,126,1681262123372804164,camera_1,127,0,-0.049399887600976834,-0.1411170078387365,1.5480529355039312,0.9996646722268951,0.012292479996315081,0.008914660506918227,0.02097538712589091,0.03922986275574658,0.0016335242274204567,69515.4657568972
1681262123382685899,127,1681262123382685899,camera_1,128,0,-0.0493570637116566,-0.14242725866480596,1.5473062818946455,0.9996988665717482,0.01238322394286647,0.007582562961753576,0.01978223139268978,0.03892190336773637,0.0016195075252497472,69567.55795194194
1681262123392770290,128,1681262123392770290,camera_1,129,0,-0.049320576211211775,-0.1430247947140034,1.5470546611686957,0.9997229144134068,0.012409121584738609,0.007307134556870826,0.018620254639160557,0.03912278721691109,0.0016274733424962466,69586.12978532164
1681262123402733564,129,1681262123402733564,camera_1,130,0,-0.049326905226588245,-0.14293489933446735,1.547310734838678,0.9997239024200373,0.012336898036873132,0.008606311109515784,0.018051351361211512,0.02998547622701153,0.0012477355284631407,69564.63502196013
1681262123412782907,130,1681262123412782907,camera_1,131,0,-0.049355819729571405,-0.14211063666368282,1.5475368213770817,0.9996910869573338,0.012404286720713345,0.00904767559876052,0.019544919935234936,0.03299045802850742,0.0013730907002333544,69550.18663524525
1681262123422726631,131,1681262123422726631,camera_1,132,0,-0.04937900075693427,-0.14061294301843222,1.5478916564199459,0.9995857830625389,0.012508227639899547,0.008513096393507093,0.024481293477967587,0.043102404000819654,0.0017944683576994356,69515.90983521938
1681262123432721138,132,1681262123432721138,camera_1,133,0,-0.0494672691851209,-0.13838513660481527,1.5490073977646026,0.999582641564397,0.012466105153554449,0.007300235688358427,0.02501690357212796,0.06853973657416645,0.00285699866790178,69460.48738484309
1681262123442704677,133,1681262123442704677,camera_1,134,0,-0.0495249091317676,-0.13562067652319185,1.5492920639490888,0.9995515490025346,0.012675825768396834,0.006149303245329364,0.02642367115523492,0.09460605467029382,0.00394238145359631,69477.89127268188
1681262123452676534,134,1681262123452676534,camera_1,135,0,-0.049594933394774235,-0.13259567462779484,1.5495915683015042,0.9991968983717878,0.012569403824365798,0.007385957250186672,0.037323129654377125,0.07317912609141786,0.0030513964585379165,69400.9321982942
1681262123462671041,135,1681262123462671041,camera_1,136,0,-0.04964317922809143,-0.12919643646465365,1.5499987960411583,0.998676329594254,0.01273081832034813,0.0062413882244451435,0.04944249231253495,0.12874325169832446,0.0053730072935950545,69281.41367057923
1681262123472651720,136,1681262123472651720,camera_1,137,0,-0.04968473461428871,-0.12534396133429826,1.550401088777268,0.9978339522282657,0.01180556104307972,0.0006443725630307669,0.0647118018059871,0.2613851490896195,0.0109381368643968,69086.5915163867
1681262123482675313,137,1681262123482675313,camera_1,138,0,-0.049703085564609235,-0.1204708380092152,1.5507570392844305,-0.9980962333946002,-0.011710912465307956,0.011847893232813851,0.059383422254747166,0.19497635832522064,0.008153149872607363,69107.8888363915
1681262123492676973,138,1681262123492676973,camera_1,139,0,-0.049786364656409315,-0.11685495181165971,1.5514241601558154,-0.9990335763216506,-0.011858405363079732,0.013648377856592116,0.04006261831310167,0.11807174875866622,0.00492943929868745,69341.82627883392
1681262123502635717,139,1681262123502635717,camera_1,140,0,-0.04986397139309697,-0.113451140592921,1.5523425488694702,0.9993252588631485,0.01194222571144156,-0.015400632437041002,-0.031132471210904712,0.12378888722741976,0.005169459743123264,69366.52143787312
1681262123512795448,140,1681262123512795448,camera_1,141,0,-0.04991366989750399,-0.11007341672480597,1.552597995349468,0.9993215291465473,0.011857603363238229,-0.017479981123613195,-0.030171657007941832,0.10553821100620553,0.004408074143141938,69354.68317433842
1681262123522809267,141,1681262123522809267,camera_1,142,0,-0.049995302565893476,-0.10703538744138882,1.5526048906948782,0.9993734096394189,0.012146524291406275,-0.01700880739182195,-0.02856484770532683,0.11189800733700393,0.0046718249849633485,69374.85537964222
1681262123532748699,142,1681262123532748699,camera_1,143,0,-0.05001503140579561,-0.10442850039892979,1.552292959652467,-0.9993439537076639,-0.012073082275298071,0.01772860336049192,0.02918217769794994,0.05840068822726607,0.0024375903910815013,69393.66091572249
1681262123542683839,143,1681262123542683839,camera_1,144,0,-0.05005019082265655,-0.10266239670849485,1.5523344642080439,0.9995620199953666,0.012254572880139387,-0.017774162563361305,-0.02024037478602971,0.05879844503942877,0.0024529530497083016,69470.50512593568
1681262123552715539,144,1681262123552715539,camera_1,145,0,-0.050071518187525296,-0.10156023377685819,1.5523845709735615,0.9996002730209373,0.012073206007497811,-0.016701026793771872,-0.019354781765800726,0.05895267240703106,0.0024594787295611977,69476.01269620447
1681262123562693357,145,1681262123562693357,camera_1,146,0,-0.05006703678784999,-0.1011878569387282,1.5523677981727775,-0.9996392182852696,-0.012148801704229092,0.015558663318398109,0.0182144963946673,0.046715639473404735,0.0019488313238809135,69489.6320294883
1681262123572791337,146,1681262123572791337,camera_1,147,0,-0.05004665591444725,-0.1015656590733737,1.5525440874546765,0.9996140828326902,0.012151065169111816,-0.01687631913142099,-0.01841811256318546,0.04854810459073633,0.0020257656329201136,69468.6671527971
1681262123582755804,147,1681262123582755804,camera_1,148,0,-0.05004577917226295,-0.10276057039292975,1.5528558144363795,0.9996470383694188,0.012159243367528123,-0.01637056218659443,-0.01702809953206744,0.05110910988878459,0.0021334749644410624,69453.49458023784
1681262123592654943,148,1681262123592654943,camera_1,149,0,-0.05001604444011144,-0.10453475520527886,1.552709847870929,-0.9995335667561919,-0.012109875655536086,0.016199334923602083,0.02288190086697177,0.051476745749823756,0.0021491123764052055,69421.40817314666
1681262123602697134,149,1681262123602697134,camera_1,150,0,-0.04997301581945515,-0.10684354351353822,1.5524832195733742,-0.999458559277212,-0.012214713262488228,0.016106657382421497,0.025960829251012292,0.07525226497091353,0.0031410799740866292,69413.71391923481
1681262123612688779,150,1681262123612688779,camera_1,151,0,-0.049944517274862175,-0.1095995909174957,1.5520647193344497,-0.9991523903446629,-0.01214331561614712,0.015518501674582724,0.03614162226808991,0.12596720532746986,0.005258789097934316,69343.55094325522
1681262123622668266,151,1681262123622668266,camera_1,152,0,-0.04987953338849982,-0.11292628510274548,1.551768971954385,-0.9988991572344939,-0.011919767595448235,0.013603288209363334,0.04328213680701835,0.13924674998270348,0.005816156256017474,69280.68521479378
1681262123632852792,152,1681262123632852792,camera_1,153,0,-0.04985967361188672,-0.11747715895676678,1.5508965899084444,0.9977903531254061,0.012698222038714426,0.006716045985547194,0.06486956985561977,0.19709609600249678,0.008235238524499285,69141.81189085438
1681262123642703294,153,1681262123642703294,camera_1,154,0,-0.04976544154397479,-0.12124719802533489,1.5509950301497712,0.9985295526031766,0.01250129940837458,0.0034054980822379568,0.05263888936912091,0.16994618001626804,0.007097576355577399,69278.07916680211
1681262123652680873,154,1681262123652680873,camera_1,155,0,-0.049697527534004554,-0.12491646189335122,1.5501913714411582,0.9984519529507887,0.012671994668496887,0.0077206181970462286,0.053605132725638036,0.21495415930985473,0.008971211297856753,69270.52138683529
1681262123662688016,155,1681262123662688016,camera_1,156,0,-0.049564521833653834,-0.12826479923728087,1.5500563392462623,-0.9986167840098148,-0.012025188690646626,0.013447257040530474,0.04938709152132036,0.1319511502806563,0.005508721650315483,69276.91902947775
1681262123672685861,156,1681262123672685861,camera_1,157,0,-0.04959787434348051,-0.13237237370449906,1.5507227296300885,-0.9993470607897247,-0.012155915619721272,-0.005516080474982244,-0.03357467293330291,0.11472219800634775,0.00479138279874307,69348.89224897993
1681262123682677268,157,1681262123682677268,camera_1,158,0,-0.04950981883060559,-0.13570329342223936,1.5487449041982753,0.9992507295140484,0.012457057759529069,0.010437265140240222,0.035126411345460636,0.05046821426367387,0.0021031054107168664,69431.63709379335
1681262123692681312,158,1681262123692681312,camera_1,159,0,-0.04944233241476856,-0.13841529987392334,1.5484538220518507,0.9995125159433345,0.012404529050629309,0.006205888203336363,0.027970432303873735,0.04144301253836602,0.0017264761304285488,69488.0851753878
1681262123702672719,159,1681262123702672719,camera_1,160,0,-0.0494192603286288,-0.14053262441965492,1.5480180613728676,0.9996592637293016,0.012539212462732834,0.007364634868895636,0.021676871182277554,0.038371473958250135,0.0015976817006413116,69530.18789820906
1681262123712753057,160,1681262123712753057,camera_1,161,0,-0.049381840145997835,-0.14202512223849095,1.5474628284262915,0.9996787788165014,0.012435827812315668,0.008363620628241815,0.02043866973552244,0.04401191647048108,0.0018315510030727025,69554.7526331289
1681262123722730398,161,1681262123722730398,camera_1,162,0,-0.04933843990426419,-0.14288280895440938,1.5473139952395714,0.9997507584127997,0.01237071811340672,0.007737488967551557,0.016897267556253003,0.030046248648432083,0.0012502432347364424,69575.0609950865
1681262123732672691,162,1681262123732672691,camera_1,163,0,-0.049337159276301785,-0.1430280476754929,1.5472651261750299,-0.9997860571375112,-0.012413040977220843,-0.007640475994023763,-0.01467581322148031,0.04197108474909328,0.001746215624852187,69588.85937409545
1681262123743054151,163,1681262123743054151,camera_1,164,0,-0.049347671886386626,-0.14244630804195185,1.5474977742609943,0.9997227637128175,0.012345852196735023,0.010092234592037242,0.01732404250980511,0.03339254739694297,0.0013896207178248565,69556.58629939721
1681262123753055334,164,1681262123753055334,camera_1,165,0,-0.0493539692730019,-0.1411627096372131,1.5476781463084566,0.9996186347971582,0.012434371940914905,0.008431851375473209,0.023170568466974115,0.042846652926527895,0.0017834214049057067,69534.02350284248
1681262123762909412,165,1681262123762909412,camera_1,166,0,-0.04940705308673308,-0.1393196748826476,1.5486160814862315,0.999549714689512,0.012341482629695701,0.005388664085875682,0.026814510437177946,0.05031895459978841,0.0020968463538373677,69468.95707806663
1681262123773055315,166,1681262123773055315,camera_1,167,0,-0.04950839791720059,-0.13678235540780947,1.5490423851790407,0.9993937617154555,0.01253869564034263,0.008598060539164289,0.031320337016625475,0.06343184500292409,0.002643907023572816,69429.6954502113
1681262123783040523,167,1681262123783040523,camera_1,168,0,-0.04960952353290736,-0.13351517933308704,1.5497975788103382,0.9992396376775795,0.012539466189855956,0.010707971421272968,0.03533054810917163,0.10616103229403961,0.0044284411409431035,69375.04602789755
1681262123793029785,168,1681262123793029785,camera_1,169,0,-0.04957978772344271,-0.1297586434427517,1.5502863423254456,-0.9991403967490411,-0.012140473259303146,0.014735116644340955,0.036796098036159464,0.14086778429918922,0.005875898808659045,69390.94317276771
1681262123803050041,169,1681262123803050041,camera_1,170,0,-0.04968118958098115,-0.12642802320827481,1.5503687059328934,0.9987881478313101,0.012478643969996395,0.0059057233996480185,0.0472402543123762,0.16930124352802525,0.007066057193793676,69323.10230594294
1681262123812948465,170,1681262123812948465,camera_1,171,0,-0.04973281413691911,-0.12284259043668029,1.5506469506749823,0.9986034245464293,0.012527861566072987,0.006884635814613588,0.050861134065469694,0.11669670582341496,0.004871069911163879,69301.30760595067
1681262123822788238,171,1681262123822788238,camera_1,172,0,-0.049757279916960384,-0.1188452241468785,1.5508050808732121,0.9974342836325663,0.012089895469764795,-0.002031801756967664,0.07053053270421243,0.37173281388822943,0.015554346550723788,69049.23842401942
1681262123832898378,172,1681262123832898378,camera_1,173,0,-0.04985016572443786,-0.11422941821395277,1.5515758376193092,-0.9984841331780543,-0.011937634397841646,0.011819021800442983,0.05241411451444874,0.19210127124097198,0.008030363050018452,69166.19008220849
1681262123842772960,173,1681262123842772960,camera_1,174,0,-0.049887453915876026,-0.110782143642071,1.5517729647550096,-0.9990554404787418,-0.01209179943052192,0.016651232611208787,0.038272074530742696,0.07998381421202794,0.0033388703598214576,69339.03063223511
1681262123852841138,174,1681262123852841138,camera_1,175,0,-0.04997798706403516,-0.10797398665047861,1.552728621990418,0.9994998151012372,0.0119491213285053,-0.017260180867831737,-0.023652151455612107,0.06928144110133871,0.0028930576445848942,69407.22363897786
1681262123862727642,175,1681262123862727642,camera_1,176,0,-0.05002506815204788,-0.10537262768512817,1.5528130220721998,-0.9995754251926762,-0.012103227316954195,0.01590678217239837,0.021200366042002525,0.06195890193339437,0.002586641860861928,69426.7658258455
1681262123872791767,176,1681262123872791767,camera_1,177,0,-0.05006041991753913,-0.10327318042321007,1.5527906304755548,-0.999541486277322,-0.012153696434015995,0.016397422143973616,0.022365809185996736,0.044591975456569344,0.0018618932966565722,69417.5151951611
1681262123882781028,177,1681262123882781028,camera_1,178,0,-0.05005469543691522,-0.10182854350666247,1.5523287705623654,-0.9995411234785246,-0.0121923174905746,0.018417826603220104,0.020728568033307405,0.04374638880835846,0.0018250325453222974,69464.02139368319
1681262123893020868,178,1681262123893020868,camera_1,179,0,-0.05007059847512934,-0.1012413017013157,1.5525636391033488,-0.9996593260299228,-0.012129766624594052,0.015206314583647726,0.017403121553812354,0.041712678445037454,0.0017406203846153652,69479.40197005252
1681262123902720928,179,1681262123902720928,camera_1,180,0,-0.05004456539685204,-0.10130906582808506,1.55204202045034,-0.9994882323046799,-0.012154911745280389,0.018045812912495154,0.023449525395156438,0.04655402095522732,0.0019417323774044138,69467.02972074319
1681262123912754058,180,1681262123912754058,camera_1,181,0,-0.050036900249052635,-0.1022181972448978,1.5525665634960648,-0.9995888662824294,-0.012084801422133898,0.01694519372495327,0.019720963171683634,0.046628758835140616,0.0019458468374242942,69456.84260457194
1681262123922795057,181,1681262123922795057,camera_1,182,0,-0.050026840394848095,-0.10374352101183482,1.5526227282479004,-0.9995007226286212,-0.01199940043693474,0.015316408294406114,0.024894326481696493,0.04700537433382124,0.001962712497672647,69413.87270684095
1681262123932726860,182,1681262123932726860,camera_1,183,0,-0.05000836479296554,-0.1060589543876692,1.552841507259159,-0.9994179768537473,-0.011954442665624142,0.016383259573190322,0.027429685522703418,0.07409110193839295,0.003094965064123872,69367.53993108778
1681262123942767381,183,1681262123942767381,camera_1,184,0,-0.04999210353424578,-0.1088932883600176,1.5529864324459897,0.9994316389099007,0.011815023942337457,-0.011671254150422236,-0.02933574920925163,0.12236001895507798,0.005113643318689664,69346.27481872449
1681262123952886819,184,1681262123952886819,camera_1,185,0,-0.049901921634266176,-0.1119926058770114,1.5518628688658507,0.9990653116086302,0.011907217146097805,-0.013560009500775714,-0.03927909701769263,0.18652854347601533,0.007789305678055362,69325.91293746546
1681262123962705373,185,1681262123962705373,camera_1,186,0,-0.04981242864787924,-0.11532212485333938,1.5510804608344977,-0.9985858228354922,-0.011851070715932409,0.015968159335727358,0.049304405911416695,0.17185093619627875,0.0071761773643137525,69244.95223243376
1681262123973057985,186,1681262123973057985,camera_1,187,0,-0.04972472512729202,-0.1189291621158488,1.5502540080702996,-0.9978554005511797,-0.01194627972214335,0.016580608816563935,0.062184961227913955,0.21014823007863015,0.008779935281476447,69094.6232698846
1681262123982692718,187,1681262123982692718,camera_1,188,0,-0.049724098319744774,-0.12389053391888197,1.5499687944901188,0.9971285062824552,0.012724484525301205,0.006302266014837972,0.07438488351515715,0.2926631104928674,0.012241685737393907,68955.4132541836
1681262123993052959,188,1681262123993052959,camera_1,189,0,-0.049641545548245056,-0.12781995851333888,1.5497319115607393,0.9985993282045059,0.012723006704202774,0.0074453141058435,0.050814113273575726,0.11994219246844295,0.0050033606549443384,69304.99241378371
1681262124002833366,189,1681262124002833366,camera_1,190,0,-0.04959381137585825,-0.13132050831687817,1.5502686493370883,0.9993712945455715,0.012283399948646134,0.005956931457612364,0.032720768505945574,0.060545188971445896,0.0025265246690102947,69412.29906090492
1681262124012783765,190,1681262124012783765,camera_1,191,0,-0.04944966639038928,-0.13432332645533973,1.5497706228330501,0.999375419225835,0.01225184928361361,-0.01865488741054303,-0.027398153441760206,0.09904826583806425,0.004128910066886233,69455.66779157812
1681262124023072957,191,1681262124023072957,camera_1,192,0,-0.04949169630408931,-0.1374393150693812,1.5491288322850079,0.9994316618879393,0.012497399020040326,0.006773359004192125,0.03056615516296254,0.07126877848349977,0.002971605657703354,69423.04995211425
1681262124032764196,192,1681262124032764196,camera_1,193,0,-0.049433316828884216,-0.13990277010356356,1.548440096559552,0.9995792531760128,0.012388036839148447,0.00773202052175061,0.025061305273421878,0.03841478153481148,0.001600453784275114,69479.65026946373
1681262124042753458,193,1681262124042753458,camera_1,194,0,-0.04937943944210553,-0.1416467203863905,1.547398324381763,0.9995437166735389,0.012462791718249622,0.008836702029400416,0.026056668595186946,0.027654708086629398,0.0011510702564050137,69524.704195812
1681262124052723169,194,1681262124052723169,camera_1,195,0,-0.04934217398480453,-0.14268946322860582,1.5472676539211887,0.9997611094820879,0.012339884696460596,0.007528755732149812,0.016394177318440187,0.0331193770543905,0.0013779428132382526,69586.43295133092
1681262124062739133,195,1681262124062739133,camera_1,196,0,-0.0493237281022936,-0.1430527455729166,1.5470650694869534,0.9997690466324346,0.012386233100557278,0.0077873151652235835,0.01574142140243586,0.03905415018380154,0.0016244248976289048,69599.818215192
1681262124073061704,196,1681262124073061704,camera_1,197,0,-0.04933019283349116,-0.14274713207742915,1.5475049442273825,0.9997991169971783,0.01236711065882545,0.00619088007984134,0.014507006219495487,0.03006731790082995,0.0012513251049164496,69578.86266682248
1681262124082693338,197,1681262124082693338,camera_1,198,0,-0.04936047531301144,-0.14163931792817372,1.5475816148856945,0.9995838145792694,0.012437832445380792,0.009573826233533254,0.024204127880743588,0.03621243091765791,0.0015073962537548798,69520.99242174401
1681262124092732191,198,1681262124092732191,camera_1,199,0,-0.049408531049317916,-0.1398901001509493,1.5481637877654773,0.9995877510514718,0.012532362996764482,0.009537696313949049,0.024006252822991833,0.05227073382411618,0.0021765485335252448,69505.76638789393
1681262124102737903,199,1681262124102737903,camera_1,200,0,-0.049471908771446256,-0.1375627456821727,1.5484846613383685,0.999321465433409,0.012560013618340924,0.008304524848843427,0.03361383121522812,0.0756108468194725,0.0031503358899286427,69443.24714783602
1681262124112804889,200,1681262124112804889,camera_1,201,0,-0.04953489356591839,-0.13487308296206965,1.54935027774109,0.9991590957464587,0.012387366569215925,0.0055609521574575245,0.038687599404737816,0.05224766595347319,0.0021794353765215387,69372.89655897411
1681262124122777938,201,1681262124122777938,camera_1,202,0,-0.04964114401646444,-0.1316185315569841,1.5499166384966307,0.9987964987574042,0.012241485015819224,0.0070607209789501565,0.04696643837694928,0.13753297198854852,0.0057437155129911105,69277.07754700466
1681262124132712841,202,1681262124132712841,camera_1,203,0,-0.04959830543804146,-0.12714335207762206,1.5501697776382997,-0.9979433666620999,-0.011924673271459909,0.012747316697740117,0.06167937272290002,0.27737663019797765,0.011596686947211922,69085.6973974033
1681262124142704486,203,1681262124142704486,camera_1,204,0,-0.049640710547654426,-0.12313962251788786,1.5502872715789375,-0.9983185633553193,-0.012305448684322177,0.017647267695664527,0.05382560669167056,0.15482796623837203,0.006463561786598807,69211.8642294617
1681262124152695894,204,1681262124152695894,camera_1,205,0,-0.04970593042367175,-0.1194802564634567,1.550826971364166,-0.9989001127190258,-0.01209090723413231,0.017894746348789917,0.04161914013150535,0.14151330234017223,0.005904072541049148,69351.38954793176
1681262124162927150,205,1681262124162927150,camera_1,206,0,-0.04988316463135792,-0.11617350068665402,1.551043391924047,0.998704260621688,0.012693521687524299,0.012116009425959029,0.04776899244118208,0.15262916166102514,0.006366042237320842,69368.548951175
1681262124172932624,206,1681262124172932624,camera_1,207,0,-0.04994951585481362,-0.11258631293666713,1.5517080559067062,0.9985370567138067,0.012760818589786989,0.010976790431899676,0.05138499732471369,0.17852373706409708,0.007451256533560233,69308.21233455799
1681262124182919979,207,1681262124182919979,camera_1,208,0,-0.049956975309218624,-0.10879824720204578,1.5523994570984216,-0.9992120239148489,-0.011850521979904435,0.015156980925151206,0.03471544788750391,0.07532356248702854,0.0031464947367767088,69332.28514781792
1681262124192925930,208,1681262124192925930,camera_1,209,0,-0.0499837431552962,-0.10596982083397109,1.552512438752698,-0.9993537396765164,-0.012252610664726922,0.019885465524906172,0.0273229717878183,0.04767887358320877,0.001990388601794746,69384.54581214809
1681262124202737569,209,1681262124202737569,camera_1,210,0,-0.050035264016582814,-0.10385520019775378,1.5528767510560615,-0.9995835086499575,-0.012169213754703392,0.017387591133499393,0.019554824115987867,0.04822559747844935,0.002013343551629301,69429.52754377897
1681262124212816476,210,1681262124212816476,camera_1,211,0,-0.050059778519493364,-0.10226486724104761,1.5523524405556506,0.9995948817105853,0.012131752936389592,-0.016702854762084392,-0.019593561990828026,0.05304601008538156,0.0022130011080251323,69477.52037932901
1681262124222701787,211,1681262124222701787,camera_1,212,0,-0.05005370945565683,-0.10131173951094097,1.5521051005176523,-0.9995266582699075,-0.012195884287244123,0.01759396251853485,0.022094621452750464,0.03869745024712756,0.0016141509173880249,69474.94976870214
1681262124232711791,212,1681262124232711791,camera_1,213,0,-0.050054159658232754,-0.10122994425498218,1.5523523409550712,0.9996114749640636,0.01213421146173321,-0.01733331165935459,-0.018144319752774963,0.05315234087174758,0.0022172352321687024,69485.82481309629
1681262124242749691,213,1681262124242749691,camera_1,214,0,-0.05004118643862763,-0.10186154911135084,1.5522122482026997,-0.9995339463426921,-0.012160794425166634,0.017820815395134464,0.02159684528364339,0.049907811102457345,0.0020818190773806648,69469.52672394563
1681262124252754449,214,1681262124252754449,camera_1,215,0,-0.050020441417983515,-0.10321437692532605,1.552502055786146,-0.9995391017702967,-0.01214651418805445,0.016998278676956517,0.022025093582743127,0.05248772655613721,0.002190325406822318,69444.16381615959
1681262124262719154,215,1681262124262719154,camera_1,216,0,-0.050026295888770056,-0.10515282072122033,1.5527800567950583,-0.9994852215463064,-0.012104617618194726,0.013795870822328443,0.026314332427444884,0.07546346273738891,0.0031514379128864257,69391.21825041377
1681262124272736310,216,1681262124272736310,camera_1,217,0,-0.049940710809161445,-0.10764339050055606,1.5522287895631157,-0.9991974832825432,-0.011949881685426362,0.018291462718110517,0.03357100119400808,0.06125111097935587,0.0025578202657526635,69350.58823404972
1681262124283128261,217,1681262124283128261,camera_1,218,0,-0.04993011360181271,-0.1108977301366301,1.5522576679323823,0.9989522240056667,0.012010889095256987,-0.015027106641437745,-0.04152563982963419,0.16419161576777697,0.006861364837565696,69259.84977175099
1681262124292807340,218,1681262124292807340,camera_1,219,0,-0.04990285969505788,-0.11488863827720418,1.551815046446478,0.998375652037696,0.012303447899842817,0.0012397374922442656,0.055616055586778894,0.18213407241273671,0.0076129978523105865,69247.07370125724
1681262124302713394,219,1681262124302713394,camera_1,220,0,-0.04984254992060002,-0.11855052403322318,1.551225178393837,0.9984064600137578,0.012636471789153406,0.004969042764193343,0.0547737966323917,0.2062817823025398,0.008615543795552419,69259.60040939203
1681262124312832832,220,1681262124312832832,camera_1,221,0,-0.04969828149650779,-0.12196006862009846,1.55098394096394,0.9987829598639844,0.012153950228980517,-0.01619538271962484,-0.044973216003918196,0.19667954836040735,0.008211032986899172,69287.9841298107
1681262124322775125,221,1681262124322775125,camera_1,222,0,-0.049594803462133366,-0.12552160148343047,1.549754070940144,-0.9979138400597671,-0.012429464561982613,0.01715032974909885,0.060986411743677006,0.25917648141330574,0.010818027247508301,69130.72279654798
1681262124332729816,222,1681262124332729816,camera_1,223,0,-0.04958882475068334,-0.1302240466210261,1.5507337430341694,0.9990620090411849,0.012173452238833175,-0.0011081886144371543,0.041541317614817726,0.13310041454678867,0.0055600326073537544,69313.02155804972
1681262124342713832,223,1681262124342713832,camera_1,224,0,-0.04952857653592874,-0.13366783735177856,1.5492892453418892,0.9991132552321256,0.012583124497717547,0.00845577567741783,0.039279359147439526,0.08432996635383462,0.0035157610521387088,69384.54436063755
1681262124352751016,224,1681262124352751016,camera_1,225,0,-0.04949613974755099,-0.13666422954604188,1.5492953683497341,0.9995623009175033,0.012448730887981914,0.00798281375723578,0.025622458279847524,0.047813767407205894,0.001992881805217202,69459.62872429914
1681262124362912654,225,1681262124362912654,camera_1,226,0,-0.04945724571510454,-0.1390481245653266,1.5481044440565395,-0.9995548950986282,-0.012567607017163541,-0.011411859113654171,-0.02453235434691775,0.06671634725353215,0.0027778058779163737,69514.91390774483
1681262124372743368,226,1681262124372743368,camera_1,227,0,-0.04940715791083963,-0.14105116184248837,1.5477046417010858,0.9995970673011303,0.01247059485970299,0.009637442724237432,0.023607350646819576,0.047486388953984715,0.0019766959659335294,69525.7682394535
1681262124382771015,227,1681262124382771015,camera_1,228,0,-0.049360793488776596,-0.1423919186686605,1.547075427602196,0.9996557004799697,0.012503141805486612,0.008626426138930622,0.021394782423823186,0.03325289943313692,0.0013833380814165601,69573.93097473528
