%time,field.header.seq,field.header.stamp,field.header.frame_id,field.image_seq,field.transforms0.fiducial_id,field.transforms0.transform.translation.x,field.transforms0.transform.translation.y,field.transforms0.transform.translation.z,field.transforms0.transform.rotation.x,field.transforms0.transform.rotation.y,field.transforms0.transform.rotation.z,field.transforms0.transform.rotation.w,field.transforms0.image_error,field.transforms0.object_error,field.transforms0.fiducial_area
1681066499969217777,9,1681066499969217777,camera_1,11,0,0.11330296050128921,0.19753710783847483,2.9573159763966284,-0.999350134651993,-0.011818653968717414,0.013208593689590731,0.031387271976943965,0.0004834561259485781,7.30548415418211e-05,19225.121699361942
1681066499979252576,10,1681066499979252576,camera_1,12,0,0.11330373745028227,0.19770583452975915,2.9581500937207204,-0.9993906666131827,-0.011927454280818825,0.009947899757917041,0.031258128722687184,0.0008969181799329817,0.00013560473417486833,19219.00249148358
1681066499989347219,11,1681066499989347219,camera_1,13,0,0.11324089520376868,0.19784658021554422,2.9566830029432456,-0.9992259502958901,-0.011925919559871224,0.009632012365209473,0.03622840095454347,0.0008139474084600806,0.0001229671415956147,19224.390046944267
1681066499999222993,12,1681066499999222993,camera_1,14,0,0.11327392651203695,0.19808350752871812,2.958179720858419,-0.9993999236572632,-0.011876488936282676,0.012074862524614947,0.03021488539469357,0.00018260028446093202,2.760737426624333e-05,19218.204643017383
1681066500009309291,13,1681066500009309291,camera_1,15,0,0.11328298227088937,0.1980624166436729,2.95824437985409,-0.999370161321616,-0.01184524459292446,0.011334348778207371,0.03147226363506459,0.00016965263057500124,2.565358702229324e-05,19215.16154204589
1681066500019240140,14,1681066500019240140,camera_1,16,0,0.11331171474317416,0.1977692464759372,2.9573275674196546,-0.9993269457718849,-0.012016056475013416,0.012859458807842929,0.032185465045495104,0.0013753739767707884,0.0002078377484894833,19223.165684942625
1681066500029332637,15,1681066500029332637,camera_1,17,0,0.11333867446562604,0.19759856767107997,2.9583964459378773,-0.9995131354829883,-0.011715259430730271,0.017349137523922607,0.02313551643279937,0.0006232915329746902,9.422895100197764e-05,19223.170789015247
1681066500039333343,16,1681066500039333343,camera_1,18,0,0.11328136493323912,0.19749971992546095,2.956687634491393,-0.9994059822372056,-0.011855027588514318,0.013227953270081387,0.02953239309041187,0.0012457618722692132,0.00018813764798133708,19237.9411291231
1681066500049152612,17,1681066500049152612,camera_1,19,0,0.1132768181030232,0.19771867109512795,2.9575637190926587,-0.9993988474420474,-0.011967477972893915,0.010035077007023127,0.03095190514231167,0.0003459922736510635,5.229047544219261e-05,19227.246502704453
1681066500059201717,18,1681066500059201717,camera_1,20,0,0.1133023553287616,0.19798567450312482,2.957763728665174,-0.9993784552597684,-0.01210318412980684,0.014017142864311874,0.029995596384143643,0.0012867102632299066,0.00019449251006241412,19221.283782774924
1681066500069376945,19,1681066500069376945,camera_1,21,0,0.11328400367695314,0.19810629899293852,2.9580405913053607,-0.9993955930210586,-0.011557638077761811,0.012747078087104515,0.030205655966910803,0.0003006555489264429,4.545257047756966e-05,19219.029201681136
1681066500079318046,20,1681066500079318046,camera_1,22,0,0.11329487405011232,0.19793496112044554,2.957560690506052,-0.9993501521365964,-0.01220696716245409,0.012799742061269555,0.03140748287305864,0.0017046808497980237,0.00025761523359117575,19222.18940133555
1681066500089782953,21,1681066500089782953,camera_1,23,0,0.11333319239055994,0.19774456280695818,2.9585140700171055,-0.9995349467319918,-0.012079785072007234,0.009959342980122448,0.026168311781479284,0.0010597285581752658,0.0001602453793387345,19226.387582183816
1681066500099316120,22,1681066500099316120,camera_1,24,0,0.11331824232102045,0.19756801725630413,2.957936082399779,-0.9995022191372955,-0.011682143998336244,0.015332610174160603,0.024975037867260182,0.0008159666904248297,0.00012332759679537658,19228.86220669945
1681066500119469881,23,1681066500119469881,camera_1,26,0,0.1132660196442977,0.19783090337114417,2.957527536876604,-0.9993761309148498,-0.01160058281102585,0.0092384352015735,0.03205349826674109,0.001636281085666269,0.0002473337922173721,19225.696473774617
1681066500129582405,24,1681066500129582405,camera_1,27,0,0.11327767080859527,0.198059824484108,2.9582779002456143,-0.9994134245310914,-0.012009750789880156,0.01304715467645728,0.029297517093604068,0.000200853799469769,3.0366597670262514e-05,19217.847629741304
1681066500139732837,25,1681066500139732837,camera_1,28,0,0.11328089200062089,0.1980613636087859,2.9575769654113646,-0.9993837762589296,-0.011687268259958453,0.010893698378285074,0.03125384531069097,0.0007975943735800683,0.00012055789270247693,19224.884441091213
1681066500149545192,26,1681066500149545192,camera_1,29,0,0.11332939118382034,0.19792781817056096,2.9586099960476755,-0.9994902783985913,-0.011876912207495713,0.01680214158716271,0.02440922737832894,0.0005769156268797815,8.723586230034776e-05,19218.577889023232
1681066500159394025,27,1681066500159394025,camera_1,30,0,0.11328271845915278,0.19766171419605164,2.9574532342535447,-0.999319905521101,-0.011715081179800607,0.0089161665584627,0.03380806525299074,0.00023029936710372567,3.481104250126058e-05,19222.39236540441
1681066500169386148,28,1681066500169386148,camera_1,31,0,0.11331755181087697,0.19755382227654897,2.9577029803309944,-0.9994481994193726,-0.011654474069397494,0.01247971838189628,0.02849081502254162,3.4987227991223335e-05,5.287739042998444e-06,19228.36783891473
1681066500179383277,29,1681066500179383277,camera_1,32,0,0.11329262191044502,0.1976685823002304,2.957948196829495,-0.9993847993434859,-0.012184248083995382,0.009236221635939098,0.03156357314531834,0.0015183789655566216,0.0002295341432718332,19221.706448728677
1681066500189201354,30,1681066500189201354,camera_1,33,0,0.11325296447082162,0.19790084926599116,2.9574826034499875,-0.9993157569327209,-0.011921502925078379,0.011015890148417936,0.03323470893852611,0.0010725094471126795,0.00016209289937276796,19220.859686656266
1681066500199200630,31,1681066500199200630,camera_1,34,0,0.11330804655464817,0.1981049425044506,2.9585600271617345,-0.9994679485907554,-0.012024322340889099,0.011000188910002125,0.02825298667351594,0.0005219992599450052,7.893558010573239e-05,19219.47553621082
1681066500209294557,32,1681066500209294557,camera_1,35,0,0.11324564600957504,0.1979845145502408,2.957291363799416,-0.9993398041598613,-0.011997042716882608,0.01284758950243205,0.03179569517649176,0.0012066455674357712,0.00018231242174286577,19224.6049651571
1681066500219195365,33,1681066500219195365,camera_1,36,0,0.11330275224984437,0.19776100535606692,2.9573355205158336,-0.9993475635264216,-0.011971788472366391,0.011224256033759135,0.03217358592178304,0.00044835603330284357,6.775784600606195e-05,19225.379616978462
1681066500229227304,34,1681066500229227304,camera_1,37,0,0.11333181159630842,0.1976255735046248,2.958317982297645,-0.9995036115166045,-0.011965863472038565,0.013592513329865932,0.02577968692615387,0.0006214442546479404,9.394278493595704e-05,19224.912995246006
1681066500239184856,35,1681066500239184856,camera_1,38,0,0.1133258589044692,0.19757572396698564,2.958034986327502,-0.9994653149944039,-0.011892531705880264,0.014866630308907556,0.026582609277867653,0.0009517065482214093,0.00014383916777639327,19224.86064083175
1681066500249210119,36,1681066500249210119,camera_1,39,0,0.11334096963420859,0.19777733925833543,2.958924287404571,-0.9995759374836038,-0.011825661902975137,0.01163443578743415,0.023931962481986837,0.00025545706739649177,3.8633991324353756e-05,19223.642269888078
1681066500259146690,37,1681066500259146690,camera_1,40,0,0.11327881355132147,0.19797384715409055,2.957672647599062,-0.9994113615705799,-0.011949320521539934,0.015258519861147346,0.02830762572806834,0.0009298814693465829,0.0001405302989879432,19224.64350716409
1681066500269215583,38,1681066500269215583,camera_1,41,0,0.1132521698743337,0.19807012536123747,2.957702605956789,-0.9993301821387336,-0.011859410871655911,0.008407785315783154,0.033583486811624874,0.0016899226466193795,0.00025548686422727554,19220.054397182183
1681066500279153823,39,1681066500279153823,camera_1,42,0,0.11331560045793364,0.19799687850581144,2.9580354839552014,-0.9994060328622334,-0.0119384046120989,0.011548164729165335,0.030194301867712502,0.0008697307202965021,0.00013149469053036643,19220.830242146512
1681066500289248704,40,1681066500289248704,camera_1,43,0,0.11326286048638765,0.19768047191347748,2.9571188450200827,-0.999275472825628,-0.011982706336032541,0.009490942848731254,0.03485493023697174,0.0002992704976350069,4.5224134979441015e-05,19223.083231759025
1681066500299165248,41,1681066500299165248,camera_1,44,0,0.11329314075620567,0.19751625172944312,2.957257643354972,-0.9994121255446773,-0.011755681749190831,0.012333546724337927,0.029750477073158844,0.000891325413249433,0.00013468191064783225,19231.310681677893
1681066500309195041,42,1681066500309195041,camera_1,45,0,0.11326952178102624,0.19755712462909616,2.957072646848879,-0.9994306331716182,-0.011870058463929651,0.009546463006952955,0.030106083011549527,4.464999074116349e-05,6.746120820738641e-06,19236.440478307544
1681066500319181680,43,1681066500319181680,camera_1,46,0,0.11329327216635973,0.19784174819716044,2.9583203213860836,-0.9995090060857948,-0.011946754938048882,0.01590781698265811,0.024206675911469206,0.0009995131986215708,0.00015108844515075522,19224.394276585896
1681066500329116106,44,1681066500329116106,camera_1,47,0,0.11323392050137816,0.19798271050736943,2.9568735674657542,-0.9993333755832329,-0.011799066010410017,0.008522249466864864,0.03348070714199008,0.0004391621914692223,6.63531670067904e-05,19230.982861182656
1681066500339165925,45,1681066500339165925,camera_1,48,0,0.11334344425823249,0.19823847259209842,2.9605196371662954,-0.9995539537698706,-0.011771338018145028,0.012297622559454952,0.02453767681887141,0.0005788024282082915,8.76335185359254e-05,19200.623512737104
1681066500349021196,46,1681066500349021196,camera_1,49,0,0.11329610003969753,0.19792763635486188,2.958585388391767,-0.9994740837584515,-0.012238266173451013,0.011723629815174311,0.027646649710743276,0.0016869090613909066,0.0002550622058965433,19219.781318181078
1681066500359140872,47,1681066500359140872,camera_1,50,0,0.11330094134306835,0.19762314632863223,2.957664384983449,-0.9994601758692623,-0.011743435294213728,0.012257479606965115,0.028128326870951032,0.0009830226772464812,0.00014854647462184706,19230.014393280377
1681066500369186639,48,1681066500369186639,camera_1,51,0,0.11330536388848153,0.19755311899667688,2.9576258959121833,-0.9994727434137557,-0.011647719394265878,0.012862447843600019,0.027443090958639792,0.001139820262324065,0.00017225075977522961,19231.27415199345
1681066500379148960,49,1681066500379148960,camera_1,52,0,0.1132717524768255,0.19767955487024622,2.9574819637313556,-0.9992801252101655,-0.011951630674023989,0.012838580375136383,0.03363867919730012,0.0012201739591546357,0.00018440526534117238,19217.41429873369
1681066500389200687,50,1681066500389200687,camera_1,53,0,0.11323013978649583,0.1978699236107219,2.9569780712239377,-0.9992338752390749,-0.012128097109477832,0.014415949108522551,0.0343038226223335,0.00011921703116968274,1.8010982284872113e-05,19219.535226722954
1681066500399171352,51,1681066500399171352,camera_1,54,0,0.11320651061198855,0.19795125615922887,2.9559820395168814,-0.9992539347779585,-0.011892247799404657,0.01414570612457041,0.03391234688549602,0.0008225744822993875,0.00012418174863657955,19233.836557732662
1681066500409162044,52,1681066500409162044,camera_1,55,0,0.11324999426186086,0.19798570614458658,2.957021048372755,-0.9991920750048512,-0.011902627530382832,0.012864071911173829,0.03616684060347151,0.0005753323202952743,8.69309530452903e-05,19215.793815550867
1681066500419326782,53,1681066500419326782,camera_1,56,0,0.11331281461414558,0.1978232250622317,2.9581876933233513,-0.9994458741781486,-0.012105271152317573,0.012138308544704178,0.028531885046013263,0.0001315988483838737,1.9895994686343202e-05,19222.28942930838
1681066500429077386,54,1681066500429077386,camera_1,57,0,0.1133271176172554,0.19758152348999686,2.9579728280898174,-0.9993899918587397,-0.012152426668598934,0.011908115378045253,0.030498516140885012,0.0006668454152531922,0.00010080137953167848,19220.745325904456
1681066500439195156,55,1681066500439195156,camera_1,58,0,0.11334685416484228,0.19758062839839782,2.95820648593099,-0.9994568361948016,-0.012115334149095238,0.009268388041554082,0.02921212496626338,0.002489754813723266,0.00037641869271676036,19224.26425619865
1681066500449232578,56,1681066500449232578,camera_1,59,0,0.11328318461176601,0.19775438254173694,2.9577582228761288,-0.9993482640926318,-0.012076337626923757,0.013347362263494884,0.031289887266839254,0.0015881754807196558,0.0002400178294713378,19219.34654154372
1681066500459163427,57,1681066500459163427,camera_1,60,0,0.11325988879700338,0.19795042458373388,2.957221973052571,-0.9992830369637078,-0.01190725028786103,0.007114573269699028,0.03522800412117166,0.0010315660620108247,0.00015592876467141717,19223.034059515805
1681066500469984769,58,1681066500469984769,camera_1,61,0,0.11329393337786993,0.19810766021623347,2.958392613175989,-0.9994171272621528,-0.011934169941343184,0.013015835228511624,0.029215909299235218,0.0008501924457959831,0.0001285545470831466,19216.545117037953
1681066500479908704,59,1681066500479908704,camera_1,62,0,0.11331133618221767,0.19797622485246733,2.9577175000074365,-0.9993227926976088,-0.011930367146442463,0.013066916807562138,0.03226264124257966,0.0018298210925422609,0.00027658317933472855,19217.4613253692
1681066500490054607,60,1681066500490054607,camera_1,63,0,0.11331192746112473,0.19770228740623438,2.9578825316599247,-0.999433567002451,-0.011904222954269648,0.012645745783401267,0.028825678451582536,0.0006414909148588777,9.696685755457623e-05,19224.896637819482
1681066500499403953,61,1681066500499403953,camera_1,64,0,0.11334655674006713,0.19761420441109961,2.958815515444258,-0.9995563946889312,-0.011936775624920765,0.009189389413936589,0.0256920677709057,0.0008322488865815105,0.00012586573895108453,19224.56374960835
1681066500509262561,62,1681066500509262561,camera_1,65,0,0.11333749141290514,0.19764568900638038,2.958449713816171,-0.9995788843622763,-0.011700469300131872,0.009617428967833044,0.024751929526255774,0.00010798784205690026,1.6327954676731418e-05,19230.739273419713
1681066500519392967,63,1681066500519392967,camera_1,66,0,0.11331049734435408,0.1979104064606467,2.958606307417107,-0.9994742217643582,-0.011839659508536118,0.011199477185869071,0.028029880520898103,0.0008409494766965508,0.00012716770463320356,19219.309480077583
1681066500529088973,64,1681066500529088973,camera_1,67,0,0.11329638896750412,0.19805972710870362,2.9580356138755763,-0.9994714021310815,-0.012067145742207405,0.013024151972554281,0.027233651631065094,0.0016073048464022577,0.00024297989612362503,19225.82093639358
1681066500539242267,65,1681066500539242267,camera_1,68,0,0.11331827610782459,0.19810904665657428,2.95856760162578,-0.9995171105481638,-0.01194531863002306,0.013898439892356923,0.02509359386049539,0.0005477886297740042,8.282822919074936e-05,19222.322079366895
1681066500549135446,66,1681066500549135446,camera_1,69,0,0.11325559340381414,0.19783717178742855,2.9569215515606473,-0.9992683997726969,-0.012048278754655974,0.008681181167827276,0.035244024859474664,0.0016701353597454727,0.0002523795788389262,19225.292418171066
1681066500559274911,67,1681066500559274911,camera_1,70,0,0.11331163800228516,0.19765773555030516,2.9572952633372274,-0.999324435804822,-0.01180593590071996,0.009781914933858412,0.033400688931654404,0.00028710701735690236,4.339199734371936e-05,19224.487077244674
1681066500569258451,68,1681066500569258451,camera_1,71,0,0.11333122565484013,0.19753989486483517,2.9577503112984824,-0.9994708088710696,-0.011763484029920494,0.01401514982952965,0.026894204456415546,9.495776612311602e-05,1.4350924633923643e-05,19229.168069539708
1681066500579132318,69,1681066500579132318,camera_1,72,0,0.11327066018435757,0.19765454807791108,2.9577201391414616,-0.9994226458258086,-0.012099078957066302,0.011625024371781142,0.02954396905099983,0.0004817007575184107,7.280044769676285e-05,19226.77955642668
1681066500589183807,70,1681066500589183807,camera_1,73,0,0.11325099081304474,0.19793311510727415,2.95746406614511,-0.9992660859927653,-0.012132413658178364,0.00875215068654948,0.03526320719795834,0.0006864357856102288,0.00010375928370169948,19218.10552390013
1681066500599166393,71,1681066500599166393,camera_1,74,0,0.11326719358013762,0.19814294735759494,2.9580567221706664,-0.9993944306991465,-0.011944752327954786,0.008770501752164124,0.03148290136515824,0.0004042598302476108,6.112427148914718e-05,19220.656348394805
1681066500609178781,72,1681066500609178781,camera_1,75,0,0.11325466265456952,0.198041587599097,2.9575811041082014,-0.9993129849071248,-0.011861472584054771,0.009964339199486678,0.03366861459085733,0.00019706133753061295,2.978803735295994e-05,19219.586311381427
1681066500619154930,73,1681066500619154930,camera_1,76,0,0.11328654703165067,0.19772748716693336,2.956888242136504,-0.9993628922535739,-0.011919527708684695,0.013116393428843947,0.03097893912311237,0.0012488769134506583,0.00018867052855624307,19231.6597076318
1681066500629092693,74,1681066500629092693,camera_1,77,0,0.11333649808909999,0.19761914790597696,2.9579318328074082,-0.9994726794317177,-0.011948888789407398,0.008921478065334318,0.02884431235809135,0.0007427261443808675,0.00011228930358257402,19229.045533554283
1681066500639095306,75,1681066500639095306,camera_1,78,0,0.11328293871361511,0.19752575806939754,2.9573577497479757,-0.9993803526294817,-0.012142239359419797,0.010726792341878344,0.031247603549163634,0.0020951482583768666,0.00031656784752954824,19228.436004751013
1681066500649104356,76,1681066500649104356,camera_1,79,0,0.11332058108751333,0.19776599575041737,2.9579809527178855,-0.9993464233893343,-0.011772358513940925,0.01186333381691449,0.03205306451360101,0.00011080066906288266,1.6750783335624255e-05,19216.522657775546
1681066500659119129,77,1681066500659119129,camera_1,80,0,0.11330643029925505,0.19804883023289313,2.958523303731812,-0.9994133294127338,-0.012071651774545044,0.010753084774296191,0.030193432786380207,0.0012195135932415724,0.00018443566298522796,19215.58405901608
1681066500669141769,78,1681066500669141769,camera_1,81,0,0.11324729547750814,0.1980820179986987,2.957352815943208,-0.9993037310199601,-0.01198705348116998,0.010748770650759085,0.033657505075752714,0.00011683476623147726,1.7657255887700068e-05,19221.541237683967
1681066500679146766,79,1681066500679146766,camera_1,82,0,0.11327949990773953,0.1979713436814926,2.957987112398984,-0.9994374542093816,-0.012036145112683536,0.011255542597748722,0.02920991432933655,0.00103608617791906,0.00015660834955148875,19224.376869421918
1681066500689167261,80,1681066500689167261,camera_1,83,0,0.1132652643032695,0.197620966488104,2.956088007478248,-0.9992651556582758,-0.011952072438438181,0.011085455566364645,0.034690190638770664,0.0002625611959956586,3.9648907550529726e-05,19234.85970646853
1681066500699194192,81,1681066500699194192,camera_1,84,0,0.11335569733811737,0.19759993441545456,2.9585811066576464,-0.9994566961768939,-0.012090348497129755,0.016483633279087903,0.025853931505794295,0.0019186761346645653,0.0002901452494838228,19216.65352857835
1681066500709114789,82,1681066500709114789,camera_1,85,0,0.11330066919762324,0.19759295263884438,2.9575008910315908,-0.9994010537370172,-0.01179375035950048,0.009895842010586822,0.030992153082657677,4.1219231206923716e-05,6.229564591906714e-06,19228.19334275648
1681066500719099998,83,1681066500719099998,camera_1,86,0,0.11326364536549025,0.19777387479233785,2.956817277519521,-0.9992703718212554,-0.011973688188500024,0.012645213669902133,0.03399196026440651,0.0009122231276705861,0.00013780534554917747,19225.176772940322
1681066500729135274,84,1681066500729135274,camera_1,87,0,0.11327241097764529,0.19805898736345973,2.957772431653742,-0.9992755802758582,-0.011962205265762934,0.013010127110517836,0.03370395973910148,0.000985129619948566,0.0001489202148655308,19212.894177460457
1681066500739215373,85,1681066500739215373,camera_1,88,0,0.11325310601460985,0.1980236548748548,2.956878522158325,-0.9992766869821226,-0.012020326827615559,0.013381460655904698,0.03350449384343857,0.000531513593159616,8.029815791062431e-05,19224.44649636698
1681066500749218463,86,1681066500749218463,camera_1,89,0,0.1132781099991946,0.19788884788177705,2.9573769489114827,-0.9993703534697885,-0.011915097198279287,0.011131518493613525,0.03151216210373221,0.00012753356713801622,1.9272702293699616e-05,19226.642591576674
1681066500759297609,87,1681066500759297609,camera_1,90,0,0.11334315708528105,0.19768261757660865,2.9583640689236335,-0.9994598703824853,-0.011938825977889485,0.011436598654555347,0.028401340470306027,0.0007914124289527534,0.00011965450572459892,19221.37999446388
1681066500768961191,88,1681066500768961191,camera_1,91,0,0.1133169761520177,0.19756918902796436,2.957778002162992,-0.9993953780064858,-0.011802802289679632,0.016319943699687495,0.028341342858502615,0.0020920667448081076,0.00031616533641195264,19221.735132642556
1681066500778968095,89,1681066500778968095,camera_1,92,0,0.1132997877887334,0.19770206886439023,2.958081805033815,-0.9994765399785244,-0.011964985669856378,0.006125079363677869,0.029427343632515427,0.0002778685884550214,4.201346272013119e-05,19228.603892116225
1681066500788946390,90,1681066500788946390,camera_1,93,0,0.11331063489481596,0.19800091869852196,2.9590313226422476,-0.9995515510476757,-0.011955319931280455,0.011863083513484932,0.024759530954335997,0.00010716106044128537,1.6209384694503524e-05,19220.108388683882
1681066500798935413,91,1681066500798935413,camera_1,94,0,0.11330021835163662,0.19815204982885531,2.9584721998717605,-0.9993680896880227,-0.01191186877415814,0.012904470497785326,0.030903128268694024,6.695004412904382e-05,1.0124353265828159e-05,19211.420983857475
1681066500808952808,92,1681066500808952808,camera_1,95,0,0.11327139791955661,0.1980431331144691,2.957559464752769,-0.9993053261365777,-0.011674641900980158,0.010514308121283301,0.03379374522426774,0.0019189651939086616,0.00029009755176067584,19218.787640068334
1681066500819013118,93,1681066500819013118,camera_1,96,0,0.11330837889828299,0.19786225816633068,2.958458285500549,-0.9994991131963129,-0.012033781098182298,0.010616605911748364,0.027276336102566,0.0005181401502341032,7.834312403585577e-05,19223.752445037113
1681066500828966856,94,1681066500828966856,camera_1,97,0,0.11331864866458469,0.19759407380065494,2.9575713879014645,-0.9994135484638877,-0.012007469451144547,0.011533970650261217,0.029922355275600502,0.0010778532596305013,0.00016287781920416123,19227.86784304621
1681066500839331388,95,1681066500839331388,camera_1,98,0,0.1132881778784478,0.1975294599956374,2.956966867204322,-0.9992864309204437,-0.011929774421024107,0.010039487358339542,0.034402298675040605,0.00022396247368305922,3.3839512377025464e-05,19225.76241854508
1681066500849030494,96,1681066500849030494,camera_1,99,0,0.11329543389165597,0.19774672143601293,2.9573863420641584,-0.9993504021120656,-0.011749022529379129,0.011956607209848912,0.031902567484232675,0.0008083878783509136,0.0001221515280885309,19224.50183034723
1681066500859146833,97,1681066500859146833,camera_1,100,0,0.11327836328922654,0.19799739997679275,2.9576579477050835,-0.9993987424249055,-0.011658920550361768,0.011645126129408065,0.03050597070326027,0.000579679966904223,8.76137694128523e-05,19224.835484691546
1681066500869179487,98,1681066500869179487,camera_1,101,0,0.11328652025216482,0.1981070850458121,2.9577951435124397,-0.9993698001196808,-0.011569927354312781,0.013169444156875704,0.030865921829166712,0.0007872710702940822,0.00011900563857240233,19219.880896396702
1681066500879183292,99,1681066500879183292,camera_1,102,0,0.11328539608634483,0.19798339112709934,2.957884470529469,-0.9993671225040197,-0.011804526118326266,0.011024938209303474,0.03169319104537377,0.0003079319722019136,4.655258674225595e-05,19219.684319410015
1681066500889109611,100,1681066500889109611,camera_1,103,0,0.11330332503966437,0.19773852921837154,2.95797184198614,-0.9993357510726297,-0.011928927321705826,0.01082136475070885,0.03269029498167526,0.00023638003040105104,3.5736018375417986e-05,19216.379147503525
1681066500899147272,101,1681066500899147272,camera_1,104,0,0.11336257200624847,0.1976119820275417,2.9587008274383435,-0.9995588420047447,-0.011853572157339065,0.008755810249349611,0.025786624131946788,0.0004471541615203023,6.762295381882023e-05,19226.308122336402
1681066500909090280,102,1681066500909090280,camera_1,105,0,0.11331200798029505,0.19761340968929847,2.9582425940488926,-0.9995149329702933,-0.011939945690392799,0.012365158506223816,0.025969969607548306,0.0014914193307049572,0.00022544891998195046,19227.298157215693
1681066500919130325,103,1681066500919130325,camera_1,106,0,0.11327981391123526,0.19782596824811177,2.9576703947935274,-0.9993398562261682,-0.01191225054825147,0.012250305663320188,0.03206056855223425,0.0005910074687562883,8.932929790619225e-05,19219.960265232017
1681066500929080009,104,1681066500929080009,camera_1,107,0,0.11327542915440535,0.19803602562386827,2.9573423354920356,-0.9993026774244272,-0.012118026354333138,0.01238021597327979,0.0330763145181211,0.0015671966830268502,0.00023685746228069494,19221.055514452164
1681066500938919305,105,1681066500938919305,camera_1,108,0,0.11328198738044767,0.19809712788851672,2.9582307945724406,-0.9993834792457138,-0.012013449856449844,0.01556531111580318,0.029087102350472967,0.000686406739987433,0.00010377330359409193,19214.99415275443
1681066500948982477,106,1681066500948982477,camera_1,109,0,0.11326950970581158,0.19783293811558916,2.9565496442156713,-0.9992925751958396,-0.01195479768334458,0.012985401249587938,0.03320860318057472,0.001428766525350511,0.00021581536699256932,19230.214885350437
1681066500958962678,107,1681066500958962678,camera_1,110,0,0.11328376459361172,0.19760989457515002,2.95713746627115,-0.999343857769638,-0.01214227721149881,0.013498405891482658,0.031340262931340734,0.00012959714513272047,1.9579553985342656e-05,19227.079650484025
1681066500968938589,108,1681066500968938589,camera_1,111,0,0.11331543113848838,0.1975105403350606,2.9572085793005165,-0.9993974459646002,-0.011726424378945062,0.017303093380130294,0.027709906715782558,9.861181024461985e-05,1.4896534032829335e-05,19228.861051772154
1681066500978966236,109,1681066500978966236,camera_1,112,0,0.11333126862763594,0.19769272364698331,2.958228942121461,-0.9993569165904508,-0.011870829743992095,0.009608040299967046,0.032442598934277825,0.0035104359267279506,0.0005307975100092047,19215.26015079837
1681066500988955497,110,1681066500988955497,camera_1,113,0,0.11325890480430775,0.19788196287541318,2.957249353993508,-0.9993998342432614,-0.01206453309961572,0.007576538243560336,0.03157553521120303,0.0004513570456765592,6.821329881715089e-05,19232.33750386735
1681066500998956203,111,1681066500998956203,camera_1,114,0,0.1132734280856248,0.19808604583448694,2.9578286812652794,-0.9993371270375762,-0.011853601268774164,0.012338548432645806,0.03213345427773986,0.00010493997251614928,1.5863422265364206e-05,19217.381651853913
1681066501008881807,112,1681066501008881807,camera_1,115,0,0.11330190493969686,0.19808190144001495,2.95882355206434,-0.9994877649893465,-0.011875057700586882,0.010670347828440166,0.0277368765081518,0.0022392856189981103,0.0003386617464031964,19217.758661060587
1681066501018940925,113,1681066501018940925,camera_1,116,0,0.11326943756743665,0.197785317473784,2.957274172091913,-0.9993375896116169,-0.011841446744070018,0.013202241398612303,0.03177834089916796,0.00015390565386042,2.325500868768614e-05,19224.48553264036
1681066501028955698,114,1681066501028955698,camera_1,117,0,0.11334296515278747,0.19755350853657136,2.957446938429858,-0.9993296728884022,-0.011780228907277222,0.01227831523158442,0.032414102898660424,0.0015498337452299893,0.00023421667485531552,19222.00625734194
1681066501038959264,115,1681066501038959264,camera_1,118,0,0.11329492635142686,0.19756368578081301,2.957388847906318,-0.9993151764540358,-0.012047146975194545,0.008077647432744464,0.03404109237890937,0.00026394263841211796,3.989735026799311e-05,19223.56864252581
1681066501048921108,116,1681066501048921108,camera_1,119,0,0.113299986744409,0.19773751487215255,2.9579812156229246,-0.9994593548444679,-0.011800495825541466,0.011845848831811263,0.0283094008697723,0.00044587813317775726,6.739828738100098e-05,19225.976677773047
1681066501058903455,117,1681066501058903455,camera_1,120,0,0.11327298013426175,0.19799254810245456,2.957465664062483,-0.9993033846712438,-0.011857606498361137,0.016685076969037614,0.031204979719005186,0.0016087475814856589,0.00024307878554382357,19217.73585611943
1681066501069061994,118,1681066501069061994,camera_1,121,0,0.11331876295859071,0.19817626411782524,2.9588766598765814,-0.9994187963211804,-0.011887665394758423,0.012562986090499877,0.029375574068860804,0.00020330247934907675,3.075191755340761e-05,19210.49148749258
1681066501079257488,119,1681066501079257488,camera_1,122,0,0.11329048363711697,0.19799421885150484,2.958061837523863,-0.9993124756194132,-0.011883922312488183,0.008804696591406671,0.03399743784175491,0.00013936817413195968,2.1074704061818888e-05,19213.856331901163
1681066501089092969,120,1681066501089092969,camera_1,123,0,0.11337717138905493,0.19780363258552744,2.9592182439150827,-0.999555536349397,-0.011686311081349314,0.014063474761450334,0.023545245044666055,0.00014577509136870503,2.205001647473439e-05,19217.053382080514
1681066501099200248,121,1681066501099200248,camera_1,124,0,0.11334980286521332,0.19758080709666823,2.958026755073677,-0.9994468868058212,-0.011736786511294525,0.011945363250402324,0.028731108460278924,0.00021964125335216522,3.3203935598067316e-05,19224.303410503206
1681066501109225034,122,1681066501109225034,camera_1,125,0,0.11331761682665689,0.1976473337307061,2.9582389545513488,-0.9994632874143159,-0.012090998688094559,0.011104071930375891,0.028348623392645392,0.0007495221798308194,0.00011332986353239966,19223.598323767066
1681066501119245052,123,1681066501119245052,camera_1,126,0,0.1132911263026757,0.1978623771147595,2.958412646842989,-0.9994491946476916,-0.0118998708441328,0.012571216519898449,0.028313687629546128,0.0011302130296826363,0.00017087301685997662,19219.3270551609
1681066501129194259,124,1681066501129194259,camera_1,127,0,0.11326907824567659,0.19805343932042457,2.9578741745448984,-0.9993515217436322,-0.011860651655045979,0.013318350758411018,0.03128070434117912,0.00033611798426136374,5.0806919914193805e-05,19217.66180369572
1681066501139222383,125,1681066501139222383,camera_1,128,0,0.1132823626413482,0.19809200181830314,2.9575141193845735,-0.9992681954345398,-0.01212516976379292,0.011926450183811376,0.0342609637519221,0.00018403754802420735,2.7817399359550896e-05,19216.13952813612
1681066501149055957,126,1681066501149055957,camera_1,129,0,0.11325191454662303,0.19780228284472046,2.9565595008732153,-0.9993140316115039,-0.011696648574709576,0.01258828850997429,0.032805329275460544,0.0004669904592446983,7.052839718276663e-05,19231.844810355455
1681066501159090757,127,1681066501159090757,camera_1,130,0,0.11335135603733926,0.19775035664453697,2.9591323692683003,-0.9995305370267017,-0.01174351125595348,0.01014917420604967,0.02641571042826191,0.0002806010306812823,4.244646414679213e-05,19217.63967783528
1681066501169144868,128,1681066501169144868,camera_1,131,0,0.11334619853610756,0.19757559305489195,2.958559617235307,-0.9995162693285989,-0.011950834875357266,0.011520850010834893,0.026299713083027556,0.00031863845651969314,4.817967826735398e-05,19223.63601641066
1681066501179157972,129,1681066501179157972,camera_1,132,0,0.11333199813443691,0.19770906169981683,2.958469940402464,-0.9995172292569754,-0.011809990692436448,0.01549861527939459,0.024199699641212796,0.0010133638279512525,0.00015322231488919082,19223.186802509583
1681066501189109563,130,1681066501189109563,camera_1,133,0,0.11328923902060459,0.19789492945032325,2.957361672596204,-0.9994114080190638,-0.011670821093447954,0.020175605301581568,0.02517090397804671,0.0006160625489428639,9.307551890805459e-05,19226.78079139371
1681066501199170589,131,1681066501199170589,camera_1,134,0,0.11324407495827879,0.19806298103523629,2.9569944887317217,-0.9992038885095311,-0.012149394803294569,0.01009312256203555,0.03663482319179388,0.0035940606030635536,0.0005432206391054724,19218.349470493493
1681066501209175348,132,1681066501209175348,camera_1,135,0,0.11330609577460579,0.1980842848768109,2.9580166803391754,-0.9993199959382341,-0.011646130603992938,0.00941059545086304,0.03369501525779128,0.0014984137378633022,0.00022659743120453872,19214.453956878162
1681066501219162464,133,1681066501219162464,camera_1,136,0,0.11332438445795442,0.1977926344742973,2.9578855350211297,-0.9995140396671042,-0.011860289734868783,0.012898394963485856,0.02578079601404359,0.00018995668506249785,2.8711271857421845e-05,19231.35488495975
1681066501229162693,134,1681066501229162693,camera_1,137,0,0.11330203453686705,0.19752213824756285,2.956706396198798,-0.9993040452035001,-0.011757466069857728,0.012780499956600426,0.03301281648688011,0.0021225993405096233,0.00032061657741535204,19229.28735276963
1681066501239146709,135,1681066501239146709,camera_1,138,0,0.11333835324174982,0.19760302303717042,2.9583671231617696,-0.9995210173357382,-0.01194710823842127,0.009676106741546318,0.02685843381876005,0.0007262519211508334,0.00010980327686692574,19227.207947167335
1681066501249154806,136,1681066501249154806,camera_1,139,0,0.11325133611566696,0.19769711410937696,2.9570103017202087,-0.9993535721194616,-0.011843289417791083,0.006832689923384968,0.03324889075216309,0.0006604431546293199,9.980208634928027e-05,19231.872579101004
1681066501259119510,137,1681066501259119510,camera_1,140,0,0.11328943488145751,0.1980049646507176,2.957827249965444,-0.9992711609595423,-0.011864930614992966,0.012240863510069155,0.03415452468704435,0.0008417986100539565,0.0001272602880528635,19212.060127606142
1681066501269100189,138,1681066501269100189,camera_1,141,0,0.11325433981737923,0.19809148482164549,2.957422390742444,-0.9993377667410422,-0.011803412807020465,0.010082696719369089,0.03290967392726277,0.00012757594231516123,1.9282196410833428e-05,19223.517252170248
1681066501279113531,139,1681066501279113531,camera_1,142,0,0.1132925592801965,0.19798569280496633,2.9581951627462955,-0.9993882535419908,-0.011922118527549718,0.014187419060680443,0.02965971868547051,0.0003903862670995295,5.902025453153666e-05,19216.34041402128
1681066501289174795,140,1681066501289174795,camera_1,143,0,0.11327950912107038,0.19768539528156678,2.957405824488515,-0.999405803961212,-0.011887570724651996,0.011019587388719818,0.030418635154986905,0.0007049620035104455,0.00010652221188076243,19229.415224036195
1681066501299159526,141,1681066501299159526,camera_1,144,0,0.11329225805311151,0.19752631875164467,2.9569826615628445,-0.999367385378246,-0.012102972306880384,0.01403976998020361,0.03035180328234544,0.00023745355429127812,3.5869730293673426e-05,19230.833661486868
1681066501309134244,142,1681066501309134244,camera_1,145,0,0.11334184641967811,0.19761969628613407,2.958123505228408,-0.9994942277185653,-0.012101433699494183,0.016067788178291704,0.024630676863275854,0.00040620885556563735,6.139564110973343e-05,19225.878063463722
1681066501319107770,143,1681066501319107770,camera_1,146,0,0.11329790548647081,0.19788571858379986,2.9583555831552237,-0.9994313676753719,-0.01196235780743973,0.00699486195201149,0.030739473133003594,0.00018569506937637925,2.8083415458764873e-05,19220.809708487475
1681066501329094409,144,1681066501329094409,camera_1,147,0,0.11328471339758484,0.19814391778281462,2.9588086367910527,-0.9994383968916852,-0.011811222738139362,0.011485821598254833,0.029179817309599326,0.0003314564237371087,5.0132235845352464e-05,19213.420884951483
1681066501339190483,145,1681066501339190483,camera_1,148,0,0.11326384407644205,0.19807130718588256,2.95750830869079,-0.9993114556209156,-0.011633857830420074,0.008075906933137852,0.03429355251349672,0.001627124089282006,0.0002459952969070221,19220.896119676065
1681066501349269390,146,1681066501349269390,camera_1,149,0,0.11331762017065633,0.1978768323192382,2.9580148392741927,0.9994129796368779,0.012010221621492878,-0.015550794527907233,-0.02806463075636248,0.005162041983567178,0.0007801855543772438,19220.376665674274
1681066501359205722,147,1681066501359205722,camera_1,150,0,0.11328889311608042,0.1976392840900162,2.9571389805789603,-0.9993752335144994,-0.01202493127670898,0.00779930511095488,0.03230657062296541,2.2113847080618143e-05,3.3417493941400988e-06,19231.770440099986
1681066501369170665,148,1681066501369170665,camera_1,151,0,0.11331555476088552,0.1975706823361955,2.9578031110468106,-0.9993126636794573,-0.011677859708743809,0.00965221959900855,0.033832860643217444,0.00029056594939902425,4.39308599151492e-05,19216.996284680317
1681066501379189252,149,1681066501379189252,camera_1,152,0,0.11325708177820812,0.19759174114516087,2.9563308289414367,-0.9992761995081447,-0.012144264315568217,0.010701369924215593,0.03442491281815376,8.608622010797262e-05,1.3002006195551271e-05,19233.023377148435
1681066501389155864,150,1681066501389155864,camera_1,153,0,0.1132982774414973,0.19799368292272673,2.9593013875514282,-0.9995406243656407,-0.012048193306243758,0.01048650465620079,0.02575683406197161,0.00032568705501034856,4.927076935296058e-05,19216.36466901819
1681066501399150848,151,1681066501399150848,camera_1,154,0,0.11330008863596058,0.19811474801879012,2.958340967163507,-0.9995098281391417,-0.011920873376941662,0.015011758820349644,0.02475163284137927,0.000720332725904882,0.0001088914875589787,19224.24039833329
1681066501409170866,152,1681066501409170866,camera_1,155,0,0.11325487160542785,0.19797256444060923,2.9571308385695465,-0.9993781044051749,-0.011856139493996219,0.013886206525450645,0.030166366373009196,0.0019903546781279147,0.0003006719601386513,19229.3079399356
1681066501419195413,153,1681066501419195413,camera_1,156,0,0.11329042730010003,0.19778505067385563,2.957567798743028,-0.9992853873696529,-0.012109001414774848,0.009128367552266042,0.03462310760244147,1.92736042663455e-05,2.9135366670575164e-06,19218.255605231738
1681066501429195165,154,1681066501429195165,camera_1,157,0,0.11329389352802488,0.19759772457410885,2.957393615575236,-0.9994039859576317,-0.011885970496883603,0.01092518356093794,0.03051289762551238,0.0036974948015995324,0.0005588223922818819,19229.47910590365
1681066501439154863,155,1681066501439154863,camera_1,158,0,0.11334376268510574,0.1975840660495835,2.9576850180107086,-0.9993306841446332,-0.011927073039129812,0.01309560882363263,0.032006775615128,0.0022140470682643354,0.0003346732922762451,19218.807095243596
1681066501449103116,156,1681066501449103116,camera_1,159,0,0.11334439578249286,0.19779658425169858,2.9590276626626713,-0.9994941570105137,-0.01211078990124202,0.010513428482267974,0.027463187931461852,0.0036213076091371477,0.0005476994337626993,19216.152784565118
1681066501459169864,157,1681066501459169864,camera_1,160,0,0.11325790726977156,0.19798771791861794,2.9575200190154125,-0.9993422892963529,-0.0118667072198542,0.009683890735028613,0.03286932223084118,5.237490404397249e-05,7.916456393712941e-06,19222.95306436112
1681066501469148635,158,1681066501469148635,camera_1,161,0,0.1133167281947997,0.19816988592471022,2.9590642841446835,-0.9994887131661844,-0.011748719619397913,0.014913278049764505,0.025726911562020678,0.0007715290994383395,0.00011668717360663523,19212.96498224524
1681066501479562282,159,1681066501479562282,camera_1,162,0,0.11329863969307064,0.19795693628111108,2.957233470112437,-0.9992815276706155,-0.012193219748528186,0.01318861179743433,0.03337385754301818,0.0013563459506258368,0.00020497024414885422,19220.51036337774
1681066501489382028,160,1681066501489382028,camera_1,163,0,0.11333546772033166,0.1977660641899363,2.9589104497341685,-0.9995652878206424,-0.011786457651202883,0.011935537247836938,0.024245777996968674,0.0012835668167099357,0.00019410425012060775,19222.79757405353
1681066501499311923,161,1681066501499311923,camera_1,164,0,0.11331603152318279,0.19755930964131158,2.957498370613302,-0.9993385912583629,-0.01217393002890314,0.010605817088210697,0.03258361694615244,0.00020975829102098942,3.1701478871072014e-05,19223.16613640404
1681066501509221553,162,1681066501509221553,camera_1,165,0,0.11334465830692858,0.1976704284767821,2.9584472480088597,-0.9994259779297724,-0.012055825797135348,0.011247474472648279,0.02959503372956905,7.941678632050753e-06,1.2009272349792837e-06,19217.67953424086
1681066501519223451,163,1681066501519223451,camera_1,166,0,0.11330667813592542,0.19788617358402666,2.9588638394413027,-0.9994963994058093,-0.011850726324716168,0.012622659126313841,0.026592787311237202,0.0014756746822968125,0.0002231561487813804,19217.363979191163
1681066501529166936,164,1681066501529166936,camera_1,167,0,0.11325546959902733,0.19806322847188143,2.9575250630245264,-0.9993085865600063,-0.011759966680046969,0.011597498209314543,0.033309909132442715,0.0014286220539361238,0.00021594801948893,19219.157876046487
1681066501539280414,165,1681066501539280414,camera_1,168,0,0.11329117661450346,0.19808236593131523,2.957241367595392,-0.9992244985378818,-0.01203387225981385,0.01199466000076911,0.035520635856065526,0.0010796695132739842,0.000163172665587449,19215.927566355094
1681066501549261808,166,1681066501549261808,camera_1,169,0,0.11336179953425157,0.19795501960570283,2.9590751458560436,-0.9994893594086481,-0.01185076673330871,0.013682422539744629,0.026331940113993032,0.0034028192167170346,0.000514668551000603,19213.520839830624
1681066501559226274,167,1681066501559226274,camera_1,170,0,0.11336891307148003,0.19771925678027616,2.9589915468884422,-0.9995306322079139,-0.011790837914978081,0.013163845187766055,0.02502408038636245,0.0003469536895863712,5.247319945485871e-05,19218.37182545138
1681066501569060802,168,1681066501569060802,camera_1,171,0,0.11331982925876641,0.19750859469883808,2.957074276852682,-0.9993295914013173,-0.011999944219820317,0.01414089476282399,0.03156587055198053,0.0022001321194693446,0.00033239254397786117,19226.355091669604
1681066501579177618,169,1681066501579177618,camera_1,172,0,0.11329017868214333,0.19765305043396622,2.957676863454892,-0.9994904870775678,-0.011713417555738527,0.015849373620411684,0.025106960119690633,0.001406126655638218,0.0002124659695433773,19231.0519574451
1681066501589229583,170,1681066501589229583,camera_1,173,0,0.11326098298123738,0.19789586966797967,2.957145334063194,-0.9993451238155777,-0.01192286187855973,0.012245050951015628,0.031894005672849134,0.000344703730661422,5.2083973602839445e-05,19227.118296954202
1681066501599175930,171,1681066501599175930,camera_1,174,0,0.11330421261796714,0.19816065673074568,2.95908908713834,-0.9994387471616365,-0.012049997190727904,0.010799790289949138,0.029331770648475093,0.0005268711829558015,7.970212294495874e-05,19210.31010481156
1681066501609166622,172,1681066501609166622,camera_1,175,0,0.11324158714381806,0.1980266736340769,2.957293534125145,-0.9993113329779876,-0.011922828522156618,0.01033625105379077,0.0335837439238408,0.0002821233356371522,4.263769848933907e-05,19223.086647094697
1681066501619267940,173,1681066501619267940,camera_1,176,0,0.11324899406339783,0.1977496550474757,2.9567624661140326,-0.9992616761102467,-0.01201390231821408,0.012808450534867365,0.0341718071416302,0.00024729891447350383,3.7356078364415013e-05,19225.19151904888
1681066501629136323,174,1681066501629136323,camera_1,177,0,0.11329757990982128,0.19759155413884322,2.957587236695361,-0.9994533300086759,-0.01190100901537755,0.011055237023488065,0.028795639484811654,0.00015947595238685608,2.410118207606232e-05,19231.06887565019
1681066501639211177,175,1681066501639211177,camera_1,178,0,0.11330742951398558,0.1975477970379002,2.957323569073846,-0.9993882090010391,-0.011977204056855966,0.010590934711562666,0.031106050771694187,0.0006415102398023009,9.694686362794829e-05,19229.330389732724
1681066501649178028,176,1681066501649178028,camera_1,179,0,0.11331042980930589,0.19776258199942065,2.958178618821911,-0.9994599529966574,-0.012035144734723528,0.014598347357715015,0.026867190056969678,4.5464548747986555e-05,6.872831569579722e-06,19222.659837685525
1681066501659108400,177,1681066501659108400,camera_1,180,0,0.11323259023950463,0.19798845933790846,2.9569806599614186,-0.9992252093142489,-0.011886434315264267,0.011997843157732176,0.035549198440007854,0.00024390930775552988,3.68554631285391e-05,19219.36943838489
1681066501669202804,178,1681066501669202804,camera_1,181,0,0.11327239868880162,0.198135820666941,2.958316809167137,-0.9993784989335365,-0.011878024577409765,0.010993787764512698,0.03131557171885722,0.0004900817875750363,7.410453090982093e-05,19215.049497676082
1681066501679221153,179,1681066501679221153,camera_1,182,0,0.1132704978397777,0.19795378325178065,2.9573545613064707,-0.9993171821736825,-0.011880164889445906,0.010311271639784061,0.03343215176774237,0.00022910634288564324,3.462625207946622e-05,19222.778303912026
1681066501689175844,180,1681066501689175844,camera_1,183,0,0.11331751564280035,0.19772169439369924,2.9574913120506343,-0.9992883109706608,-0.011951840976937292,0.008749003094289921,0.03469120925424712,0.0007739342981949449,0.00011699755909073617,19219.492244021487
1681066501699185609,181,1681066501699185609,camera_1,184,0,0.11331498807224387,0.1975846039664495,2.9579998742592273,-0.9995034400633382,-0.012046150933806126,0.009413058045054152,0.02755281995500868,0.0003336990484967828,5.0442169239635926e-05,19230.71326093329
1681066501709116220,182,1681066501709116220,camera_1,185,0,0.11333392108582109,0.1976453093564428,2.9585683492906405,-0.9995435662498989,-0.011972056484954786,0.015802651017460586,0.022794851453244332,0.0007918539340607822,0.00011973503951373716,19224.257625960287
1681066501719275712,183,1681066501719275712,camera_1,186,0,0.11326594488203752,0.19785378840351822,2.9576345026450124,-0.9992955230743013,-0.011950187247986103,0.011776648968686541,0.033570241695068066,0.0016559893847443163,0.00025032748168491353,19216.9694256488
1681066501729118347,184,1681066501729118347,camera_1,187,0,0.11331199749630162,0.19814088442755323,2.9590289349556205,-0.9994285213429085,-0.011886137879387299,0.014627138656796447,0.0280605999108118,0.00010126788401976228,1.5317244701211282e-05,19208.63486546092
1681066501739385604,185,1681066501739385604,camera_1,188,0,0.11325244316902844,0.19803208273493117,2.9569193854035816,-0.9992374905649826,-0.011966197913398705,0.015287152431311906,0.03387551516118554,0.000605034118052572,9.14022250894653e-05,19219.909178380854
1681066501749130010,186,1681066501749130010,camera_1,189,0,0.11328347471273448,0.19787502411322022,2.9575834881062764,-0.9993348415593704,-0.011872642902811524,0.010667562960012304,0.03278899047705827,0.002361795515753329,0.0003569456850333845,19221.217486058835
1681066501759196519,187,1681066501759196519,camera_1,190,0,0.11334436781494323,0.19771435600509504,2.958407043281522,-0.9994726936592866,-0.011981273585877915,0.012528620167647121,0.02745573509132274,0.0018191676354035735,0.0002750332277431166,19221.49472345179
1681066501769188642,188,1681066501769188642,camera_1,191,0,0.11333490768956656,0.19757517867671337,2.9578413000417734,-0.9994583128560041,-0.011756828297541027,0.012614697944621537,0.028030826730193425,0.00036068016197532415,5.451716160023668e-05,19227.428962897626
1681066501779141187,189,1681066501779141187,camera_1,192,0,0.11328013612651143,0.19765647985013093,2.9574737001118283,-0.9994149290221761,-0.01194714928605702,0.011052887575127674,0.030081538321486502,0.0005148362251929939,7.779746766895754e-05,19229.36595973897
1681066501789094448,190,1681066501789094448,camera_1,193,0,0.11331880230448908,0.19794448169572249,2.958252552779349,-0.9994930397264368,-0.0119921870561392,0.01421724012352782,0.025840299365291846,0.00018773612100630999,2.8379591178361436e-05,19224.42080160627
1681066501799174308,191,1681066501799174308,camera_1,194,0,0.11328655105989197,0.19809325864196967,2.957944294175481,-0.9993641064972522,-0.011869281260923233,0.010826490779956292,0.03183221488821641,5.8318080846220255e-05,8.816441894466687e-06,19218.713726017624
1681066501809116601,192,1681066501809116601,camera_1,195,0,0.11329772006309999,0.19812427417763478,2.9588536439960182,-0.999379132246151,-0.01167344711533574,0.011553689385678996,0.031170385383484128,0.0005645586643368006,8.539819812651366e-05,19207.758116285084
1681066501819129705,193,1681066501819129705,camera_1,196,0,0.11326752531030479,0.19775461195817776,2.956807475948197,-0.999292338935922,-0.011923661620405606,0.011321117491446927,0.033830163113433086,0.0025569559657014906,0.00038624731001360766,19227.609535418796
1681066501829171419,194,1681066501829171419,camera_1,197,0,0.11332465315128044,0.19760554550689613,2.957799676767755,-0.9994464987074726,-0.01169404977341984,0.006514599332992586,0.030454973597125526,6.567343370988965e-05,9.928740333316031e-06,19229.355579758645
1681066501839182615,195,1681066501839182615,camera_1,198,0,0.1132579338049599,0.1975165006934872,2.9566090491991517,-0.9992651051476086,-0.01184160132959329,0.0088072330144607,0.035375963010475575,4.650151822715998e-05,7.025417411004356e-06,19229.08325964305
1681066501849163293,196,1681066501849163293,camera_1,199,0,0.11330564391202536,0.19778098704486413,2.9583242334009348,-0.9994141277861789,-0.01179594891425414,0.012234018230419362,0.029708341733279877,0.001956147258169949,0.00029573090489425633,19217.62558388349
1681066501859162569,197,1681066501859162569,camera_1,200,0,0.1132965431354851,0.19811790799711168,2.9593947993779763,-0.999507851561031,-0.011805693010868234,0.010794069867658018,0.02698459442121551,0.0006307059666141868,9.542970889791484e-05,19211.950162092693
1681066501869138717,198,1681066501869138717,camera_1,201,0,0.11327457197931534,0.19810257358344668,2.95779123233603,-0.9993198437578921,-0.011915666068304999,0.010876383247609894,0.03315978077885543,0.0013384252670221033,0.00020232242974354823,19217.06491884729
1681066501879144906,199,1681066501879144906,camera_1,202,0,0.11329724916435904,0.1979787978120221,2.957749353005723,-0.999292127755598,-0.01187767074572015,0.01266602358415638,0.033372686285520446,0.0002591285156086087,3.917106682422225e-05,19214.642995184637
1681066501889147996,200,1681066501889147996,camera_1,203,0,0.11326039150762791,0.19769784441462304,2.957156306555357,-0.999365497333482,-0.011803300359955084,0.012004714492337703,0.031387444463868604,0.001593841123394668,0.0002408175541600034,19228.82251249651
1681066501899142503,201,1681066501899142503,camera_1,204,0,0.11332324202590122,0.19755322898378916,2.9577409480071504,-0.999427209225856,-0.01202875675701582,0.012861089051320345,0.028899045975801164,0.000513496226631105,7.761187008402433e-05,19226.33961280505
1681066501909158945,202,1681066501909158945,camera_1,205,0,0.11334722577699,0.19764376932575903,2.9581514291228275,-0.9994109474749077,-0.01181692130596845,0.010840204205770478,0.030341529475835988,0.0003378734108991921,5.1082557466964446e-05,19220.18501560833
1681066501919164419,203,1681066501919164419,camera_1,206,0,0.11326480441183123,0.19780815818233227,2.9570032831323125,-0.999215900327533,-0.011911915141059399,0.009588712684904998,0.0365205065594102,0.0010516859474591913,0.000158935650625849,19219.441625613472
1681066501929123640,204,1681066501929123640,camera_1,207,0,0.11329673061503034,0.19813478652555436,2.9586408730103715,-0.9993462922566095,-0.011799657855378533,0.012377093525913254,0.03185221787119216,0.00034920190228149295,5.281712143619209e-05,19207.559046972077
1681066501939194202,205,1681066501939194202,camera_1,208,0,0.1133047514595544,0.19813231122933053,2.958658378958577,-0.9994674587169741,-0.011897996392464666,0.012944501535273547,0.02748957125315126,5.9510464780032635e-05,8.999618172434836e-06,19217.284591574462
1681066501949175119,206,1681066501949175119,camera_1,209,0,0.1132367746818968,0.19781732143547195,2.956529691626791,-0.9993121897063586,-0.012123064739327135,0.012480522169884059,0.03274775369359175,0.00421246571931988,0.0006361158615400572,19232.560389359598
1681066501959151029,207,1681066501959151029,camera_1,210,0,0.11329702700407256,0.19764188163717206,2.957665876697739,-0.9993887249715065,-0.012033651995221734,0.011712065543870604,0.030662601653814296,0.0008248277590610087,0.00012466249867485113,19224.53098474595
1681066501969171762,208,1681066501969171762,camera_1,211,0,0.11333807795486345,0.1975803879634254,2.9579363636650666,-0.9994666667338846,-0.011592335084883216,0.013648629531776528,0.02730777850800601,0.00028959737392142415,4.3773352623429204e-05,19226.352019114784
1681066501979185581,209,1681066501979185581,camera_1,212,0,0.11325750826363642,0.197628821650531,2.9565976030623315,-0.9993128023729312,-0.012164957893899408,0.008578159331154564,0.033946310484173604,0.00010165938874706626,1.5357719886386212e-05,19233.454793754383
1681066501989117383,210,1681066501989117383,camera_1,213,0,0.11327099273517238,0.19789753992566067,2.9575648794615885,-0.9993912470961727,-0.012190641007933056,0.013492660380684956,0.029773673189985472,0.0002533596125431359,3.828711059771894e-05,19225.329380028536
1681066501999111890,211,1681066501999111890,camera_1,214,0,0.11327686029260112,0.19812421901231692,2.958112641322942,-0.9993476752963166,-0.011808640243039688,0.009695149740074524,0.0327228355582997,0.0004008945543318987,6.0615543115205914e-05,19215.57709597027
1681066502009206056,212,1681066502009206056,camera_1,215,0,0.11334063955337594,0.19808809828051577,2.9585282198307565,-0.999453768240428,-0.011761849325841447,0.013958120657862722,0.02754986239794608,0.0032328228116966784,0.0004888557690417463,19217.281177764755
1681066502019182443,213,1681066502019182443,camera_1,216,0,0.11328563368134228,0.1978068743725959,2.957963042754619,-0.9994128488197548,-0.011995242975393634,0.00802616156822588,0.03107494956430332,0.0007154862396419048,0.00010816735072688578,19224.024552732473
1681066502029165744,214,1681066502029165744,camera_1,217,0,0.11337948242508272,0.19766576433198155,2.959119508946612,-0.9995646250090567,-0.0119107089315977,0.00942075555379268,0.025297130431063266,0.00031954440055415034,4.833613597255065e-05,19221.13857766858
1681066502039132595,215,1681066502039132595,camera_1,218,0,0.11328120680070963,0.19752738586639657,2.9568340474554833,-0.999318509727857,-0.012011493751914888,0.010591665085257053,0.03325743170878864,7.914128946140409e-05,1.1956574841424289e-05,19229.969765172806
1681066502049182653,216,1681066502049182653,camera_1,219,0,0.11327068625213277,0.19771009268742984,2.9570624751908774,-0.9992866182014759,-0.011882101186282728,0.008640585253494709,0.034790956315310095,0.0005942592979408801,8.980699566003853e-05,19224.92867682909
1681066502059158086,217,1681066502059158086,camera_1,220,0,0.1133002270069044,0.19806178229721014,2.958579229294768,-0.9994228044235626,-0.01218910621877438,0.008887716838766203,0.030438334007021402,0.001475154422223568,0.00022311392692038598,19216.51493243104
1681066502069173097,218,1681066502069173097,camera_1,221,0,0.11328430885563907,0.19811556524376023,2.958069316517148,-0.9994109041572731,-0.011756025161793623,0.016876146148305213,0.02747428279534185,0.0018728043651208282,0.0002830830008164265,19218.63452272315
1681066502079221963,219,1681066502079221963,camera_1,222,0,0.11331808162179964,0.1980077358274524,2.958466937299258,-0.9994069706817869,-0.011980392547504217,0.010909200886908619,0.030383654866898313,2.005469286814332e-05,3.032742965012752e-06,19215.655373581685
1681066502089181423,220,1681066502089181423,camera_1,223,0,0.11333539818377583,0.19779103346605986,2.959157665476394,-0.9996293051793271,-0.01185056672009412,0.009476834116272936,0.022605439837367423,0.00032805290538817644,4.96225092350039e-05,19225.989590933314
1681066502099155902,221,1681066502099155902,camera_1,224,0,0.11331277816584842,0.19752132802008926,2.9572490580473474,-0.9993104831448786,-0.011969620748534809,0.00894188439961829,0.03399013326348711,0.0007032676367089152,0.00010628946705958552,19224.562985671204
1681066502109171390,222,1681066502109171390,camera_1,225,0,0.11331729804167631,0.19763029090410034,2.958012217313506,-0.9994442584221643,-0.011990742248675537,0.009294855157416203,0.029681679111845462,4.69774822704494e-05,7.102325319311512e-06,19225.569493357558
1681066502119264602,223,1681066502119264602,camera_1,226,0,0.11334337570980725,0.19789142291303985,2.9589653724918614,-0.9995743261283913,-0.01196143100995572,0.014908466882904797,0.02204151374946987,0.000579581712372601,8.765441277157899e-05,19221.858944984164
1681066502129216194,224,1681066502129216194,camera_1,227,0,0.11330746322466534,0.19813352550204644,2.9590265258245214,-0.9995139332894477,-0.011929512525272162,0.01214936592034707,0.02611468550261386,0.0003409512573853135,5.1569636131845916e-05,19216.780467196946
1681066502139117717,225,1681066502139117717,camera_1,228,0,0.11327627938214901,0.19806031702629404,2.957477151884757,-0.999354614344519,-0.012032571337089805,0.011919308380064195,0.03167810131741524,0.00036227278178557754,5.474974653320304e-05,19223.704882395105
1681066502149236917,226,1681066502149236917,camera_1,229,0,0.11333876047603378,0.19794994578717176,2.958836295429613,-0.9994144593219083,-0.011911498288022928,0.014232609460257282,0.028745217598482774,1.2349046301096678e-05,1.8676805842154765e-06,19210.224884864874
1681066502159098625,227,1681066502159098625,camera_1,230,0,0.11334426681531232,0.1977061777637735,2.958679707092178,-0.9995101544616952,-0.011914919997557605,0.013310047062204072,0.025696856940332965,0.00041733961552381516,6.310543892810663e-05,19220.776175558567
1681066502169214248,228,1681066502169214248,camera_1,231,0,0.11329631658675812,0.19752645284958417,2.956878942299345,-0.9992962997970264,-0.011948964504623287,0.012705340840571752,0.03320695368991011,0.0017868312424980104,0.0002699369162907621,19226.644831721438
1681066502179153442,229,1681066502179153442,camera_1,232,0,0.11329271423644785,0.1976929001135796,2.958227833669178,-0.9995004477649382,-0.011946602632534388,0.011332757627391816,0.02697595610515417,0.0002363024977967143,3.572318445827244e-05,19226.627821537546
1681066502189160585,230,1681066502189160585,camera_1,233,0,0.11329199594857003,0.19794376080082923,2.957705358697919,-0.9993642376308755,-0.011925077821602733,0.0108888169752449,0.03178595174424239,0.0011935915681533515,0.00018043672248500747,19221.93301178282
1681066502199143409,231,1681066502199143409,camera_1,234,0,0.11332282117331399,0.19814037999702702,2.95867669633548,-0.999485332457047,-0.01157890403612574,0.01693275276793174,0.024663354764682052,0.00010335037950426343,1.5627859301464394e-05,19216.807432107522
1681066502209148406,232,1681066502209148406,camera_1,235,0,0.11326311817169796,0.19804091118162473,2.9575014246859546,-0.9993209003410983,-0.011948160021499813,0.011601529371288336,0.03286919727958988,0.0001001761993393302,1.514003149717013e-05,19220.68855604226
1681066502219162225,233,1681066502219162225,camera_1,236,0,0.11331406440915409,0.19772899109946865,2.9572286940169907,-0.9993655593245472,-0.011719496047346744,0.014914068099728617,0.030144698058663304,0.0013312074006535113,0.00020111300530610682,19226.61226745998
1681066502229465961,234,1681066502229465961,camera_1,237,0,0.11337549975977265,0.1976582137725123,2.959027419578112,-0.9995744858780423,-0.01187844254840778,0.010508902322343895,0.0244808651042203,0.0005819929065182805,8.803322683538472e-05,19222.701193323483
