%time,field.header.seq,field.header.stamp,field.header.frame_id,field.image_seq,field.transforms0.fiducial_id,field.transforms0.transform.translation.x,field.transforms0.transform.translation.y,field.transforms0.transform.translation.z,field.transforms0.transform.rotation.x,field.transforms0.transform.rotation.y,field.transforms0.transform.rotation.z,field.transforms0.transform.rotation.w,field.transforms0.image_error,field.transforms0.object_error,field.transforms0.fiducial_area
1681218287428881168,0,1681218287428881168,camera_1,1,0,-0.03100272680108406,-0.09544388213225706,1.549575333197073,0.9993881574985484,0.012686032867137152,0.005156599363796573,0.032183609256139584,0.10752365359803662,0.00446366791642902,69784.07910304889
1681218287438910007,1,1681218287438910007,camera_1,2,0,-0.030908690338989263,-0.09587896227396238,1.548908292403211,-0.9992530068822665,-0.012282459690505825,0.014295341235715223,0.03373740712702686,0.09699530400393996,0.004024071829219266,69799.68819530681
1681218287448973894,2,1681218287448973894,camera_1,3,0,-0.030973920066384705,-0.09655766519435958,1.5493974768469378,0.9994036524923846,0.012680075546241312,0.0056058559368313806,0.031624823291809885,0.10905636948882602,0.004526013509871855,69789.79967806267
1681218287458996534,3,1681218287458996534,camera_1,4,0,-0.030970316328967212,-0.09670894270664596,1.549439650774536,0.9995268861012694,0.012703141082765707,0.003686596922090875,0.027767664116117866,0.0890188243065495,0.0036939461251698376,69819.62365678289
1681218287468951225,4,1681218287468951225,camera_1,5,0,-0.030969621844183066,-0.09658756541157654,1.549599323864943,0.9994718319368084,0.012737876271001685,0.005029796174316073,0.029470405891837137,0.08505403215531261,0.0035306721931274232,69790.61666833062
1681218287479001283,5,1681218287479001283,camera_1,6,0,-0.03096492291815063,-0.0961638909937501,1.5494882818538105,0.9994081802089464,0.012583125186121551,0.006838425735165325,0.03127603276403849,0.1066136549343355,0.004424705641325845,69785.78015970137
1681218287488931655,6,1681218287488931655,camera_1,7,0,-0.03100077377915364,-0.09547070410738888,1.5496063281036512,0.999377189348668,0.012663172573743095,0.004492629092401265,0.03262964532082017,0.10534007556270808,0.004373165002719272,69779.07951068421
1681218287499037504,7,1681218287499037504,camera_1,8,0,-0.031021257787463737,-0.09452268642957756,1.5500348690038344,0.9993775581953223,0.012555834519384844,0.004101997955177369,0.032711172523356744,0.10942385043017566,0.00454458735721506,69752.64429608993
1681218287508964538,8,1681218287508964538,camera_1,9,0,-0.030976658474847804,-0.09316250059237231,1.5499540189797685,-0.9993575102672239,-0.012127113519810192,0.014566075060589052,0.03041922496551708,0.08942045888397843,0.003713559605604003,69753.33200142457
1681218287518990278,9,1681218287518990278,camera_1,10,0,-0.030986447458486263,-0.09191237701096566,1.5500568403257802,-0.9993165962551207,-0.012249648713709314,0.015922457417137024,0.03102840481349431,0.0982908071600832,0.004082168871287344,69741.4601178952
1681218287529007196,10,1681218287529007196,camera_1,11,0,-0.031026763875362448,-0.09051441381371432,1.550485459450128,-0.9994062063227287,-0.01212759213936497,0.013171556987607991,0.02943919766289421,0.10205843456787989,0.004240612977044149,69731.55786195723
1681218287539001703,11,1681218287539001703,camera_1,12,0,-0.031047137824719587,-0.08890901043758401,1.550513888089591,-0.999252085819745,-0.012314157121466269,0.014710946768544926,0.0335740757795347,0.10101800638949499,0.004198141026249276,69691.80279257198
1681218287549120664,12,1681218287549120664,camera_1,13,0,-0.031053490609242868,-0.08738062886426377,1.5509934235706417,-0.9993224149105325,-0.012307087817249427,0.017470428664689047,0.029967161512427787,0.08394338935613632,0.0034901892702586842,69681.5764851221
1681218287558992624,13,1681218287558992624,camera_1,14,0,-0.031109943362227867,-0.08595415146835884,1.5515057489542947,0.9995645161230471,0.012194108706484347,-0.015470227715074572,-0.021971660724599263,0.07857586967293174,0.003267075739699058,69713.49268191213
1681218287569173574,14,1681218287569173574,camera_1,15,0,-0.03118676087287724,-0.08478201536592622,1.5514909889905715,0.9992092899204356,0.012672475112255856,0.00423117818399924,0.037447302204608714,0.0907678275834769,0.0037749645053239455,69676.41891608664
1681218287579000234,15,1681218287579000234,camera_1,16,0,-0.03116196180121157,-0.08333085696433845,1.5518561310643633,0.9996024665289172,0.012307922827830671,-0.014098257460403813,-0.02108703586446386,0.0852003789623268,0.0035438121306495983,69699.40639179084
1681218287589041471,16,1681218287589041471,camera_1,17,0,-0.03116955360458329,-0.08219017958572584,1.5514693058023743,0.9994847168813789,0.012309165759640259,-0.014388159574454643,-0.02591844946966744,0.09825887804618105,0.004086216302392142,69696.27266028686
1681218287599041938,17,1681218287599041938,camera_1,18,0,-0.03118350152546332,-0.08131432338138389,1.551480957651549,0.9995337524211123,0.012201492056371393,-0.015551532193690236,-0.023271252845467987,0.09789175057085231,0.004069816869163951,69715.38754661311
1681218287609026908,18,1681218287609026908,camera_1,19,0,-0.031271108033673306,-0.0809026781735678,1.5517225123112295,0.9993322219278045,0.012685061023435813,0.005047058607489091,0.03389287009212678,0.08298251550877465,0.00345069612242412,69709.41810248463
1681218287618968725,19,1681218287618968725,camera_1,20,0,-0.03126206501563767,-0.08054387593218301,1.5512606126148922,0.9992875907049489,0.012600205002636575,0.004151711720877106,0.03533141925788982,0.10088649252429605,0.004192198884930204,69743.8756657008
1681218287629038572,20,1681218287629038572,camera_1,21,0,-0.03121790893780723,-0.08032047373481199,1.551360387169394,0.9995751204514584,0.01212635643562368,-0.013857627643612189,-0.022594163187418786,0.09880865080049261,0.004107399066675175,69736.82715277691
1681218287638994216,21,1681218287638994216,camera_1,22,0,-0.03120704895014359,-0.08063175960837306,1.5515381451377581,0.9996404662618288,0.01220724509587874,-0.014561068777603704,-0.018918156756324418,0.08684722933685407,0.003609914154855585,69746.45161079871
1681218287649183273,22,1681218287649183273,camera_1,23,0,-0.031185176884838843,-0.08108835790815853,1.5512574023705548,0.9994645946956666,0.012223880149223737,-0.01662355987055541,-0.025392084616162585,0.09519997966708615,0.003957088248207645,69714.43519266974
1681218287659012317,23,1681218287659012317,camera_1,24,0,-0.031179960544443,-0.08188160516098286,1.5514172104619965,0.9994688650253076,0.012255527617428699,-0.015492340349066241,-0.02591866660055306,0.1029155227006413,0.004279196995410081,69698.2270513504
1681218287669154167,24,1681218287669154167,camera_1,25,0,-0.031143164295566746,-0.08284528633768079,1.5510551246111506,0.9994371581415894,0.012183059453127854,-0.01489511280709361,-0.02747863902542047,0.0847837376059033,0.0035243529144327016,69717.05908499612
1681218287679031610,25,1681218287679031610,camera_1,26,0,-0.031147480869878036,-0.0840633016813894,1.5513110408078865,0.9994846728765328,0.012198127312248484,-0.014887999424156067,-0.02568933335279282,0.08366229519015178,0.0034785085531686202,69707.83094659656
1681218287688991785,26,1681218287688991785,camera_1,27,0,-0.031118715788645106,-0.08542687416896845,1.550865210088511,0.9993732669441993,0.012346858674154174,-0.015845863542031727,-0.029146818124215754,0.094017886207439,0.0039074066308350825,69710.87357324341
1681218287698992490,27,1681218287698992490,camera_1,28,0,-0.031085418979311285,-0.08693053259784517,1.5507119272314294,-0.9992568035302416,-0.012367458635111768,0.014286124721835988,0.03359751785273968,0.11607547866879031,0.004824637273322265,69680.98143506263
1681218287709063768,28,1681218287709063768,camera_1,29,0,-0.031061863315761197,-0.08843811102756742,1.550616366395638,-0.9993565907419165,-0.012336759421071836,0.014695476785609705,0.030302670999834917,0.10310550022404641,0.00428423472971424,69716.5543785195
1681218287718989372,29,1681218287718989372,camera_1,30,0,-0.03103956573597497,-0.08991919157084143,1.5505150180272926,-0.9994580293987626,-0.012229826822110733,0.012578129100487192,0.027854433660996946,0.08095163077814503,0.0033636250841300014,69746.78877952055
1681218287729255199,30,1681218287729255199,camera_1,31,0,-0.03098686029706691,-0.09135942914939127,1.5505125993879436,0.9993566885274022,0.01226041341188986,-0.01589715141527534,-0.029718208818739204,0.1109439712599851,0.004609814750674273,69715.83999824175
1681218287739025354,31,1681218287739025354,camera_1,32,0,-0.030980604401883945,-0.0927690848435244,1.5501628434158519,-0.9993531258345077,-0.012053980139289778,0.013739492768608705,0.03097188702778025,0.1030158547218889,0.004279535934717283,69733.96287157288
1681218287749055862,32,1681218287749055862,camera_1,33,0,-0.030972891722416313,-0.09403734937536182,1.55030403714274,0.9995134852338231,0.01231312099644124,-0.012768661383183688,-0.02565426228806205,0.0886102530057542,0.003681079888988943,69761.04809179447
1681218287758991003,33,1681218287758991003,camera_1,34,0,-0.030944427149581295,-0.09499024570901701,1.5497514213904158,-0.9993906214446222,-0.01221197712105909,0.015537516866963912,0.028772190617597324,0.0935762266308302,0.003885058914112273,69772.11296451128
1681218287769040107,34,1681218287769040107,camera_1,35,0,-0.030934306854101763,-0.09575970024043995,1.549820713412038,-0.9994093497868354,-0.012345174307915806,0.015217117113330706,0.028230968398574075,0.08993973334145267,0.003734415988292361,69766.23158989055
1681218287778998374,35,1681218287778998374,camera_1,36,0,-0.03097105690700648,-0.09644443990594698,1.5496586587371917,0.9994554451599238,0.012522683931864974,0.004095568465355955,0.030252633707938015,0.08611761285283137,0.0035754208360648377,69783.45987026441
1681218287789030075,36,1681218287789030075,camera_1,37,0,-0.030905931766556025,-0.09652370330827925,1.5495212718504878,0.9994844477899901,0.012324677617204348,-0.015590939825199894,-0.025216334843465457,0.09147741811466403,0.003796527430542366,69809.84484702721
1681218287798975229,37,1681218287798975229,camera_1,38,0,-0.030969042109033448,-0.09664523138120973,1.5494294581724382,0.9994783890093321,0.012545730794734943,0.0044821177912243585,0.02941878927219406,0.09579092724015936,0.003975421105485922,69806.8608500601
1681218287808918952,38,1681218287808918952,camera_1,39,0,-0.030974848871221778,-0.09633685222647144,1.5496305319210684,0.9994567623066374,0.012496995812902319,0.0032414624449507287,0.030323230309519184,0.09165486252459233,0.003805236151237776,69788.75683524569
1681218287819034814,39,1681218287819034814,camera_1,40,0,-0.031003536709076032,-0.09573103323641598,1.5498140811365022,0.9994427383421889,0.01270491607626072,0.006031008502887041,0.03027250929474525,0.09745705257228111,0.004046252798080449,69772.5347069296
1681218287828986644,40,1681218287828986644,camera_1,41,0,-0.0309506252880221,-0.09470268326200003,1.5501171352700467,0.9994733461183992,0.01227851717477805,-0.012727885000022032,-0.027207891471141592,0.09464909002417699,0.003931964796557221,69761.42323165736
1681218287839020252,41,1681218287839020252,camera_1,42,0,-0.030957702356712323,-0.09358259948122796,1.550042788481115,-0.9993657225125371,-0.012331256622771845,0.015095354579920893,0.029803071103573248,0.08648385807464365,0.003591948837503865,69747.27040689928
1681218287849009037,42,1681218287849009037,camera_1,43,0,-0.030980814861359583,-0.09230185549212439,1.5502086972031304,-0.9993111396291379,-0.012293946626651921,0.01581285632166598,0.031241937590444618,0.06860535818850622,0.002850107434186592,69724.32985842123
1681218287859119176,43,1681218287859119176,camera_1,44,0,-0.031022381579265533,-0.09094027640122244,1.5505889626217346,0.9994599961785153,0.012232708825169143,-0.013011202345528479,-0.02758234013213176,0.09844682272523642,0.004091060820604633,69736.96532258313
1681218287869050025,44,1681218287869050025,camera_1,45,0,-0.031032324686948373,-0.08949136630584183,1.550850077387266,-0.9994156640140351,-0.012149361978245704,0.014349410575783582,0.028545016080468555,0.09196582721779123,0.0038225205456901027,69708.82198552357
1681218287879019021,45,1681218287879019021,camera_1,46,0,-0.031063912805982037,-0.08807356159226515,1.5517286275894697,0.99966257195266,0.012167139163611838,-0.016339978310527505,-0.01611546060085919,0.0780194613034837,0.003244690505018973,69720.74473197642
1681218287889054536,46,1681218287889054536,camera_1,47,0,-0.0310941464410881,-0.08637842329842482,1.5508765746116393,-0.9992870867639043,-0.012337166129574533,0.015150457384401426,0.03230443003434625,0.09237172169378029,0.0038397327362359847,69678.76093963895
1681218287898962974,47,1681218287898962974,camera_1,48,0,-0.031127545304683816,-0.08493030695959937,1.551271137887265,-0.9994715027636378,-0.012200341781184978,0.013349809000873632,0.02701202368313036,0.08530635322676972,0.0035466709676920125,69701.8015741883
1681218287909051418,48,1681218287909051418,camera_1,49,0,-0.03116365014783407,-0.08366292320456016,1.5515338744323286,0.9995595869254031,0.012179839791989047,-0.012890317995583121,-0.023793347602464175,0.07711750629823655,0.0032070417848317667,69709.28274218983
1681218287918859481,49,1681218287918859481,camera_1,50,0,-0.03123015251195521,-0.08273369423234203,1.5516938858753138,0.999372665850281,0.012471107356174129,0.003932507084477564,0.03291324384870148,0.09011045785155147,0.0037471033797119653,69711.10339372153
1681218287928937196,50,1681218287928937196,camera_1,51,0,-0.03120006480826087,-0.08160412617191763,1.5517111693005585,0.9995345337774159,0.012198777798180821,-0.014258720059674997,-0.024053991536838033,0.07557040057145059,0.003143248874492159,69691.47217109276
1681218287938999652,51,1681218287938999652,camera_1,52,0,-0.031208025403631264,-0.08084516451804775,1.5512675095196489,0.999502642231419,0.012122628879193187,-0.013599487955682112,-0.025740317962537153,0.08887669537216425,0.0036947521253616385,69718.82709565271
1681218287948959827,52,1681218287948959827,camera_1,53,0,-0.03119480913939201,-0.08043413238750535,1.551399071406494,0.9994949028707688,0.012117480099252863,-0.01566641489938639,-0.024852952653496935,0.09941283642547206,0.004132834967240274,69709.87665647012
1681218287958957672,53,1681218287958957672,camera_1,54,0,-0.03116595007956948,-0.08028834979002707,1.551039519339075,0.9994500489197743,0.012261080928553183,-0.018747985601370004,-0.02444951215495371,0.08616900688502939,0.0035801322946050337,69735.35408373026
1681218287968928098,54,1681218287968928098,camera_1,55,0,-0.031193199934817777,-0.0804508308265716,1.5512671488922218,0.999460688848141,0.012142518993037569,-0.016849989089035025,-0.0254355764118457,0.1034962022677064,0.004301496947916332,69712.89454828526
1681218287978952169,55,1681218287978952169,camera_1,56,0,-0.03119506955883473,-0.08088361869155355,1.5515227265194835,0.9995521840298104,0.012112358278975464,-0.015399842284789213,-0.02261784772610925,0.09202292829286307,0.0038257412160227224,69717.73634897718
1681218287989135026,56,1681218287989135026,camera_1,57,0,-0.031243795955764736,-0.08179534443208591,1.5515769715418601,0.9993388727612605,0.012518712585614369,0.0038641235818829413,0.03391412349443985,0.09114558063447475,0.0037900422823835584,69720.00125027192
1681218287998994588,57,1681218287998994588,camera_1,58,0,-0.031177788357887478,-0.08255677824517005,1.551383313818514,0.9995717875389581,0.012171405333018723,-0.013377595131983172,-0.02300300843098541,0.08217173063894734,0.0034162993912669978,69729.99068781346
1681218288008979558,58,1681218288008979558,camera_1,59,0,-0.031146016648541268,-0.08372463621658051,1.5514751245247795,0.9995010026346555,0.012255934166060392,-0.014870056482349406,-0.02502836850950492,0.07884746778290719,0.003278803236635332,69699.60230830079
1681218288019191503,59,1681218288019191503,camera_1,60,0,-0.031139320052036786,-0.08499917768094142,1.5514146930500126,0.9994488041813564,0.012170531770211086,-0.014624646398400077,-0.027204516070107723,0.10471017111558467,0.004354250315470351,69684.02701640676
1681218288028968334,60,1681218288028968334,camera_1,61,0,-0.031119602531521143,-0.08638984084501876,1.5512748526401596,-0.9995160504262725,-0.01220459542346177,0.011824707823407984,0.026055499912798354,0.08210757095366716,0.0034140811809552562,69708.8893237021
1681218288038992404,61,1681218288038992404,camera_1,62,0,-0.031083300215087387,-0.08793619665592009,1.5513173308521233,-0.9993732978511997,-0.012127243473278548,0.013754428144037045,0.030277998847145597,0.10166010318789631,0.004228039526368549,69658.48208297646
1681218288049015760,62,1681218288049015760,camera_1,63,0,-0.031053606883078823,-0.08950909229114812,1.5510211125074065,-0.9994120107207564,-0.012282298438792987,0.013749997193158005,0.028908745205270432,0.10235061019193381,0.004255002560562368,69691.62872230893
1681218288059014320,63,1681218288059014320,camera_1,64,0,-0.03108014826353909,-0.09118397523997249,1.5507829049584354,0.9993769599663747,0.012550712505013687,0.005219955128064435,0.032571821755079944,0.10591475537512449,0.004401285125922778,69720.7861152708
1681218288069025516,64,1681218288069025516,camera_1,65,0,-0.030976786297579932,-0.09229119559763857,1.549894602083432,-0.999264754477472,-0.012268505394230491,0.01600165615375016,0.03260952674919895,0.07953792455373332,0.0033030360393535244,69738.69548231667
1681218288079151630,65,1681218288079151630,camera_1,66,0,-0.031014562884339517,-0.09377887684514404,1.5503626498371796,0.9994302687295674,0.0125664412819602,0.002700853449671076,0.0312078177913019,0.09262763394508511,0.0038483192208923623,69747.917426097
1681218288088940143,66,1681218288088940143,camera_1,67,0,-0.03094218740179386,-0.09464954742919748,1.5497063010339185,-0.9993540198353063,-0.012279327611719534,0.01467060139821276,0.030422600267455024,0.09974854320171289,0.004141652774462643,69766.42694326778
1681218288098994970,67,1681218288098994970,camera_1,68,0,-0.030929671995806526,-0.09550006180186478,1.5493823513180014,0.9992753352425211,0.012336643189724151,-0.015077137401349541,-0.032700023525031735,0.12588544575555716,0.005224696052544399,69767.76086110486
1681218288108921527,68,1681218288108921527,camera_1,69,0,-0.030916427423204156,-0.09613604146683252,1.5495547827887843,0.9994186846181536,0.012188858473827497,-0.015431948637663045,-0.027849228471704218,0.09902714019699488,0.004110265889135244,69789.81132977064
1681218288119157552,69,1681218288119157552,camera_1,70,0,-0.030967424492773243,-0.09666083588835203,1.549355583667304,0.999468903222164,0.012596553408747761,0.0047831955793791025,0.02967085058023445,0.0724124123371439,0.003005099475434273,69810.38340384568
1681218288128989934,70,1681218288128989934,camera_1,71,0,-0.030969291202248925,-0.09667812019137699,1.549170710357158,0.9994654261992576,0.012680435782934025,0.006459502939343539,0.02943370860880492,0.0892735431116307,0.0037031730556046248,69823.44588526501
1681218288139090538,71,1681218288139090538,camera_1,72,0,-0.03092520583306014,-0.09626964058486379,1.5495011911784466,-0.9994306112919719,-0.012221076009937283,0.011451692316669048,0.029290907408260902,0.1067148520523915,0.004430176264462932,69790.79096538568
1681218288149070501,72,1681218288149070501,camera_1,73,0,-0.030928807731520826,-0.09574919858623093,1.5497341251311567,-0.9994477186288967,-0.012269402557461843,0.014327972921228406,0.027357424592698028,0.0860233938001329,0.0035714300351300412,69783.48289095896
1681218288158975124,73,1681218288158975124,camera_1,74,0,-0.030946384726421937,-0.0949685396774442,1.5496371631057613,-0.9993580179371593,-0.012341870444383134,0.013612495684683232,0.030755977953579226,0.10813093124306761,0.004489406501658637,69770.14664048258
1681218288169064998,74,1681218288169064998,camera_1,75,0,-0.031025457405524003,-0.0941857181542556,1.5499333084100853,0.999404493742296,0.01271466280917945,0.004702407703459011,0.03173141344384713,0.1060150091216201,0.004402281573068467,69772.06126792176
1681218288178974628,75,1681218288178974628,camera_1,76,0,-0.030984619618109832,-0.09280807738521829,1.5500536276338095,-0.9992994377649902,-0.012338960868534107,0.01487963887636657,0.03204652983036135,0.09707485453691334,0.004032064094624414,69730.43206417991
1681218288189075469,76,1681218288189075469,camera_1,77,0,-0.031005487320799382,-0.09144568079099405,1.5504280118267857,0.9993451892710136,0.012398278203837031,-0.016556425729108964,-0.029687710345175405,0.10421192698413506,0.004329235795098153,69721.00838478422
1681218288198977947,77,1681218288198977947,camera_1,78,0,-0.031023419708875875,-0.08990701754760835,1.55033373121648,-0.9993655330742495,-0.012179177733903248,0.014490920178618345,0.03016972265905461,0.09322172246174887,0.0038728562448103075,69737.9453033855
1681218288208988428,78,1681218288208988428,camera_1,79,0,-0.031048355746364706,-0.08841937454780971,1.5507307500417187,-0.999466628447638,-0.012240323020650647,0.015177161863616445,0.026197077501637526,0.07199405698338524,0.002991505917070829,69741.63582055562
1681218288219119310,79,1681218288219119310,camera_1,80,0,-0.031095757483024004,-0.08693711716293416,1.5511969956179446,-0.9995090770622419,-0.012255339841509172,0.012967994267631584,0.025753497630985323,0.08269611990544945,0.0034379697124934223,69714.43631210469
1681218288229044437,80,1681218288229044437,camera_1,81,0,-0.031114753772789962,-0.08554181251487934,1.5517711355437196,0.9995468131576232,0.012265945952386559,-0.014584149615749272,-0.023302734953613475,0.09300522587727757,0.003868790855271741,69683.60191423772
1681218288239068269,81,1681218288239068269,camera_1,82,0,-0.03112437953018523,-0.08408683947358615,1.551116656664182,0.9994171533365686,0.012211220467355219,-0.017049797195517784,-0.026935926323764535,0.08227874973090366,0.0034198771955181316,69707.8871417183
1681218288249019145,82,1681218288249019145,camera_1,83,0,-0.031145061829074394,-0.08286006050765234,1.5513741341062224,0.9994793245263373,0.012105359531833735,-0.0156824059615326,-0.025467670844410723,0.09118542360374703,0.0037910930748016824,69704.21660425002
1681218288258958578,83,1681218288258958578,camera_1,84,0,-0.031184732118644892,-0.08187053483952927,1.5516899406442775,0.9995551406893417,0.012294387080729939,-0.015694836265234952,-0.02218199455474759,0.08057350741000845,0.0033504922831408272,69704.20779828586
1681218288269040822,84,1681218288269040822,camera_1,85,0,-0.031185787913659536,-0.08105729368738454,1.5510966797182664,0.9994639799885394,0.012221066923537405,-0.016244363793228418,-0.025661622584557554,0.09183823957573622,0.003816745786282011,69727.58968083629
1681218288278938770,85,1681218288278938770,camera_1,86,0,-0.03120100833491351,-0.08060641916769315,1.5515194148174372,0.9995829315288588,0.012275056293529228,-0.016603140746825378,-0.020189643545754046,0.07733741792617366,0.003214632632479052,69733.21713768796
1681218288289029121,86,1681218288289029121,camera_1,87,0,-0.031193041739772054,-0.08032841319188944,1.5513257449182467,0.999509905801895,0.012274506305874979,-0.015231422557704214,-0.02443948579047728,0.09551043383544311,0.003970579553639256,69721.307654056
1681218288298978328,87,1681218288298978328,camera_1,88,0,-0.031193899590380013,-0.08040232193421878,1.5515926583660016,0.9995509011292933,0.012273478786258327,-0.016160527580377376,-0.022049832616711434,0.09492178988875821,0.003946661037210697,69714.30852790223
1681218288308980464,88,1681218288308980464,camera_1,89,0,-0.031207810846151218,-0.08072328725482655,1.551281735472085,0.9995279484336557,0.012178134060455975,-0.01444084529262703,-0.024228812146853393,0.09254320105537772,0.0038468192805938385,69728.65989136766
1681218288318991661,89,1681218288318991661,camera_1,90,0,-0.031193866803059772,-0.08132260660875971,1.5513639735123304,0.999521765566618,0.012235187001182894,-0.013496684376559017,-0.024987594291500534,0.07848688372178005,0.0032631841468527684,69716.680965092
1681218288328945636,90,1681218288328945636,camera_1,91,0,-0.031162799460552795,-0.08216173150177006,1.551314991784951,0.9994768585080935,0.012111007085318181,-0.01602822341325152,-0.025346180548295325,0.08433860150398687,0.0035062813730117473,69710.45167748709
1681218288339003801,91,1681218288339003801,camera_1,92,0,-0.031156561225520893,-0.0833076653057162,1.551690027715481,0.99954736400499,0.01230544130525754,-0.014944721369661343,-0.023028211570639938,0.07863894762704149,0.0032705998504311373,69697.32970909917
1681218288349093914,92,1681218288349093914,camera_1,93,0,-0.031147569460579408,-0.0845945252051994,1.551609616790963,0.9995221010259909,0.012103949262970114,-0.011828469279226442,-0.02586795870065469,0.09582214581314476,0.0039858225301330555,69685.4809338329
1681218288358942747,93,1681218288358942747,camera_1,94,0,-0.031097469126254253,-0.08597672822044002,1.5513099066626745,0.9994481773242344,0.012121904563662508,-0.014836996826656875,-0.02713418136190356,0.09837385104037821,0.004090992768923655,69691.17213990857
1681218288368970155,94,1681218288368970155,camera_1,95,0,-0.03107241136710044,-0.0873927139858412,1.5509459253658069,-0.9993750476936911,-0.0122741167671071,0.015117357111417772,0.029501281646497124,0.0786440004594624,0.0032694023968652336,69697.1914228088
1681218288378876686,95,1681218288378876686,camera_1,96,0,-0.03104304440961391,-0.08892763111723592,1.5508975496813344,-0.999416827943458,-0.012347908307985331,0.014834577735952668,0.028168572687482945,0.07643714646110311,0.00317741389839697,69708.9384725309
1681218288388990879,96,1681218288388990879,camera_1,97,0,-0.031002881511713164,-0.0903679756941092,1.5500153676350026,-0.9991551522895715,-0.012334635204658752,0.015550106771462692,0.035986561477405685,0.09451365965651348,0.003925795867744253,69703.08917931435
1681218288398956298,97,1681218288398956298,camera_1,98,0,-0.031050936078608673,-0.09212656825061089,1.5503154909811003,0.9991779751799552,0.012821589293811662,0.005939096664287058,0.037996156306632334,0.1292863434064202,0.005371804729593885,69701.64864469552
1681218288409028053,98,1681218288409028053,camera_1,99,0,-0.030975919651296525,-0.09327278478233675,1.5507394744497165,0.9994926944872782,0.012205607651652267,-0.01363198390215876,-0.026068099725633495,0.09673034126171842,0.004020854185702608,69722.07096698368
1681218288418979644,99,1681218288418979644,camera_1,100,0,-0.03096275447902959,-0.09434454956526209,1.5501076820870736,0.9993970451977893,0.01222692455829734,-0.014613672466921248,-0.029025660075240024,0.10393061245849822,0.004317067419316092,69744.9091111937
1681218288428996086,100,1681218288428996086,camera_1,101,0,-0.03094648486977268,-0.09524694842062292,1.5497159258572146,-0.9994642224257551,-0.012232090106341085,0.0119650012452169,0.02790130476721977,0.0861178604827728,0.003575641213824681,69789.28995598205
1681218288439189195,101,1681218288439189195,camera_1,102,0,-0.030922000549569208,-0.0959546292869897,1.5495453801358097,-0.9993877692078993,-0.012153619689486162,0.013455283567563252,0.02992209267779275,0.10153430707578082,0.00421475439685836,69779.59277451696
1681218288449004650,102,1681218288449004650,camera_1,103,0,-0.030905215336790408,-0.0963851985747266,1.549481775469873,-0.9993779443500314,-0.01224904166137732,0.01450633734639406,0.029719547470919167,0.10424216033425182,0.00432698983619747,69781.55492255569
1681218288458968639,103,1681218288458968639,camera_1,104,0,-0.03095573633159312,-0.09670848244677772,1.5491418926927736,0.9993664408412288,0.012632643837670442,0.005101041062613406,0.032880276916148865,0.10019674188515637,0.004157081242935348,69801.38358569355
1681218288469091653,104,1681218288469091653,camera_1,105,0,-0.030897458351234242,-0.0963170008695597,1.5491142073933777,-0.9992341344595927,-0.012231869854279516,0.014970959435370875,0.0340205271011614,0.11722295232175384,0.004864658635862011,69774.04648203499
1681218288478960275,105,1681218288478960275,camera_1,106,0,-0.030972770049573356,-0.09617103411994413,1.5492891850819834,0.9993560470617514,0.012697090473808738,0.005612792568014746,0.03308733374266965,0.08759973535779864,0.0036353592605249696,69791.62851460534
1681218288488984584,106,1681218288488984584,camera_1,107,0,-0.0309892171879272,-0.09546343596294156,1.549479997282114,0.9993356753534507,0.01261585093371618,0.005017162092562078,0.03382124118978922,0.11237589597294573,0.004664612108515141,69778.64662675542
1681218288499002695,107,1681218288499002695,camera_1,108,0,-0.03096065970287895,-0.09433120128787709,1.5501371291311898,0.9994448990176001,0.012268042129734468,-0.014814199214852155,-0.027201626268020012,0.10179987527953926,0.004227953715950624,69756.98946867746
1681218288508931875,108,1681218288508931875,camera_1,109,0,-0.030981609391154838,-0.09319033335742179,1.5503037863885292,0.9994387832136862,0.012257861318412062,-0.015637716989026808,-0.02696896830833428,0.08721281991165597,0.003622850670794008,69748.71068125873
1681218288518927574,109,1681218288518927574,camera_1,110,0,-0.03100822658274549,-0.0919346812561082,1.5505700396264428,-0.9994049506154346,-0.012413719290457663,0.014750600441300034,0.02860181891698487,0.081673797336407,0.0033938196209886613,69720.69787471238
1681218288528974294,110,1681218288528974294,camera_1,111,0,-0.03101057895215252,-0.09053256593264214,1.5506259779647888,0.9994657572252913,0.012293459081079311,-0.014394170892555602,-0.026643551606585412,0.09392355574527755,0.003902754602885011,69740.3171793397
1681218288538909435,111,1681218288538909435,camera_1,112,0,-0.031031102185994093,-0.08897829076689276,1.5507125013116592,-0.9994565970792137,-0.012413161810066463,0.015679937251986107,0.02620235746052322,0.07055343926185742,0.0029319622285186326,69739.66505896786
1681218288549015283,112,1681218288549015283,camera_1,113,0,-0.031077352472601783,-0.0873873613365447,1.5510412139808993,-0.9993776105076352,-0.012325917971270766,0.016134229081311416,0.028847010489247312,0.08096338645555079,0.0033658098795949884,69691.76726460316
1681218288558992385,113,1681218288558992385,camera_1,114,0,-0.031149875722173634,-0.08613122490022657,1.551271036764275,0.9992337724048788,0.012755810223030165,0.0049716829925100835,0.036666602778155415,0.11487068358110265,0.004775537581821009,69690.16660411787
1681218288568911314,114,1681218288568911314,camera_1,115,0,-0.031139406424470863,-0.08456595371143291,1.551501330422861,0.9995279196247231,0.012219699885638724,-0.013631117057775446,-0.024674064787446923,0.09912772837560622,0.004122056982183049,69701.45622609634
1681218288578914403,115,1681218288578914403,camera_1,116,0,-0.031136726806421364,-0.08329566567509988,1.5514391276593165,0.9994673691434486,0.012422059903844691,-0.015288637832983941,-0.02601784000317114,0.09202172432560474,0.0038263199750717203,69694.12543013293
1681218288589051485,116,1681218288589051485,camera_1,117,0,-0.031218620035647487,-0.08239535943030242,1.551380377846366,0.999245636131647,0.012677906895903349,0.004631913070254605,0.03641393592992493,0.1097789560444653,0.004563526699407746,69711.5731005394
1681218288598934173,117,1681218288598934173,camera_1,118,0,-0.031180432330203907,-0.08124452251937886,1.5506854297197756,0.9993879407562484,0.012331623335947181,-0.015010010548326916,-0.029092516567405406,0.11206524627050385,0.004655724392728354,69735.93239176075
1681218288608888149,118,1681218288608888149,camera_1,119,0,-0.03126433291294646,-0.08090563309980488,1.5515669930285731,0.9993006099228023,0.012703465360674267,0.004592114869841692,0.034868688773274405,0.1010495814261958,0.004200977939622519,69716.9772416318
1681218288618899106,119,1681218288618899106,camera_1,120,0,-0.031176779470759926,-0.0803466914273108,1.5508965460275317,0.9994343944331783,0.012116712902752522,-0.01793660402837628,-0.025736253191709656,0.09804298303788528,0.004073031780054255,69739.75220097805
1681218288628922700,120,1681218288628922700,camera_1,121,0,-0.031194804468665627,-0.08033691885595284,1.551533647428875,0.9995280665399826,0.012242146855130729,-0.016415731588032657,-0.022897549992330624,0.09886219218606129,0.0041103062557284395,69712.07538538155
1681218288639024496,121,1681218288639024496,camera_1,122,0,-0.03121079778869363,-0.08060118334533045,1.5515839461443848,0.9996001669645275,0.01227987655139717,-0.013762988510085365,-0.0214310751863374,0.09765487950062379,0.004059948029329974,69726.01450411556
1681218288648954153,122,1681218288648954153,camera_1,123,0,-0.031181925908179798,-0.0810947405411415,1.551106833987702,0.9994334863869684,0.012142524119770313,-0.016250101373126654,-0.026855159685865614,0.0886365624028258,0.003683970094639178,69715.96548393602
1681218288658893108,123,1681218288658893108,camera_1,124,0,-0.031232757501286703,-0.08208794129147087,1.5513756904124745,0.9992636767948045,0.012568653521471481,0.0032439205928462746,0.0361055420451356,0.09955793974222614,0.004139257816909274,69719.96201069235
1681218288668884038,124,1681218288668884038,camera_1,125,0,-0.03116158650361988,-0.08289556484252697,1.5513803959894155,0.9995378733034963,0.012132698148991735,-0.013876088249212435,-0.024172125319247395,0.08974161109654234,0.0037312924958868136,69719.18311497371
1681218288678893327,125,1681218288678893327,camera_1,126,0,-0.03112224125107816,-0.08403483405342184,1.5508280893010071,0.9993481748715689,0.012406798535336697,-0.016423367040469965,-0.02965754113242906,0.10165500588482246,0.004224786983483732,69710.57292748534
1681218288688936948,126,1681218288688936948,camera_1,127,0,-0.03111213904160414,-0.08547007826205999,1.55158008357386,0.9994434370368875,0.012137807197735788,-0.014227915920067308,-0.0276234720644418,0.09411476226523519,0.003914906418841545,69665.64510739644
1681218288698935985,127,1681218288698935985,camera_1,128,0,-0.031146666190241187,-0.08719627324602675,1.5510872103965478,0.9992281376762236,0.012759253562090735,0.005149115978178535,0.03679425130760772,0.1067928226548247,0.0044393000245751945,69695.54348226359
1681218288708913564,128,1681218288708913564,camera_1,129,0,-0.031062119674323187,-0.08850022951445406,1.5510131945827814,-0.9995133656498311,-0.012193577330566857,0.013257899789798466,0.025467168126716115,0.07621119305258617,0.003168169285028547,69726.93614351851
1681218288718910455,129,1681218288718910455,camera_1,130,0,-0.031024408431348988,-0.0899693601787851,1.550999316793638,0.999420065508769,0.012187749594774405,-0.01574833902726043,-0.02762211498320269,0.09245643496979028,0.0038437034471938626,69697.77105074983
1681218288728938341,130,1681218288728938341,camera_1,131,0,-0.031060678071550142,-0.0916089404115939,1.5508516130379184,0.9993845990811533,0.01260873403596075,0.0036413457701359978,0.032529733266588264,0.10320205596508458,0.0042899172718462945,69714.95811378371
1681218288738951921,131,1681218288738951921,camera_1,132,0,-0.03098053478270489,-0.0928032298742207,1.550299521579882,0.9993722768476406,0.012265974754291961,-0.014491552150129362,-0.029909748376906374,0.11790604070120025,0.004898143772485839,69729.4149089515
1681218288748973369,132,1681218288748973369,camera_1,133,0,-0.03096020465430894,-0.09402411968692455,1.5502392686689523,-0.9994348752974015,-0.012183568032426081,0.01284202359269028,0.028575743897786554,0.08552224027516786,0.0035532487516812825,69743.29027246899
1681218288758968591,133,1681218288758968591,camera_1,134,0,-0.030953071148453516,-0.09503307126877733,1.5499257670991429,0.9994273961054715,0.012351933163799414,-0.01579332161971841,-0.027255837047689364,0.10068511551071424,0.004180456405870504,69767.98724191694
1681218288768967866,134,1681218288768967866,camera_1,135,0,-0.03093917714275818,-0.09577833157180822,1.5500073212728467,-0.9994704730973185,-0.012223089711244943,0.015218916763793083,0.026033710013559648,0.08392233814811334,0.0034850920086103307,69766.88369978662
1681218288778957605,135,1681218288778957605,camera_1,136,0,-0.03097640691177669,-0.09643954357693856,1.5492219584108355,0.9993218365868075,0.012648092081502629,0.005673375678879223,0.03411312791102622,0.10009927221108228,0.004154058973302539,69784.88006091298
1681218288788934946,136,1681218288788934946,camera_1,137,0,-0.030964191317305795,-0.0967225101447635,1.5496606889430722,0.9994688556269782,0.01263830268810991,0.0022719659679602813,0.02995192994620916,0.09868576390726957,0.004096817262511651,69786.49376750956
1681218288798919677,137,1681218288798919677,camera_1,138,0,-0.030898956599168075,-0.09645939862259516,1.5492782810867165,-0.9993190743716532,-0.012322722614964638,0.01635963865427654,0.030690394709716188,0.09673612065671476,0.004014592705591235,69785.427703164
1681218288808988332,138,1681218288808988332,camera_1,139,0,-0.03089436520110607,-0.09611436703962235,1.549229115901882,0.9993148736728159,0.012233345697996422,-0.016340243217141844,-0.03087272195518185,0.1202082783129299,0.004987858047976202,69790.6517342713
1681218288819094419,139,1681218288819094419,camera_1,140,0,-0.030941721881017684,-0.09556331351239035,1.5499913418514102,-0.9994580512450599,-0.012166483288164847,0.013577903800131024,0.027408411377179052,0.08037515287287533,0.003338165728696697,69763.27922399926
1681218288828965663,140,1681218288828965663,camera_1,141,0,-0.03093478585912137,-0.09472364081989976,1.549978663006933,0.9994025490583229,0.012164459080467776,-0.014321705848623478,-0.029007923272644197,0.09699699679913465,0.004028726653031114,69755.07809829009
1681218288838946342,141,1681218288838946342,camera_1,142,0,-0.030972449823138758,-0.09360444574136047,1.549988013047102,0.9994163031796772,0.012235736192919594,-0.015018151811583062,-0.02813884885081703,0.1032508426142158,0.004287361407140012,69766.41797062749
1681218288848947763,142,1681218288848947763,camera_1,143,0,-0.030997072760239268,-0.09234323649534489,1.5504496825545189,0.9994145123638103,0.012261263800820526,-0.015947235174028223,-0.027676336045770904,0.09113504906417803,0.0037862430113815054,69733.76714254564
1681218288858932733,143,1681218288858932733,camera_1,144,0,-0.031005857117761094,-0.09096589730864907,1.5506207594852544,0.9994506988332946,0.012262670271884497,-0.015328144744638625,-0.026701601040565084,0.09678267332492396,0.0040216770872359515,69735.69932924991
1681218288868966341,144,1681218288868966341,camera_1,145,0,-0.0310730412990129,-0.0896919703278314,1.5526343363565887,0.9998852268874521,0.012330015582391725,-0.008398248010091714,0.0026406814134765618,0.10616930335527286,0.00441903330917642,69701.32944119557
1681218288878951787,145,1681218288878951787,camera_1,146,0,-0.031070474061456806,-0.0879790639663051,1.5509323930690964,0.9993678795880441,0.012244662063792173,-0.013430056854276987,-0.030553937087243535,0.11256801505805925,0.004680017870513053,69690.82236448023
1681218288888967990,146,1681218288888967990,camera_1,147,0,-0.031063308254331227,-0.08639437038800402,1.550715637596233,-0.9993366542642296,-0.012177463266470701,0.018234332077614587,0.02907696624568654,0.071014336834196,0.002950658843695784,69714.73283285892
1681218288899071693,147,1681218288899071693,camera_1,148,0,-0.031132965343489846,-0.08500209068150627,1.5515867421417247,0.9995430544997975,0.012111967278703683,-0.012893377828282369,-0.024510064423247924,0.0862634486402385,0.003587684141164297,69695.76802593001
1681218288909033060,148,1681218288909033060,camera_1,149,0,-0.031149965237523954,-0.08364750032545927,1.5510737485561021,0.9994911191975414,0.012261641754828113,-0.012811314237129005,-0.026514618877895663,0.0831774195539765,0.0034577155563654104,69727.62055745944
1681218288919024229,149,1681218288919024229,camera_1,150,0,-0.031171328313559017,-0.08255471328169299,1.5516139495408634,0.9995532993911129,0.012248291654337239,-0.014783519692539914,-0.02290477184760734,0.08665199286770076,0.0036032804294050106,69706.83400273323
1681218288928931236,150,1681218288928931236,camera_1,151,0,-0.031170642415333343,-0.08156573383201492,1.5510929898226944,0.9994502137345114,0.012218360099773671,-0.014950602842696418,-0.02695294820890616,0.09962467040168123,0.0041406687101115825,69719.7247200747
1681218288938994407,151,1681218288938994407,camera_1,152,0,-0.031202364904910684,-0.08089345566971366,1.5514403406064539,0.9995612225938001,0.01219933806788302,-0.014380936284077826,-0.02284134648146818,0.08244987140642479,0.0034276519074627875,69725.9536411691
1681218288948988199,152,1681218288948988199,camera_1,153,0,-0.0312213404916219,-0.08044940473919779,1.5513697317177308,0.9995645098656337,0.012256520697436829,-0.013066020322269159,-0.023448825778848676,0.09873030835296959,0.004104687515680967,69730.75930528922
1681218288958927154,153,1681218288958927154,camera_1,154,0,-0.03119295136853875,-0.0803048148195145,1.5510835849586124,0.9995383564346367,0.01221601116166407,-0.01580648678169178,-0.022891003972373883,0.10079950449289754,0.00418802129847804,69754.04149442291
1681218288968869209,154,1681218288968869209,camera_1,155,0,-0.03126582113483181,-0.08066765463655218,1.5515295093062589,0.9993935963166896,0.012554424434231144,0.002718219714921831,0.03236413678596098,0.0830109982052818,0.0034511692738768327,69745.06530005453
1681218288978898763,155,1681218288978898763,camera_1,156,0,-0.031192609167354085,-0.0808905942147094,1.5515903011023455,0.9995369475978197,0.012138589325274386,-0.014520524650015016,-0.023826443291314923,0.08980391139630228,0.0037343950968489674,69704.31605239489
1681218288988891601,156,1681218288988891601,camera_1,157,0,-0.031229059470436485,-0.08179669142505486,1.5517218583804684,0.9993848524993773,0.012548629094756602,0.002835421581153932,0.032625279877686465,0.08951289544347674,0.0037225851330146306,69719.39299898033
1681218288998913526,157,1681218288998913526,camera_1,158,0,-0.031166947024848096,-0.08254953742227117,1.5512117915295502,0.9994569177673348,0.01238653568203823,-0.0149020236919535,-0.02665282256536942,0.08561704715248197,0.003559357837920525,69710.81921985917
1681218289008917808,158,1681218289008917808,camera_1,159,0,-0.03115607189554449,-0.08370966468727543,1.5512116936213354,0.9994699936733784,0.012266807885819513,-0.014837572436615752,-0.026250783131510764,0.09567018115194514,0.003977006664188526,69712.61956022795
1681218289018933057,159,1681218289018933057,camera_1,160,0,-0.03112495914550102,-0.08495679499134855,1.550954680048756,0.9994022654901916,0.012252492681420413,-0.013365657276012006,-0.02943377926370323,0.11313205846818164,0.0047026470825408395,69707.76658043009
1681218289028935194,160,1681218289028935194,camera_1,161,0,-0.031099586196059553,-0.08636454137706617,1.55094159466345,-0.9993917564946847,-0.012275080864984769,0.015286426198206029,0.02884032964988162,0.08125532791018486,0.0033773168115977955,69706.13519521247
1681218289038919448,161,1681218289038919448,camera_1,162,0,-0.03107034393400908,-0.08794803136025789,1.5510337557316882,-0.9994285604703464,-0.012297394154460179,0.014228048245999466,0.028087172450965602,0.08187228685710579,0.0034038050889474074,69702.67108130756
1681218289048877477,162,1681218289048877477,camera_1,163,0,-0.031059478305630932,-0.08952262617408692,1.5510968899542008,-0.9994851991488088,-0.01216909319651401,0.011238886989203226,0.02747612186034309,0.08697194530395791,0.0036166631043581445,69702.47977528285
1681218289058890581,163,1681218289058890581,camera_1,164,0,-0.031011718978527336,-0.09099275243985355,1.5503957463430313,0.9993615591627832,0.012349061485065212,-0.01439377596682434,-0.03027860567440165,0.1116599774104543,0.004639478527906609,69726.89581134904
1681218289068852901,164,1681218289068852901,camera_1,165,0,-0.030973029564046337,-0.0923524891154936,1.5504123087704895,-0.999410271871843,-0.01227518749999021,0.01627153694148432,0.027634495371741872,0.076193378015887,0.003165274918622448,69736.55887576382
1681218289078933000,165,1681218289078933000,camera_1,166,0,-0.030925869598780693,-0.09354414233824092,1.5499061947255222,0.9992941812976632,0.012347781693393008,-0.017624607499951064,-0.030790334885448772,0.10044501803349704,0.004171171647108936,69743.16578032891
1681218289088855028,166,1681218289088855028,camera_1,167,0,-0.030932681700944972,-0.0946718201387517,1.549780732243681,0.9994023677751295,0.012228172935169403,-0.015457951530167019,-0.028397725377631067,0.09422190193436109,0.003911858167075986,69775.05249979469
1681218289098944187,167,1681218289098944187,camera_1,168,0,-0.030953609537270898,-0.09554684946203623,1.5497124787501484,-0.9993918143637865,-0.012219494920258915,0.012331805562297323,0.03024255111802795,0.10248402979050297,0.004255603289396915,69766.94162838627
1681218289109055757,168,1681218289109055757,camera_1,169,0,-0.03090981072862204,-0.0961274109240508,1.5494154141590673,-0.9993772208626454,-0.012235332567484705,0.015202714540744166,0.02939973687656756,0.08069588786747772,0.0033492095732920897,69790.08730890643
1681218289118955612,169,1681218289118955612,camera_1,170,0,-0.030892792920209793,-0.09647686611478706,1.5492392132986492,0.9994352157428266,0.012233054331234137,-0.016093099172978412,-0.0268442558814248,0.08348706940887494,0.003464128669640053,69821.58851935342
1681218289128887891,170,1681218289128887891,camera_1,171,0,-0.03096842506102836,-0.0967259031340729,1.5498713084147129,0.9996455314564655,0.012563968722578162,0.0038798649386060677,0.023149617213182268,0.07592455699341372,0.003151817243016113,69811.58417184908
1681218289138940334,171,1681218289138940334,camera_1,172,0,-0.03097379474772076,-0.09647414887799764,1.5494640236218995,0.999366202716491,0.012593712933389825,0.005487818762841676,0.032840144759107875,0.10113680115318857,0.0041981889208737785,69774.91711190756
1681218289149023056,172,1681218289149023056,camera_1,173,0,-0.03091306942713027,-0.09578084537750302,1.5499559801784528,0.9994575872271695,0.01232498236338624,-0.015459687249365217,-0.02633674645697427,0.09225075152062345,0.003830711340495795,69768.62510495188
1681218289158932447,173,1681218289158932447,camera_1,174,0,-0.030986694740355203,-0.09518114868644403,1.5498528355101648,0.9994226548719541,0.012579999820275833,0.004026633589277222,0.031303142895791114,0.10443078292883001,0.004335970273466041,69773.19131562323
1681218289168961763,174,1681218289168961763,camera_1,175,0,-0.030954220216929076,-0.09406155327426505,1.550517123835446,-0.9995743055015692,-0.012293189261693978,0.013515836888327375,0.022746591657653442,0.0746149224578403,0.0030998956614940827,69761.53216375635
1681218289178900003,175,1681218289178900003,camera_1,176,0,-0.031039906733644988,-0.09304521385461888,1.5501372867340133,0.9992689046977887,0.012553729959533353,0.004288043916974626,0.03585627765888139,0.11917278608598281,0.004950732630324314,69732.1212184377
1681218289188979864,176,1681218289188979864,camera_1,177,0,-0.03105606258706043,-0.09166721228502313,1.550507236006445,0.9992130429607864,0.012677505141565725,0.003948632769837167,0.03737624833607589,0.12699496414279565,0.005277654062863591,69701.2321193642
1681218289198952674,177,1681218289198952674,camera_1,178,0,-0.031033432208886602,-0.08995758117174713,1.5508640202361923,-0.9994538927512323,-0.01223552707424729,0.013172075013109678,0.027725522203783638,0.09191459056455642,0.0038205425140566676,69715.49274332632
1681218289208924531,178,1681218289208924531,camera_1,179,0,-0.031034418640780742,-0.0883717649170864,1.5505034483100095,-0.9993033245049432,-0.012196449311084424,0.01563137410474497,0.03161917774338723,0.09349421720253304,0.0038848343525315983,69711.80312210228
1681218289218910217,179,1681218289218910217,camera_1,180,0,-0.031092046498745314,-0.08697304338092761,1.5515372576043345,0.9995629173020347,0.012195219207793088,-0.012163666297907324,-0.024026989102110638,0.08416145463706926,0.003500474889446132,69699.71956543543
1681218289228948116,180,1681218289228948116,camera_1,181,0,-0.031085066195582985,-0.08548133343811062,1.5508456049753574,0.9992604255481988,0.012175107383068238,-0.016427436407797907,-0.03256544221273941,0.11094981961650774,0.004611456468648689,69677.31651112567
1681218289238935947,181,1681218289238935947,camera_1,182,0,-0.031129754188296284,-0.08409894610120922,1.5511645601791544,0.9994070464928719,0.01218470101808538,-0.015409177304697859,-0.02827800799714946,0.12018592946697026,0.004996641186659615,69696.51298480421
1681218289248904228,182,1681218289248904228,camera_1,183,0,-0.031152115679994305,-0.08288494196178682,1.5515755618301366,0.9995430629450086,0.01219545675967609,-0.015558668666634136,-0.02286621923832782,0.07762268959777428,0.003227580157954576,69707.91550594234
1681218289258847713,183,1681218289258847713,camera_1,184,0,-0.031182207460669815,-0.08183572826480803,1.5512074182283713,0.9994907441612492,0.012184152383200288,-0.015254204999890154,-0.025240998326468058,0.11044294585008174,0.004590228819330185,69723.45974316835
1681218289268891811,184,1681218289268891811,camera_1,185,0,-0.03118655249602043,-0.08111254353585944,1.5516579723988464,0.9995103132575539,0.012282408214871452,-0.01626123311683835,-0.02374549299866333,0.10239932627882808,0.0042582425465509345,69693.88159327024
1681218289278894186,185,1681218289278894186,camera_1,186,0,-0.03126344320751174,-0.08079150537037524,1.5516877311090762,0.9994141415650005,0.01258702557778466,0.004053938893855662,0.03156748337200929,0.086013940803241,0.0035762154366485014,69732.84842849147
1681218289288884878,186,1681218289288884878,camera_1,187,0,-0.031198464330502745,-0.08035323170563903,1.5514554400401737,0.9994955758991376,0.012155500212569928,-0.016958828544204933,-0.023942341302424154,0.09496909898007289,0.003948206000804657,69708.6500167742
1681218289298864364,187,1681218289298864364,camera_1,188,0,-0.03120142329566911,-0.08039149771421428,1.5513795577220273,0.9995243347869658,0.012143408751718744,-0.014760656852890788,-0.024202578412921904,0.09179228777065873,0.003815837207512425,69719.63999337214
1681218289308884143,188,1681218289308884143,camera_1,189,0,-0.031189093845513553,-0.0807510855211587,1.5516258597332635,0.9995387975159753,0.012267296984130363,-0.015617070188569008,-0.022974176889429307,0.09567722323117779,0.00397846892711361,69705.30491662722
1681218289318849563,189,1681218289318849563,camera_1,190,0,-0.031184072080491294,-0.08131337528053358,1.5511559242693864,0.9994778092342953,0.012230412553313771,-0.015187336086077812,-0.02576568802881366,0.09311467845691368,0.0038701363833816916,69724.24544731248
1681218289328903436,190,1681218289328903436,camera_1,191,0,-0.031159674545703342,-0.0821773470419667,1.551267913697885,0.9994836615123661,0.012121822159267147,-0.015069524437673598,-0.02565894055871024,0.0925098717561923,0.0038463273597167057,69714.74210933365
1681218289338875532,191,1681218289338875532,camera_1,192,0,-0.03115231887974723,-0.08330757900517916,1.5515345427477971,0.9995465786592156,0.012288458304278825,-0.015073768908437299,-0.02298722197342582,0.08535439631668851,0.0035491580900340086,69711.16456652877
1681218289348917961,192,1681218289348917961,camera_1,193,0,-0.03114420632786049,-0.08460736396458571,1.5517521942617831,0.999557945969828,0.012237281767021341,-0.012909609123447284,-0.0238223335509484,0.08802326151635498,0.0036618852561502054,69687.56732040012
1681218289358872652,193,1681218289358872652,camera_1,194,0,-0.031168079131234656,-0.08619357695851276,1.5512185027046304,0.9992100572007137,0.012712609893501264,0.0070693080938633995,0.0369821040736799,0.12238917243666946,0.005087739909705254,69684.86026799052
1681218289368918895,194,1681218289368918895,camera_1,195,0,-0.031061553202899814,-0.08742015121824155,1.5510611502978868,0.999374656256126,0.01221056336203098,-0.017550766861411715,-0.028163259007229526,0.09391243680147454,0.00390400435878417,69691.60728926913
1681218289378843545,195,1681218289378843545,camera_1,196,0,-0.031045299829979042,-0.08890044157579034,1.550689371414732,-0.9993892690935403,-0.01239017312596867,0.014994254565954114,0.029030066493192338,0.09363424801267682,0.003890951271214196,69719.39229226556
1681218289388899087,196,1681218289388899087,camera_1,197,0,-0.031009112689788378,-0.09046380912253135,1.5506945566394172,-0.999280104338785,-0.012315148251947648,0.01441093436283848,0.03286236703266357,0.09160768665606156,0.003808012817635822,69677.9188224375
1681218289398897886,197,1681218289398897886,camera_1,198,0,-0.03097090460617155,-0.09194769078221385,1.5505025275790147,0.9993497534535779,0.012143177912378567,-0.015763530011540832,-0.03006866515222527,0.11317838251125067,0.004703061584324321,69711.12660103221
1681218289408928155,198,1681218289408928155,camera_1,199,0,-0.03096322675591115,-0.09321188263124819,1.5500182369001778,-0.9993719694524823,-0.012166939647682984,0.013462612822614819,0.030436660596472615,0.09644597832811996,0.004006152293271812,69750.04596759111
1681218289418891191,199,1681218289418891191,camera_1,200,0,-0.031004840851249757,-0.09451887275709257,1.5499081714975547,0.9994039094843943,0.012620461897142264,0.003505490830602634,0.0319415275597137,0.10441964819619898,0.004335910501712357,69771.95012878397
1681218289428894042,200,1681218289428894042,camera_1,201,0,-0.03094169121116139,-0.09528990229327865,1.5500477532353263,-0.9995332540688736,-0.012366506323135868,0.012895745676218704,0.024779896595887623,0.08176799038483296,0.0033958010803431292,69781.84986621761
1681218289438913345,201,1681218289438913345,camera_1,202,0,-0.03090809793608011,-0.09598109706665889,1.5495820502055213,0.9994598648517768,0.012422982251335464,-0.014843029801175757,-0.026558097235542186,0.09592979653098155,0.0039815496748664145,69800.41137456853
1681218289448895692,202,1681218289448895692,camera_1,203,0,-0.03096917923480716,-0.09660380470754486,1.5496125645139274,0.9994646333228979,0.012543944966146863,0.004298664488333252,0.029910159896400713,0.07693900402227882,0.0031940501959765457,69787.76505846479
1681218289458833694,203,1681218289458833694,camera_1,204,0,-0.03088657955410563,-0.09650189667271887,1.5489969882496097,-0.9993483487338232,-0.012287660100107881,0.015936123262993974,0.02996550129051392,0.10069283991470002,0.004176849094928956,69817.79784225386
1681218289468977212,204,1681218289468977212,camera_1,205,0,-0.030905199197096,-0.09640250493093239,1.549636284320391,0.9993880525834963,0.012197068383409735,-0.016008973730027364,-0.02860882095313826,0.10636530585179571,0.004415243244378602,69772.828170135
1681218289478902578,205,1681218289478902578,camera_1,206,0,-0.030909368451918457,-0.09597849323734826,1.5494840385132425,0.9993882582683328,0.012319776506933769,-0.015006311836263208,-0.029088536355070777,0.11002089036628603,0.004566559247187189,69788.23473552789
1681218289488904237,206,1681218289488904237,camera_1,207,0,-0.030931940220606184,-0.09523888581988761,1.5493468529688992,-0.9992799449518366,-0.012225936649409706,0.013906347519080415,0.03311693809484253,0.109674299164908,0.0045524072889670435,69771.65049012564
1681218289498920202,207,1681218289498920202,camera_1,208,0,-0.030965275792961558,-0.09436847171262895,1.5502068728192748,-0.9994696671854231,-0.012218930874954926,0.013489044541264962,0.02700236622773125,0.08804294999572448,0.003657213538745458,69755.43500057595
1681218289508892774,208,1681218289508892774,camera_1,209,0,-0.03097650973072209,-0.09317758762061934,1.5499756637451645,-0.9993358117983666,-0.01224071204670144,0.013965473485710478,0.03135387976326713,0.10335263558954466,0.00429244070438671,69744.26682026639
1681218289518881797,209,1681218289518881797,camera_1,210,0,-0.030972716493748696,-0.09188620402232137,1.55001139964948,-0.9992893644190775,-0.01228153447477062,0.015365270770826292,0.03215335945123408,0.09828251735598315,0.004081980124683717,69736.68975620755
1681218289528907060,210,1681218289528907060,camera_1,211,0,-0.031027978431088683,-0.09054673400242776,1.5507770709624946,0.9994889440199031,0.012310524828271458,-0.0156026837757333,-0.025037132811607497,0.08140958222793415,0.003382761562344968,69736.22691440975
1681218289538917541,211,1681218289538917541,camera_1,212,0,-0.031036584885372205,-0.08901090644864496,1.5510646407845847,-0.9994190840662077,-0.012236239776130807,0.015551818694709235,0.027747248074186034,0.0901453819242306,0.0037473789826555975,69695.45450025797
1681218289548958539,212,1681218289548958539,camera_1,213,0,-0.031057022148859935,-0.08745335325741127,1.5514459528192073,0.9994450590263427,0.012333255383744428,-0.016996114723268004,-0.025857240451822257,0.09312478284118697,0.003872280852639091,69679.01046905587
1681218289558851480,213,1681218289558851480,camera_1,214,0,-0.031086951970118445,-0.08592480743106354,1.5512296142353683,0.999471105148529,0.01222532079588555,-0.015492330658869185,-0.02584645421275199,0.08359963406110182,0.00347550473303156,69707.72376086016
1681218289568978786,214,1681218289568978786,camera_1,215,0,-0.031117182979063095,-0.0845769113459243,1.551593666719381,0.9995203763630103,0.012180748943960764,-0.01506052319918352,-0.024162517072473442,0.09684794896747916,0.004027838474572597,69693.95105213742
1681218289578925132,215,1681218289578925132,camera_1,216,0,-0.031145775115278565,-0.08333696136252791,1.551597736314455,0.9995397517993615,0.01216010061349621,-0.015079710473906646,-0.02334563894957165,0.10151780798332766,0.004221264882514673,69702.67271553658
1681218289588923215,216,1681218289588923215,camera_1,217,0,-0.031144061012555124,-0.08215161767536316,1.5509404304440806,0.999397871270481,0.012253537008653115,-0.016990363309225813,-0.027659958160298464,0.10884799616178499,0.004522964295707485,69720.27444917173
1681218289598964214,217,1681218289598964214,camera_1,218,0,-0.03118228781233886,-0.0813341431520536,1.55144820155983,0.9995765748449448,0.012250517128315002,-0.01548656302362992,-0.021371996094251226,0.08550157526042312,0.003554191094379269,69733.3433730472
1681218289608921051,218,1681218289608921051,camera_1,219,0,-0.031200919172663474,-0.08075223952774023,1.5516730146025457,0.9995709035840118,0.012154103932043843,-0.014256936122426685,-0.022517243131706496,0.09515335178002716,0.003957119728664834,69708.36104589468
1681218289618906736,219,1681218289618906736,camera_1,220,0,-0.031198030662673383,-0.08038139214095696,1.551283618675315,0.9994891558459065,0.012270517562984144,-0.015163434920085947,-0.025316634582781713,0.11116409598616883,0.004621054554136154,69717.6099222656
1681218289628889560,220,1681218289628889560,camera_1,221,0,-0.031189277760791025,-0.08027638624652876,1.5509097210508047,0.9993952507108179,0.012283867351750211,-0.016004725939526312,-0.028321161825511375,0.08986287761945277,0.0037345316996340986,69721.00899624226
1681218289638919830,221,1681218289638919830,camera_1,222,0,-0.031189234517446988,-0.080597403250355,1.5514298800529527,0.9995452631015805,0.012255026282822164,-0.01637341472452862,-0.022158353554766978,0.10201453691115601,0.004240038606113903,69727.08860013414
1681218289648895978,222,1681218289648895978,camera_1,223,0,-0.03123819126490742,-0.08132977755627105,1.5514935704373687,0.9992109719260303,0.012656755266990343,0.0031897535305445497,0.03751087310586011,0.10617222572909668,0.004414712263937282,69702.67985629104
1681218289658905029,223,1681218289658905029,camera_1,224,0,-0.0311801206724935,-0.08190981706430747,1.5514493659216477,-0.999477751786423,-0.012132115737098504,0.014768506099419274,0.02605622150831997,0.08007915719645098,0.0033296696431946438,69696.03085781282
1681218289668908834,224,1681218289668908834,camera_1,225,0,-0.031133123525455532,-0.08294502395311848,1.5516175165509194,0.999554573534851,0.012146062074437244,-0.01748511669609293,-0.020914071716676468,0.09125368751119822,0.003794548977537189,69713.00733531557
1681218289679048538,225,1681218289679048538,camera_1,226,0,-0.031145608950497918,-0.08405964944341167,1.5513014752005787,-0.9994346008373756,-0.012351758027587064,0.014543120981138509,0.02768411737425633,0.07647547812666744,0.0031800204006858734,69692.03301074739
1681218289688909530,226,1681218289688909530,camera_1,227,0,-0.031119430228621042,-0.08548021544742324,1.5518511471640428,0.9995276192016561,0.012282502580512531,-0.014105866584725733,-0.024386535451409824,0.07613943208707497,0.0031678309698481414,69669.28365587679
1681218289698862791,227,1681218289698862791,camera_1,228,0,-0.031084959830447824,-0.08694012999848205,1.550955553945825,-0.9993470963439,-0.012210534829540461,0.014571161367189197,0.030724015437503065,0.09523696597898379,0.003959271279644228,69687.51133718342
