%time,field.header.seq,field.header.stamp,field.header.frame_id,field.image_seq,field.transforms0.fiducial_id,field.transforms0.transform.translation.x,field.transforms0.transform.translation.y,field.transforms0.transform.translation.z,field.transforms0.transform.rotation.x,field.transforms0.transform.rotation.y,field.transforms0.transform.rotation.z,field.transforms0.transform.rotation.w,field.transforms0.image_error,field.transforms0.object_error,field.transforms0.fiducial_area
1681064349279033660,1,1681064349279033660,camera_1,3,0,0.07550485281767216,0.2010107568945331,2.9589063371668836,-0.9993816774198373,-0.011951496421234607,0.01014403392722492,0.03147257769056797,0.0007638242677785458,0.00011549600152013221,19220.62308017606
1681064349298964738,2,1681064349298964738,camera_1,5,0,0.07547691745488619,0.2056772192256725,2.959489816476675,-0.9992514059169958,-0.011992899949749612,0.011095200464756141,0.03506700230059147,0.0016742055304348469,0.0002533213359631848,19198.67512873596
1681064349308914661,3,1681064349308914661,camera_1,6,0,0.07542115025916363,0.2079788844305967,2.958575369145964,-0.9993106421080894,-0.01207563494980069,0.009424793073212187,0.033817050220330575,0.00044437439646571864,6.719762982604993e-05,19213.997313990025
1681064349318919181,4,1681064349318919181,camera_1,7,0,0.07542954498013434,0.21056050354865405,2.9599477356940973,-0.9993400296627529,-0.012064907301465408,0.010205555248968054,0.03270764081243944,0.001109608740080148,0.00016796040983688585,19195.917634603094
1681064349328888654,5,1681064349328888654,camera_1,8,0,0.07535592318966838,0.21288017019427768,2.95797525358775,-0.9990713190732617,-0.012086960384129876,0.011479150547833793,0.039732026082060834,0.0010495564783923328,0.00015870642622819883,19196.051362622995
1681064349338949203,6,1681064349338949203,camera_1,9,0,0.07534349045747299,0.21529038604445566,2.959125316016355,-0.9992802346785569,-0.011700318462153829,0.012983659025297753,0.03366808172390106,0.0016673639765940607,0.00025222980566508643,19195.018279265736
1681064349348911523,7,1681064349348911523,camera_1,10,0,0.07531938493420748,0.21728614364287202,2.9588621226297636,-0.9992771769941552,-0.012047909683646026,0.012613793237409496,0.03377667288248723,0.0009806210291571915,0.000148351523290337,19196.194885017005
1681064349358943462,8,1681064349358943462,camera_1,11,0,0.0752955724979356,0.2189678907072272,2.9592626583633828,-0.9993174140357269,-0.011980800097603689,0.013093724966219258,0.03239939506345865,0.0002794120227918029,4.227836455498659e-05,19192.206020485966
1681064349368921041,9,1681064349368921041,camera_1,12,0,0.07528408482134613,0.22028523471589784,2.9590135663620774,-0.9993940833585486,-0.01166574114897061,0.01137359026259596,0.030757406846322687,0.0003241114318370819,4.903917682316337e-05,19200.61686079343
1681064349378897666,10,1681064349378897666,camera_1,13,0,0.07519691603011255,0.22120152913757823,2.957682679242673,-0.9991542947482598,-0.011831513981746129,0.012486488382239813,0.037346996812163066,0.0005245363572612405,7.931058870147698e-05,19195.542858286877
1681064349389011144,11,1681064349389011144,camera_1,14,0,0.0752308314378907,0.22176724718392546,2.959437507509797,-0.9994721702931118,-0.011776029641559516,0.011661216908073332,0.027941402178147105,0.0018773172050714493,0.00028408858074981184,19200.237487252096
1681064349399009466,12,1681064349399009466,camera_1,15,0,0.0752238612354085,0.22171757492128882,2.9588378793659085,-0.9993446886540405,-0.011937808220966637,0.012088466390924419,0.03196171106424146,0.0005869668093509972,8.880838890412361e-05,19196.742681252654
1681064349408993959,13,1681064349408993959,camera_1,16,0,0.0752387920967886,0.2212436616817447,2.958111874141145,-0.9993001615118349,-0.011907204804530325,0.015757690350845222,0.03176634808993096,0.00014380982611328363,2.1743882018197105e-05,19201.62980569003
1681064349418982744,14,1681064349418982744,camera_1,17,0,0.07527390267505722,0.22045489402994656,2.959373493204537,-0.9993879137057401,-0.0118183895176977,0.011703909250239434,0.030775674100795014,0.0004148118896409869,6.277196400933682e-05,19195.31251891167
1681064349428974151,15,1681064349428974151,camera_1,18,0,0.07524646815612532,0.21902952484452304,2.958528186882045,-0.9993346311389488,-0.012019699786298972,0.00862133663483448,0.03333908184184575,0.0019194578053429723,0.0002903624341554761,19204.6939983908
1681064349438946008,16,1681064349438946008,camera_1,19,0,0.07531604842304876,0.21736026094744595,2.959835384961983,-0.99944475186335,-0.011936464286136476,0.011456730748019376,0.028921481872820995,0.0022608540020883083,0.00034223384574852335,19198.33338984649
1681064349448940992,17,1681064349448940992,camera_1,20,0,0.07531386401434045,0.21533792776415275,2.9588496170745398,-0.9991754382527401,-0.012042278420187374,0.01399583676362956,0.03615997339851699,0.0019875551806762815,0.0003006515703133447,19189.65648318176
1681064349458926439,18,1681064349458926439,camera_1,21,0,0.07535003414007191,0.21325835653505892,2.960742185256452,-0.9994023808605036,-0.011939170098792562,0.010045045882512942,0.0308453302936995,0.00044737529242411256,6.774579276262361e-05,19188.199882840032
1681064349468959569,19,1681064349468959569,camera_1,22,0,0.07541720366731786,0.2107642609940424,2.9596868289455505,-0.9992943987336449,-0.012249582671315562,0.015159007549546365,0.03210695990053556,0.0028990660212002695,0.0004386916881490454,19193.60567050148
1681064349478959560,20,1681064349478959560,camera_1,23,0,0.07543262609696894,0.20819358284877884,2.9597693005781016,-0.9994366656694879,-0.012385770671910636,0.012448880055968146,0.02860016408469519,0.0001949139987118542,2.948858524208563e-05,19207.942540714055
1681064349488931655,21,1681064349488931655,camera_1,24,0,0.07551431362677852,0.2057010730581532,2.9599415015881343,-0.9993370465274815,-0.011690986166656467,0.015050440427704303,0.031020517776360317,0.0036333698662929237,0.0005497867128983089,19197.87620071147
1681064349499110698,22,1681064349499110698,camera_1,25,0,0.07550689682590257,0.20329429521565995,2.9587580531796887,-0.9993429666236221,-0.011892282087291012,0.011186591002452876,0.032358443541032,0.0019520078203640878,0.0002951656260883507,19217.26436147304
1681064349509056091,23,1681064349509056091,camera_1,26,0,0.07555192466728963,0.20120306666817236,2.9595762800554573,-0.9995277703163002,-0.01205034496764974,0.012127227219669209,0.025533427358046215,0.002858151216059923,0.00043234190413569604,19222.70230309025
1681064349519203901,24,1681064349519203901,camera_1,27,0,0.07555092071204922,0.19917334042835344,2.9582481255024193,-0.9994133301711008,-0.012112280632392594,0.012203785922013318,0.029620191480849822,0.0009344668942503631,0.0001412039143655444,19232.013197468594
1681064349529030561,25,1681064349529030561,camera_1,28,0,0.07558151057064798,0.1975822716638686,2.9585621944246907,-0.9994364154741378,-0.012011132180157185,0.012780198427912457,0.028622555023978397,0.0010521771619096398,0.00015902410831332287,19230.287515438155
1681064349539093971,26,1681064349539093971,camera_1,29,0,0.07555564746719051,0.19635237415282497,2.958527049250841,-0.999501911402448,-0.012216554497974612,0.008682634921850374,0.027772229832426904,0.0005334799061529338,8.062649845411622e-05,19238.534354872303
1681064349548953771,27,1681064349548953771,camera_1,30,0,0.07556336036255452,0.19555257626796796,2.9585376802082735,-0.9994615508603347,-0.012220511963964346,0.010148126362144544,0.028710328638506685,0.0010896886815316975,0.00016467990034364674,19234.98676122433
1681064349558965921,28,1681064349558965921,camera_1,31,0,0.07556640370253359,0.19517486724441194,2.9575030054336096,-0.9994455358401791,-0.012126597251947391,0.012680101100005092,0.028298084110412375,9.987986413761973e-05,1.5083615035533835e-05,19246.049874159857
1681064349568959474,29,1681064349568959474,camera_1,32,0,0.07557004328344737,0.19535874621008412,2.9578534873463576,-0.9994503341491923,-0.012095879409174356,0.00978969457065822,0.029272532357144738,7.748970529064536e-05,1.170605775829713e-05,19243.08193878561
1681064349578950881,30,1681064349578950881,camera_1,33,0,0.07557354693271626,0.19601403170867993,2.9585130620790023,-0.9995032587001108,-0.01196344607519572,0.011226213097252948,0.026908807951304983,2.2109015844762325e-05,3.341107406283151e-06,19237.58405628009
1681064349588901519,31,1681064349588901519,camera_1,34,0,0.07558697726561416,0.1970946435923945,2.9587358612115535,-0.9994522501650048,-0.01201963006732743,0.011514948327493743,0.02860304351233045,0.000687798543367535,0.00010397113215423689,19230.099150075457
1681064349598987817,32,1681064349598987817,camera_1,35,0,0.07554771271159108,0.19848669341517786,2.9577872255987283,-0.9994277646058941,-0.0120234072350918,0.012721341129614247,0.02894388524694658,0.0021059397258795798,0.0003181627461266112,19239.17918335345
1681064349609070777,33,1681064349609070777,camera_1,36,0,0.07550529249878773,0.20030721659735862,2.958547177710706,-0.9993062379058664,-0.01217258300991677,0.010467474385313964,0.033605105047947184,0.0003040446899831295,4.596359203770351e-05,19219.82688187308
1681064349618971109,34,1681064349618971109,camera_1,37,0,0.07548475938804183,0.20246314413466127,2.9594135098115575,-0.9993671281456631,-0.012089034094405659,0.013165668195840932,0.03075489582995203,0.0020540006225928664,0.0003106566477783309,19210.801098205025
1681064349628957033,35,1681064349628957033,camera_1,38,0,0.07547331096900847,0.20480729593794486,2.9593593671375125,-0.9992236684208594,-0.012273104348166258,0.01065587454008474,0.03588709677593545,0.0008804647368378937,0.00013318964204045317,19199.3603623386
1681064349638929605,36,1681064349638929605,camera_1,39,0,0.0754399173354384,0.20727279430318635,2.959093491485817,-0.9992417109890684,-0.011744401540664794,0.008675309905975717,0.03609447395552288,0.000958085001911968,0.00014495455396031795,19202.335725029927
1681064349649020910,37,1681064349649020910,camera_1,40,0,0.07540992572960001,0.20974372663774865,2.9584325224474455,-0.9990658560236001,-0.012191558241157884,0.008903928139907652,0.040490755724769845,0.000167439051438123,2.5326663785879115e-05,19194.365630068813
1681064349658972978,38,1681064349658972978,camera_1,41,0,0.07540169902965738,0.21219378211361214,2.959903438260952,-0.9993318613665938,-0.011809401795307728,0.011770120669871187,0.03252434697626683,0.0003301365068182349,4.996492111736856e-05,19193.318489220805
1681064349668984651,39,1681064349668984651,camera_1,42,0,0.0753611567682847,0.2143814741592755,2.958440611307783,-0.9992773088153833,-0.011666769421979209,0.01367217124714512,0.03349355626576929,0.0007539893267676234,0.00011401126020931837,19204.303935124768
1681064349678954124,40,1681064349678954124,camera_1,43,0,0.07532600042401877,0.2165814716903095,2.9586321321089355,-0.9993733302152182,-0.011973380324065376,0.012801179161528228,0.030752476814628196,0.0015090770320966838,0.00022823924628611784,19208.09322481439
1681064349688956975,41,1681064349688956975,camera_1,44,0,0.07525749786569422,0.21840136975172042,2.9576850952697056,-0.9991201245624861,-0.012045015845360404,0.012986667935979983,0.03801632206629322,9.992916602641344e-05,1.5108146199212206e-05,19196.425317227608
1681064349698899745,42,1681064349698899745,camera_1,45,0,0.07523087201769389,0.21985389693162882,2.9574970394917424,-0.9992151247589544,-0.011974291552352646,0.012642966283551924,0.03557957557812752,0.0010164011036977172,0.00015364938209717454,19205.065421245294
1681064349708956480,43,1681064349708956480,camera_1,46,0,0.07522076700162772,0.22092935639811098,2.9580915437790143,-0.9993274389551967,-0.01189497831575063,0.009668354648915956,0.03331219237003544,0.0007705140742473304,0.00011653032109750007,19206.66417286021
1681064349718949317,44,1681064349718949317,camera_1,47,0,0.07521387476808321,0.221559134576795,2.9579551801655617,-0.9993492846575949,-0.011753129151622993,0.013371052638749333,0.03137014760613243,0.0005362428491935134,8.107505833526455e-05,19208.104479279362
1681064349729076623,45,1681064349729076623,camera_1,48,0,0.07520914472515235,0.2217355789402488,2.9579032070612494,-0.9993489627898642,-0.011850514649731992,0.01106180153746558,0.032231233611282696,0.0004295242251828313,6.494624803137009e-05,19209.34718064335
1681064349738924741,46,1681064349738924741,camera_1,49,0,0.07523924911136985,0.22141171151774716,2.958215936812169,-0.9993992961404691,-0.01169268497274289,0.014606534048828999,0.02917151273320638,0.0002983767772093415,4.511631136938769e-05,19208.909966586274
1681064349748934507,47,1681064349748934507,camera_1,50,0,0.07525798038802956,0.2206676891922078,2.9586203999947887,-0.9993108689444451,-0.011793892170572218,0.013730689569782354,0.03240616424240055,0.00011627253843471408,1.75872074697795e-05,19197.290084123502
1681064349759027481,48,1681064349759027481,camera_1,51,0,0.07524768141750905,0.21950005303734826,2.9582953546217285,-0.9993652048750566,-0.011930258303436385,0.013702008309318288,0.03064492111494039,0.0009067129576578736,0.00013710021721686748,19207.892671321988
1681064349768923997,49,1681064349768923997,camera_1,52,0,0.07529447257287006,0.21800369152626917,2.959204662367845,-0.9993561039898723,-0.01177090984217476,0.013249675656540002,0.031197262614975144,1.4775723684579136e-05,2.235461426941824e-06,19197.24772483226
1681064349778939723,50,1681064349778939723,camera_1,53,0,0.07528751327441867,0.21601188639688657,2.9580347553981188,-0.9991157528210737,-0.012002045362905226,0.010715207255532494,0.03884388890619564,0.00024841807316988707,3.756898875232867e-05,19195.442109241958
1681064349788957595,51,1681064349788957595,camera_1,54,0,0.07534257066557898,0.21388694539942663,2.959977817596953,-0.9994458101091913,-0.011847261332553247,0.010995121323672776,0.02910021239060537,0.0011732090497389436,0.000177552504030206,19200.585302299114
1681064349798898220,52,1681064349798898220,camera_1,55,0,0.07540645372807758,0.21146884953843895,2.9595904471140653,-0.9994209574153323,-0.012079295016835547,0.015017739020853798,0.028041184454623874,0.00031344720628112555,4.741706286488303e-05,19204.67232254788
1681064349808987855,53,1681064349808987855,camera_1,56,0,0.0753997831810358,0.20909254002357114,2.958915657327621,-0.9991791895435191,-0.011890121127714677,0.013935218101798498,0.03613006918316227,0.0020595475216396153,0.00031150212044732677,19195.81924023223
1681064349818954467,54,1681064349818954467,camera_1,57,0,0.07545542375119284,0.20660984689622802,2.959243646773398,-0.999307221983891,-0.012125976848009166,0.008277338211413769,0.03419828136696299,0.0003658058703877032,5.534326561890709e-05,19206.866141118222
1681064349828976631,55,1681064349828976631,camera_1,58,0,0.07549735930965151,0.2040645300349501,2.9587142762280907,-0.9991671885017338,-0.012030738258816285,0.013039664539232661,0.03674449492363515,0.00015145534416660666,2.2901710183982067e-05,19202.485523110256
1681064349838975906,56,1681064349838975906,camera_1,59,0,0.07548122103856225,0.20168842172353782,2.9572867748503655,-0.9990161205173902,-0.012221235510696348,0.011095175691479792,0.041162232997627085,8.150242501869798e-05,1.231493492054511e-05,19211.85644473508
1681064349848940372,57,1681064349848940372,camera_1,60,0,0.07550995059319537,0.19966707999085256,2.957019008091354,-0.999149777632186,-0.012262509502408639,0.010545034313696983,0.0379230137196344,0.0010038077598437667,0.00015160881153344007,19227.69244898227
1681064349858886480,58,1681064349858886480,camera_1,61,0,0.07553445658333968,0.19805044705514296,2.958131363999768,-0.9994001708319462,-0.011985845255078589,0.010567935142215304,0.03072387998655395,0.0036049657501280308,0.00054472717544345,19233.761526113958
1681064349868999004,59,1681064349868999004,camera_1,62,0,0.07553055821876768,0.19672443610370755,2.957925901087682,-0.9993569025872595,-0.012225906762623839,0.010430913765625665,0.03205471093372189,0.0010189003660343587,0.00015394543727922938,19234.076759525004
1681064349878811836,60,1681064349878811836,camera_1,63,0,0.07556016010868927,0.1956988469785183,2.957735742339927,-0.9994037200325032,-0.012054064328070723,0.012473278228878702,0.029855003744666188,0.0007731213117949665,0.00011676827054448003,19239.605255179333
1681064349889002084,61,1681064349889002084,camera_1,64,0,0.07556338934065826,0.19522557674804952,2.9568687370038926,-0.9993007820279592,-0.011859878369446538,0.01304472950812184,0.03297158406008233,0.00019273447105661035,2.9096190372507066e-05,19242.633665221274
1681064349898932456,62,1681064349898932456,camera_1,65,0,0.075560565227402,0.19527969410423687,2.9580476045691086,-0.9995267137934505,-0.012105782430017507,0.0096925604057812,0.026567888847312714,0.00010801537428051233,1.6318556982015206e-05,19246.583149020564
1681064349908987283,63,1681064349908987283,camera_1,66,0,0.07554515999269892,0.1956602743258416,2.957548013880828,-0.9994409000100928,-0.011899491456744238,0.012673421048783664,0.028560005059646634,0.0020445756963454187,0.0003087467760972032,19244.72767482431
1681064349918973445,64,1681064349918973445,camera_1,67,0,0.07556556604591197,0.19660819535011148,2.958087955142496,-0.9994021169004045,-0.012298485728671572,0.014164898322873641,0.029043271841760386,8.949922630563378e-05,1.3521683862546228e-05,19233.92910756217
1681064349928914785,65,1681064349928914785,camera_1,68,0,0.07553420731598229,0.19796682086871223,2.9580631523490375,-0.9992803150706844,-0.012137646862782013,0.011375695456020784,0.03408992510639945,0.0005392828607000411,8.149444193753845e-05,19225.092281702782
1681064349938977718,66,1681064349938977718,camera_1,69,0,0.07555088769627835,0.19980272789240944,2.9594011672849,-0.999461322081157,-0.012194659137951829,0.010189558385824983,0.028714610430874483,0.0008125670137815177,0.0001228960469556556,19221.4986044009
1681064349948958635,67,1681064349948958635,camera_1,70,0,0.07549110944944554,0.2017288437436913,2.9587486119317554,-0.9994199458846592,-0.011836118241148592,0.009975521999093037,0.030334255120773226,0.00028867553919553757,4.364323279634982e-05,19225.196874934947
1681064349959041595,68,1681064349959041595,camera_1,71,0,0.07547538968429895,0.20394054320671776,2.9591353047351965,-0.9994262374190707,-0.011903787880595526,0.013967447563287242,0.028467634271572985,0.0007127890130504966,0.00010776917764437168,19217.588896314155
1681064349968921661,69,1681064349968921661,camera_1,72,0,0.07544754628717688,0.20632852085073353,2.959061005829789,-0.9992353597049756,-0.012143504136308261,0.011543461052349024,0.03532675656626708,0.0025277528329752386,0.00038230089325867793,19202.33352596895
1681064349978959798,70,1681064349978959798,camera_1,73,0,0.07539814043534422,0.20887539052120663,2.958119801264691,-0.9990618079638063,-0.012186691407019118,0.011035529575748047,0.0400650160067786,4.670850466936827e-05,7.062705549184358e-06,19198.11493647575
1681064349988957881,71,1681064349988957881,camera_1,74,0,0.07536310302158329,0.21139655517166886,2.9582700798021526,-0.9991287196375638,-0.012055667906792534,0.01220529257137654,0.038045936707758236,0.003051920619327575,0.0004615167731865797,19198.376729295713
1681064349999035596,72,1681064349999035596,camera_1,75,0,0.07537242969157804,0.2138013428599338,2.9598039619361907,-0.9994090245876253,-0.012179659165370033,0.010703024599819642,0.030310109532014462,0.00026911695022135973,4.072605871113969e-05,19200.180864024784
1681064350009024620,73,1681064350009024620,camera_1,76,0,0.07536887263801269,0.2159641815010865,2.959577457062239,-0.9992881391032431,-0.012117986755489045,0.01494059064010841,0.03245224485141114,0.0037848722422495484,0.0005727917884990046,19188.78262534423
1681064350018993139,74,1681064350018993139,camera_1,77,0,0.07530661062750302,0.21784943188226147,2.959296448508003,-0.9993941284138682,-0.011886992871226914,0.011358388017907096,0.0306767422324955,0.0004038907936774194,6.111495026300378e-05,19200.278701120973
1681064350028978586,75,1681064350028978586,camera_1,78,0,0.07526128124283589,0.21947175047203776,2.9589160345452714,-0.9993738584300031,-0.011827189648024846,0.011542331559174224,0.03128551188546803,0.0005103317671455443,7.720719970499539e-05,19201.29306846112
1681064350038993835,76,1681064350038993835,camera_1,79,0,0.07525406981323693,0.2206893694281373,2.95915150418404,-0.9993669429602978,-0.012064337320823045,0.014224675904127381,0.030295604939012122,3.126490628346801e-05,4.730198304380066e-06,19195.50227624771
1681064350048997402,77,1681064350048997402,camera_1,80,0,0.07524003304622565,0.22146253365381408,2.9584893711259412,-0.9992867198541653,-0.011812228880015424,0.013623424951736874,0.033180190845951245,0.00028343108715489507,4.287124963754811e-05,19195.853553130182
1681064350058996200,78,1681064350058996200,camera_1,81,0,0.07522793305728007,0.2217164391168224,2.958132808919412,-0.9993801002709264,-0.011910794558496406,0.013703178691003204,0.030162411197068084,9.985576616600156e-05,1.50982023622487e-05,19208.379357261358
1681064350068939447,79,1681064350068939447,camera_1,82,0,0.07522655128045302,0.22156892102828282,2.958526608263983,-0.999373269789543,-0.012024996394719881,0.01595133720358861,0.029223653660721733,0.0002521525020711124,3.8130378843063856e-05,19202.4233852299
1681064350078944206,80,1681064350078944206,camera_1,83,0,0.07522386666918532,0.2210028649223828,2.958284722909008,-0.999284937133901,-0.012000712104662928,0.010672838298489536,0.034229926218601256,0.0011678411974571645,0.00017663062531827068,19200.15700228699
1681064350088894367,81,1681064350088894367,camera_1,84,0,0.07526182449738378,0.2199522434163167,2.958480060635112,-0.999340251684765,-0.011959671868537114,0.015486039840777224,0.030597551886995266,0.0005375692271627486,8.129315805939051e-05,19202.231672751022
1681064350098964452,82,1681064350098964452,camera_1,85,0,0.07530114568346571,0.21850904109444902,2.9590676969518777,-0.9993332018908683,-0.011826356506056365,0.016659049365543886,0.0302616087571849,0.00011638866271823645,1.760573318024992e-05,19195.389927079093
1681064350108960866,83,1681064350108960866,camera_1,86,0,0.07529218366259825,0.21665114614800882,2.957605088357204,-0.9992218184335759,-0.012125769035671929,0.014640357095006705,0.03455985005352708,0.002075951430015266,0.00031377915646822177,19207.810439438334
1681064350118961811,84,1681064350118961811,camera_1,87,0,0.07537549503329785,0.21469621289518226,2.95921754446628,-0.999226378084079,-0.012019297527783645,0.014725782905386066,0.03442866749868895,0.000231190409976989,3.497736563441186e-05,19189.632520820946
1681064350128915548,85,1681064350128915548,camera_1,88,0,0.07537205506473064,0.2123218153958657,2.959482565960979,-0.9992563239318181,-0.011799297161846104,0.011075602459825432,0.03499866710187532,7.48745515011251e-05,1.1330497816122189e-05,19192.56031386624
1681064350139014244,86,1681064350139014244,camera_1,89,0,0.07542608904586559,0.2098566098911305,2.96044393383311,-0.9994266316002944,-0.01222557777953836,0.012249884298768667,0.02910126510502417,0.0015480570727959275,0.00023430642165517466,19196.859113495568
1681064350149044752,87,1681064350149044752,camera_1,90,0,0.07543537997718083,0.20725684864413718,2.9586120915429515,-0.9993569586952029,-0.012070731207092988,0.013763382231674713,0.03083076166989171,0.0010199417592957616,0.00015418537155154288,19216.256104556145
1681064350159071922,88,1681064350159071922,camera_1,91,0,0.07549128199246147,0.20491540956993265,2.9590068226221855,-0.9993518249272745,-0.012127934889708624,0.012885803770183833,0.03134962951987576,0.000987829640507698,0.00014937632118507853,19213.05699332174
1681064350168964385,89,1681064350168964385,camera_1,92,0,0.0754595233648404,0.20256789553340987,2.9580259091695593,-0.9992153780677812,-0.012243080319320115,0.01183315228964095,0.03575907890377145,0.00023749121464788914,3.5891058952555984e-05,19217.19917797111
1681064350178960561,90,1681064350178960561,camera_1,93,0,0.07553885219117637,0.20038716012826643,2.958563482456211,-0.9992748862104474,-0.012080245351164769,0.012831907606752357,0.033750727525861814,0.004024929192382842,0.0006084689946902586,19215.918703123698
1681064350188958168,91,1681064350188958168,camera_1,94,0,0.07554675895578679,0.19852829060500932,2.9580938097977683,-0.9993523539808215,-0.012003550799032373,0.008887010947077854,0.03273848496238859,0.001530004316009581,0.0002312344311536111,19230.943041993774
1681064350198974370,92,1681064350198974370,camera_1,95,0,0.07552636468458424,0.19704299600356523,2.9573899654893636,-0.9993399889187112,-0.011838519794039784,0.010512930891296143,0.03269425455811986,0.0016830231761559844,0.0002541858479085362,19239.117925432038
1681064350208970785,93,1681064350208970785,camera_1,96,0,0.07555049602545681,0.19598322107380425,2.957581669008638,-0.9993115724402759,-0.01204536124939234,0.011791700213900122,0.03304914923837417,0.0001726442133076489,2.607863588035522e-05,19234.602484637406
1681064350218932628,94,1681064350218932628,camera_1,97,0,0.07557367797651124,0.19539999377988018,2.957616680194549,-0.9993233146600548,-0.01192442064155087,0.008375551824541808,0.03377234224685613,0.0007589460001327097,0.00011466627424046165,19236.767956406347
1681064350228985309,95,1681064350228985309,camera_1,98,0,0.07557093390589358,0.19517986937050497,2.9573748361441625,-0.9993887086917068,-0.012088124518143973,0.012477134503333027,0.03033821517067906,0.00019500235794112086,2.944821299613112e-05,19243.36381367036
1681064350238952875,96,1681064350238952875,camera_1,99,0,0.07556162995044705,0.1955114112830552,2.9578008442535295,-0.9994879283764919,-0.012194570185717978,0.010030933469747495,0.027830807774474265,0.0012489831424318256,0.0001886506143827992,19246.598487499643
1681064350248953342,97,1681064350248953342,camera_1,100,0,0.07558127935658082,0.1963515869460802,2.958901422489085,-0.9995059951196226,-0.01178310821359945,0.011678068467161599,0.02669357221572282,0.0009129698155447841,0.0001379937385738952,19232.25357001787
1681064350258982419,98,1681064350258982419,camera_1,101,0,0.07557123418498224,0.19750127488237706,2.9588193076953218,-0.9994969492064893,-0.011944175881945981,0.011288595549202798,0.027124763592484804,8.281221380457282e-05,1.2518028821264072e-05,19232.364650027244
1681064350268883466,99,1681064350268883466,camera_1,102,0,0.0755325431510582,0.19903479401775703,2.958632161300007,-0.9993766992450293,-0.012410522578970335,0.012990488361394107,0.030388141561466568,0.0005148210329934955,7.780940755929625e-05,19224.23745237058
1681064350278927326,100,1681064350278927326,camera_1,103,0,0.07548255362222368,0.200974776093975,2.9577528401369637,-0.9992199353096365,-0.01206340348487762,0.010919395556885519,0.03598280112552406,0.003081002563703805,0.0004655779385435247,19222.477289088296
1681064350288947343,101,1681064350288947343,camera_1,104,0,0.07547075655576714,0.20323619419204028,2.9590011635330264,-0.9994361036850761,-0.012245344351497834,0.010992615898456098,0.029269243041389646,4.5806809794157743e-05,6.926059811607934e-06,19222.162735529004
1681064350308945178,102,1681064350308945178,camera_1,106,0,0.07543521451312354,0.20796019485057352,2.9588065848067164,-0.9993130125643963,-0.012009811981396327,0.014319074188300494,0.03200361620242655,0.0016337423003278673,0.0002470490855452621,19209.215616525154
1681064350318973779,103,1681064350318973779,camera_1,107,0,0.07538697751204819,0.2104500517603348,2.958648391605714,-0.9992704043449461,-0.012294512399915792,0.01363428516993604,0.03349044987815661,0.001143474888522178,0.00017288914240077739,19205.945021614545
1681064350328925848,104,1681064350328925848,camera_1,108,0,0.07536048138094092,0.21299573152049187,2.958916144004509,-0.9991969571535948,-0.01200947303416507,0.011494260613824242,0.036456759940788966,0.0011387584963813424,0.0001722756053272551,19194.180939963553
1681064350338973999,105,1681064350338973999,camera_1,109,0,0.07536167570452423,0.21531496923300059,2.959409192850688,-0.9992163273132457,-0.012009492018469192,0.008792860062653837,0.03667681752831611,0.0014172428054735065,0.00021452316657695906,19187.795023215236
1681064350348927974,106,1681064350348927974,camera_1,110,0,0.0753395310732639,0.2173216196020292,2.9597962354775342,-0.9994727543532609,-0.01172112377467809,0.012642887661466217,0.027513377737830528,0.0003024385659955442,4.577097552624846e-05,19200.694958210224
1681064350358931303,107,1681064350358931303,camera_1,111,0,0.07526913944954725,0.2189441531463157,2.9585296355087283,-0.9993242574652489,-0.011970664972345358,0.010251766704092323,0.03320591665793303,0.001935873820912093,0.0002928089620660989,19203.22443543584
1681064350368998289,108,1681064350368998289,camera_1,112,0,0.0751985436299201,0.22015750024489011,2.957205390920754,-0.9992778212012181,-0.011896685377311408,0.012085066690617341,0.034003765901192404,0.0019774826942011714,0.00029886516719835287,19213.958908841705
1681064350388925790,109,1681064350388925790,camera_1,114,0,0.07524331201543999,0.2217384573856903,2.959248258858205,-0.9994320346261358,-0.011935534867475108,0.01469585989361497,0.027877999793330423,0.0004348591319285333,6.579109636434124e-05,19198.396645724657
1681064350398981094,110,1681064350398981094,camera_1,115,0,0.07521948561442185,0.22169365089178106,2.95868885613148,-0.9994176308364228,-0.012041820373084537,0.011676098113658537,0.029716367009690266,0.0003763897111639381,5.693182842105412e-05,19205.37792054867
1681064350409004449,111,1681064350409004449,camera_1,116,0,0.07523447902482312,0.22127185197336555,2.958448506598559,-0.9992787418046221,-0.011890256645069125,0.010842079771549495,0.034395745093155766,0.0019211020553484561,0.0002905802129784375,19196.971272203136
1681064350418995380,112,1681064350418995380,camera_1,117,0,0.07530075634398528,0.22043386679853544,2.9595242406410724,-0.9993855589599554,-0.011879469823188143,0.013307197862340074,0.030171198585238288,0.002075548400171101,0.00031414786975562085,19192.69131326745
1681064350428972721,113,1681064350428972721,camera_1,118,0,0.07529252026902292,0.21911292171964755,2.959815518854038,-0.9993785029758654,-0.011872097261546786,0.012145713056094,0.030889201198629392,0.0016178198275156321,0.0002448810417204169,19190.43564151483
1681064350438958406,114,1681064350438958406,camera_1,119,0,0.07528938973666359,0.2172499744216722,2.958228154840493,-0.9992013852837239,-0.012188150275467281,0.010217521232586025,0.03665573488298273,0.00022291962523013353,3.3716417825901204e-05,19198.972813562028
1681064350448901176,115,1681064350448901176,camera_1,120,0,0.07534106025344141,0.21535976913493055,2.9598768702320184,-0.9994296303628012,-0.012078472078406153,0.013471144840216488,0.028514079361249483,0.002135072078090161,0.00032308175258995663,19198.268646678076
1681064350458982467,116,1681064350458982467,camera_1,121,0,0.07536262822046419,0.21315330333544408,2.95941741646414,-0.9993684352170066,-0.011930140330701625,0.011766105982807785,0.03133626004492391,0.0015440855640918016,0.00023364290636039713,19201.753316297196
1681064350468959093,117,1681064350468959093,camera_1,122,0,0.07540468642301099,0.21082041401714158,2.9599772818911245,-0.9994107509379826,-0.012073204922963585,0.01056261624095898,0.0303450122855816,0.0014343239599838853,0.00021709544472328846,19201.074698055396
1681064350478998422,118,1681064350478998422,camera_1,123,0,0.07543914451751177,0.20815714247537387,2.9592510596900232,-0.9992926476778827,-0.01217026766690952,0.010222987315930836,0.034081951413922715,0.0002512116334401071,3.8001534092505734e-05,19203.424433284436
1681064350488945007,119,1681064350488945007,camera_1,124,0,0.07543363454702867,0.20555097873141187,2.9579761226291614,-0.9991058379091521,-0.012058836767408165,0.01135042953220195,0.03890085938771414,0.0024878388503566384,0.0003760620271060696,19206.543242019718
1681064350499142408,120,1681064350499142408,camera_1,125,0,0.07552494024580654,0.2033077720910089,2.959334713229232,-0.99933707232828,-0.012200211345240866,0.013393036143850023,0.03157843087177147,0.0024196869344450533,0.0003659648320598988,19208.726997534977
1681064350509531974,121,1681064350509531974,camera_1,126,0,0.07553231206412388,0.20115980083297438,2.9588513490541026,-0.9993265633867539,-0.012116799454676848,0.011941851187863494,0.03251146060703085,0.00106796610634774,0.00016146971299787623,19216.20402480824
1681064350519093751,122,1681064350519093751,camera_1,127,0,0.07553468144968989,0.19921884523137534,2.9585646206816802,-0.9994973395670574,-0.012165995970675149,0.012500335883289292,0.026472596080120075,0.0010798302828334272,0.00016321323319358347,19234.476346333857
1681064350529000759,123,1681064350529000759,camera_1,128,0,0.07552236260552819,0.1975077175125305,2.9581128387241744,-0.9993966396196156,-0.012218332735445887,0.010746303699978307,0.03068527364997885,0.0014435556367971003,0.00021810687795602155,19234.20089347847
1681064350539075613,124,1681064350539075613,camera_1,129,0,0.07556452620339395,0.1962962681785491,2.957695331445544,-0.9992897602694719,-0.011881014632706615,0.013029669009840757,0.0333023157959493,0.00154154741903767,0.00023286437741407037,19230.54668553778
1681064350549001693,125,1681064350549001693,camera_1,130,0,0.07558857085010942,0.1956146303467459,2.9590340185790023,-0.9995749510091733,-0.011973002478006893,0.010395293088438036,0.024464308865691436,0.0003848824417218566,5.8185264037574315e-05,19236.94524298539
1681064350559011220,126,1681064350559011220,camera_1,131,0,0.07559341612592187,0.19524429017175982,2.958429000879914,-0.9994895634661561,-0.0120644492325477,0.013324572410592558,0.02641055389466299,8.012034231796861e-05,1.2106650337793253e-05,19237.074032443696
1681064350568883657,127,1681064350568883657,camera_1,132,0,0.07560245776278804,0.19546223727710368,2.9594507638353607,-0.9995210089682595,-0.012001087769992605,0.009767266965445992,0.02680162344775121,0.00027931848308071494,4.224074492390702e-05,19227.749125633152
1681064350578938961,128,1681064350578938961,camera_1,133,0,0.0755629558527255,0.1958729258721878,2.9567791806921897,-0.9993717644937679,-0.012003282924813776,0.014845091431259273,0.02986001996043435,0.0023910797899588943,0.0003609229410175959,19248.264278847033
1681064350588986635,129,1681064350588986635,camera_1,134,0,0.075526964037025,0.1970411235727677,2.9578278517454106,-0.9994404828026492,-0.012085308346094668,0.009722160533949743,0.029633532559238323,0.00043837999692186713,6.6223177983374e-05,19241.88477636419
1681064350599031925,130,1681064350599031925,camera_1,135,0,0.07551966233732896,0.19850796930981068,2.957836040318837,-0.9993607785196403,-0.012105992804643834,0.011428813692090598,0.03163639537658782,0.0001700120628811419,2.5684429030165425e-05,19233.970076842816
1681064350609043121,131,1681064350609043121,camera_1,136,0,0.07555499797869278,0.2003261118405202,2.959207886012847,-0.9993607430917404,-0.01225745188855858,0.014375367211457627,0.030351422666160793,0.0023977005621418357,0.0003625614141119975,19213.95711346029
1681064350618997335,132,1681064350618997335,camera_1,137,0,0.07549904467488186,0.2024117304806025,2.9594943779995675,-0.9993906406071069,-0.012398287982575498,0.010746201023709422,0.030808263267764757,0.0016095467726700008,0.00024344348460075593,19212.975258881583
1681064350628939867,133,1681064350628939867,camera_1,138,0,0.07548112796329831,0.20481315987411106,2.9593457258670948,-0.999232185075433,-0.012076664047628128,0.0086941475751721,0.03624370694062134,0.002134178706910461,0.00032291198191922854,19200.82275780233
1681064350639023065,134,1681064350639023065,camera_1,139,0,0.07541942087783968,0.2073127317768602,2.959360870708084,-0.9993670766399985,-0.012163875855080488,0.008688490616596316,0.03227996875789755,0.0009994561551138759,0.00015119941662448518,19209.529356415267
1681064350648980617,135,1681064350648980617,camera_1,140,0,0.07540710604655276,0.2097248439490586,2.958415114746058,-0.9991358483232217,-0.012029954896280224,0.009736332382625829,0.03857512945363263,8.82177846506238e-06,1.3342003083180979e-06,19199.8331801216
1681064350658998966,136,1681064350658998966,camera_1,141,0,0.07540103566862325,0.21215345622929221,2.9595008780792695,-0.9992339970001427,-0.01216570978240201,0.009992713301556575,0.035826811545016705,0.0012057186686433852,0.00018247605920274537,19191.398916762788
1681064350668996572,137,1681064350668996572,camera_1,142,0,0.07534237087488596,0.21445354143165501,2.9589107588602297,-0.9991599390729641,-0.011928692713143072,0.010966685679355593,0.0376411244130198,0.0004059920902363956,6.142419801106222e-05,19189.614770698354
1681064350678965568,138,1681064350678965568,camera_1,143,0,0.07530744808085943,0.21667658238495208,2.9590356377292926,-0.9992635253793116,-0.011818877024371491,0.010620892093625442,0.0349273194437847,0.0028522739303298295,0.0004315782964542119,19194.06624948478
1681064350688974380,139,1681064350688974380,camera_1,144,0,0.07528775967972333,0.21847553928368346,2.9588385196464406,-0.9992965941007435,-0.01214170585949905,0.014473396300150971,0.03239470322466685,0.001306174322962761,0.0001975820451380266,19196.19197905192
1681064350698955297,140,1681064350698955297,camera_1,145,0,0.07522939283934224,0.2199056271364421,2.9584577159644203,-0.999331582336326,-0.01198274892702866,0.014267640222581646,0.031452133724211094,0.0025408902438357472,0.0003842429910905718,19202.256952328833
1681064350708985805,141,1681064350708985805,camera_1,146,0,0.07524317863116001,0.2209539863621035,2.9581331346540454,-0.99929368569924,-0.011961105902390325,0.011222567969795035,0.033809993129007065,0.00038931361632421613,5.887811540076607e-05,19202.659033008385
1681064350718945503,142,1681064350718945503,camera_1,147,0,0.07521848848782803,0.22155383628773556,2.9582782662211473,-0.9994433030297591,-0.011980693705131178,0.01115802415017437,0.02906966639596872,6.521481554955244e-05,9.86187786610173e-06,19213.20150314225
1681064350728957653,143,1681064350728957653,camera_1,148,0,0.07523005541345279,0.22171037163005164,2.9578222217411922,-0.9992795760886735,-0.012028393262932403,0.013026905718687374,0.03355512322954126,0.00036909303162246937,5.580130094053335e-05,19203.876352161165
1681064350738967180,144,1681064350738967180,camera_1,149,0,0.0752612649876248,0.2214960589880312,2.9589307039907404,-0.9992862567521242,-0.011753683931382344,0.01383447334534305,0.033127561450036085,0.0010246332385577261,0.0001550100267329677,19189.982018558312
1681064350749029159,145,1681064350749029159,camera_1,150,0,0.07524586738221417,0.22069133551907177,2.958550920522043,-0.9992376910526262,-0.011980556821847272,0.011622631543560177,0.03529047285114729,0.0008968824404291809,0.00013568846843868196,19192.689595319098
1681064350759060382,146,1681064350759060382,camera_1,151,0,0.07524204934346884,0.21960598655636943,2.9591509639501554,-0.9993587914004538,-0.011943764168902063,0.007898559848391662,0.03281714948656235,0.0019486052333377302,0.00029488817074660266,19198.252488515813
1681064350769073009,147,1681064350769073009,camera_1,152,0,0.07528738770075166,0.2180538694668975,2.9596754573171538,-0.9993962229205489,-0.012128999806734793,0.011815515713625964,0.030339257806507827,0.00033703481312841177,5.100585659435283e-05,19195.481790374513
1681064350779034614,148,1681064350779034614,camera_1,153,0,0.07532945972145566,0.2160410277538149,2.9589697229192264,-0.9993491353672952,-0.011926529610352203,0.012080657364718451,0.0318295656541075,0.0003246593405492604,4.911326770620689e-05,19202.53187856474
1681064350788988113,149,1681064350788988113,camera_1,154,0,0.07534241168316012,0.2138280789231494,2.9592441403941994,-0.999324776115299,-0.012226727287526037,0.012248207524875135,0.03241111529046457,0.001278137438930571,0.00019335978180788825,19199.727425532183
1681064350798997879,150,1681064350798997879,camera_1,155,0,0.07539077881343947,0.21151820418062356,2.9592622838781626,-0.9993005655690561,-0.012127947256482141,0.014766749527812057,0.0321439832175696,0.0011086655431427062,0.00016770213783933415,19198.87313098798
1681064350808988094,151,1681064350808988094,camera_1,156,0,0.0753856896704056,0.20901747474991011,2.958294581420173,-0.9991689574969103,-0.012092244317855308,0.007221783325957942,0.03824941630257543,0.00033216975862160325,5.023887146534174e-05,19205.95867947326
1681064350818954467,152,1681064350818954467,camera_1,157,0,0.07548522318857989,0.2066357787335191,2.959761885994509,-0.9993487789247785,-0.011774328153755332,0.010557223351752042,0.03243344405367956,0.0005420557572506368,8.202576955091605e-05,19202.24535287195
1681064350828969240,153,1681064350828969240,camera_1,158,0,0.07553780266183192,0.2041646912078996,2.960512943413742,-0.9994450176747319,-0.012091291636998274,0.014475437378116943,0.027457585917486062,0.0012558635789901018,0.00019007381444302932,19201.09525555314
1681064350838898897,154,1681064350838898897,camera_1,159,0,0.07551297379380519,0.20180590123701203,2.9584162951096014,-0.999178787170879,-0.011998172924011995,0.009592228021323835,0.03749378982983535,0.0031542853685095906,0.00047697269315466614,19210.49112251436
1681064350848873138,155,1681064350848873138,camera_1,160,0,0.07554325383572993,0.1998120312047554,2.959030097432059,-0.9993044458394379,-0.012100665520093083,0.012082956536916696,0.03313910953589621,0.0009670688305050135,0.00014621779274031046,19212.998014823534
1681064350858955144,156,1681064350858955144,camera_1,161,0,0.0755271277836187,0.198030836952726,2.957355088301557,-0.9992957438963553,-0.012168386555579308,0.013333837042389277,0.03289613030420078,0.00017862417735159397,2.6975562702135008e-05,19234.58444888983
1681064350868973255,157,1681064350868973255,camera_1,162,0,0.07552269910528545,0.19667788278007686,2.9574284191118365,-0.9993704234498244,-0.012001581509441282,0.011820327831824243,0.031224967973389216,0.0016499782213941216,0.0002491587381603164,19240.783586394857
1681064350878899097,158,1681064350878899097,camera_1,163,0,0.07557202807765295,0.19577380459124177,2.958649724861457,-0.999516494715893,-0.011960608796939831,0.013752654136900574,0.025190973229547078,0.0007284202147275209,0.00011007919750060032,19235.832456570934
1681064350889006137,159,1681064350889006137,camera_1,164,0,0.07556863015635609,0.19529175495291556,2.9579871707914016,-0.9994662593038384,-0.012016856916133247,0.010852785132521876,0.028372675550907705,0.0001724942703731358,2.6059941050404183e-05,19242.063993494834
1681064350898881435,160,1681064350898881435,camera_1,165,0,0.07556583145441739,0.19525700249925992,2.9578233120343747,-0.9994195494076582,-0.011991869710934392,0.010901026615161779,0.029965429103636133,5.993025843054057e-05,9.05294884803229e-06,19240.55143074086
1681064350908997297,161,1681064350908997297,camera_1,166,0,0.07553178999203283,0.195699664645758,2.9575788578073,-0.9993487757090771,-0.012207563022919957,0.006579310369031666,0.03331234859444733,0.0010044705704785883,0.00015173954088265146,19240.218481995977
1681064350918932676,162,1681064350918932676,camera_1,167,0,0.07557044019184417,0.19665017466213963,2.957961568184555,-0.9993546742344303,-0.011949947142325456,0.014087265032027655,0.03080556464356593,0.0005881096003577113,8.884408973907636e-05,19231.559614974067
1681064350928954601,163,1681064350928954601,camera_1,168,0,0.0755001837204883,0.19796393206175855,2.9575654061669883,-0.9993552538013669,-0.012049376644736586,0.010463843200640147,0.032162046072214845,0.0004096244811080396,6.18724130612897e-05,19237.76077441965
1681064350938939332,164,1681064350938939332,camera_1,169,0,0.07549502880223288,0.19968828826270119,2.958064721893829,-0.9993253039263933,-0.012154341746112709,0.009589609399509676,0.0333053794559517,0.0007850024849176407,0.00011863484700684094,19228.348190777004
1681064350948936939,165,1681064350948936939,camera_1,170,0,0.07548796321988663,0.20173425392178707,2.9586764609240577,-0.9992570382853502,-0.012121291712787271,0.013083683465671849,0.03416523015250809,0.0003560496843419969,5.382769708508659e-05,19212.09627403063
1681064350958964824,166,1681064350958964824,camera_1,171,0,0.07550426267831917,0.20399394669922413,2.9600663987065836,-0.9994186587160425,-0.01198907026560792,0.015348290383808715,0.027982794476015413,0.0015686103142797947,0.000237294284907081,19204.45747819518
1681064350968959569,167,1681064350968959569,camera_1,172,0,0.0754844923871115,0.20638618920370846,2.9597728657724534,-0.9993797811332253,-0.01180205692973154,0.008003919648472394,0.03219785372652626,0.004230935592204332,0.0006403642257258746,19205.914720267054
1681064350979043722,168,1681064350979043722,camera_1,173,0,0.07546203909766491,0.2090449380257593,2.961212078053413,-0.9994760478433256,-0.011959705298080877,0.01069504882436465,0.028110694892054033,0.00021909555653110147,3.3180681868328115e-05,19192.12679224706
1681064350989051342,169,1681064350989051342,camera_1,174,0,0.07540146172906022,0.21141671830302225,2.9590896313215245,-0.9992553276836525,-0.012099193338391918,0.01045742150410009,0.035114697092267624,0.0018926140619441867,0.0002863589119462799,19198.980195387507
1681064350998951911,170,1681064350998951911,camera_1,175,0,0.07538295325746419,0.2137705579756164,2.959495470841181,-0.9993853768229451,-0.012089656769989023,0.012604952772455158,0.030394472478529447,0.001420992484781891,0.00021498010003796547,19201.380056383907
1681064351008897781,171,1681064351008897781,camera_1,176,0,0.075299353962305,0.21582311754142985,2.958254723838369,-0.9992633292963977,-0.012057840445774114,0.010740896960343273,0.03481436973076704,0.00029573298525065184,4.4719581176724154e-05,19205.336935017825
1681064351018952846,172,1681064351018952846,camera_1,177,0,0.07532899600259611,0.21788822744690095,2.959943295683771,-0.9994665299814859,-0.012026898427923047,0.01499885851431985,0.02640157957849576,0.0001395779545418918,2.112349463514194e-05,19197.22595204133
1681064351028883934,173,1681064351028883934,camera_1,178,0,0.07524302554746355,0.21947513105700417,2.9585225367849746,-0.9992536362029746,-0.012041749094270159,0.012444715030320101,0.03452963772903367,0.00013593817129731178,2.056214730405796e-05,19195.87089412124
1681064351038948059,174,1681064351038948059,camera_1,179,0,0.07531285774472019,0.22079513062859005,2.960390495783538,-0.9994629182909119,-0.011834525006384582,0.016924451760056254,0.025443700829651354,0.00016395183047279716,2.4821281438468323e-05,19186.975685254674
1681064351048893928,175,1681064351048893928,camera_1,180,0,0.07519449073036585,0.2213567262601878,2.9575327635006112,-0.9992711478862516,-0.012040418844562105,0.013770637058851233,0.03350478877913142,0.0006273210165090859,9.481695331507851e-05,19207.17551257788
1681064351058948040,176,1681064351058948040,camera_1,181,0,0.07523471220830655,0.22174842843442527,2.958273924472518,-0.9992743152714562,-0.011906058324509044,0.012903901983945334,0.03380204028641958,0.0013091590953990817,0.00019800286689166535,19197.46462720003
1681064351068839788,177,1681064351068839788,camera_1,182,0,0.07524657015083488,0.22164843862883127,2.959059226874363,-0.9994546384234058,-0.011854770490570437,0.012501757274166142,0.028170839810220977,4.0323822759091854e-05,6.100518278796647e-06,19203.486381978022
1681064351078940868,178,1681064351078940868,camera_1,183,0,0.07522549074273388,0.22097343460489854,2.958038750091219,-0.9992754719995801,-0.011863337660086678,0.01069794918998187,0.03454484278018421,0.0014495974173769355,0.00021920960764839443,19202.379012438003
1681064351088921308,179,1681064351088921308,camera_1,184,0,0.07524440220419451,0.2199584335902134,2.9588117472797615,-0.9993036270211082,-0.012162480364571295,0.011538508554632107,0.03333463535384635,0.0008690539398230612,0.0001314859955654326,19196.260035899933
1681064351098925352,180,1681064351098925352,camera_1,185,0,0.07528972955480111,0.21846358502297902,2.9581159576669775,-0.9991804209011903,-0.011900675740342264,0.012425822602779711,0.03663958702397693,0.0018658178742043676,0.00028218186077401674,19195.94849120744
1681064351108916759,181,1681064351108916759,camera_1,186,0,0.0753067333867617,0.2167218397241443,2.958154254397202,-0.9992592515763226,-0.012042106178782269,0.012901067195693242,0.03419792805301186,0.0002161438460461795,3.268186858926623e-05,19204.36621242052
1681064351118908643,182,1681064351118908643,camera_1,187,0,0.07538359067550424,0.214700281261886,2.9596483033666514,-0.9993170253874946,-0.012122247808841231,0.014164835098534617,0.031904409184034796,0.0017107478342950344,0.0002588965717104633,19192.043499843465
1681064351128855466,183,1681064351128855466,camera_1,188,0,0.07537811799886047,0.21225383411944113,2.9591363075041217,-0.9992848550224597,-0.011991021268086906,0.013065219201739807,0.0333960174107707,0.0002678869059309364,4.052455040389134e-05,19198.887866501573
1681064351138945817,184,1681064351138945817,camera_1,189,0,0.07541423359366364,0.20984090517136372,2.9597052983955265,-0.9992631514952232,-0.011984857988178027,0.012042842154143777,0.03441637975860393,0.0002448178129270673,3.7045555743966595e-05,19192.646414180737
1681064351148897171,185,1681064351148897171,camera_1,190,0,0.07543160152045154,0.20735452144407535,2.958864799070684,-0.9993441832059928,-0.01203202510681261,0.013273216376130008,0.03146832679391247,0.00014352344442158937,2.1701714069090923e-05,19212.021011135308
1681064351158960819,186,1681064351158960819,camera_1,191,0,0.07549242863913366,0.20502211122213046,2.9599717029820436,-0.9993089987301674,-0.012079766350210826,0.007876611075678306,0.03425731016581775,0.0004087875713594258,6.187315777637082e-05,19199.12183788371
1681064351168884754,187,1681064351168884754,camera_1,192,0,0.07548895878377516,0.20257244140551234,2.9582169297147085,-0.9992382990586073,-0.012082281457627088,0.011171846087402494,0.035384036290955274,0.0002254803548566997,3.408302942054836e-05,19216.639314915534
1681064351178956508,188,1681064351178956508,camera_1,193,0,0.07554420407371401,0.20040695565517594,2.958718174125465,-0.9994064638751737,-0.01211415119336799,0.010847193817909556,0.030369486193579962,0.0032542803091928363,0.0004919590482218326,19225.221442297105
1681064351188957452,189,1681064351188957452,camera_1,194,0,0.07556594894007361,0.19855301104598552,2.958339218970225,-0.9993071016219987,-0.011872748614247511,0.008461969664429273,0.03424543119281269,0.0033134497352875778,0.0005008815603841234,19224.25899397931
1681064351198958396,190,1681064351198958396,camera_1,195,0,0.07551314828891127,0.1970349735861148,2.957392418474161,-0.9993384788654737,-0.011805750912089788,0.007712992394423927,0.03352221133169181,0.0005187350907362998,7.836017394617336e-05,19240.20493504196
1681064351208822250,191,1681064351208822250,camera_1,196,0,0.07557593339393942,0.19599467529575448,2.9577770968050436,-0.999340398910714,-0.011979093625703513,0.012857953252754335,0.031779576130465656,0.0025560703361406922,0.00038616379126691985,19233.71841281827
1681064351218972682,192,1681064351218972682,camera_1,197,0,0.07555636388280629,0.1953913194861078,2.957990541907654,-0.9994144986371409,-0.011914791079429674,0.010956558583295901,0.03014384665925605,0.0014187925262376666,0.00021433680530523206,19237.855027783662
1681064351228894472,193,1681064351228894472,camera_1,198,0,0.07557647589815061,0.19520978694493038,2.9579782280770073,-0.9994856515145949,-0.012122556949254069,0.013626342554135789,0.02637799875000599,0.000489664962515235,7.396268607014196e-05,19242.56327556783
1681064351238988876,194,1681064351238988876,camera_1,199,0,0.07558845663506308,0.19554350553382793,2.958281841523548,-0.9995811720156259,-0.01197051858283594,0.008767534284975675,0.024845876504712486,0.0009162717615254223,0.00013844882646556276,19247.90638561442
1681064351248876571,195,1681064351248876571,camera_1,200,0,0.07556810868520361,0.19630538857674015,2.9587239347607928,-0.9994710654498635,-0.01192976133498712,0.007274065058591099,0.029365934354766733,0.0005161201115697622,7.801927604920124e-05,19233.972601153884
1681064351258988857,196,1681064351258988857,camera_1,201,0,0.07553531170983424,0.197504567066268,2.958654418133959,-0.999442229491555,-0.012300121666491587,0.012435213966046684,0.02844824018384847,0.0008510160841979085,0.00012861097462403732,19230.103414981157
1681064351268898010,197,1681064351268898010,camera_1,202,0,0.07551530553948696,0.19903085550060748,2.957715238912503,-0.9993587485007884,-0.01212214179558697,0.012286036767093115,0.03137194246111513,0.0009081932948902249,0.00013720418657233948,19234.679988253054
1681064351278995513,198,1681064351278995513,camera_1,203,0,0.0754985272391791,0.20100998124529093,2.9579740891301687,-0.9992844968999621,-0.012174652319949322,0.011068439571892033,0.03405527480026692,7.548858411610126e-05,1.1407686497606042e-05,19224.745088852942
1681064351288920164,199,1681064351288920164,camera_1,204,0,0.07546666929208637,0.203206419626028,2.957978111393882,-0.9991932219346674,-0.012356053405990329,0.01042410645497618,0.03676372109379117,0.0006897006533108652,0.00010424585784328399,19216.214820146793
1681064351298917055,200,1681064351298917055,camera_1,205,0,0.07543516829278057,0.20556423391049616,2.9585594135487012,-0.9991840523567825,-0.012190813619116047,0.012840732090782177,0.03630053964550753,0.0009523659246042371,0.00014398933428782083,19204.84998498135
1681064351308932304,201,1681064351308932304,camera_1,206,0,0.07543616452917519,0.2080279969608409,2.9594918086692874,-0.9994290810272075,-0.012104593626454893,0.011684992260769736,0.029299347537371106,0.0007836165023036301,0.00011854792549084924,19211.01800450997
1681064351318966627,202,1681064351318966627,camera_1,207,0,0.07545584051860235,0.21058935775687274,2.9605071880781746,-0.9994869984083928,-0.011901534935237226,0.01634450839655614,0.024838488763244185,0.0020382135990075767,0.0003085414525860763,19198.62259238376
1681064351328937530,203,1681064351328937530,camera_1,208,0,0.0753786849726629,0.2130427781648976,2.959531629541375,-0.9993235179979768,-0.011858143873584439,0.010839070539961353,0.03308179786303488,0.0006897927960380911,0.00010438956797562383,19196.884947508224
1681064351338947534,204,1681064351338947534,camera_1,209,0,0.07532879392287745,0.2152354019471995,2.9584239367317937,-0.9992716851273555,-0.011578099579949217,0.013164842747325316,0.033892976090778126,0.0003815254312939942,5.769236080882935e-05,19203.185761108994
1681064351348901033,205,1681064351348901033,camera_1,210,0,0.0752947123779727,0.21722446788333072,2.958430695764494,-0.9991947248930907,-0.012304159844397594,0.013631666139508657,0.03567474000753574,0.0002898950478993356,4.3843398129833314e-05,19194.73092588643
1681064351359005212,206,1681064351359005212,camera_1,211,0,0.0752906386521269,0.21892154373183,2.9587199958561743,-0.9993302968722606,-0.012126437359591806,0.01752501551317831,0.029745270236228916,0.0005348646664060652,8.088095919100769e-05,19199.17961784546
1681064351368920803,207,1681064351368920803,camera_1,212,0,0.0752510045611463,0.22027347061556662,2.95834343343662,-0.9993331832208778,-0.01194853396226814,0.01220644057895562,0.03227110562364633,0.0004189700121060013,6.336349698813567e-05,19203.968421401107
1681064351378981351,208,1681064351378981351,camera_1,213,0,0.0751852448402332,0.22127423473419697,2.9586102192956734,-0.9992817893954185,-0.011919778511817603,0.008034406201935206,0.03506098372696077,0.0008943207794800401,0.00013531357124431376,19196.26300600963
1681064351388910531,209,1681064351388910531,camera_1,214,0,0.07519756465885255,0.22175237467682424,2.958873998537106,-0.9994080807174304,-0.012074639967341535,0.0113602465995594,0.0301435907542336,0.00224876293214038,0.0003401848800306317,19202.245574161876
1681064351398958444,210,1681064351398958444,camera_1,215,0,0.07523509548883743,0.22168333729394046,2.9586273344029763,-0.9994379881117452,-0.012018016659712775,0.012411540149791041,0.028726796999039524,5.098484689369798e-05,7.711319233757738e-06,19207.70997513005
1681064351409033536,211,1681064351409033536,camera_1,216,0,0.07523310547235204,0.22130431523819086,2.9584345015191245,-0.9992939755047908,-0.011964040130670175,0.011419665234614108,0.03373430760385664,0.002325700595974922,0.00035182293867117763,19198.274780557265
1681064351419018268,212,1681064351419018268,camera_1,217,0,0.0752600539378867,0.22039582962652818,2.959320665991422,-0.999378875598485,-0.011907757411458239,0.010788023885482808,0.03136378264150837,0.0003867984632961452,5.853406738197809e-05,19195.69662335236
1681064351429015874,213,1681064351429015874,camera_1,218,0,0.07525202843212923,0.2190496946552468,2.9591614613644075,-0.9993283684601887,-0.012139052613721026,0.01580973288024506,0.030749109557743775,0.001930466794874519,0.00029201774502337925,19193.744626843945
1681064351438982963,214,1681064351438982963,camera_1,219,0,0.07530818888776039,0.2173866903861848,2.95984090261015,-0.9994994427802899,-0.01187722462746948,0.010429363989351606,0.027404813150546707,0.0007474392186850309,0.00011312145489617946,19203.32106789481
1681064351448985576,215,1681064351448985576,camera_1,220,0,0.07530801527041382,0.21536772098147516,2.959492287432889,-0.9994748459253463,-0.012167978058785266,0.011296098067008646,0.027827519489292105,0.003720220411196351,0.0005628134119740105,19207.96540429594
1681064351459020614,216,1681064351459020614,camera_1,221,0,0.07535993192549284,0.21317308906471708,2.959074307940769,-0.9992096484629439,-0.012382588351611884,0.011780018221992875,0.035888453504772815,0.000202198454644531,3.058993187244718e-05,19193.29043947638
1681064351468943834,217,1681064351468943834,camera_1,222,0,0.07537770402170013,0.21074165237686435,2.9593040047005217,-0.9991949366968347,-0.012022690100831693,0.00850273012180596,0.037318051699194665,0.0004400472389534116,6.659056257979476e-05,19192.72605253767
1681064351478956699,218,1681064351478956699,camera_1,223,0,0.07542843000271814,0.20813125383032607,2.9590937889897235,-0.9993336668567812,-0.012161216381085544,0.012284473025065025,0.032146832273320845,0.0011424048570916057,0.0001727622500383513,19208.034283323446
1681064351488954305,219,1681064351488954305,camera_1,224,0,0.0754676453333898,0.20566124582117173,2.9593334533187563,-0.9994734422860397,-0.012137594301449107,0.007318214521580783,0.029188365930354135,0.0031081640045158565,0.00047011684397378243,19220.485174994334
1681064351499190807,220,1681064351499190807,camera_1,225,0,0.07552364668989645,0.20334886943681893,2.9598120212034646,-0.9994091531864338,-0.011992919898350262,0.012981166209117895,0.02947886909870264,0.002771519939415157,0.0004192609509075417,19208.33725490782
1681064351509438514,221,1681064351509438514,camera_1,226,0,0.07551876024702722,0.20122579287552184,2.959146703232453,-0.9993066216870774,-0.012144628666579919,0.00996554601211913,0.0337560622643072,0.0010462444042786954,0.00015824610072674746,19211.650525292738
1681064351519155740,222,1681064351519155740,camera_1,227,0,0.07552809513050457,0.19920758978266445,2.9583824064844517,-0.9993827886462653,-0.011953403179604338,0.009120159611755331,0.031748710189490256,0.00017370411660522223,2.6256017267904765e-05,19229.068999264855
1681064351529226064,223,1681064351529226064,camera_1,228,0,0.07552821262576005,0.1975110920553709,2.958055213271133,-0.9994001959784596,-0.012177904679332463,0.010217749048209029,0.0307659636648252,0.000234195904340595,3.538531291682901e-05,19235.405694179244
1681064351539014339,224,1681064351539014339,camera_1,229,0,0.07557444961485821,0.196360748571352,2.9584021860741654,-0.9994941164189979,-0.012086735217145789,0.008859624029739454,0.02805225726477715,0.0014856105553917587,0.00022452094528025555,19239.302244665338
1681064351549001216,225,1681064351549001216,camera_1,230,0,0.07555459745508056,0.19552245413830102,2.95719418671131,-0.9993867881842546,-0.012227598740367657,0.00949852185122829,0.03140559686498867,0.00012432492803782225,1.8774356399067702e-05,19246.88016569754
1681064351559017419,226,1681064351559017419,camera_1,231,0,0.07555233325503846,0.19525409486666861,2.9582565489003447,-0.9993945228514399,-0.01223444546545523,0.009484266845518332,0.031160146358749682,0.0005677662556990981,8.580466116144334e-05,19233.898747712145
1681064351569141149,227,1681064351569141149,camera_1,232,0,0.07561027481674701,0.1954062142638411,2.9582299541434045,-0.9993829371485745,-0.011890483288711649,0.012721377152737757,0.030504555508764554,0.0028545386157929893,0.00043137652809753453,19231.398093017633
