%time,field.header.seq,field.header.stamp,field.header.frame_id,field.image_seq,field.transforms0.fiducial_id,field.transforms0.transform.translation.x,field.transforms0.transform.translation.y,field.transforms0.transform.translation.z,field.transforms0.transform.rotation.x,field.transforms0.transform.rotation.y,field.transforms0.transform.rotation.z,field.transforms0.transform.rotation.w,field.transforms0.image_error,field.transforms0.object_error,field.transforms0.fiducial_area
1681064605154668331,0,1681064605154668331,camera_1,1,0,0.0968683556681585,0.20614172767367397,2.95852720036481,-0.9993420307457143,-0.012024041493281677,0.010777168036897523,0.032477386906960296,0.004550609446596354,0.0006883995004710007,19210.142245990683
1681064605194684505,1,1681064605194684505,camera_1,3,0,0.09682913674102578,0.20144310267616028,2.956890283372567,-0.999355899777418,-0.011880468397262395,0.014928093095053956,0.030393948201483327,6.0860009398311377e-05,9.191775269750746e-06,19234.371932027272
1681064605214694976,2,1681064605214694976,camera_1,5,0,0.09692671198668627,0.20296214120043404,2.95823279060078,-0.9994971291011602,-0.011695885708984066,0.015600499309513675,0.025006391129369396,0.001460612053051591,0.00022080650308206067,19226.830462372403
1681064605244727134,3,1681064605244727134,camera_1,7,0,0.09679672640583539,0.20854974150114394,2.957998518563837,-0.9992217730621294,-0.012087707808980145,0.010014668804410251,0.03618621239142096,0.0007071528816595674,0.00010694549341089783,19205.29200002971
1681064605264707803,4,1681064605264707803,camera_1,9,0,0.09681849956366433,0.21263960304217128,2.9590125866001866,-0.9994358293079298,-0.011926735999486245,0.013929873519757656,0.02813778043294732,0.0010850654216483235,0.00016417601306429377,19204.27352742676
1681064605284761905,5,1681064605284761905,camera_1,11,0,0.09674915721726363,0.21489126252914545,2.9577941420264158,-0.9992978426481074,-0.011774349955496536,0.01574122052090232,0.03189671359993697,0.0002889938768930733,4.3691100863414326e-05,19205.004275103092
1681064605314705848,6,1681064605314705848,camera_1,13,0,0.09672230152803207,0.21384993938599195,2.9577324458236443,-0.9992752238488002,-0.011864961416209732,0.015266109109459674,0.032790175436862586,0.0008136761607602239,0.00012301789913801852,19205.349741563892
1681064605344842672,7,1681064605344842672,camera_1,15,0,0.09679849142268754,0.20827099395377346,2.958021844800806,-0.999107945686238,-0.011996392319417524,0.012012020826654821,0.03866666256097148,0.00011676287977024913,1.765830444500983e-05,19195.076345010544
1681064605375049591,8,1681064605375049591,camera_1,17,0,0.09689191223473517,0.20270049611573832,2.9581283088354082,-0.9995565504928862,-0.011925192938048928,0.014284137882222272,0.023247699781144087,0.00015223457012325525,2.3009866074875017e-05,19233.998223228038
1681064605404785156,9,1681064605404785156,camera_1,19,0,0.09686861196839874,0.20190314988358612,2.9578522015610234,-0.9994316448446963,-0.011894505199740347,0.009158887895418176,0.03018315426852314,0.0007511258590966463,0.00011354081445322196,19230.07405261905
1681064605424889802,10,1681064605424889802,camera_1,21,0,0.09690090911270606,0.20449574770390727,2.958339485313579,-0.9994119558544369,-0.012026411801144919,0.01198769903098697,0.029789309933950413,0.0005172803648747504,7.821564332557906e-05,19219.14784841647
1681064605445010900,11,1681064605445010900,camera_1,23,0,0.09685519743498808,0.20868509917954187,2.959335714828709,-0.9994235717737129,-0.01194566165055762,0.010555924389052382,0.029973284956733723,0.0008371262229047716,0.00012668585400493762,19204.21228250464
1681064605474729299,12,1681064605474729299,camera_1,25,0,0.09674514363632719,0.21403605731815467,2.958224859691426,-0.9993157497601716,-0.011698250158709771,0.01291643239618394,0.03262436204196642,8.606869960203765e-05,1.301695573815978e-05,19202.877730446286
1681064605494734287,13,1681064605494734287,camera_1,27,0,0.09673433856897588,0.2151735201019018,2.95722988375065,-0.9992245779335136,-0.011932071923219769,0.012148085336264425,0.03550059909175632,0.00015181454364210367,2.295064391568823e-05,19207.07516041433
1681064605524603128,14,1681064605524603128,camera_1,29,0,0.09675964207105024,0.21238351046190274,2.958471628693065,-0.9993353703122859,-0.011968302393134629,0.011276441960767642,0.032533355765095605,0.0008891895995475352,0.00013450584453220845,19204.055629519633
1681064605544713973,15,1681064605544713973,camera_1,31,0,0.09681797873607272,0.20827264619700755,2.958496987047812,-0.9991617994969538,-0.012144297179971694,0.010830973057121978,0.03756200866100708,0.0007108579156920315,0.0001075348830983022,19193.973786663842
1681064605574709177,16,1681064605574709177,camera_1,33,0,0.0968531620852624,0.20274137145354262,2.9579980361085605,-0.9994817467164825,-0.01181287627326647,0.009244399535499695,0.028482187625771788,0.0002007128787226975,3.0340963187692552e-05,19231.542836979963
1681064605594763517,17,1681064605594763517,camera_1,35,0,0.09689022885799145,0.20149283311341415,2.95833580662251,-0.9996117162804891,-0.011898759794341601,0.011786571024591535,0.02226910266745613,0.00019900465849786997,3.0081989098064864e-05,19237.553951881484
1681064605614750623,18,1681064605614750623,camera_1,37,0,0.09685832875911919,0.20290749108597483,2.9575298244649355,-0.9993979075252889,-0.011998738393830144,0.00926580251796489,0.031208934854120202,0.0015805273433215916,0.0002388617726297083,19230.837473314263
1681064605644637584,19,1681064605644637584,camera_1,39,0,0.09678674634920786,0.20858721007235476,2.9581210340038284,-0.9992157718807978,-0.012182639026387455,0.01014224354675536,0.036284424025366885,0.001993244921322912,0.00030142866728867274,19203.264940350437
1681064605664737462,20,1681064605664737462,camera_1,41,0,0.09676934609450435,0.21266706797541562,2.959149577110691,-0.9993344286181577,-0.01219786311904674,0.012380602080624617,0.03207230278403393,0.0004444787045940757,6.726451870451285e-05,19194.781206193144
1681064605684785366,21,1681064605684785366,camera_1,43,0,0.09674852010831815,0.2149447657207696,2.9583212304922424,-0.999380014511937,-0.011684252417933883,0.012225329584025422,0.030880514181541575,8.950353367254138e-05,1.3537743087684742e-05,19206.286103499708
1681064605714739799,22,1681064605714739799,camera_1,45,0,0.09674129530121585,0.2139106594120651,2.958408662676193,-0.9993214953100987,-0.01194140219915607,0.011930789176934855,0.03273542720542883,0.00046989863039925694,7.107751594262781e-05,19201.74928463507
1681064605734744310,23,1681064605734744310,camera_1,47,0,0.09679368064540239,0.2103528581675364,2.957448489462219,-0.9991916488394375,-0.012078780608043346,0.014042578075675275,0.0356785362583364,0.0012563032796606421,0.00018991584617884165,19206.403443145216
1681064605754801034,24,1681064605754801034,camera_1,49,0,0.09686304498609587,0.20612588218064665,2.9585936133510975,-0.9994036191322766,-0.01201709356183393,0.015429576250810746,0.028459158532079032,0.00015779666136950254,2.386189980595262e-05,19212.583052233327
1681064605774824619,25,1681064605774824619,camera_1,51,0,0.09694429161326783,0.2027592337885701,2.9590199647389195,-0.9995440108970257,-0.012175104568094838,0.016160812422209726,0.022413505984045547,0.0005001761019229889,7.564914012972237e-05,19220.904947059465
1681064605804625511,26,1681064605804625511,camera_1,53,0,0.09687440824344344,0.20187044300294962,2.9572715629314246,-0.9993269171706645,-0.012257677506750287,0.010570892225296967,0.032919875423181595,0.0014820831711404026,0.00022397340899040866,19228.904112837037
1681064605824675321,27,1681064605824675321,camera_1,55,0,0.09689476786411552,0.20456595109927123,2.9587866969612686,-0.999399413820766,-0.01199596307423685,0.012254733357098792,0.030111958338466457,0.0023130382178351283,0.00034988683616364087,19212.17592541676
1681064605844752550,28,1681064605844752550,camera_1,57,0,0.09681823643943988,0.20859660797884697,2.958110606259156,-0.9992318301563069,-0.011802446148198649,0.007449391019574548,0.03661909939954805,0.0012198995100334287,0.000184545296429538,19205.360296223553
1681064605864851713,29,1681064605864851713,camera_1,59,0,0.09679300511897937,0.21265548755531963,2.9588293411853686,-0.9994451798796782,-0.012000847734856327,0.012991263872278773,0.028223024854247443,0.0009553354466333985,0.00014453358947109313,19207.837188043162
1681064605894683122,30,1681064605894683122,camera_1,61,0,0.09674204542807582,0.2152271470634483,2.9580181694534557,-0.999397097132746,-0.011871110677157737,0.01260314288971428,0.030094513839447938,8.211244130507112e-05,1.2416503767607657e-05,19211.385992850992
1681064605914715290,31,1681064605914715290,camera_1,63,0,0.09673714642801365,0.21385774181675135,2.958218918338471,-0.999308864629916,-0.011953838209244876,0.009987386007983842,0.03375131026883442,5.567504558712244e-05,8.421597541946438e-06,19203.9093860297
1681064605944706678,32,1681064605944706678,camera_1,65,0,0.09684718643375165,0.20831414439144869,2.9588636650128586,-0.9993469492590429,-0.012061436585131088,0.01160887038476103,0.03202234973478005,0.0005921300034970045,8.958202570717583e-05,19203.990864168503
1681064605964686870,33,1681064605964686870,camera_1,67,0,0.09687554531114007,0.20423519085044048,2.95854101162593,-0.999389671223218,-0.011880016376871284,0.010196135586011092,0.031228017585902972,0.0001562192919664085,2.362673567048803e-05,19215.577069091953
1681064605984690666,34,1681064605984690666,camera_1,69,0,0.09686774880159424,0.20178339239841056,2.957694896758434,-0.9994072465995947,-0.012055215733555457,0.011205340882660775,0.030236857534104676,0.0004123373655602336,6.231721775422824e-05,19229.524005658215
1681064606014758110,35,1681064606014758110,camera_1,71,0,0.09684889280798346,0.20295057599830915,2.9577508931157124,-0.9993429833571631,-0.012184517461349437,0.007860909327177154,0.033216641214744484,6.129470421001315e-05,9.265990174329118e-06,19224.320757328773
1681064606024717807,36,1681064606024717807,camera_1,72,0,0.09684796699409945,0.20645723435088462,2.958554386101286,-0.999394823822369,-0.011981645158144224,0.010847892440329417,0.03080177796757047,0.00021185801597312093,3.2042121620351386e-05,19213.82747326244
1681064606044639825,37,1681064606044639825,camera_1,74,0,0.09686235386609887,0.20865988763195642,2.959642824281099,-0.9995156371793343,-0.012235991115569124,0.01580842644319662,0.02385089534585909,0.00045846932334825397,6.937787042946365e-05,19206.40175464633
1681064606074734926,38,1681064606074734926,camera_1,76,0,0.09671262377035686,0.2139936098732324,2.9579203379062946,-0.999345685438504,-0.012062373745349991,0.012832644918669258,0.03159150771118211,0.0010407728841528296,0.0001573641639161535,19209.816819853513
1681064606094722747,39,1681064606094722747,camera_1,78,0,0.09674574615027604,0.2152064464636696,2.9577031834138583,-0.9992946298467761,-0.011980588050981199,0.014557824164512461,0.03247734633467912,0.00012636056635528803,1.9104462463342735e-05,19206.11522610158
1681064606124646663,40,1681064606124646663,camera_1,80,0,0.09681503699108196,0.2123504036475149,2.9585413431212024,-0.9994802213464108,-0.011532625264171353,0.01477042660928896,0.026232045090411542,0.0036964394384995103,0.0005591319254474582,19213.742872614297
1681064606144668102,41,1681064606144668102,camera_1,82,0,0.09679154703228293,0.20827285728715766,2.958202794116906,-0.9992331432165112,-0.012180474175054119,0.009445268274675258,0.03599372797782265,0.0017613008385524154,0.000266372150711517,19204.228167032947
1681064606174759626,42,1681064606174759626,camera_1,84,0,0.09687056601779154,0.20272548558451248,2.957959732958163,-0.9993666200666415,-0.012096724826277926,0.01168941480185199,0.03135897840563083,0.001957720029167831,0.000295951262958709,19221.973913255504
1681064606194737911,43,1681064606194737911,camera_1,86,0,0.09685689995290292,0.20145541518764518,2.9576153556374716,-0.9995214114524792,-0.012037908151216184,0.010495478427987707,0.026493050937073482,0.0011733845458365977,0.00017730693450344214,19240.263043458115
1681064606214735269,44,1681064606214735269,camera_1,88,0,0.09688088070973526,0.202980624258138,2.958642993123591,-0.9995195910050172,-0.012150333109646434,0.012931653807519547,0.025411196986571197,0.0007984711555764079,0.00012072284510765381,19224.937699620037
1681064606244650840,45,1681064606244650840,camera_1,90,0,0.09681101685999619,0.20858886055701262,2.9581721830198613,-0.9992881029577402,-0.011912374780801177,0.011178441650693146,0.03400625025586677,0.0016867922968231142,0.00025511604466428616,19207.808697444387
1681064606264692306,46,1681064606264692306,camera_1,92,0,0.09678800132341767,0.21263083395952737,2.9589079314590254,-0.9993714523910838,-0.011848177948051047,0.012259173942141339,0.031081079120636942,0.0016012130654416978,0.0002422816560602587,19200.703495775226
1681064606284706830,47,1681064606284706830,camera_1,94,0,0.09672076676305591,0.21492766186675102,2.9576665314422534,-0.9992415926045181,-0.012131090188239612,0.009595569310976161,0.035735155094520604,1.8608581740409136e-05,2.8142240579541873e-06,19204.387925943818
1681064606314714193,48,1681064606314714193,camera_1,96,0,0.09671264607186916,0.21381091219236592,2.957841339326139,-0.9993478117522152,-0.012121016439346223,0.010710757350534483,0.03228485377873124,0.0010330122313462196,0.00015619241455970965,19212.046011663268
1681064606334674358,49,1681064606334674358,camera_1,98,0,0.09681516441224527,0.21043508971846075,2.9589996000532066,-0.9994654165428053,-0.011993567383310734,0.013011767011276166,0.027490532835559425,0.00043345626909285784,6.557739921657325e-05,19209.56157632277
1681064606364804983,50,1681064606364804983,camera_1,100,0,0.09690387516993032,0.20420061081451785,2.9586050677702445,-0.999510316507995,-0.012025217745950518,0.01472728024977799,0.024852133684949443,0.004212076135445386,0.0006368875608406241,19222.927779114347
1681064606384582757,51,1681064606384582757,camera_1,102,0,0.09684915732638255,0.20176595715094592,2.9576592884922444,-0.9994656934188053,-0.012125474623530983,0.010683378617484432,0.028410666400781204,0.0003679833607748151,5.560905826198442e-05,19235.011272865813
1681064606414761543,52,1681064606414761543,camera_1,104,0,0.09689414214968611,0.2029715017540048,2.9584828639914442,-0.9994294465078906,-0.011899361913767191,0.012853717162899066,0.02887851440211028,0.00042653398122638464,6.448920152461316e-05,19219.451261560076
1681064606434698581,53,1681064606434698581,camera_1,106,0,0.09683370208432962,0.2064919372050693,2.9582674169500467,-0.9993289080102007,-0.012034620652001204,0.007668384698390591,0.033735699148228764,0.0016600298113189638,0.0002510636361647362,19213.46389151411
1681064606454715967,54,1681064606454715967,camera_1,108,0,0.09680439168392779,0.21076429261776022,2.958902480802918,-0.9993786626502188,-0.012056565650307226,0.011506100099426556,0.03105700443832541,7.275410462170839e-05,1.100707975891848e-05,19203.818363826027
1681064606484685897,55,1681064606484685897,camera_1,110,0,0.09674016743649325,0.2149543292856036,2.9583920563702613,-0.9993333025449911,-0.011926148334782206,0.012172646195675799,0.032288451418624194,0.0011080530239269137,0.00016762003367384095,19201.63955794729
1681064606504748821,56,1681064606504748821,camera_1,112,0,0.09675439218374547,0.21480428672478152,2.9578601371543694,-0.9993846690647384,-0.01186189065269509,0.014946277901147461,0.029431064632601808,0.00021314446348696947,3.222500079526245e-05,19212.024999388377
1681064606524661540,57,1681064606524661540,camera_1,114,0,0.09673621821545639,0.21234658953695779,2.957878217080771,-0.9992147926960202,-0.011990882683844078,0.010094572582970873,0.0363884101642113,0.0010442740167491138,0.000157936519125661,19202.11373512598
1681064606554651737,58,1681064606554651737,camera_1,116,0,0.09684001671857523,0.20609417596269725,2.9582685336180297,-0.9992288404867178,-0.011973941051176109,0.012324484549440334,0.03530518596273117,0.0012361304252408445,0.00018695307882335836,19203.669383656113
1681064606574731588,59,1681064606574731588,camera_1,118,0,0.09685510107902727,0.20265182234844298,2.9568803481335757,-0.9992129946492995,-0.011908858517123618,0.011432513951681074,0.03606754826076945,0.0017599522252567112,0.00026591138838576677,19223.536402338883
1681064606594726800,60,1681064606594726800,camera_1,120,0,0.09686789651796174,0.201460974475464,2.9577175712645776,-0.9995144652906914,-0.01192275681983654,0.014913983336597927,0.024622238840405413,0.001711960998363793,0.00025866411919326336,19236.47244328751
1681064606624663829,61,1681064606624663829,camera_1,122,0,0.09687978337293439,0.20452822767069098,2.9587120767883284,-0.9994200821947199,-0.011955920696347443,0.012694958905257311,0.02924710728595154,3.054278204217553e-05,4.619049205272407e-06,19214.680591356006
1681064606644689559,62,1681064606644689559,camera_1,124,0,0.09682478336792762,0.20857194553466735,2.9580691795065923,-0.9992139320255037,-0.012304987658092525,0.0140753829024904,0.0349569581201577,0.000547802250366658,8.283626690777984e-05,19202.293977898662
1681064606664637088,63,1681064606664637088,camera_1,126,0,0.09680098309919258,0.21256043596283183,2.9583299726607586,-0.9994036734808027,-0.012116945868052975,0.013830815407897474,0.029226453788657642,2.566725015640259e-06,3.881535414877425e-07,19210.643023367047
1681064606694777965,64,1681064606694777965,camera_1,128,0,0.09669705621942554,0.21515477538033054,2.9569788408554425,-0.9992430715115064,-0.011705613445594698,0.010164099613563307,0.03567847711377902,4.852761048823595e-05,7.335396986911946e-06,19212.4504026689
1681064606714726448,65,1681064606714726448,camera_1,130,0,0.09676572706857864,0.21386229445411797,2.9588394901198494,-0.9994658457728663,-0.011993873023934403,0.011763245180946978,0.028032056760568698,0.002834384678862989,0.0004287351595060912,19208.687664747347
1681064606745113134,66,1681064606745113134,camera_1,132,0,0.09679598649901347,0.20820963713545126,2.9574147719258583,-0.999130891567812,-0.012036776672559679,0.012053305934025442,0.038043335005030876,0.0008610478253103793,0.0001301644962597778,19204.82953112234
1681064606765239715,67,1681064606765239715,camera_1,134,0,0.09688977475660848,0.2042321985496842,2.9586956517344682,-0.9994640887035239,-0.011959722585219953,0.010886904329638942,0.02846007276583131,0.001489158777985722,0.0002252003202007308,19219.428828315802
1681064606784965038,68,1681064606784965038,camera_1,136,0,0.09685350419150508,0.20174428248172369,2.957350850759223,-0.9993707118514539,-0.011962100999272073,0.013200350495617819,0.0306731018971732,0.0018329409649595618,0.0002769636270972357,19230.142693990267
1681064606814702272,69,1681064606814702272,camera_1,138,0,0.09684296564519651,0.2028745894668046,2.9571485477900175,-0.9993507703766418,-0.012037550515209664,0.015527263738166196,0.030199986854499608,0.00025799532886594534,3.8972837394804525e-05,19229.47060251003
1681064606834755659,70,1681064606834755659,camera_1,140,0,0.09684591178051277,0.2064472484898861,2.9579214250651145,-0.9992265544804291,-0.012160178710306661,0.00801993031099669,0.03652538285508168,0.0008084584260359406,0.00012227130551925946,19209.552397929365
1681064606854906797,71,1681064606854906797,camera_1,142,0,0.09683189500134196,0.2108370665091425,2.9598042842366117,-0.9994734803914572,-0.011731597542453159,0.011167147791374813,0.028114523355292163,0.0008831469458527863,0.00013368355575533482,19199.916953060427
1681064606884735345,72,1681064606884735345,camera_1,144,0,0.0967544037982496,0.21496750778131524,2.9587961144923662,-0.9994007594208881,-0.011879948167532805,0.006634880080303156,0.03182714669600361,0.00010325259063392878,1.5626574553307867e-05,19204.218339023642
1681064606904735803,73,1681064606904735803,camera_1,146,0,0.09676654346217606,0.21487799995322063,2.9589337997800134,-0.9994876221180622,-0.01181142419955365,0.01258380453105761,0.026956100509605292,0.00047710922081023455,7.218904869920992e-05,19207.751711183468
1681064606934759140,74,1681064606934759140,camera_1,148,0,0.0967740650569681,0.21039485542886066,2.9580833425167814,-0.9992957390811591,-0.012214896353822155,0.01347863956489563,0.0328199396218986,0.0005059918039478362,7.650818906448174e-05,19207.25267466717
1681064606954704046,75,1681064606954704046,camera_1,150,0,0.09685144534449536,0.2060824658329176,2.958514747409929,-0.9993944549645487,-0.011924372740644099,0.015385917718628066,0.028841051589887597,0.0007619727402925491,0.00011521600606406248,19212.82426422077
1681064606974710464,76,1681064606974710464,camera_1,152,0,0.09686017699698021,0.20273768123189337,2.9582604584901264,-0.999313463846181,-0.012042353875251629,0.00733006571577399,0.0342615356557946,0.0006175246089696884,9.339524387307218e-05,19215.628552717975
1681064607004734516,77,1681064607004734516,camera_1,154,0,0.09687841276541674,0.20189289781438766,2.9578734763860295,-0.9994523633683272,-0.012209850852281696,0.011693881090394128,0.0284454925194471,7.612083572894335e-05,1.1504655743914496e-05,19230.71044822724
1681064607024660825,78,1681064607024660825,camera_1,156,0,0.0968727388462393,0.204507072355736,2.958478611936517,-0.9994290935129565,-0.012030930019535114,0.013260789419908004,0.0286512691986937,2.3083994165062904e-05,3.4903779736634205e-06,19218.29536772741
1681064607044787168,79,1681064607044787168,camera_1,158,0,0.09681430432430455,0.2086198057353726,2.958472258253379,-0.9993054729099788,-0.011851835534834631,0.007155129306199944,0.034596386100724706,0.0006163431098684669,9.325112290742708e-05,19206.929943114403
1681064607074831962,80,1681064607074831962,camera_1,160,0,0.09670346742922784,0.21389915139633514,2.956458815451246,-0.9990897983313093,-0.012157919901828853,0.010128593816552229,0.039612768664454984,0.0005212994292378426,7.878660048574403e-05,19208.240327143103
1681064607094769239,81,1681064607094769239,camera_1,162,0,0.09673595027539243,0.21519665693015685,2.9576995008102935,-0.9993920373966128,-0.01183855905891416,0.012447379470816903,0.030339196626897397,0.0010595290805213153,0.00016018851159298894,19215.096264056272
1681064607124733924,82,1681064607124733924,camera_1,164,0,0.09674551555615404,0.21231988418951286,2.957446850465713,-0.9991732462205203,-0.012062197935143694,0.012510112688354535,0.03675356443456351,0.00027791259344667196,4.201541539997584e-05,19203.35351300508
1681064607144724369,83,1681064607144724369,camera_1,166,0,0.09688468897663152,0.2083039629046431,2.9594556176127584,-0.9994654759119529,-0.012026633839494722,0.012599291400253475,0.027665509118677885,0.0016697525279596448,0.0002526829915072728,19205.770665106837
1681064607164728879,84,1681064607164728879,camera_1,168,0,0.09686003076311633,0.20419383589876305,2.958133427916798,-0.9993206509850137,-0.011914867193543673,0.009224161321541132,0.033633128052010346,0.002039722225163132,0.0003084721492394136,19215.707926952404
1681064607194765806,85,1681064607194765806,camera_1,170,0,0.09687306064940879,0.20144288785345313,2.957438953006872,-0.9994707559249291,-0.011995803561357347,0.013156084733032966,0.02722546936721916,0.0011016708449460566,0.0001664544583244883,19237.287576638748
1681064607214715480,86,1681064607214715480,camera_1,172,0,0.09686979053388119,0.20295496687356718,2.9583259361174297,-0.9993749119483564,-0.012034017830671142,0.011813118570075708,0.031071176558273503,8.410552982240915e-05,1.2716572042700001e-05,19217.655761227707
1681064607234708070,87,1681064607234708070,camera_1,174,0,0.09679238063617449,0.20634788525132586,2.9564356145845125,-0.9990794373201407,-0.01206313188349266,0.010850133735398119,0.03971187947146876,0.002030331059359014,0.0003067579621652282,19215.618953697965
1681064607264739274,88,1681064607264739274,camera_1,176,0,0.09675868559705125,0.21255682242305457,2.957954056298615,-0.9992796626997229,-0.01194519285411872,0.008431362404021784,0.035019711740932824,8.361530490219593e-06,1.2646890841463668e-06,19206.904681324966
1681064607284776210,89,1681064607284776210,camera_1,178,0,0.09672397164485819,0.2149296090829304,2.9580680302453666,-0.9994129064311642,-0.011888811242081423,0.009477164372174274,0.030703126575742635,0.0006834071245975792,0.00010335458502049769,19213.601990250747
1681064607304736852,90,1681064607304736852,camera_1,180,0,0.09669211713253792,0.21476968566977456,2.9570073652580344,-0.999153619986501,-0.011931865264175577,0.010607540788011932,0.03790981848570573,0.0005319821648299694,8.042640583740016e-05,19205.07214131253
1681064607334765672,91,1681064607334765672,camera_1,182,0,0.09681331313515948,0.21048600783029595,2.9589156818648545,-0.9992596563659355,-0.0121961990311716,0.01263017597644661,0.034232594751622075,0.0018266358529217541,0.0002763904374338036,19193.70323113503
1681064607354795217,92,1681064607354795217,camera_1,184,0,0.09685747626009028,0.20605260707328502,2.957967311548051,-0.9992596281555992,-0.01175305373731684,0.012350694671657978,0.034489441968650475,0.0006063954788260162,9.168517113393528e-05,19209.8461965007
1681064607374779224,93,1681064607374779224,camera_1,186,0,0.09688761560193601,0.20277189419219235,2.9584996442472398,-0.9994236967711154,-0.012056581512834182,0.009212383338681757,0.030365196653455544,0.0007908149855211376,0.0001196007747667893,19220.559130385744
1681064607404704809,94,1681064607404704809,camera_1,188,0,0.09686624525468085,0.2019010866315344,2.957658732028837,-0.999342541445235,-0.011839412532065387,0.00828098434512463,0.03325264601426435,0.002784341457299888,0.0004209452099095287,19225.728887322235
1681064607424883365,95,1681064607424883365,camera_1,190,0,0.09687392232142641,0.20450639860586128,2.9582684683389093,-0.9994095130323277,-0.012000432928246867,0.014438471508203246,0.028777515711524763,0.0002176620182581246,3.290701840716147e-05,19218.904711759176
1681064607454768896,96,1681064607454768896,camera_1,192,0,0.09683179147923779,0.21077267504645858,2.9589653336640014,-0.9993517900112394,-0.011881690106274727,0.01584642910526571,0.030061868307904874,0.005911258398555219,0.0008943968068879273,19198.9480524012
1681064607474849939,97,1681064607474849939,camera_1,194,0,0.09672284447804896,0.21401493672835534,2.9580078677051826,-0.9992638286774607,-0.011976293678391061,0.006993896463571645,0.035769463217224955,0.0016377026913687587,0.00024772765425098016,19203.864652283726
1681064607494788885,98,1681064607494788885,camera_1,196,0,0.09672756839454166,0.21522898859810352,2.95787442826154,-0.9993530135199813,-0.011933092102426025,0.009971042471067114,0.03243044855451686,0.0011904536513611674,0.00018001792469503878,19210.476683518504
1681064607524761199,99,1681064607524761199,camera_1,198,0,0.0967768315762797,0.2124138400030646,2.9589401273495266,-0.999363396603602,-0.01203174021306472,0.013153919259243743,0.030903287276251398,0.0017543454887345433,0.0002654449029254375,19199.72510522604
1681064607544776439,100,1681064607544776439,camera_1,200,0,0.09680224052549279,0.208212240095504,2.9578600278437936,-0.9991009792711352,-0.012085431287804814,0.008355108470081815,0.03976641462968312,9.802344720810652e-06,1.4826835337562133e-06,19198.208629857043
1681064607564773797,101,1681064607564773797,camera_1,202,0,0.09685022193976794,0.2041870581128145,2.957734126946926,-0.9993013055389648,-0.012080436397846008,0.012687615595747322,0.03301496956007859,0.00022278964752331376,3.367589148503912e-05,19218.044286316497
1681064607594729900,102,1681064607594729900,camera_1,204,0,0.09685197637335968,0.20144475202835924,2.9571687151417665,-0.9993907024789419,-0.012161117407438221,0.009803989727143973,0.03121238227818686,0.0018009536433964968,0.00027208556802930223,19235.942044021336
1681064607614768743,103,1681064607614768743,camera_1,206,0,0.0968908986520329,0.20297095397257242,2.9590192288067234,-0.9995652845370987,-0.011932886823163067,0.013588037501967059,0.023285476099488674,0.0004780897288583219,7.230345614851054e-05,19223.348259458897
1681064607644780397,104,1681064607644780397,camera_1,208,0,0.09682280762965431,0.2086296880946887,2.958286195752839,-0.9992921128576226,-0.011960324304863053,0.011838893700300434,0.03364616499727894,0.0028887525550089777,0.00043694231698040807,19206.397855877185
1681064607664784431,105,1681064607664784431,camera_1,210,0,0.09679496756576353,0.21267236449346238,2.9594495539480614,-0.9993714181376508,-0.012133304505549577,0.010949069928222054,0.03145901141204351,0.00022031122352927923,3.3348749063371036e-05,19194.47136211116
1681064607684801816,106,1681064607684801816,camera_1,212,0,0.09673642300358276,0.2149039725373797,2.957499966298482,-0.999253264891333,-0.011997741142219485,0.013226397613019018,0.03426410976047586,0.001660473004449159,0.00025105426635365643,19206.034943408336
1681064607714767694,107,1681064607714767694,camera_1,214,0,0.09673015907726287,0.21382900461044804,2.9579416528698044,-0.9992515797932291,-0.01202878910863809,0.00974065828910995,0.03545007883503923,0.00030763918766751885,4.653173192044009e-05,19202.84655451798
1681064607734737396,108,1681064607734737396,camera_1,216,0,0.09680253709392236,0.2104291805315163,2.9585523227587376,-0.9992197170621707,-0.012124358305697412,0.011657723704338787,0.035735898588171576,0.0005211416282691061,7.884367846599701e-05,19195.426153251196
1681064607754875659,109,1681064607754875659,camera_1,218,0,0.09685705210300163,0.20604886818070522,2.9577100426890355,-0.9992062725152988,-0.012161964206904886,0.014756078922481194,0.03494523898252503,0.00130628258921206,0.00019746436721084718,19208.25067698001
1681064607784862041,110,1681064607784862041,camera_1,220,0,0.09685006153600295,0.20174810979081467,2.9575185836475737,-0.9994138610798595,-0.01192465716784714,0.01207590515730464,0.029730612968932237,1.4886376447975636e-05,2.2493814728151952e-06,19231.894257867476
1681064607804748296,111,1681064607804748296,camera_1,222,0,0.0968825869082088,0.20190274496494875,2.957986011155164,-0.9994146006065158,-0.012011643092735143,0.013728556012777891,0.02894310409294961,5.775614408776164e-05,8.729562173868914e-06,19225.180005838396
1681064607834743261,112,1681064607834743261,camera_1,224,0,0.09686101844985681,0.206483104337147,2.9583822531501593,-0.9993447821877203,-0.012097790976989067,0.013753684127319157,0.031216757368136398,0.0028422687901183963,0.00042985217745777486,19210.84527043346
1681064607854740381,113,1681064607854740381,camera_1,226,0,0.09680124404122731,0.21075786734094304,2.958240134689109,-0.9993394765780059,-0.012150014823037292,0.011916205176290382,0.032109060197926385,0.0034617775818333034,0.0005236134778361545,19208.960472486455
1681064607874806880,114,1681064607874806880,camera_1,228,0,0.09673839527878905,0.21396069521149869,2.9578196691967875,-0.9993685574269354,-0.011846590276987867,0.013760161509934147,0.0305418185515507,8.522102143615484e-05,1.288396664064552e-05,19212.51958444762
1681064607904793024,115,1681064607904793024,camera_1,230,0,0.09674985913380177,0.21483108161840073,2.9579815399673173,-0.9993633247282258,-0.01199252138011588,0.010758549789060854,0.03183360214507339,0.0014498031232506037,0.00021927857843336097,19210.16110808122
1681064607924768686,116,1681064607924768686,camera_1,232,0,0.09680332678674486,0.21237512093887576,2.958826442138257,-0.999431546725399,-0.011797379051727192,0.014222232269158867,0.02819810927825692,1.940014772117138e-05,2.9346713886711186e-06,19206.379894227597
1681064607944785833,117,1681064607944785833,camera_1,234,0,0.09679576342128828,0.20817915367471948,2.9574002283031025,-0.9991461034373299,-0.012024011924596506,0.010309018376829942,0.03816033625826622,0.0002542163128964603,3.843409995046325e-05,19206.969183917623
1681064607974684476,118,1681064607974684476,camera_1,236,0,0.09689837361705436,0.20272989257523427,2.9584349450853473,-0.9994965033688902,-0.011966802908431327,0.00992805763696865,0.027658073921913502,0.0001133137266151607,1.7133146900545036e-05,19226.92007037648
1681064607994734048,119,1681064607994734048,camera_1,238,0,0.09686975046934897,0.20148327841823133,2.958008934841102,-0.9995080065691815,-0.01187202675626058,0.009585302568357282,0.027402951656212496,0.0003760289982892573,5.6842328734954435e-05,19234.285053423264
1681064608014750719,120,1681064608014750719,camera_1,240,0,0.09686366730754484,0.2029423081180629,2.9581393391842123,-0.9994004371627012,-0.012286999427413368,0.009102780648624796,0.03106340658291333,0.0003874377580359578,5.857722875677375e-05,19223.506752999736
1681064608044797182,121,1681064608044797182,camera_1,242,0,0.09683331674731287,0.2086572595772977,2.9586737734979067,-0.99923212267626,-0.012280187823525347,0.012345179050158236,0.03509926713101207,0.0037987101241014898,0.0005747523443076217,19196.55712203099
1681064608064706087,122,1681064608064706087,camera_1,244,0,0.09679783818566706,0.21259675883995433,2.9588935423441307,-0.9994418005431909,-0.011897225278984697,0.014463287574488167,0.027665080339363844,7.274013478308915e-05,1.1003820454268563e-05,19206.19321698218
1681064608094731330,123,1681064608094731330,camera_1,246,0,0.09673469919325979,0.21517460985603482,2.9574507214058348,-0.9993662909763946,-0.011793727257553588,0.011636842922735775,0.03150410043550336,0.0005788084818050265,8.749740459399907e-05,19216.351188861423
1681064608114711284,124,1681064608114711284,camera_1,248,0,0.09676736361859281,0.21389065285901743,2.9588490694060323,-0.9994704501023974,-0.012078785143237455,0.010595942251711859,0.028295729878786206,0.0007626611622981727,0.00011537818029301299,19209.41216143674
1681064608144733667,125,1681064608144733667,camera_1,250,0,0.09681385624229967,0.20818356097985366,2.9578568670832404,-0.9992292288048433,-0.012094643473533838,0.013118018852965933,0.03496548988215677,0.0005454412894323468,8.245945154499292e-05,19206.858585870243
1681064608164701461,126,1681064608164701461,camera_1,252,0,0.09688394406468234,0.20421121661988761,2.958094496884313,-0.9992583157159093,-0.012144963490324434,0.010514190028386822,0.03499671616694815,0.0018751047900877893,0.00028355280162187566,19210.817747010857
1681064608194753885,127,1681064608194753885,camera_1,254,0,0.09687030163190047,0.2014239098734072,2.957113349568882,-0.9994577552261407,-0.012062486493946683,0.01215114292281519,0.028125462904219595,0.0015076619456522167,0.00022777057537345442,19240.924301852465
1681064608214763402,128,1681064608214763402,camera_1,256,0,0.09687548977691095,0.2029321638358778,2.958431757455424,-0.9995214799026589,-0.01212839409785622,0.013945741804244644,0.024803821385728394,0.0007482485962100327,0.00011311098638793683,19227.433027483166
1681064608244719505,129,1681064608244719505,camera_1,258,0,0.09682936258347126,0.2086756002894855,2.958881747434068,-0.9993133833425604,-0.01190688797292904,0.008625350571199184,0.034008693282294195,0.001247004431206733,0.00018867926378092942,19201.710319449674
1681064608264745712,130,1681064608264745712,camera_1,260,0,0.09673320203263404,0.2124908986365264,2.9574162661307692,-0.9992784424119534,-0.012278444554522924,0.013661933952762233,0.03324433622035907,9.348028106614947e-05,1.412987204764982e-05,19212.17452568432
1681064608294772386,131,1681064608294772386,camera_1,262,0,0.09673464622626979,0.21523998532616392,2.9580922189803673,-0.9993215682327766,-0.011851944055283042,0.011930836471387358,0.03276568064282541,0.00183995469706133,0.0002782477942517672,19204.193515581665
1681064608314754962,132,1681064608314754962,camera_1,264,0,0.09672221142750884,0.21384935540557495,2.9581261705030433,-0.9994174354165781,-0.01188886368667984,0.01193662399610179,0.02968099919418463,0.0007590489112772048,0.00011478477573481222,19213.5737360015
1681064608344767332,133,1681064608344767332,camera_1,266,0,0.09682611833799996,0.20822605624517326,2.958827489949498,-0.9993941362700511,-0.012033820610848003,0.011439205120015774,0.030589085255471028,0.0012786936713382602,0.0001934095238930186,19208.532448291313
1681064608374724864,134,1681064608374724864,camera_1,268,0,0.09687106750702318,0.20271441257173836,2.9581112319493634,-0.9993987029159868,-0.011876095390797847,0.011014058351741313,0.03065748663436534,0.0002284846268594265,3.454280872332736e-05,19222.69182178623
1681064608394757270,135,1681064608394757270,camera_1,270,0,0.0968673931218006,0.20147530227650814,2.957777009645314,-0.9994923428346975,-0.012000845078879965,0.01011965189706403,0.02772415873715328,1.8321326933801174e-05,2.7689428420108175e-06,19235.92571910424
1681064608424707651,136,1681064608424707651,camera_1,272,0,0.09687414536529138,0.20443092890672868,2.9581357693380683,-0.9994030004236794,-0.011614758857207506,0.009529362430838337,0.031111595466932707,0.0017170076607726514,0.000259635080742962,19221.730696197363
1681064608444951772,137,1681064608444951772,camera_1,274,0,0.09682705869658673,0.2086783648059443,2.9588965466999726,-0.9993750296268548,-0.012104369803884383,0.01071208555568113,0.03143701024305406,0.0008214692934416234,0.00012427588866406012,19205.972449872406
1681064608464724779,138,1681064608464724779,camera_1,276,0,0.09678400888974306,0.2125400862245242,2.958322288684949,-0.9994106038158422,-0.011851074514989275,0.014368059102556195,0.02883671082005004,4.358397563919425e-05,6.590892104951837e-06,19210.92526242613
1681064608494810104,139,1681064608494810104,camera_1,278,0,0.09666155890133321,0.21508243706487712,2.956137233058249,-0.9992087966998141,-0.012091249082909103,0.010311963090358246,0.03645882212233126,0.001817708252929151,0.0002746095406760168,19220.819527569223
1681064608514727830,140,1681064608514727830,camera_1,280,0,0.09676029981787176,0.21386299937197387,2.958369370425853,-0.9993469393851678,-0.011964452656199795,0.012069389586365097,0.031888500264951436,0.0021152542321942747,0.0003199797949457852,19204.387613670435
1681064608534752845,141,1681064608534752845,camera_1,282,0,0.09683720400713805,0.2103920991558147,2.958268824593085,-0.999245905211239,-0.011824869578631008,0.013810082114714827,0.03430852678278218,0.0010801786556839943,0.00016337357975532106,19200.110436208786
1681064608564757585,142,1681064608564757585,camera_1,284,0,0.09683426420089003,0.20417212729087242,2.9573484194373587,-0.9991570212818909,-0.012097679721035665,0.01053229414078601,0.03778840759543026,0.00027271470753476024,4.122017624816161e-05,19212.316900976108
1681064608594738245,143,1681064608594738245,camera_1,286,0,0.09683943312593683,0.20143282561202205,2.9569204794023527,-0.9993605844165447,-0.012186108846845744,0.012952377435487075,0.031018655428041296,0.001008115359582007,0.00015225670323728142,19235.4652098642
1681064608624720096,144,1681064608624720096,camera_1,288,0,0.09684946446003949,0.2044444948715285,2.9576358748357867,-0.999271686870885,-0.012017523463808907,0.011125254680863646,0.03446597824375263,0.0005198055296204984,7.856962582709215e-05,19217.28357027727
1681064608654784440,145,1681064608654784440,camera_1,290,0,0.09680674151097289,0.21074777152539056,2.9585942545268997,-0.9992994006753443,-0.011993572285327719,0.01402538646795853,0.03255995344221062,0.00042240374023094773,6.389553692031623e-05,19200.154668460018
1681064608684878349,146,1681064608684878349,camera_1,292,0,0.09676032271658029,0.21497161021578037,2.9587597995321104,-0.9994200793417392,-0.012077373014271468,0.011405832010827626,0.029724553247559835,5.2637478802353144e-05,7.963754977174292e-06,19204.736161853885
1681064608724757194,147,1681064608724757194,camera_1,294,0,0.09673937539845177,0.21231179438325357,2.9580395929324275,-0.9992193188263458,-0.011931298088233884,0.009663965215763029,0.03640061519331542,0.0019438810413703322,0.0002939954860125369,19200.592547174652
1681064608755026102,148,1681064608755026102,camera_1,296,0,0.09690934813949943,0.2060913870125235,2.958674375312553,-0.9993702464760658,-0.012140746956277357,0.017181652417897132,0.02857452610109211,0.0008597914711572229,0.0001300285297499131,19208.229126145598
1681064608784819126,149,1681064608784819126,camera_1,298,0,0.09683831531050612,0.20167187310936283,2.956551246715079,-0.9993520954150867,-0.012150738507364055,0.012935611181825544,0.03131164170965291,0.00031156616751104593,4.705204190904027e-05,19239.321404453352
1681064608814759731,150,1681064608814759731,camera_1,300,0,0.09689033526006989,0.2028944199485891,2.9578492915257897,-0.9994714981320909,-0.01192734177429402,0.010713090982820606,0.028278836987875148,0.0002098027616739273,3.1711572755522204e-05,19231.95904644183
1681064608844757795,151,1681064608844757795,camera_1,302,0,0.09682616029950429,0.20866084474422503,2.958894154307046,-0.999311441969671,-0.012274226160567975,0.008620579042290808,0.03393627760423478,0.0011564596788957717,0.00017497438001429507,19201.78123589151
1681064608884842634,152,1681064608884842634,camera_1,304,0,0.09670979862691009,0.2148276552257367,2.9565583756783282,-0.9991164342552279,-0.01203778866508075,0.009205500898482284,0.03920078058383587,0.001128384203184396,0.00017055695328027014,19208.26159672276
1681064608914684772,153,1681064608914684772,camera_1,306,0,0.09673481131645731,0.2138167170895645,2.9580070045655025,-0.999297526737494,-0.011913630395037546,0.011327113321640629,0.03367810818524187,3.403483424335718e-05,5.147341000845794e-06,19205.175549593405
1681064608954816341,154,1681064608954816341,camera_1,308,0,0.09683809687025305,0.20605977438980647,2.957793079761931,-0.9992078104182566,-0.012122540106370988,0.01252594792996231,0.035775637646015636,0.0009712608298286796,0.00014684739768869984,19208.1660603811
1681064608984779596,155,1681064608984779596,camera_1,310,0,0.09687920485589488,0.20171274216035232,2.9576307887699302,-0.9993921561596859,-0.012110932271221312,0.016158269740945724,0.028417491884308973,0.0005462908302433789,8.254204858126696e-05,19227.207274921475
1681064609024782896,156,1681064609024782896,camera_1,312,0,0.09690947147712864,0.20450422669055496,2.9587375457500094,-0.9994403318766485,-0.012023851512981167,0.01321420448169347,0.028281350975593915,0.0016947094700299203,0.00025630430221276144,19215.832013225183
1681064609054775953,157,1681064609054775953,camera_1,314,0,0.09680937653853872,0.21075749266177457,2.9588899099488595,-0.9993495757723889,-0.011903572990706747,0.012296641315475063,0.03174150226374784,0.0003518200246617198,5.3230556286469177e-05,19201.085727509115
1681064609084824085,158,1681064609084824085,camera_1,316,0,0.09674089192010399,0.21488198769128966,2.957514658213746,-0.9992637096637621,-0.012105974640171007,0.01211044516389771,0.034333963432151504,0.000759587564971298,0.00011485014739297312,19207.265243358677
1681064609114808559,159,1681064609114808559,camera_1,318,0,0.09674783547812929,0.21378018624689787,2.957479490414853,-0.9993209835958377,-0.011958700124780921,0.019403553472562562,0.02894932380921251,0.0006409058696590364,9.6856755267807e-05,19211.36130446533
1681064609154793739,160,1681064609154793739,camera_1,320,0,0.09682373579294838,0.20605192230067937,2.9581883293113873,-0.9993235289196908,-0.012223869269194183,0.011558359446192032,0.03270268940773173,0.004113267059437931,0.0006218389942068443,19213.072289117372
1681064609174747943,161,1681064609174747943,camera_1,322,0,0.09690624619817456,0.2027410977425702,2.9582219808491823,-0.9993663869675181,-0.012101081575118593,0.012355919531467079,0.031108193080497504,0.003424704074859619,0.0005178511488749188,19218.2312916253
1681064609214835166,162,1681064609214835166,camera_1,324,0,0.09685598798371485,0.20291206168514314,2.9576404923727835,-0.9993474017506438,-0.012080974791020637,0.014895609446016044,0.030609499858176428,0.0019856939325109124,0.0003000380765647704,19223.124998077285
1681064609244733810,163,1681064609244733810,camera_1,326,0,0.09679813338810365,0.208565174538306,2.9576771043516104,-0.9992829805153802,-0.012098275603211249,0.010801303998381914,0.0342124014307911,0.00021756964270025492,3.2893634131747206e-05,19214.127881949644
1681064609274885177,164,1681064609274885177,camera_1,328,0,0.09672539499105819,0.2139392187711371,2.957029835889338,-0.9992213399756952,-0.011999129183272908,0.011007543927697086,0.035938400252363695,0.0004755024565383792,7.187440126806669e-05,19211.36279489287
1681064609304799556,165,1681064609304799556,camera_1,330,0,0.09677956081324884,0.21484202117061774,2.9584840517116797,-0.9993755154707539,-0.011913004008290243,0.014240048223995225,0.03006460443182058,0.0005961415590718389,9.017238296995167e-05,19203.432498169597
1681064609344816923,166,1681064609344816923,camera_1,332,0,0.09679016101931329,0.20811630037421,2.9572263584070018,-0.9992364606236278,-0.011827777383003104,0.012737303975367608,0.03499086352153103,0.0005017631920054555,7.582928152477815e-05,19215.533499053097
1681064609374785184,167,1681064609374785184,camera_1,334,0,0.09690700648961015,0.20278932164230667,2.9588328908818955,-0.9994517575535941,-0.011945389225687846,0.010058594181028144,0.02919446321445502,3.6364945117384195e-05,5.500191554812148e-06,19218.047149731206
1681064609404763936,168,1681064609404763936,camera_1,336,0,0.09688318223406911,0.2018985379641637,2.957991297089754,-0.999430401173452,-0.01233542260074397,0.012687999975581132,0.028735434852351045,0.0006867155898362398,0.00010380438531284677,19227.113332442354
1681064609444770574,169,1681064609444770574,camera_1,338,0,0.09685801905772848,0.2086364896610149,2.958748641781075,-0.9992929378484919,-0.011808842457455868,0.011462961105669545,0.03380497195140098,0.0014076282386668026,0.00021295916374052565,19200.49295045995
1681064609474768877,170,1681064609474768877,camera_1,340,0,0.09671143628073564,0.2139185972200804,2.957465572309553,-0.9993423649421023,-0.01216249121044761,0.011177935739357917,0.032279485623052634,0.0007677699322812259,0.000116056797208214,19216.157802152913
1681064609504740953,171,1681064609504740953,camera_1,342,0,0.0967297742737746,0.214779220375877,2.9576673771806883,-0.9993195832184043,-0.012075701949839004,0.008281974932780567,0.033851985315877735,0.0010250852210447192,0.00015502773270088376,19211.594157415217
1681064609544782638,172,1681064609544782638,camera_1,344,0,0.09680072564768852,0.20813769307688243,2.9578689135400973,-0.9993162966584039,-0.012193104390634757,0.01295592822494383,0.032410050325207836,0.000711078115273267,0.00010750599294213274,19214.07522902777
1681064609574792861,173,1681064609574792861,camera_1,346,0,0.09685948047551007,0.2027621806914755,2.9584072691584864,-0.9995146388952579,-0.01205516505636126,0.006877329207974297,0.027890176989598905,0.001030987303238362,0.00015590014404787055,19230.144563660728
1681064609594856977,174,1681064609594856977,camera_1,348,0,0.09686243173639567,0.20147239663395952,2.957844226844068,-0.9995344149273314,-0.012114894318941794,0.011054881793281682,0.025728822360437976,0.0007724793395027518,0.00011673457017192588,19238.192871796084
1681064609624808549,175,1681064609624808549,camera_1,350,0,0.09682409535208755,0.2044125643628918,2.957346701109082,-0.9992753657820954,-0.011918207102956383,0.00889338603308394,0.03503722827760808,2.5996239855885506e-05,3.929226043245572e-06,19222.191178810674
1681064609644736528,176,1681064609644736528,camera_1,352,0,0.09679177700161512,0.208561261528878,2.9575186866064653,-0.9992676142352682,-0.012071327708452404,0.009624713819720406,0.03501261303871592,0.0015032119117677212,0.0002272360662775017,19215.374095665993
1681064609674771785,177,1681064609674771785,camera_1,354,0,0.09673563988207143,0.21398584170919321,2.9581234328910324,-0.9993448375244587,-0.012022908927231318,0.01012754039281831,0.03260028066953841,0.00019103381782770157,2.889339946614422e-05,19208.04720891873
1681064609694820165,178,1681064609694820165,camera_1,356,0,0.09670981927243608,0.2151359758776536,2.956820857187788,-0.9992632020843503,-0.011976492007823468,0.010941236717297418,0.03478370219533686,0.0011650350061245263,0.00017608994911386437,19216.149950171224
1681064609724807024,179,1681064609724807024,camera_1,358,0,0.0967438261334567,0.21233532655121332,2.9585114366750926,-0.9994037141512804,-0.011888776089464835,0.009637710619218975,0.030951376023379176,0.002269913675263524,0.00034332286581707306,19209.944777681965
1681064609744911432,180,1681064609744911432,camera_1,360,0,0.09681727555529937,0.20820438543008876,2.9581331880741297,-0.9992156765314065,-0.012012840388178935,0.011770265186128849,0.03584946718070046,0.00022975885076448327,3.474745848168769e-05,19202.603987488077
1681064609774854183,181,1681064609774854183,camera_1,362,0,0.09684903478705459,0.20272513848724205,2.95789180139503,-0.9994028071583623,-0.012091680261425344,0.009081739236023081,0.03106995855950889,0.0008020575623959303,0.00012124542839183054,19226.887216855997
1681064609794814348,182,1681064609794814348,camera_1,364,0,0.09686679830744434,0.2014282622115594,2.957393819948588,-0.9994100245605507,-0.011990688183391779,0.010213873361954683,0.03052053400113245,0.0004054374876432121,6.126181351342184e-05,19234.240131086794
1681064609824730157,183,1681064609824730157,camera_1,366,0,0.09686528687405419,0.20450712872715507,2.958602520713639,-0.9995386909710232,-0.012185036714755095,0.010932632781154647,0.025581393094707278,0.001972955244127661,0.00029831490711382605,19226.77194771381
1681064609844816684,184,1681064609844816684,camera_1,368,0,0.09685145704075536,0.2086456459370489,2.958511849510209,-0.9993365060899175,-0.01198684433435989,0.013206960297828018,0.03175593422640245,0.00012963759945705533,1.960682879315923e-05,19206.63751459495
1681064609874869823,185,1681064609874869823,camera_1,370,0,0.096746188726168,0.21400392576748833,2.9583361860495088,-0.9993449221305479,-0.012191548545629625,0.013214996116238284,0.03140790718269199,0.00035354658029973507,5.347005336729969e-05,19204.358479890157
1681064609904825687,186,1681064609904825687,camera_1,372,0,0.0967336345351252,0.2148049396697648,2.9579357595930196,-0.9993711078290487,-0.01193158711029195,0.015324601291633494,0.029667872536163882,0.0005494069773703814,8.306168156064322e-05,19209.881690929877
1681064609944834470,187,1681064609944834470,camera_1,374,0,0.096806190494308,0.20815746485207734,2.957569701847682,-0.9991021407768628,-0.012066480557607555,0.007901981161503613,0.03983554989913185,0.0017760779592208564,0.0002685921109676509,19202.265631472226
1681064609984859943,188,1681064609984859943,camera_1,376,0,0.09690906987516888,0.2018086090759252,2.9589271299704665,-0.9995269305161442,-0.012181553800397631,0.01460498317059275,0.02417063066140236,0.001120784436352551,0.00016950306803839858,19221.97479041433
1681064610014780521,189,1681064610014780521,camera_1,378,0,0.09689757628368253,0.20289005024872964,2.9578851880339028,-0.9994236713381929,-0.011959255323412396,0.011375047966747166,0.029663271309001572,0.0004636551602743566,7.008014322002528e-05,19227.383721192375
1681064610054830074,190,1681064610054830074,camera_1,380,0,0.09680021802954339,0.21071763739668953,2.9587536015533056,-0.9993910358108777,-0.012024348385670467,0.011675448798762547,0.030604844095474534,0.00032581540290266275,4.9289833595363176e-05,19206.715407622865
1681064610094815254,191,1681064610094815254,camera_1,382,0,0.09670958524461791,0.2151562727619896,2.9571886928613993,-0.9992428411085347,-0.011766236906250992,0.010754994507648477,0.03549127013154389,0.0009056152193807065,0.00013690257884842178,19209.55886645033
1681064610124836921,192,1681064610124836921,camera_1,384,0,0.09675981852253626,0.21235207035683798,2.958586457279176,-0.9993592681835582,-0.01196092252098481,0.013324808624073627,0.030990948730261304,0.003095797379501164,0.000468205385711543,19203.90661337995
1681064610154825925,193,1681064610154825925,camera_1,386,0,0.09685159177618885,0.20606658749373963,2.958003923306857,-0.9993955886097781,-0.012000202285533196,0.017676923414741783,0.0274222353394287,6.729469168931246e-05,1.0171320760954176e-05,19218.74704352673
1681064610184825420,194,1681064610184825420,camera_1,388,0,0.09691305538397328,0.20178498388656527,2.9584405395872095,-0.9994302225100155,-0.01208443619590294,0.01297564669680045,0.028719842064470473,0.0013482474023476243,0.0002038632230898037,19220.991365726673
1681064610224987506,195,1681064610224987506,camera_1,390,0,0.09686972199337411,0.2045259298663029,2.9586046282505984,-0.9994124128745238,-0.012193577303383184,0.01125072875295547,0.02999277858745823,0.0007475122692994773,0.000113039025297848,19216.270251074584
1681064610254833221,196,1681064610254833221,camera_1,392,0,0.09682478128772357,0.2107273349521349,2.9585356772000226,-0.9993079314340302,-0.011992191886194643,0.01547806757512028,0.031627123342855744,0.0002346388646401465,3.548849970978475e-05,19201.099775211187
1681064610284899950,197,1681064610284899950,camera_1,394,0,0.09676764217821383,0.21493273956253894,2.9583991837561836,-0.9993046145965772,-0.011840648417981946,0.016741047394016183,0.031141991316858648,0.0001320120645686984,1.9966248799455096e-05,19197.49115200236
1681064610314866542,198,1681064610314866542,camera_1,396,0,0.09674558868510436,0.2138752750256925,2.9587697976842366,-0.9994601312818864,-0.01190007927648169,0.010962064087861068,0.02859488139758141,1.0589719749987125e-05,1.6020687172359777e-06,19209.269102961523
1681064610334806203,199,1681064610334806203,camera_1,398,0,0.09683360434162004,0.21042683863967723,2.9590443238947595,-0.9994600496704902,-0.011872550885881334,0.015317791103329698,0.02653331724150506,0.0008507264428772032,0.00012870509050798198,19207.596925599624
1681064610364746093,200,1681064610364746093,camera_1,400,0,0.09685037672262925,0.2041857551544732,2.9572329035883946,-0.9992049202674155,-0.012086943057925287,0.0105796992155307,0.0364897668588239,0.0006339827086776496,9.582140821197799e-05,19217.575348369188
1681064610394808530,201,1681064610394808530,camera_1,402,0,0.09681931928797424,0.20137118636945095,2.9565071105973,-0.9992858412022726,-0.012018622448941,0.007383383910794613,0.03505489878921624,0.00013113836757838726,1.9808704268220104e-05,19237.089233772593
1681064610414760112,202,1681064610414760112,camera_1,404,0,0.09689837186691122,0.20291755671486128,2.9582381132282323,-0.9995027075147238,-0.012213478937798394,0.014082684560091204,0.025433179088614834,2.4131149984896183e-05,3.64773795248663e-06,19228.39148745814
1681064610444807767,203,1681064610444807767,camera_1,406,0,0.09681629707804822,0.20864367163978864,2.9582866762844375,-0.9993442655272213,-0.012185588569225678,0.01040741704927052,0.03246900151594765,0.0012230128631927073,0.00018494246505194683,19211.51946252642
1681064610464812517,204,1681064610464812517,camera_1,408,0,0.09680611834472848,0.21260846386332033,2.9593427013540916,-0.999317959937886,-0.01174053114155129,0.00981651011874645,0.033606710686776536,0.00021930417278781533,3.3197865973657096e-05,19191.436046576477
1681064610484890699,205,1681064610484890699,camera_1,410,0,0.09673983262549816,0.21485294034472924,2.9572306633336694,-0.9992973832425501,-0.012039032662387488,0.012445952794620964,0.03324003303518488,0.0014837781200185418,0.00022429631135072645,19213.61472305807
1681064610514782905,206,1681064610514782905,camera_1,412,0,0.09676804316940164,0.2138844872333055,2.9578800613738285,-0.9992131835003295,-0.011886041048572927,0.011563580088424168,0.036028038565363366,0.000978113035671413,0.00014793502743840712,19199.4458966452
1681064610534929513,207,1681064610534929513,camera_1,414,0,0.09677892459479435,0.2103482353424221,2.9580706243007318,-0.9992419337003152,-0.01211805941821487,0.012547390475091602,0.03480335562926492,0.00016099936328828335,2.434754706632944e-05,19203.224646141978
1681064610564749717,208,1681064610564749717,camera_1,416,0,0.09689082220552347,0.20425757844341486,2.9586674571069884,-0.9994714929525825,-0.012005727473674205,0.013154392110148842,0.02719483868634173,0.0008446148131042719,0.00012772674298714811,19219.50590731495
1681064610584760427,209,1681064610584760427,camera_1,418,0,0.09689256227253884,0.20180321164675763,2.958385917543051,-0.999466898949863,-0.012152871212752481,0.012301404106440228,0.027692978926814948,0.0002622821484692395,3.9651209800022485e-05,19225.02476728987
1681064610614783287,210,1681064610614783287,camera_1,420,0,0.09687745431835112,0.20288158178533738,2.9576576679477964,-0.9994398277177365,-0.012017886196083778,0.012462823096694753,0.028640517163272473,2.035417128354311e-05,3.0759203922890076e-06,19231.266082919432
1681064610634793519,211,1681064610634793519,camera_1,422,0,0.09685931320207755,0.20654187323462764,2.9589258401305716,-0.9994164109329906,-0.012147695925913873,0.011101130703669762,0.029933859400539647,0.0003748072194866836,5.6698636261763624e-05,19210.802855658687
1681064610664927482,212,1681064610664927482,camera_1,424,0,0.09676426477629257,0.21247600114090603,2.9578420660794285,-0.9993742328643039,-0.012142988425481713,0.015062676706044087,0.02961091503874498,0.00015340687241405249,2.319107938352976e-05,19214.156009576167
1681064610684850215,213,1681064610684850215,camera_1,426,0,0.09672317579763198,0.21483902785138115,2.9568778505065008,-0.9992045796174216,-0.01188619212498653,0.010936675218717934,0.03645978117735053,0.0015914428513497114,0.00024056772389532177,19210.716815777003
1681064610714828491,214,1681064610714828491,camera_1,428,0,0.0967599627264818,0.21389523438997238,2.958582716868535,-0.9993684574992533,-0.012008359052109447,0.009828327017084163,0.031967005747864374,5.84777444601059e-06,8.847214067746821e-07,19204.327841062095
1681064610744956493,215,1681064610744956493,camera_1,430,0,0.09681215961934808,0.2081914950667965,2.957808210920923,-0.9992407123177506,-0.0121141185684062,0.011901012087023216,0.03506583649835798,0.0007671543280594051,0.00011598805933140199,19208.900716127486
1681064610774816036,216,1681064610774816036,camera_1,432,0,0.09687657167506804,0.2026946660004968,2.95784427046218,-0.9994686076079287,-0.01193827758349836,0.010937904145925291,0.028290319678331916,0.00030335719930008054,4.584830279568785e-05,19231.88118343836
1681064610794847965,217,1681064610794847965,camera_1,434,0,0.09684061050272266,0.20141778910680727,2.956924304380386,-0.9993536350600519,-0.01198930303442478,0.013560182900736573,0.031059461436221073,0.000543770263902843,8.213214613558918e-05,19234.417211852968
1681064610824769496,218,1681064610824769496,camera_1,436,0,0.09688667175538654,0.20442757794984345,2.9579067154905916,-0.9994766650448055,-0.011861591063215543,0.013113368145687901,0.02708760351596769,0.002577112172730267,0.0003895392069211089,19229.46571793512
1681064610844744443,219,1681064610844744443,camera_1,438,0,0.09681459874047572,0.20865448805920536,2.958574750037682,-0.9993572856269991,-0.011926280484765489,0.009972731951293407,0.03230052809882496,8.432136382907629e-05,1.2755038655140314e-05,19208.786355400225
1681064610874845981,220,1681064610874845981,camera_1,440,0,0.09675055631186102,0.21398474316800095,2.9578519905839937,-0.9992523036981616,-0.012178992846196326,0.011136638480636675,0.03496399534551085,0.00011167145567014813,1.6888434883239244e-05,19203.466366473007
1681064610894800424,221,1681064610894800424,camera_1,442,0,0.0967114310003998,0.2151810577980067,2.95733208274578,-0.999195474286813,-0.012014741471660508,0.01024190910081447,0.03686669838879988,0.0011553369695320725,0.00017468844246642184,19204.120386269635
1681064610934852838,222,1681064610934852838,camera_1,444,0,0.09678530763720614,0.2103092961694657,2.9575894688063364,-0.9991477370684404,-0.011822068995415196,0.011981646130440667,0.03768923389626799,0.0005028810701332986,7.603620841921102e-05,19201.565572766005
1681064610994734525,223,1681064610994734525,camera_1,446,0,0.09690690647221285,0.20148328598456974,2.9589572199288714,-0.9996278406596779,-0.0117641961611354,0.012870666521150664,0.020979270960960077,0.00036605249624699354,5.5355250088559787e-05,19230.279394766203
1681064611034693956,224,1681064611034693956,camera_1,448,0,0.09682682083194206,0.20647834089290842,2.957876683358708,-0.9993263098722225,-0.01216214421987485,0.010052054054726006,0.03313555272547031,0.0005795257166028023,8.762348411838843e-05,19217.423882257888
1681064611074764966,225,1681064611074764966,camera_1,450,0,0.09674014807243361,0.2139763873091961,2.958164758304609,-0.9993924218986906,-0.011965077649740159,0.014251854273261793,0.029470470272444992,0.0004242691211402416,6.415244151144929e-05,19210.071602406217
