%time,field.header.seq,field.header.stamp,field.header.frame_id,field.image_seq,field.transforms0.fiducial_id,field.transforms0.transform.translation.x,field.transforms0.transform.translation.y,field.transforms0.transform.translation.z,field.transforms0.transform.rotation.x,field.transforms0.transform.rotation.y,field.transforms0.transform.rotation.z,field.transforms0.transform.rotation.w,field.transforms0.image_error,field.transforms0.object_error,field.transforms0.fiducial_area
1681215997380019187,16,1681215997380019187,camera_1,34,0,0.12528755178262715,0.1821189251407587,2.954513378198358,-0.9993774059088312,-0.012649210425745015,0.008428833474578403,0.03183948493299435,0.0017367549589835107,0.00026195185586953904,19270.534807257936
1681215997410027742,17,1681215997410027742,camera_1,36,0,0.12525476801214797,0.18581503068571567,2.954082715654856,-0.9992350988812899,-0.012686439738699708,0.014927214183814378,0.033844492715444555,0.007648308645002544,0.0011533418990322202,19259.17215230188
1681215997460325956,18,1681215997460325956,camera_1,38,0,0.12520536938258117,0.18901961602114004,2.9548326897486263,-0.9992954937686093,-0.012712170642075932,0.010758487662698345,0.03363289750422563,0.0014590484206564724,0.00022013224003953978,19253.673955317354
1681215997499985933,19,1681215997499985933,camera_1,40,0,0.12524716802960478,0.1852631200538114,2.953317804276478,-0.9991080032613745,-0.01276041615014264,0.010234508996993777,0.03893102136259705,0.009599156677722931,0.0014473425939414615,19261.331180852718
1681215997540262699,20,1681215997540262699,camera_1,42,0,0.12527747280727594,0.18098219313795066,2.953976027060384,-0.9993813013587506,-0.012590336770040933,0.013715254217194254,0.029839398724919235,0.001434723730199039,0.00021627574736949614,19276.04004693766
1681215997580305814,21,1681215997580305814,camera_1,44,0,0.1252316470666222,0.18203691573614705,2.952799375429337,-0.999179556651901,-0.012675775822134146,0.012591427357461408,0.03634548435940446,0.004940102458931506,0.0007443349023244757,19275.123965435192
1681215997610651254,22,1681215997610651254,camera_1,46,0,0.12523567066993957,0.18579575482110403,2.9543355396783118,-0.9992026542076883,-0.012698728142686523,0.010450219453609001,0.03638119076171778,0.005960844806395471,0.000899242569100198,19255.281232862617
1681215997640649795,23,1681215997640649795,camera_1,48,0,0.12516128701621831,0.188685346282067,2.9530156844042597,-0.9990959750047592,-0.012755738166173375,0.010351879970545892,0.039209213894200866,0.006269581499509513,0.0009451468084499556,19261.28606656729
1681215997690436363,24,1681215997690436363,camera_1,50,0,0.12515284072920763,0.18648396743345388,2.9525204260260143,-0.9990522882823101,-0.012792570570422344,0.009428518638756093,0.04052133329938013,0.010482949030119926,0.0015799164392167556,19266.616682436084
1681215997740408897,25,1681215997740408897,camera_1,52,0,0.12528048343300585,0.1809341026522816,2.9532023470087374,-0.999234882936115,-0.012592283014041887,0.012909539841608633,0.03470485431781921,0.006941711588297039,0.00104613463383492,19274.747828480773
1681215997770226240,26,1681215997770226240,camera_1,54,0,0.12528495093216274,0.18120733548312984,2.953651957621398,-0.999189502818195,-0.012934095185852956,0.010116951714666075,0.03675178808785885,0.00645859946962446,0.0009738054054900114,19266.775033432175
1681215997810097217,27,1681215997810097217,camera_1,56,0,0.1252457231585465,0.1857995814161999,2.954326235741726,-0.9992831003835647,-0.01268627687425083,0.011244223083719003,0.0338513088982423,0.010418701800517738,0.0015715890269679404,19261.53770901203
1681215997840251207,28,1681215997840251207,camera_1,58,0,0.12516663155023486,0.18874557136275763,2.953711738287715,-0.9991388273820923,-0.012780316423997153,0.011889783635603465,0.03764173448100875,0.005395043292082846,0.0008135920653387072,19255.108904776862
1681215997879951715,29,1681215997879951715,camera_1,60,0,0.1251959699892697,0.18767097716327882,2.953992147657169,-0.9992529995206522,-0.012844453933150018,0.010681591875913665,0.03484776244086944,0.001088406250346452,0.00016413399355888285,19262.36269646336
1681215997930652379,30,1681215997930652379,camera_1,62,0,0.12530794740834555,0.18168824347350834,2.954420172738384,-0.9993429346705726,-0.012640721683899382,0.008206486167173356,0.032963080318834596,0.010003626463003457,0.0015090042020691917,19269.29882732674
1681215997970093011,31,1681215997970093011,camera_1,64,0,0.12529308390720467,0.18119406576003658,2.95386743484906,-0.999317609913188,-0.01250651006750677,0.013631767269704644,0.03196993344424638,0.003994574886746705,0.0006021622437582277,19272.15758290142
1681215998010479927,32,1681215998010479927,camera_1,66,0,0.12521904330975203,0.18571989750428566,2.9528232663680427,-0.9991307749984935,-0.012877021927072315,0.012586127495347705,0.03759609224201935,0.011493288911879063,0.001732165619864197,19268.27754848684
1681215998050426721,33,1681215998050426721,camera_1,68,0,0.12517889279730837,0.18905241907671275,2.9538798553351326,-0.9992054220233582,-0.012644754467605945,0.009314504618953584,0.03663160912764024,0.005389070953242481,0.0008128033305645722,19259.084789904293
1681215998080169916,34,1681215998080169916,camera_1,70,0,0.12511941963402679,0.1875814510381225,2.9522943680939613,-0.9989976218255521,-0.012867263794753921,0.011632178572551752,0.0412659366909769,0.0038233794039115314,0.0005760872055628863,19263.24972802343
1681215998130145788,35,1681215998130145788,camera_1,72,0,0.12524885959431037,0.18161466326072592,2.953301273103487,-0.9992787230114558,-0.012954668105117445,0.012094469499808537,0.03358473043510527,0.0021690837456844747,0.00032688335382104124,19277.32202894019
1681215998169992446,36,1681215998169992446,camera_1,74,0,0.125228651366821,0.18113065103657244,2.9523856567588407,-0.9990742590148738,-0.012948099916162211,0.012674289226455334,0.03901709977748623,0.004236215085256845,0.0006381396081057113,19272.97552001569
1681215998200133800,37,1681215998200133800,camera_1,76,0,0.12517412851263304,0.18442832188294894,2.953357892229707,-0.999042936580109,-0.012844587962478693,0.007742092437101074,0.041088775038467334,0.0027543636388145387,0.00041535125931270857,19257.641792175014
1681215998230107069,38,1681215998230107069,camera_1,78,0,0.12519507085078985,0.18803455106079492,2.9536743896827202,-0.9991288782306239,-0.0127904073284456,0.011386048465943847,0.03805585456035386,0.0021105423802509904,0.00031823801034539423,19255.641011419364
1681215998260337352,39,1681215998260337352,camera_1,80,0,0.12518406529945209,0.18900082799684742,2.954439059547916,-0.9994110303355882,-0.012798363675955786,0.013650071369739055,0.028765776234568313,0.0034211535239592195,0.0005159729345515881,19267.25412314478
1681215998290630340,40,1681215998290630340,camera_1,82,0,0.1252065157780735,0.18653509975604424,2.9533698052151456,-0.9991244095998395,-0.012500833531848526,0.012269599364121782,0.037994739559909986,0.007513722754083574,0.0011327935541876346,19259.813344973838
1681215998320232868,41,1681215998320232868,camera_1,84,0,0.1252222482745327,0.1826648912842616,2.9534057036160117,-0.9991966789873107,-0.012768289682394724,0.00909388832386339,0.036881820379000875,0.0008185564074665308,0.0001233933265355762,19269.93322554755
1681215998360095739,42,1681215998360095739,camera_1,86,0,0.12526600484645453,0.1806412854033617,2.952942519334599,-0.9992555863345933,-0.012577177923358678,0.01115545806004289,0.03472237794366666,0.008716973767150193,0.0013135196559045585,19280.74440345704
1681215998400258064,43,1681215998400258064,camera_1,88,0,0.1252198775678513,0.1844291148943938,2.953250724772901,-0.9990732650909133,-0.012752036529964235,0.009539658998894253,0.03998739115152568,0.005818145640660077,0.0008772239328069146,19260.45236095169
1681215998430059432,44,1681215998430059432,camera_1,90,0,0.12514877230525884,0.1880056693767655,2.9527573685201247,-0.9991339955776918,-0.012794060465824122,0.013112591344069334,0.03735814296772902,0.004644394968636334,0.0006998562178101449,19267.22727979906
1681215998460096359,45,1681215998460096359,camera_1,92,0,0.12514003012639924,0.18897008421662023,2.953257934768313,-0.9992033782185962,-0.012509272320029458,0.010120712714205927,0.03651983347066903,0.003952029044739902,0.0005957835069298113,19266.58138266485
1681215998490017652,46,1681215998490017652,camera_1,94,0,0.12517814266032815,0.18653356206407354,2.953472390927182,-0.9991399142880096,-0.01252962221910784,0.00935764661105438,0.03840409735298791,0.010812781692948192,0.0016306047452365013,19261.101692239878
1681215998530116081,47,1681215998530116081,camera_1,96,0,0.12521306028348916,0.18162680676475174,2.9526570031455566,-0.9990658282011629,-0.012898895950210876,0.00903798423510779,0.04024182208792643,0.005400322377681732,0.0008138496077368182,19270.097868553712
1681215998570082187,48,1681215998570082187,camera_1,98,0,0.12522049850170922,0.1811361775102832,2.9523613013558365,-0.9990469301445568,-0.012796993588275964,0.014337888325177626,0.03919047438107217,0.0032490213634446263,0.0004893774666823888,19270.229072444028
1681215998600200653,49,1681215998600200653,camera_1,100,0,0.12517439273907374,0.18437357877083052,2.95233962707261,-0.9989707637281042,-0.012563528805597161,0.010220325165400689,0.042368808266843645,0.013680322212167086,0.0020616516686391643,19263.60419532656
1681215998630124092,50,1681215998630124092,camera_1,102,0,0.12521670871170462,0.18811807445531076,2.9549130016520446,-0.9992766881258386,-0.012744257996009839,0.01203387821194171,0.033747151458558125,0.0023852820158936083,0.00035991528488293916,19251.332484625622
1681215998660878181,51,1681215998660878181,camera_1,104,0,0.1251675495937806,0.18891750736577703,2.9534245523276823,-0.9992805051495707,-0.012635002919530961,0.009538339802548423,0.034465182475268655,0.0039512094226665795,0.0005957081798390548,19271.15506129339
1681215998700635671,52,1681215998700635671,camera_1,106,0,0.12517577856100962,0.18526798901777125,2.9531952814193425,-0.9991434325081983,-0.012613808863671692,0.006824045976043739,0.038816562163633675,0.008005141688045114,0.001207111409085216,19267.275810263236
1681215998740044832,53,1681215998740044832,camera_1,108,0,0.12524418839426257,0.18090223660123392,2.9526299661002535,-0.9991695075794987,-0.012639593441009202,0.011512245717289931,0.036986538085267334,0.010910898039583117,0.001643991356650635,19277.70769774611
1681215998770158529,54,1681215998770158529,camera_1,110,0,0.12523838830111517,0.18112901705945522,2.9528210843272142,-0.9992316178384616,-0.012693938274889082,0.011245762277197075,0.035335119552774685,0.0034086901578120887,0.000513573243127046,19280.230088047214
1681215998820078134,55,1681215998820078134,camera_1,112,0,0.12514468431261067,0.18694199166366804,2.952537418722408,-0.9991677310037287,-0.01284858758411335,0.011119733045517857,0.03708248447650793,0.002935302210971713,0.00044224978971414046,19274.69150580093
1681215998850605487,56,1681215998850605487,camera_1,114,0,0.12513937346837653,0.18903846294942084,2.953091974253176,-0.9991349703993785,-0.012443220790434644,0.009165890763492673,0.0386065231263472,0.0036579237203113735,0.0005514823717165763,19263.38936940417
1681215998890613794,57,1681215998890613794,camera_1,116,0,0.12521439917255345,0.18663256488150512,2.9536488589064662,-0.9992167188697957,-0.012491472498500321,0.011595840438747161,0.0357134194724937,0.010564264259301126,0.0015929843420769856,19263.892535527713
1681215998920763969,58,1681215998920763969,camera_1,118,0,0.12526532907926477,0.1827370115084822,2.9540196762908666,-0.9992950768015456,-0.012822097027764205,0.010885745849830337,0.03356253633586782,0.0020630204817280173,0.0003110547588515166,19268.999309131053
1681215998950605630,59,1681215998950605630,camera_1,120,0,0.12528529631154062,0.18050688493964426,2.953497333910556,-0.9991969162024523,-0.012780862473572222,0.0112739053547888,0.03626391131679682,0.009197095350828022,0.0013865272474952643,19269.121074037743
1681215998980424165,60,1681215998980424165,camera_1,122,0,0.1252607498233668,0.18195788163820129,2.95339263912735,-0.9991782529624263,-0.012775444986204415,0.0076581121341536594,0.03769562482435765,0.008816269342787564,0.00132935465332932,19269.720156903844
1681215999010029077,61,1681215999010029077,camera_1,124,0,0.12524932655609045,0.18584294576403143,2.9544285258307172,-0.9992047134807333,-0.012639061500623626,0.0085720836986874,0.036833599652110784,0.01329400681424886,0.0020060916166818542,19254.94640802824
1681215999050046920,62,1681215999050046920,camera_1,126,0,0.125117971706878,0.18903561486965625,2.9525862334459605,-0.9991482464431053,-0.01279060215106021,0.010580994042918939,0.03777862744124962,0.0014905229909345508,0.00022460067149710538,19270.78522903101
1681215999100344896,63,1681215999100344896,camera_1,128,0,0.12519412188851636,0.18516168947103692,2.9534820508023545,-0.9991204585966785,-0.012775449304587681,0.012081643028785252,0.038067453426172425,0.0036147853243164714,0.0005449566746418946,19259.601845001565
1681215999130072355,64,1681215999130072355,camera_1,130,0,0.12525535912912036,0.18159949324615668,2.952968870367451,-0.9991267399926734,-0.012655428652469252,0.011021687924872688,0.03826382041200245,0.014550616848282518,0.0021932122929770614,19269.66932885383
1681215999160057544,65,1681215999160057544,camera_1,132,0,0.1252490382774339,0.1808030010371031,2.953439679399481,-0.9992101561472494,-0.012581184727637522,0.011111781489889066,0.03601813369900923,0.0025856513530015945,0.00038974825673621403,19270.67902505352
1681215999200102090,66,1681215999200102090,camera_1,134,0,0.12525780771168696,0.1845081408383484,2.9538022492992257,-0.9992100475367635,-0.012937438169301601,0.013318448595985452,0.035135772685264424,0.006642072985414416,0.00100143889556869,19262.721348752268
1681215999230361461,67,1681215999230361461,camera_1,136,0,0.12519989068517803,0.18814550005771846,2.9540787383580844,-0.9992262223542361,-0.01272882565172211,0.011250549350666135,0.035473351921111375,0.002900009509176016,0.0004373621686600011,19258.270139654043
1681215999270024538,68,1681215999270024538,camera_1,138,0,0.12511990968598136,0.18852410116762927,2.952734789677166,-0.9990976615863536,-0.012664337719676389,0.010248488581592092,0.03922302441927696,0.002010904718190432,0.0003030567068783038,19265.235932772044
1681215999310425043,69,1681215999310425043,camera_1,140,0,0.12520313637921449,0.1839644475045571,2.9527070247801843,-0.9990736569745792,-0.012654524229334104,0.00881698716428619,0.040174017639700625,0.0025917753227986395,0.00039061429150080636,19268.1502616749
1681215999360258817,70,1681215999360258817,camera_1,142,0,0.12533580333869004,0.18068633332207346,2.9544094262989056,-0.9994189811417078,-0.01278516328759547,0.011728955847883065,0.029337200413443988,0.002589361683931202,0.00039045706060386517,19274.601903846262
1681215999400369644,71,1681215999400369644,camera_1,144,0,0.12528233005889916,0.18438634442951363,2.9549620828762246,-0.9993271686360533,-0.012950992409946401,0.008646972360170936,0.033207103011991965,0.00661895633675158,0.000998853941071052,19259.353494079776
1681215999450032949,72,1681215999450032949,camera_1,146,0,0.12515054577975043,0.18905700374469686,2.9529827717627186,-0.9991695324120426,-0.012491624747178047,0.012285710415806228,0.03678676569439996,0.006602781941182911,0.0009951982127207606,19266.292830115766
1681215999490444183,73,1681215999490444183,camera_1,148,0,0.12520749831416722,0.18663846967025355,2.953976597498213,-0.999213543101023,-0.012846246869510561,0.011531847617521887,0.03569713875640639,0.003093869076110423,0.000466552476035483,19259.8338577589
1681215999530265331,74,1681215999530265331,camera_1,150,0,0.1252903690958148,0.18173992341804454,2.9538069368040563,-0.9993567388571319,-0.012777351184078465,0.012958605083574793,0.030901817937539638,0.005609328567516059,0.0008455858944437391,19276.29648598459
1681215999570347070,75,1681215999570347070,camera_1,152,0,0.12529215897015614,0.18128376580557087,2.953620609594233,-0.9992119968628851,-0.012630928722640473,0.011296525442974107,0.03589196954481319,0.004762101918458939,0.0007179248426882765,19268.061303392635
1681215999610063314,76,1681215999610063314,camera_1,154,0,0.12525710719804062,0.18589815700299844,2.9548305744511127,-0.9993527442679807,-0.012704226049018571,0.013302388710667459,0.030915071068037897,0.0024538905709050596,0.00037018226022810457,19259.76819321665
1681215999651106357,77,1681215999651106357,camera_1,156,0,0.12512943850761837,0.1890377763348482,2.952794501351576,-0.9992159877768203,-0.01271101088126648,0.013879678944390983,0.03483094150278487,0.001134210906457156,0.00017088826376592922,19272.177888467442
1681215999690595865,78,1681215999690595865,camera_1,158,0,0.12516915893685743,0.18645892888135626,2.952862647444818,-0.9991976582247408,-0.012578348675137819,0.011353177940869612,0.03628953421365179,0.0084652621881105,0.0012758028735053227,19272.900321503053
1681215999730017423,79,1681215999730017423,camera_1,160,0,0.12525599757242517,0.18157829801019298,2.953264656888186,-0.9993221259320906,-0.012717654843044955,0.009971695766840979,0.0330774116489456,0.004638423852156848,0.000699014536628759,19281.99946365807
1681215999760541200,80,1681215999760541200,camera_1,162,0,0.12526465248702648,0.1806919914777992,2.9526026561977243,-0.9991714369771616,-0.012959691182928423,0.01325107287095435,0.03623389298993061,0.0104081496829167,0.0015680791884556918,19277.839868639592
1681215999800094127,81,1681215999800094127,camera_1,164,0,0.12523288802716104,0.18437525956199483,2.9533465630463533,-0.9992332174906653,-0.012972333248882419,0.009923810170261815,0.03558389558546759,0.007726978918071837,0.001164836220369735,19272.15069054254
1681215999840111017,82,1681215999840111017,camera_1,166,0,0.12513655695859566,0.18871091140072602,2.953174242557333,-0.9990174784496704,-0.012802624427947537,0.00926957924143347,0.04140344744711907,0.004586400289554149,0.0006915933125496625,19253.380382520496
1681215999880034446,83,1681215999880034446,camera_1,168,0,0.12521109161242805,0.18766669994927865,2.9545488402882234,-0.999224179495957,-0.012626579204840118,0.012237733983264283,0.035239842155867916,0.00134856381919235,0.00020343507217346338,19251.918273787014
1681215999920578718,84,1681215999920578718,camera_1,170,0,0.1252233413282549,0.18259958426761144,2.9522533910292448,-0.998976212004758,-0.012836168390210498,0.008567849639497398,0.04252472906719422,0.012199928693007678,0.0018385940994403455,19267.563337473774
1681215999960638523,85,1681215999960638523,camera_1,172,0,0.12531392880850406,0.18070869527806516,2.9540912816375644,-0.9992116667833865,-0.01273509790211933,0.014495855086185413,0.0346948473221968,0.0026427028933539987,0.00039845121416448045,19260.95403471193
1681216000010075092,86,1681216000010075092,camera_1,174,0,0.12521392473392381,0.18578244012813622,2.9536766414039732,-0.9990958272626725,-0.012733851133179779,0.00991407162207059,0.039333041650839964,0.006453837035223842,0.0009733272852452457,19255.464337370824
1681216000040464878,87,1681216000040464878,camera_1,176,0,0.1252425762251495,0.18883251550363844,2.9552390857044872,-0.9994711607663805,-0.012593443301578775,0.014157832546671897,0.0264264973027929,0.0027001757407560945,0.00040742888073203514,19261.59920026501
1681216000070180177,88,1681216000070180177,camera_1,178,0,0.1251566875572838,0.18854577595796865,2.9534961026554156,-0.9991481706681204,-0.012728115633424233,0.011436891280982723,0.03755163965524771,0.008209128805901855,0.001237841471892134,19258.98873705021
1681216000110560417,89,1681216000110560417,camera_1,180,0,0.12525040158418999,0.18408511130224717,2.9538076372733553,-0.999209773804007,-0.012683822658208034,0.013929633361384029,0.03499876986035226,0.0019863430061377585,0.000299454205238743,19262.450029807296
1681216000150736808,90,1681216000150736808,camera_1,182,0,0.1252509015468582,0.18066041043154013,2.953038206833359,-0.9992784464620778,-0.012735720974187237,0.009682438577170317,0.034447615749187505,0.0045195636921562254,0.0006810694558527647,19282.181151096825
1681216000180628538,91,1681216000180628538,camera_1,184,0,0.12534946435281835,0.1822685072387261,2.9553352956847685,-0.9994196432151705,-0.012532142205935171,0.017248994940529817,0.026566790188749585,0.008732469228561968,0.001317676221103513,19259.08737017505
1681216000220132112,92,1681216000220132112,camera_1,186,0,0.12519301801226226,0.18713016637483826,2.9543009740396045,-0.9992825707661304,-0.012807982509817064,0.015189929730563793,0.03224229182056201,0.0011461955728009343,0.000172840909282802,19259.33025974455
1681216000260102987,93,1681216000260102987,camera_1,188,0,0.12517352763995238,0.18902627510333253,2.953767217794505,-0.999328204286545,-0.012549838141979835,0.011402995584792368,0.032490204242706565,0.004767314530909061,0.0007187921181154141,19269.691122496504
1681216000300607204,94,1681216000300607204,camera_1,190,0,0.1251805840752847,0.18535807156524164,2.9531077214813735,-0.9991252944852989,-0.0128490850972842,0.010835752716007419,0.0382901213749092,0.0024180245818570256,0.0003644723122809475,19265.302357145352
1681216000330117225,95,1681216000330117225,camera_1,192,0,0.12524900927758104,0.1816721816895284,2.952884701195181,-0.9991934105582699,-0.012791652476141264,0.009728960479645195,0.03680012570424211,0.0046863165916875005,0.000706238685311068,19276.770087834215
1681216000370680332,96,1681216000370680332,camera_1,194,0,0.12524940579198182,0.18126779195003967,2.9531828072762063,-0.9990981255262672,-0.012607202883024742,0.010479325623838255,0.039168581029122636,0.013339075376279652,0.002010957144035021,19265.088260185094
1681216000410507678,97,1681216000410507678,camera_1,196,0,0.12514405393433214,0.1857170274742991,2.9518667113095063,-0.9989423307132048,-0.012926929748435855,0.010812817443316344,0.04278080615751028,0.0077978664776310325,0.0011747688820101083,19266.391947392833
1681216000440188646,98,1681216000440188646,camera_1,198,0,0.1251629552050313,0.18881143711881954,2.9536307492115457,-0.99914247938935,-0.01258176689932221,0.010846434293259393,0.03792571534612841,0.0042325619724579155,0.0006382727623637164,19256.64667120576
1681216000480333566,99,1681216000480333566,camera_1,200,0,0.12514847757758044,0.18765692084657778,2.952902517685995,-0.9991631885893393,-0.012739565701029848,0.008365752862117794,0.037955766528733385,0.0025421042228117585,0.0003831761296126026,19270.07650501933
1681216000520521879,100,1681216000520521879,camera_1,202,0,0.12525238949738926,0.18278260068585928,2.9539896932215406,-0.9992237501792804,-0.012785322549898717,0.009422234234529847,0.036050715762378,0.0032675532856956124,0.0004927655446882119,19264.28422533325
1681216000580214500,101,1681216000580214500,camera_1,204,0,0.12524094678241782,0.1819472296563222,2.9524138399647093,-0.9991006968953886,-0.012591570629501014,0.012936988285793167,0.03836514233421154,0.004875301965512335,0.0007344180139382924,19273.632040193654
1681216000620559453,102,1681216000620559453,camera_1,206,0,0.12515318891641306,0.18689849858656465,2.9524856317593033,-0.9990883874598482,-0.012971858110990785,0.010138664968605979,0.03938695739306266,0.007957392954267561,0.001199130305811411,19269.48585390719
1681216000660778045,103,1681216000660778045,camera_1,208,0,0.12516688291382383,0.18898496267084852,2.953263267972669,-0.9992820033680473,-0.012486930064863972,0.013853287990631031,0.0329793986322651,0.0042411842732690275,0.0006392255631065089,19271.332983051543
1681216000700381040,104,1681216000700381040,camera_1,210,0,0.12525292138882999,0.18531357817023075,2.9539133928828285,-0.999344286967913,-0.0128608237617407,0.010333307186890434,0.03223070088199141,0.006340521504171193,0.0009560778286119365,19272.78570861857
1681216000740141153,105,1681216000740141153,camera_1,212,0,0.12522154232675997,0.1809367459683744,2.952773023309331,-0.9990958969470767,-0.012556318090711727,0.008665780601437578,0.03968163083958302,0.0032586160814389586,0.0004911128462168548,19271.29607807938
1681216000780611038,106,1681216000780611038,camera_1,214,0,0.12525256146201716,0.18203701771422073,2.953109144906003,-0.9992308453013473,-0.012902372497148868,0.013818165929669193,0.03435556538087858,0.002236339554656297,0.00033696561112680085,19274.871307054997
1681216000820683240,107,1681216000820683240,camera_1,216,0,0.12520726987530184,0.18705189257886423,2.9539899866794865,-0.9991734635336905,-0.012720140699353856,0.011075795641025194,0.03698532873445581,0.006055749428924173,0.0009133663669878134,19256.101194998366
1681216000860701799,108,1681216000860701799,camera_1,218,0,0.12515249575610737,0.18896647397672361,2.9536596619574795,-0.9993057825717315,-0.012666630955400077,0.009495772240505438,0.03372446720847551,0.0015466931508854032,0.00023320551067121896,19270.247560968153
1681216000890666961,109,1681216000890666961,camera_1,220,0,0.12522662962929626,0.18658886463529084,2.9538431321986196,-0.999143651349741,-0.012812144163562238,0.011238147496302723,0.03770301009588686,0.012398385326378047,0.0018699488043949543,19255.954712634673
1681216000930613279,110,1681216000930613279,camera_1,222,0,0.12525537240003964,0.181657505750891,2.953468766586851,-0.9992468723179686,-0.012726227067224207,0.01126193726982665,0.03488409489038645,0.009341706929262727,0.0014082480431455143,19272.70513459573
1681216000960561037,111,1681216000960561037,camera_1,224,0,0.12528110044348645,0.18081914403492785,2.953482316970129,-0.9992461477417247,-0.012545514840526786,0.009592201739410371,0.03546457311882013,0.009276557189878076,0.0013985873306447516,19273.56316464569
1681216001000144958,112,1681216001000144958,camera_1,226,0,0.1251893141348218,0.18451319643725242,2.9531778118356202,-0.9991384883107041,-0.01261983394823767,0.007504628999626622,0.03881625317953685,0.004322661727201194,0.0006517347644474234,19267.406338836186
1681216001040220260,113,1681216001040220260,camera_1,228,0,0.12516240656824723,0.18876293448298984,2.953037288677773,-0.9991434373486925,-0.012542709946224856,0.010040893257046603,0.03813466261611398,0.010818157403264195,0.0016309347742107644,19264.718523371503
1681216001070011138,114,1681216001070011138,camera_1,230,0,0.12514785506621073,0.1885946545225462,2.9535053839953713,-0.9991038895716802,-0.012684962324122282,0.009522163627663787,0.03924076927665802,0.004845504823606461,0.0007307463787664125,19256.01156970208
1681216001110441446,115,1681216001110441446,camera_1,232,0,0.12521974510722245,0.1840174467632497,2.9533300682382073,-0.9991803529287028,-0.012793175013683948,0.012001715314353071,0.036481719036464966,0.006039961415808648,0.0009104635904765511,19267.28754953051
1681216001150500297,116,1681216001150500297,camera_1,234,0,0.12530478627075609,0.1806776730285395,2.9537006677685964,-0.9992631429127188,-0.012674234015843083,0.010484615781477342,0.03467863665460166,0.007828734640497714,0.0011803205534936098,19271.867705517907
1681216001180084943,117,1681216001180084943,camera_1,236,0,0.12523539232982175,0.18209782172406366,2.9528143047841287,-0.9991879826092678,-0.012738416034332995,0.012918101046312335,0.035975419824027965,0.004366473644040525,0.0006578995690533251,19275.469684679414
1681216001220140695,118,1681216001220140695,camera_1,238,0,0.12517372591406392,0.1870102783128437,2.953052467021044,-0.9990861924498284,-0.012888816321774466,0.009458776323211114,0.03963823937052914,0.010944908892270178,0.0016501482083866037,19262.06868158571
1681216001250810146,119,1681216001250810146,camera_1,240,0,0.12517235632932647,0.18904296182851715,2.9536172244293133,-0.9992880550346835,-0.012652575051923123,0.012553721792794948,0.03325205976633495,0.001503104402218014,0.0002265952103087581,19267.925254584756
1681216001290588617,120,1681216001290588617,camera_1,242,0,0.12520592016202708,0.1865269155157546,2.953698826026928,-0.9992893600360512,-0.012574881667363822,0.011402270128673475,0.033654650580627,0.005018443567678332,0.0007566132651538679,19269.457750901354
1681216001320150613,121,1681216001320150613,camera_1,244,0,0.1252606454191666,0.18266327726374895,2.9536429343563158,-0.9992501094841441,-0.012818484981826184,0.013797894382434983,0.033830803261352356,0.004507811332587153,0.0006794606305549412,19269.006413985626
1681216001360201835,122,1681216001360201835,camera_1,246,0,0.1252508327669911,0.18068160491442706,2.9532294497794274,-0.9991789462978208,-0.012455016651000817,0.014125460712891546,0.03587167678055412,0.004177033843006939,0.0006294685438628242,19269.49309786153
1681216001400664567,123,1681216001400664567,camera_1,248,0,0.12518581115033672,0.18441251648003815,2.952458373207501,-0.9989773656036331,-0.012832898131070546,0.006418012941129602,0.042875970508782536,0.003818530007265508,0.0005756118985926926,19264.577146719916
1681216001440903425,124,1681216001440903425,camera_1,250,0,0.12519061718424362,0.1888088443877923,2.9544000810950206,-0.9993938632363125,-0.012672706809311516,0.010374366241055,0.03071939375737419,0.0017687657964415848,0.0002667857274206715,19267.692501878715
1681216001480128288,125,1681216001480128288,camera_1,252,0,0.1251422539731989,0.18758572501608942,2.9524771612747425,-0.9991314841915653,-0.012775463670260818,0.009452199048568859,0.038519096021531016,0.0017525842413306236,0.00026408508574522044,19272.60771857318
1681216001510679721,126,1681216001510679721,camera_1,254,0,0.1252082013570599,0.18395171450148165,2.9534806766908686,-0.9991389244519234,-0.012774380863479848,0.008528610020774737,0.03854202446320164,0.0006293471087701619,9.487755518103162e-05,19263.681176967002
1681216001540215969,127,1681216001540215969,camera_1,256,0,0.12526312404302964,0.18090874086235012,2.952989007440785,-0.9992324771114511,-0.01275075606007526,0.014710577658711753,0.033992261039198134,0.007595324015710503,0.0011443797965107795,19276.699110028683
1681216001580178737,128,1681216001580178737,camera_1,258,0,0.12527171130978454,0.182061747470173,2.9531251948824035,-0.999151056628997,-0.012647635810090823,0.012291443256952054,0.03723068315563935,0.0100744508090429,0.0015184936169843936,19268.65145470155
1681216001620209455,129,1681216001620209455,camera_1,260,0,0.1252364929667717,0.18704974610661224,2.9546321105358375,-0.9993242070326741,-0.012741517723659444,0.014819430492975882,0.031131454262189277,0.003029711660929024,0.0004569739896804787,19258.545936812065
1681216001661402702,130,1681216001661402702,camera_1,262,0,0.12514998259855045,0.1890120343370049,2.9537912129047283,-0.999231306668567,-0.012406947394784191,0.010700486142872253,0.035614084658707565,0.0025584810646250844,0.00038581446946246473,19261.59287581651
1681216001690574645,131,1681216001690574645,camera_1,264,0,0.12515759316855352,0.18645302186313298,2.9520738945504816,-0.9990276281033741,-0.01264898041086016,0.011175372159812859,0.04072975126123412,0.011961612151935697,0.001802234732313097,19269.453694100484
1681216001730682611,132,1681216001730682611,camera_1,266,0,0.12531890730077283,0.1816921469607216,2.9544732095690334,-0.9994340671613344,-0.012756633914471797,0.015530381220999579,0.026974449904606308,0.003995884559117258,0.0006025606047351629,19272.726990908854
1681216001770728111,133,1681216001770728111,camera_1,268,0,0.12524545278223131,0.18117992357312696,2.953019116137588,-0.9991359603114865,-0.01282419665635577,0.011189457347311953,0.037916603709132655,0.0009248872520402074,0.00013937488021043668,19270.19795587275
1681216001810115814,134,1681216001810115814,camera_1,270,0,0.12519841420966205,0.1857088497795258,2.95300296436209,-0.9990053815108377,-0.01267610618048846,0.009382333323735885,0.04170774347634834,0.008768979576416314,0.00132208302351183,19257.132599152974
1681216001850168943,135,1681216001850168943,camera_1,272,0,0.12515826351526926,0.18905358371259867,2.953595181405551,-0.9992622004252036,-0.012456697289296662,0.012537610005063548,0.03409829657598482,0.004812567844055593,0.0007255567766929724,19265.883647022416
1681216001880108118,136,1681216001880108118,camera_1,274,0,0.12518749774679575,0.187596003856878,2.9530689356855,-0.9991717328746713,-0.012924883862676406,0.014842377719186936,0.035615999564855096,0.007122460345271975,0.0010733462633118896,19266.005223580407
1681216001920149803,137,1681216001920149803,camera_1,276,0,0.12525832961081312,0.18271334422044805,2.953709024752456,-0.9992310526746584,-0.01281521114960547,0.010778497585628707,0.035452753400570934,0.004467413004022092,0.0006735693021614745,19267.931953186162
1681216001960128307,138,1681216001960128307,camera_1,278,0,0.12528233007914202,0.18071983536113964,2.9533607698390685,-0.9992299744590295,-0.012401017793542643,0.011897806008707634,0.03527201599668944,0.007687254576012492,0.0011586726164936516,19272.720995806158
1681216002000181674,139,1681216002000181674,camera_1,280,0,0.125249375792872,0.18451167757246056,2.954599776371197,-0.9992613466430478,-0.012612366550226144,0.010616242315387617,0.034712889741802054,0.004164729092735797,0.0006283150026314032,19257.447434303693
1681216002040215730,140,1681216002040215730,camera_1,282,0,0.12521180874093046,0.18884168472534468,2.954903880389769,-0.9993503351382823,-0.01247879628966268,0.009387243428664947,0.03248179433121167,0.004682794620748609,0.0007066794993188367,19257.742656976916
1681216002070132493,141,1681216002070132493,camera_1,284,0,0.12513803893079908,0.1884569683616233,2.952619581032987,-0.9991226430436722,-0.012652817633608229,0.013741424071538864,0.037483644804685294,0.010133173665963113,0.0015268923906541349,19267.257135646876
1681216002110613584,142,1681216002110613584,camera_1,286,0,0.1252917122915318,0.18401209586302328,2.954602564725244,-0.9993238660984279,-0.012691116386452865,0.012375935834282635,0.03221152624733596,0.0055829285411164165,0.0008421430234691127,19262.053540142842
1681216002150739431,143,1681216002150739431,camera_1,288,0,0.12531245572238675,0.1805804704320511,2.9531656104505535,-0.9993244724303935,-0.01261061400954209,0.015139469180768736,0.031022051655924653,0.01108070428017527,0.0016696821301498907,19281.506283711533
1681216002180222272,144,1681216002180222272,camera_1,290,0,0.12526565024545588,0.18209821122382497,2.9534241536964583,-0.9992278433496373,-0.012673215885233981,0.00932602741003339,0.03600183171320929,0.010884958668611944,0.0016411471751185127,19272.27309302695
1681216002220634937,145,1681216002220634937,camera_1,292,0,0.12520976141273726,0.18701500049212377,2.9538695696786954,-0.9992417149489886,-0.012827598087004415,0.012292411812080652,0.03464598742949582,0.00379467208404094,0.000572187156815108,19262.833379498912
1681216002250648021,146,1681216002250648021,camera_1,294,0,0.12515189616607214,0.1890625798721002,2.9534407455390683,-0.9992371636542865,-0.012735546444536344,0.012422650399776998,0.03476455646115597,0.001328549929894507,0.00020026540628966078,19266.160112663627
1681216002280604600,147,1681216002280604600,camera_1,296,0,0.1251985230919346,0.18765750113366106,2.9540682013404282,-0.9992112452204438,-0.012828366714772112,0.010154602105439337,0.03618293090010292,0.0019050832488574088,0.00028732282361768204,19258.19436307659
1681216002320678949,148,1681216002320678949,camera_1,298,0,0.1252962677686872,0.18276296131999234,2.9545417160428222,-0.9992950433821254,-0.01271419333903128,0.014461273150591009,0.03222789379587176,0.008374124066904187,0.0012630870621618874,19260.46612060921
1681216002350371122,149,1681216002350371122,camera_1,300,0,0.1252477268655643,0.18057187866362148,2.9524489535858844,-0.9991980125521657,-0.01274323430754658,0.014689449624475463,0.035002310793936085,0.007264405314344913,0.0010941730283519843,19281.17820758908
1681216002380532979,150,1681216002380532979,camera_1,302,0,0.12530268747291223,0.18212227391459931,2.9541083026693533,-0.9992674983305451,-0.012748885855792697,0.011363388348406486,0.03424625665519521,0.009552845440339297,0.0014407170458508266,19265.679923886433
1681216002420194387,151,1681216002420194387,camera_1,304,0,0.12519595369186953,0.18700483614628954,2.953684255567162,-0.9992119131474358,-0.012708527939149013,0.0082666552096215,0.03668389774146626,0.008157659554854035,0.001230344766285038,19264.450773361597
1681216002460580587,152,1681216002460580587,camera_1,306,0,0.1251568790925143,0.18900062134414888,2.9535020090333672,-0.9992378065146476,-0.012821733642909465,0.011253602401605091,0.035110762042038904,0.0038625203305855393,0.0005823416772049311,19266.035871708777
1681216002490682840,153,1681216002490682840,camera_1,308,0,0.1252293388815175,0.1865611153084791,2.9542253407551993,-0.999252906017848,-0.012640517547845183,0.009006681095207065,0.035393881203644714,0.0031510491971857846,0.0004753050024081546,19260.757202719567
1681216002530535697,154,1681216002530535697,camera_1,310,0,0.12523997211437424,0.18161253787044418,2.9531700107829693,-0.9993007509068608,-0.012726214234368094,0.009233634450092804,0.03392333567158968,0.006762185948900878,0.0010192013148340097,19281.84720797068
1681216002570580005,155,1681216002570580005,camera_1,312,0,0.12527920044690163,0.1811688666809971,2.9536921011399975,-0.999404939006233,-0.012578507867591002,0.015509523964989799,0.02812478793079069,0.000178717658855021,2.693163264613783e-05,19280.69582193974
1681216002610763788,156,1681216002610763788,camera_1,314,0,0.12520555116788132,0.18572618514729441,2.9531666078864776,-0.9990001681789193,-0.012742131635267566,0.01014187123233058,0.04163465512991627,0.012128359463531524,0.0018287889808883079,19254.288348100497
1681216002640654802,157,1681216002640654802,camera_1,316,0,0.1251677435193541,0.18878437231838507,2.954258226032373,-0.9993002442643765,-0.01277148947855802,0.012591739033737242,0.03282314698140191,0.001450660522095859,0.00021876185595000726,19261.025579094174
1681216002680351972,158,1681216002680351972,camera_1,318,0,0.12518228247418278,0.1876644021968871,2.9540708902227957,-0.9993155486624982,-0.012963516312037083,0.011658814140149614,0.03262596357263973,0.00011448509758338332,1.726229338792354e-05,19266.222028337885
1681216002720201492,159,1681216002720201492,camera_1,320,0,0.1252776284343148,0.18270578257896197,2.953892323114164,-0.9992253264526877,-0.012475822020188276,0.013923958576537804,0.034629816892371455,0.012018674693536013,0.0018121809799925938,19263.320780002046
1681216002750481605,160,1681216002750481605,camera_1,322,0,0.12528728140896958,0.1806568658033597,2.953632872208716,-0.9992008579608992,-0.01278633619749351,0.010719812375932952,0.03632135294110688,0.006604038528166711,0.0009957030349943624,19267.84868817415
1681216002780653715,161,1681216002780653715,camera_1,324,0,0.12530611718075674,0.18213632814525343,2.9542647044781294,-0.9993001909573963,-0.012561726052788436,0.01023412657106644,0.03371341045360866,0.0075182231375947595,0.001133962039758431,19266.591495542554
1681216002810361623,162,1681216002810361623,camera_1,326,0,0.12520420701780272,0.18577508108907545,2.9536744359350853,-0.9990926496759053,-0.01278516889214624,0.00784786238369279,0.03986010381301978,0.008422743121627718,0.0012705058497360284,19256.233043859727
1681216002850159406,163,1681216002850159406,camera_1,328,0,0.12517179668432496,0.1890783802029252,2.953909347784669,-0.9992444544388266,-0.012684857307553934,0.012406467949353257,0.03457881174014968,0.0027329035801813006,0.00041207900407985395,19260.632523974753
1681216002880158901,164,1681216002880158901,camera_1,330,0,0.12517585218072017,0.18763693834578632,2.9538260170373967,-0.9992359443313286,-0.012817437214660332,0.010176480957605078,0.035491972259173395,0.0032549549941904843,0.0004908479165522911,19263.353923009225
1681216002920679569,165,1681216002920679569,camera_1,332,0,0.12521780133794363,0.18264965924795082,2.953203304264566,-0.9991734264702196,-0.012686748520107548,0.011255027910885729,0.03694366785354984,0.0027617636951617897,0.0004162316950495391,19269.63903581584
1681216002950640678,166,1681216002950640678,camera_1,334,0,0.12532675760827194,0.18061771938651294,2.9540883597804783,-0.9992864341932202,-0.012626273016236146,0.015144825967922878,0.032215429742901994,0.003552879730705172,0.0005356235288167285,19266.559630717373
1681216003000715494,167,1681216003000715494,camera_1,336,0,0.12526795951186426,0.18446344936435244,2.9540975297667362,-0.9991366491478523,-0.012888542384937631,0.01186933717056726,0.03766909396208992,0.00732222042279318,0.0011043662063897832,19253.613876029263
1681216003040307044,168,1681216003040307044,camera_1,338,0,0.12515024170126693,0.18872133388474052,2.952914941583249,-0.9992506000322993,-0.012683090397706164,0.013714811336014116,0.03390105460116455,0.002978906035423279,0.0004488706288175951,19273.75619235844
1681216003080300807,169,1681216003080300807,camera_1,340,0,0.12518929002601523,0.18767969638362014,2.9540902121616552,-0.9991904716960742,-0.012594142852496507,0.01140963775548749,0.03646380402366767,0.0003050185623578727,4.599994931089706e-05,19255.428954772877
1681216003120756149,170,1681216003120756149,camera_1,342,0,0.1252761181993402,0.1827611128612543,2.954356599541549,-0.9992680694696862,-0.012681309343759087,0.010847532506401589,0.03442151609352924,0.009532940341159701,0.001438009706146895,19262.29515425919
1681216003160701274,171,1681216003160701274,camera_1,344,0,0.1252996015636108,0.18069929807699997,2.9533678059771455,-0.9992051627857862,-0.01271971402204776,0.011954817972071638,0.03583760405890232,0.004972226568497717,0.0007494435709959043,19270.94026668404
1681216003200315952,172,1681216003200315952,camera_1,346,0,0.1251817847750918,0.18443995178049571,2.953192954344349,-0.9991421896996304,-0.012695664532148165,0.007389408885515207,0.03871823214762724,0.0035123522975482047,0.0005295521489083748,19267.71690288651
1681216003240669488,173,1681216003240669488,camera_1,348,0,0.12519255647448796,0.1887347951864356,2.9538644515006056,-0.9992853926213697,-0.012579780181238828,0.013429476410368513,0.03301669861585059,0.004946506058331579,0.0007458344336412383,19264.308010860113
1681216003280429840,174,1681216003280429840,camera_1,350,0,0.12514170703377944,0.18761491973554295,2.952901127430172,-0.9991452103978468,-0.012835756425686235,0.012668657224795755,0.03719673399834668,0.0010077010374516249,0.00015185110467071154,19266.899975237906
1681216003310296773,175,1681216003310296773,camera_1,352,0,0.12524905737745126,0.18395240330590226,2.9535160047338125,-0.9992524032582341,-0.012802988303882145,0.013021560930695536,0.034075754196530854,0.0007985391421243548,0.00012035380467616425,19270.274942568038
1681216003340734481,176,1681216003340734481,camera_1,354,0,0.1252717616764389,0.18090008005762173,2.9532267935448844,-0.9991989073861157,-0.012750955210206479,0.009052112802960784,0.0368376963642211,0.009910911845508963,0.0014940133919965769,19273.54263080821
1681216003370647907,177,1681216003370647907,camera_1,356,0,0.12529152599757992,0.1812119824992813,2.953723890223137,-0.9992620757049171,-0.01277679938007008,0.008397150300635484,0.035235568993996255,0.00773818523157388,0.0011668689822427738,19272.22511670366
1681216003410422801,178,1681216003410422801,camera_1,358,0,0.12523464321578118,0.18572160428743018,2.953285001494833,-0.999155374039743,-0.012722873892720633,0.014656828246655271,0.03621939250124791,0.009635817667003721,0.0014524190581522948,19263.24361992244
1681216003450724124,179,1681216003450724124,camera_1,360,0,0.12514645357403303,0.18901758664127943,2.952863658976235,-0.9990973013638063,-0.012885519575444386,0.012307765173209565,0.03856247799703309,0.003637048357632011,0.0005481620687355583,19262.350761914742
1681216003490622758,180,1681216003490622758,camera_1,362,0,0.1252109678068719,0.1865655918097091,2.9543602408958893,-0.9992485212469053,-0.012722911518369535,0.013912735558591087,0.033866740286681414,0.003082845127210021,0.00046495660279100096,19256.64005774911
1681216003530761003,181,1681216003530761003,camera_1,364,0,0.12531611875442608,0.1816590080701404,2.9539599030055372,-0.9992648053741037,-0.012655365022022476,0.009797828355107297,0.034838097484478435,0.011424961732700467,0.0017230546105406884,19268.284811362973
1681216003570803403,182,1681216003570803403,camera_1,366,0,0.12529971935762366,0.18120901998664724,2.9536199362265814,-0.9992465688246499,-0.01279018623576851,0.012143945020418026,0.03457210476033359,0.0047239482519216835,0.0007121126949364881,19270.626356647117
1681216003610648393,183,1681216003610648393,camera_1,368,0,0.12524381920142,0.18577907932437931,2.9544879529461645,-0.9992405210280756,-0.012774363965163493,0.01075166234328869,0.03520793259595583,0.009092541760765016,0.0013716684037751773,19256.339398959433
1681216003661442041,184,1681216003661442041,camera_1,370,0,0.12512245806539968,0.18896362353589813,2.9530415375172696,-0.9991125551244211,-0.01258424143041446,0.012142697225192947,0.038318324134399756,0.0005576951080001891,8.405535114002384e-05,19261.17600970692
1681216003690809965,185,1681216003690809965,camera_1,372,0,0.1252053909881105,0.1865583653578121,2.9541657092919777,-0.9992440080003125,-0.012566806022013793,0.011875555936814067,0.03482038243713196,0.004868205520324409,0.0007342370849010105,19259.496275220874
1681216003730175256,186,1681216003730175256,camera_1,374,0,0.125218829166503,0.18159305702747305,2.9531018139464424,-0.9992530451230976,-0.012787655075772095,0.01096851873164279,0.03477814380776025,0.003417272644583136,0.0005149618620465449,19278.25495763251
1681216003780689239,187,1681216003780689239,camera_1,376,0,0.12525273911660054,0.18205257344611317,2.953210002319873,-0.9991838274428615,-0.012833768719113937,0.011923498175573494,0.036397850875504144,0.00460568250855431,0.0006941644944766432,19270.576082409592
1681216003810638427,188,1681216003810638427,camera_1,378,0,0.12522162364438938,0.18570663331335047,2.953115752210846,-0.9991690005078719,-0.012976317350104358,0.012893918746239772,0.036423487909523676,0.004203630378469825,0.0006335452566987429,19267.598552589756
1681216003840703487,189,1681216003840703487,camera_1,380,0,0.12514221856038932,0.18872181548813896,2.9529577427849203,-0.999133839841633,-0.012502606526612213,0.013281422422437487,0.03740131992044735,0.006335494224913418,0.000954872488903195,19263.604007479968
1681216003880256414,190,1681216003880256414,camera_1,382,0,0.12518996111492864,0.18765399601963986,2.953776716656612,-0.9991972561730453,-0.012731441617227387,0.012621541851367527,0.035825275042896836,0.0019634365453384817,0.0002960420654351379,19259.653954194157
1681216003910191059,191,1681216003910191059,camera_1,384,0,0.1252346453710673,0.1840061467932377,2.9539081474984124,-0.9992007970980178,-0.012570977526188047,0.010688371974430426,0.03640736611261785,0.003045918245334178,0.0004593162955266743,19261.832429109723
1681216003940337896,192,1681216003940337896,camera_1,386,0,0.12525531692193825,0.18089762531391193,2.952767613264565,-0.9992193952532952,-0.012532413096444255,0.011627681653347361,0.035613702292622736,0.005590537213720381,0.000842313259632576,19279.72915462857
1681216003980155229,193,1681216003980155229,camera_1,388,0,0.12526774048947933,0.18213547652159912,2.9540819975766524,-0.9992818471679815,-0.012532592918427739,0.0115366682229017,0.03384714643219663,0.002623235690407455,0.00039555732266219215,19266.943020145176
1681216004010324478,194,1681216004010324478,camera_1,390,0,0.12526216777831284,0.18579852704673488,2.954323046098559,-0.9992361010641007,-0.012695216097975272,0.012842800147623722,0.03465700943255891,0.009673277905676514,0.001459050110012493,19257.057075726218
1681216004050291061,195,1681216004050291061,camera_1,392,0,0.1251237878301377,0.1889595890145728,2.9522147697495287,-0.999083189067337,-0.012620050314299263,0.00836083816523529,0.04004512502514355,0.009152413986157626,0.0013792488581756974,19271.101145430817
1681216004080194234,196,1681216004080194234,camera_1,394,0,0.12516230270551512,0.18761123384582468,2.9534669760238588,-0.9992367907763643,-0.012896727413064437,0.011457081863789657,0.03504633584487599,0.002909065457060933,0.00043852162391725693,19267.63729760878
1681216004100416183,197,1681216004100416183,camera_1,396,0,0.12523010834109377,0.18522006533833588,2.953315431534056,-0.9991967623059466,-0.012620187091431957,0.010212957265096833,0.03663681999017225,0.01469884370453656,0.0022159963493281407,19268.45872830541
1681216004130856990,198,1681216004130856990,camera_1,398,0,0.125285431261573,0.18168697966782085,2.954326602867496,-0.9992379165297066,-0.012701104630769015,0.00750490371174854,0.03613785454072694,0.0032016748446039855,0.00048298799836441283,19262.572097771794
1681216004170241117,199,1681216004170241117,camera_1,400,0,0.12526761379016044,0.18113881519809713,2.95295497999468,-0.9991635311529591,-0.012793703775886772,0.011628505902226293,0.03705856187342718,0.003012199711520225,0.00045387504165543964,19272.97359531955
1681216004180300474,200,1681216004180300474,camera_1,401,0,0.12525111165767486,0.1820592773432109,2.953482140254733,-0.9992249275721112,-0.012556252037585331,0.011779915621165472,0.035399410182033346,0.0024564642226323485,0.00037026704834991145,19270.13854146318
1681216004210567235,201,1681216004210567235,camera_1,403,0,0.12524647101709432,0.18576449356849387,2.954281226906139,-0.9992138905653163,-0.01277131606814323,0.011219982346662547,0.0358134944309043,0.0063073880155570805,0.0009513971834076261,19256.640908970723
1681216004240418910,202,1681216004240418910,camera_1,405,0,0.12519355885773875,0.1887609212802563,2.9541035965430384,-0.9993099311210009,-0.012689781216148461,0.012917922006902225,0.03243082340383029,0.004629422153811902,0.00069814454752575,19263.549689983614
1681216004270581722,203,1681216004270581722,camera_1,407,0,0.12512730087481505,0.18847284051786453,2.9527579363557703,-0.9990782555141424,-0.012603281850415328,0.010156693262411868,0.03975724119440856,0.007591575966216624,0.001144342552319422,19263.332562011783
1681216004300706386,204,1681216004300706386,camera_1,409,0,0.12521660305863774,0.18527557654753263,2.953941926147744,-0.9991437586281914,-0.012570664730798247,0.006988507566933462,0.038792895542138994,0.004408454871736467,0.0006650371713880773,19257.500139351356
1681216004340687513,205,1681216004340687513,camera_1,411,0,0.12532556121339578,0.18095467893804865,2.953683698371939,-0.9993695515065638,-0.012518337098599635,0.013646606232968301,0.030291267655508314,0.010459426615852863,0.0015766524429740828,19278.74283790844
1681216004370268106,206,1681216004370268106,camera_1,413,0,0.1252676068543347,0.18119732847315725,2.9535455017012673,-0.99926335748966,-0.012962953997590091,0.011053177656632789,0.034387955243650306,0.00019196304492652416,2.893264095808774e-05,19273.68054791028
1681216004410306453,207,1681216004410306453,camera_1,415,0,0.1252104543263353,0.18576354329762704,2.9538972005518023,-0.9991692460283793,-0.012801309986197936,0.010804231560523753,0.03715121578231284,0.0010881774360314012,0.00016409570430724914,19258.263175792872
1681216004450256586,208,1681216004450256586,camera_1,417,0,0.1251096899299502,0.18897182406916904,2.9519936818728034,-0.9990660645718352,-0.01277117155312262,0.009463880138875202,0.040178735306422554,0.0031810161890462037,0.0004792520611547455,19272.229680352495
1681216004470636606,209,1681216004470636606,camera_1,418,0,0.12515289485910158,0.18846931351609436,2.95298704043367,-0.99916582685434,-0.012888761792490197,0.014725029689391394,0.03584276449419402,0.0038067189743742347,0.0005736522797413013,19265.871807821793
1681216004490570783,210,1681216004490570783,camera_1,420,0,0.12519736304195578,0.18651096207512605,2.9535080265183473,-0.9990299412945217,-0.012963469262665754,0.010449358181329528,0.04076684652188127,0.005937374371569604,0.0008953723104981461,19251.70497635239
1681216004520270586,211,1681216004520270586,camera_1,422,0,0.12520286106035,0.1826659238535804,2.952958238470583,-0.9991116944534156,-0.012718596568143715,0.009115635957953153,0.03912754130843633,0.00295240874402225,0.000444995776289542,19268.890467867484
1681216004550379514,212,1681216004550379514,camera_1,424,0,0.12528182364485863,0.18060424969509517,2.953159911107622,-0.9991908797061705,-0.012640680431832845,0.014026254615543184,0.03551145296505786,0.014452062372583896,0.0021780910593619416,19271.5324155849
1681216004570256471,213,1681216004570256471,camera_1,426,0,0.12528165804919397,0.18119911426578816,2.9535639418106445,-0.999259245151964,-0.0128333581240071,0.012002328297694828,0.03423755267279719,0.00153664086246863,0.0002316121874703059,19272.51568281639
1681216004600314855,214,1681216004600314855,camera_1,428,0,0.12525449739931138,0.18449847440662123,2.954342550315143,-0.9991779454646286,-0.012721626817832862,0.009255915760761357,0.03736203329078084,0.008466777740977705,0.0012773739906288683,19254.768891273765
1681216004620251655,215,1681216004620251655,camera_1,430,0,0.12523057384789285,0.18702612938825572,2.954218624283035,-0.9992028960346165,-0.012592522886643833,0.015724981985982784,0.03446339891718745,0.004916067118756473,0.0007413748702508272,19253.43802388036
1681216004650419473,216,1681216004650419473,camera_1,432,0,0.12513945566907386,0.18901698629649824,2.9529840862082026,-0.999160771816004,-0.012782639529382167,0.012431985347614765,0.036875492281807164,0.0018404206493869424,0.00027736114515556357,19265.87201843843
1681216004680847644,217,1681216004680847644,camera_1,434,0,0.1251817038291026,0.18764702217549692,2.953978801371959,-0.9992792605415449,-0.012748553592680224,0.011274402553063915,0.033931131426898235,0.0020610984647646546,0.0003108024173391832,19264.370711759548
1681216004710981607,218,1681216004710981607,camera_1,436,0,0.12527947845746829,0.18397481582526423,2.9545345337147526,-0.9994536787613991,-0.012373428130445957,0.012291611353120261,0.028074162088129944,0.007208170311059803,0.00108712256835444,19273.20888231555
1681216004730970382,219,1681216004730970382,camera_1,438,0,0.12525091784939557,0.18161163882530784,2.9533502332332846,-0.9993011267284497,-0.013051903804963025,0.010459491929429281,0.03342910341147159,0.003365650656633079,0.0005072611442948578,19279.313144529475
1681216004750307559,220,1681216004750307559,camera_1,440,0,0.12520529611480835,0.1805562850494098,2.9519635481229387,-0.9990448713456063,-0.012791763114031759,0.008706401138977353,0.04086458630260329,0.0046897827996872365,0.0007064763535048667,19278.220795265384
1681216004770238876,221,1681216004770238876,camera_1,442,0,0.12527201517400488,0.18117223711462369,2.9531971526593357,-0.9992634215998473,-0.012704044778737263,0.01294724462101212,0.03381701281233488,0.0029835659661330283,0.00044959399102807084,19277.05124018086
1681216004800616979,222,1681216004800616979,camera_1,444,0,0.12520687585559712,0.18440066328288707,2.9531434005525266,-0.9991323638091443,-0.012840442950433396,0.01095810565506822,0.03807312089178683,0.004708742198999971,0.000709720913407249,19266.09463117004
1681216004820378541,223,1681216004820378541,camera_1,446,0,0.1252393927235336,0.18699566632757683,2.953950280081905,-0.9991912032836572,-0.012712480820597267,0.01474189074821401,0.03518534878484113,0.002030055969953537,0.0003060855834143696,19256.495964981146
1681216004850196838,224,1681216004850196838,camera_1,448,0,0.12514185662225802,0.18900918022214347,2.9528369554452536,-0.9991615386089613,-0.012887378996043006,0.011796416034985872,0.03702674433318584,0.0047012955183163285,0.0007085181600169198,19268.198651482242
1681216004870704412,225,1681216004870704412,camera_1,450,0,0.12518189773812374,0.18853057358926797,2.95330286295442,-0.9991628982994982,-0.012738058264036213,0.01212370390118825,0.03693589496851198,0.006818656227551401,0.0010279734752906386,19262.373228592103
1681216004900765180,226,1681216004900765180,camera_1,452,0,0.12521348135994542,0.18526048578935103,2.9535406077929127,-0.999318069329387,-0.012702443489483805,0.0096235469117022,0.033308130929567206,0.0044700714643113315,0.0006739100957540708,19275.721654352034
1681216004920742988,227,1681216004920742988,camera_1,454,0,0.12523499965953971,0.18265902554603952,2.95277794872372,-0.9990781156669067,-0.01278378863845965,0.01341044397738722,0.03872536037068301,0.006053707795217633,0.0009121805085802611,19266.593052627864
1681216004940655708,228,1681216004940655708,camera_1,456,0,0.12529927004838148,0.1809759032800316,2.95397770190358,-0.9992502340387553,-0.012674029724864895,0.011708735108230105,0.03465897093381683,0.008697563665919006,0.001311553080508397,19266.517691344383
1681216004970618724,229,1681216004970618724,camera_1,458,0,0.12524927246879577,0.18112388345448313,2.9525910433803957,-0.9991265458086671,-0.012695031148444013,0.010817462683868009,0.03831402022321341,0.006007080257404596,0.0009050758953423322,19275.03947568324
1681216004990603446,230,1681216004990603446,camera_1,460,0,0.12528016892090632,0.18322361050968855,2.954288187112257,-0.9993830760367057,-0.012939481081799485,0.010299063710340997,0.030983325312759078,0.0027127429493702944,0.00040909452256084544,19272.6273266552
1681216005020531177,231,1681216005020531177,camera_1,462,0,0.12520130835106735,0.18692990337299448,2.9529089927213,-0.9990842177645589,-0.012782272869763854,0.012264739546915777,0.03894759912894102,0.0112042918917723,0.0016887467171133482,19262.445282729917
1681216005030192136,232,1681216005030192136,camera_1,463,0,0.12517577110927755,0.18798591338118037,2.953532032492959,-0.999192648464156,-0.01277367561142451,0.012510469248358407,0.03597739047993585,0.00505002198042348,0.000761300312452813,19262.25854357553
1681216005050848007,233,1681216005050848007,camera_1,465,0,0.12515321573289642,0.1890559807599428,2.953513932492799,-0.9992506256318004,-0.012648677098090168,0.009903069943915023,0.035215441894283814,0.002200636256020516,0.0003317839200602696,19267.308264588246
1681216005070956468,234,1681216005070956468,camera_1,467,0,0.1251474202542722,0.18850572617163627,2.9532034471071515,-0.9991907308695138,-0.012664791601949422,0.01116157652258594,0.036508979822184415,0.0021964371553622186,0.0003310868734121923,19266.368887405497
1681216005090329647,235,1681216005090329647,camera_1,469,0,0.1252039949615195,0.1865424395895525,2.953810224037549,-0.9991503429724994,-0.012637220890030845,0.007646770704420275,0.038476222318564256,0.0069505321444012225,0.0010484654090812254,19258.426508847275
1681216005120273351,236,1681216005120273351,camera_1,471,0,0.12525236384545518,0.1827195075851524,2.9534818453016367,-0.9991400460599703,-0.012961114621823113,0.010106849016699917,0.03806611971286474,0.005261334183160216,0.0007932520794450517,19264.05443247501
1681216005140650033,237,1681216005140650033,camera_1,473,0,0.1252523898208182,0.18091873779024645,2.953370206587854,-0.9993071344117803,-0.012787675264410237,0.013277012916909865,0.03233337908496923,0.0017864397959783671,0.0002692073440456617,19278.425611216695
1681216005160230398,238,1681216005160230398,camera_1,475,0,0.12528001873528338,0.18064860471064229,2.953270688392855,-0.9993277052398157,-0.012789083370560258,0.012995553603399861,0.03180711356294426,0.004667545959819108,0.0007033330848045041,19281.585713036584
1681216005180319070,239,1681216005180319070,camera_1,477,0,0.12527339253484224,0.18210962957912466,2.9534290361487936,-0.9992139502038788,-0.012699066276171907,0.009523702998113804,0.03632512236562519,0.0061058811261318615,0.0009205351337375898,19271.029987586662
1681216005210716009,240,1681216005210716009,camera_1,479,0,0.12525876955801177,0.1857836256010616,2.954218893554866,-0.9992336913241459,-0.01280145152038702,0.01173971882563885,0.03507608820247702,0.012912669102661312,0.001947751791310651,19258.79780418472
1681216005230731725,241,1681216005230731725,camera_1,481,0,0.12517294356668018,0.18800004037887194,2.9537124342134207,-0.9992122451081211,-0.012616841163503947,0.009939750966852613,0.03628919805892639,0.0022101804497651756,0.0003332609031648381,19262.479439634237
1681216005260653734,242,1681216005260653734,camera_1,483,0,0.12513315718426185,0.18893822519500159,2.952885345869826,-0.9990673758508167,-0.012814574069451313,0.008924527503491826,0.04025565812181938,0.0020347008830867708,0.0003067339555763946,19261.123072654475
