%time,field.header.seq,field.header.stamp,field.header.frame_id,field.image_seq,field.transforms0.fiducial_id,field.transforms0.transform.translation.x,field.transforms0.transform.translation.y,field.transforms0.transform.translation.z,field.transforms0.transform.rotation.x,field.transforms0.transform.rotation.y,field.transforms0.transform.rotation.z,field.transforms0.transform.rotation.w,field.transforms0.image_error,field.transforms0.object_error,field.transforms0.fiducial_area
1681064605564720392,1,1681064605564720392,camera_1,3,0,0.09674800788747054,0.23428435231291242,2.95541366161125,-0.9992349232033664,-0.01209841232297822,0.009901259955492351,0.03584915230963637,0.00010264001321047544,1.55166531437722e-05,19215.049956960254
1681064605584823608,2,1681064605584823608,camera_1,5,0,0.09680595137152573,0.23196172994398745,2.9567988125920004,-0.9995464936282887,-0.012070839158640085,0.010359065604952283,0.025569350347475307,0.0008998614503070712,0.0001361011784582205,19224.17469637643
1681064605594763517,3,1681064605594763517,camera_1,6,0,0.0968052732645858,0.23161102761710914,2.9561330981441616,-0.9996117162804891,-0.011898759794341601,0.011786571024591535,0.02226910266745613,0.00019900465849786997,3.0081989098064864e-05,19237.553951881484
1681064605614750623,4,1681064605614750623,camera_1,8,0,0.09677288083923637,0.233017401992634,2.955312766576676,-0.9993979075252889,-0.011998738393830144,0.00926580251796489,0.031208934854120202,0.0015805273433215916,0.0002388617726297083,19230.837473314263
1681064605624688386,5,1681064605624688386,camera_1,9,0,0.09678034078737267,0.23458330530534588,2.9558359261339446,-0.9993190390130064,-0.011951364053571764,0.012537712074203624,0.032579578562724164,0.00024336454225704074,3.679254046618934e-05,19214.861220269464
1681064605634798526,6,1681064605634798526,camera_1,10,0,0.09674525337772266,0.23664453268015842,2.9565475134704706,-0.9992903755174946,-0.011888723804110048,0.009336085612937597,0.03449987173660576,0.0012336410582065582,0.0001866627486315493,19202.58378661424
1681064605644637584,7,1681064605644637584,camera_1,11,0,0.09669930331730317,0.23870281589740563,2.9558461666181333,-0.9992157718807978,-0.012182639026387455,0.01014224354675536,0.036284424025366885,0.001993244921322912,0.00030142866728867274,19203.264940350437
1681064605654743909,8,1681064605654743909,camera_1,12,0,0.09671562331392712,0.24081433783400058,2.95586265855985,-0.9992263723626583,-0.012120497729753826,0.009700718214136424,0.036133729061296686,0.0010722576407715678,0.00016220373733294704,19201.491005038253
1681064605664737462,9,1681064605664737462,camera_1,13,0,0.09668046701755545,0.24279291952803206,2.9568331527807787,-0.9993344286181577,-0.01219786311904674,0.012380602080624617,0.03207230278403393,0.0004444787045940757,6.726451870451285e-05,19194.781206193144
1681064605674825429,10,1681064605674825429,camera_1,14,0,0.09666069382006223,0.24417123130373775,2.9558571964803573,-0.9993198688032056,-0.011978078882536703,0.011665342267271015,0.03286708431265236,0.0008095545927062631,0.00012243334472196782,19204.408484551233
1681064605694746255,11,1681064605694746255,camera_1,16,0,0.09661429535424307,0.24524013951665372,2.9545233826880746,-0.999267234411288,-0.01190151671800331,0.01101629607940905,0.034669718091123264,0.0022274431539699435,0.0003366727632299255,19215.828465095732
1681064605714739799,12,1681064605714739799,camera_1,18,0,0.09665198358831764,0.2440288995030831,2.9560796258050903,-0.9993214953100987,-0.01194140219915607,0.011930789176934855,0.03273542720542883,0.00046989863039925694,7.107751594262781e-05,19201.74928463507
1681064605724737644,13,1681064605724737644,camera_1,19,0,0.0966898841193958,0.24254915125462048,2.9568993399513595,-0.9994681699489221,-0.011961669387288465,0.009465846571482976,0.028821753470372104,0.0038365765940397978,0.0005806229481845272,19206.36780573369
1681064605734744310,14,1681064605734744310,camera_1,20,0,0.09670562152473282,0.24046153327323033,2.955155695247866,-0.9991916488394375,-0.012078780608043346,0.014042578075675275,0.0356785362583364,0.0012563032796606421,0.00018991584617884165,19206.403443145216
1681064605744850158,15,1681064605744850158,camera_1,21,0,0.09672504422601101,0.23841516763832662,2.955865341931787,-0.9991971115430184,-0.012137986878232025,0.013094525753240547,0.03586551204054757,0.0012952761608175933,0.00019587002556777617,19200.55280921224
1681064605754801034,16,1681064605754801034,camera_1,22,0,0.09677646302482978,0.23624644975182674,2.956343760278005,-0.9994036191322766,-0.01201709356183393,0.015429576250810746,0.028459158532079032,0.00015779666136950254,2.386189980595262e-05,19212.583052233327
1681064605765176534,17,1681064605765176534,camera_1,23,0,0.09676507696920392,0.2341946487664835,2.9549159552520585,-0.9992808141759728,-0.012005744667086702,0.010468025473502758,0.03441129113357756,0.0012649441487155855,0.00019115334767578544,19224.886663269248
1681064605774824619,18,1681064605774824619,camera_1,24,0,0.09685888850290023,0.23288434147362733,2.9568043380482285,-0.9995440108970257,-0.012175104568094838,0.016160812422209726,0.022413505984045547,0.0005001761019229889,7.564914012972237e-05,19220.904947059465
1681064605784663200,19,1681064605784663200,camera_1,25,0,0.09677939496369413,0.23192499950219686,2.9558490259110632,-0.9994626502916147,-0.011961901909011313,0.01292493015355539,0.027645429193744474,2.294895239174366e-06,3.468727099138432e-07,19228.53471449751
1681064605794806003,20,1681064605794806003,camera_1,26,0,0.09680275074717942,0.23165447265207428,2.9565149687839782,-0.9996228869288094,-0.01198329868362459,0.012385719380241928,0.021379392793191267,0.0008432128233835101,0.0001274867625422253,19233.36936218152
1681064605804625511,21,1681064605804625511,camera_1,27,0,0.09678932533191534,0.23197778602529026,2.9550650681408346,-0.9993269171706645,-0.012257677506750287,0.010570892225296967,0.032919875423181595,0.0014820831711404026,0.00022397340899040866,19228.904112837037
1681064605814758300,22,1681064605814758300,camera_1,28,0,0.09676576810241723,0.23305719338499398,2.9557129963817577,-0.9993308845279534,-0.012373573873797969,0.015454099208198997,0.03075465356382727,0.000597817765083164,9.034930140965903e-05,19218.101766507025
1681064605824675321,23,1681064605824675321,camera_1,29,0,0.09680873214341312,0.23468857481927966,2.9565527028506775,-0.999399413820766,-0.01199596307423685,0.012254733357098792,0.030111958338466457,0.0023130382178351283,0.00034988683616364087,19212.17592541676
1681064605834749460,24,1681064605834749460,camera_1,30,0,0.09681274214984015,0.23670424238973542,2.9578710236948935,-0.9995099784160943,-0.011919692089867477,0.011755798206211057,0.026448538630256577,0.0014009539736434817,0.0002120981277227925,19202.54692516569
1681064605844752550,25,1681064605844752550,camera_1,31,0,0.09673079015942014,0.23871211828405897,2.955835643849283,-0.9992318301563069,-0.011802446148198649,0.007449391019574548,0.03661909939954805,0.0012198995100334287,0.000184545296429538,19205.360296223553
1681064605854757785,26,1681064605854757785,camera_1,32,0,0.09665912950863009,0.24080603117752303,2.9549207510576996,-0.9992209961034044,-0.01198588930209261,0.010920200974262387,0.03597900241029511,0.000532496371306479,8.049463078030248e-05,19212.603057453874
1681064605864851713,27,1681064605864851713,camera_1,33,0,0.09670413164758232,0.24277809030215086,2.956513051261287,-0.9994451798796782,-0.012000847734856327,0.012991263872278773,0.028223024854247443,0.0009553354466333985,0.00014453358947109313,19207.837188043162
1681064605874774932,28,1681064605874774932,camera_1,34,0,0.0967273035246532,0.24423179861314798,2.957374245968591,-0.9995187381734819,-0.0117588546490668,0.01874649856551815,0.021739139103603058,0.0001546023995615542,2.3398308816529747e-05,19199.541449404318
1681064605884683370,29,1681064605884683370,camera_1,35,0,0.09662828456117376,0.24496838867928764,2.955073982818279,-0.9992808903546483,-0.012051009802227956,0.008929808274618504,0.034824328549833146,0.00083199143409729,0.00012580984863852108,19211.214918239617
1681064605894683122,30,1681064605894683122,camera_1,36,0,0.09665227381719688,0.24534134679477299,2.9556757603841364,-0.999397097132746,-0.011871110677157737,0.01260314288971428,0.030094513839447938,8.211244130507112e-05,1.2416503767607657e-05,19211.385992850992
1681064605904685735,31,1681064605904685735,camera_1,37,0,0.09659973184243707,0.24490057911524224,2.954894513422205,-0.9993243557648851,-0.012086291643149711,0.012861952332911788,0.03223854388151218,0.00014621397713199258,2.2099064401766858e-05,19215.947162922
1681064605914715290,32,1681064605914715290,camera_1,38,0,0.09664785419258853,0.2439740529571156,2.955890429602098,-0.999308864629916,-0.011953838209244876,0.009987386007983842,0.03375131026883442,5.567504558712244e-05,8.421597541946438e-06,19203.9093860297
1681064605924690246,33,1681064605924690246,camera_1,39,0,0.09670107403255851,0.2425261664286913,2.9570417748209694,-0.9994668512090117,-0.012242327500670358,0.011425849769960675,0.02802835544130035,0.0015882854931987822,0.00024034701633247503,19204.025687813766
1681064605934738397,34,1681064605934738397,camera_1,40,0,0.09673383906949828,0.24060935695915034,2.956485763657221,-0.9992159618811858,-0.012064579947508572,0.011819210030505279,0.03580801176834036,0.0017359818448312578,0.00026267613170379624,19191.982937604436
1681064605944706678,35,1681064605944706678,camera_1,41,0,0.09675983559805985,0.2384373402234979,2.9565915371266933,-0.9993469492590429,-0.012061436585131088,0.01160887038476103,0.03202234973478005,0.0005921300034970045,8.958202570717583e-05,19203.990864168503
1681064605954684734,36,1681064605954684734,camera_1,42,0,0.09676642835678957,0.23618234661125184,2.955990765714842,-0.9993312163043573,-0.01183691960195201,0.01460217898208387,0.03136532835737931,3.989000106230378e-05,6.031003880959367e-06,19211.389859362498
1681064605964686870,37,1681064605964686870,camera_1,43,0,0.09678962679705928,0.23435532564770764,2.9563103949718594,-0.999389671223218,-0.011880016376871284,0.010196135586011092,0.031228017585902972,0.0001562192919664085,2.362673567048803e-05,19215.577069091953
1681064605974736928,38,1681064605974736928,camera_1,44,0,0.09675042307561692,0.23279881364139166,2.954653857210488,-0.9990987169616699,-0.01213208457119575,0.011085593309955994,0.03913663131222096,0.0009782667038962245,0.00014783108669043414,19214.88886084396
1681064605984690666,39,1681064605984690666,camera_1,45,0,0.09678269438269224,0.231895044096978,2.955489265605252,-0.9994072465995947,-0.012055215733555457,0.011205340882660775,0.030236857534104676,0.0004123373655602336,6.231721775422824e-05,19229.524005658215
1681064605994750261,40,1681064605994750261,camera_1,46,0,0.09681318179909143,0.23160559427802355,2.955964724776633,-0.9994994139654343,-0.01215218489753743,0.012596444733764362,0.026354799658486378,0.00029613671358674765,4.476354783103891e-05,19230.536154509755
1681064606004704713,41,1681064606004704713,camera_1,47,0,0.09678733370103847,0.2319975167985599,2.9551542401666877,-0.9992846716834484,-0.01219487191025906,0.009279002032469936,0.03457354709711801,0.000815355742815882,0.000123235456904164,19224.854218776105
1681064606014758110,42,1681064606014758110,camera_1,48,0,0.09676342870933186,0.2330627302563499,2.9555333854810106,-0.9993429833571631,-0.012184517461349437,0.007860909327177154,0.033216641214744484,6.129470421001315e-05,9.265990174329118e-06,19224.320757328773
1681064606024717807,43,1681064606024717807,camera_1,49,0,0.0967221814449613,0.2344845508649402,2.9540906002375964,-0.9991937615279325,-0.012151209504530198,0.014574681470374452,0.03538013130664532,0.00010670715710148215,1.611401584183677e-05,19226.711478702364
1681064606034722328,44,1681064606034722328,camera_1,50,0,0.09676126899524487,0.23657738041455603,2.9563011642497585,-0.999394823822369,-0.011981645158144224,0.010847892440329417,0.03080177796757047,0.00021185801597312093,3.2042121620351386e-05,19213.82747326244
1681064606044639825,45,1681064606044639825,camera_1,51,0,0.0967748779947554,0.23879099712705973,2.957367138909511,-0.9995156371793343,-0.012235991115569124,0.01580842644319662,0.02385089534585909,0.00045846932334825397,6.937787042946365e-05,19206.40175464633
1681064606054695367,46,1681064606054695367,camera_1,52,0,0.09674270012244152,0.24092059710795033,2.9563946320330468,-0.999267672500564,-0.012045055329567855,0.009397449366823593,0.03508166590701102,0.0017995766247622669,0.00027232565988718083,19197.971435758285
1681064606064641714,47,1681064606064641714,camera_1,53,0,0.09674199748542442,0.24282049792725685,2.957559204914845,-0.9994157058332589,-0.011949351729718817,0.014395552081358882,0.02860468505893895,0.000789749959949404,0.00011955845938416935,19191.291499100516
1681064606074734926,48,1681064606074734926,camera_1,54,0,0.0966232853187522,0.244106867964622,2.9555904824264014,-0.999345685438504,-0.012062373745349991,0.012832644918669258,0.03159150771118211,0.0010407728841528296,0.0001573641639161535,19209.816819853513
1681064606084705114,49,1681064606084705114,camera_1,55,0,0.09662843465126562,0.24503624867409193,2.955469787119663,-0.9992948897204671,-0.011952364402301564,0.008719039523250264,0.034508588982253105,0.0006180963246151805,9.347769216875737e-05,19207.241612782927
1681064606094722747,50,1681064606094722747,camera_1,56,0,0.09665598331991708,0.24531744426652657,2.9553610012316875,-0.9992946298467761,-0.011980588050981199,0.014557824164512461,0.03247734633467912,0.00012636056635528803,1.9104462463342735e-05,19206.11522610158
1681064606104670286,51,1681064606104670286,camera_1,57,0,0.09663729644996186,0.2449245585707473,2.9555016546614508,-0.9993819438776125,-0.011909587722401914,0.013239895217080263,0.03030836759589603,0.0019960455829277635,0.0003018118099994182,19212.678589391173
1681064606114728927,52,1681064606114728927,camera_1,58,0,0.09664906104670115,0.2438948996582063,2.955103713492866,-0.9992924536963621,-0.011971722628507217,0.0112734623487566,0.03382571343639717,0.00016394228441640735,2.4784005868189776e-05,19212.24638044939
1681064606124646663,53,1681064606124646663,camera_1,59,0,0.09672627192146321,0.24247010017327383,2.956228171693855,-0.9994802213464108,-0.011532625264171353,0.01477042660928896,0.026232045090411542,0.0036964394384995103,0.0005591319254474582,19213.742872614297
1681064606134722232,54,1681064606134722232,camera_1,60,0,0.09671439343386595,0.24056653021300736,2.9561406917048467,-0.9993028497217139,-0.011788592529760123,0.010868187025462451,0.033715369418242686,0.0021399433026090264,0.00032372459388197187,19203.78315596294
1681064606144668102,55,1681064606144668102,camera_1,61,0,0.09670421387055919,0.23838931281331727,2.9559311203640384,-0.9992331432165112,-0.012180474175054119,0.009445268274675258,0.03599372797782265,0.0017613008385524154,0.000266372150711517,19204.228167032947
1681064606154672861,56,1681064606154672861,camera_1,62,0,0.09681575448552446,0.23623553782753234,2.9568446379842137,-0.9994391551255869,-0.012169731426507423,0.014226764318337156,0.027764582040621676,0.0005858545191586018,8.862383034573594e-05,19209.62949966942
1681064606164631128,57,1681064606164631128,camera_1,63,0,0.09677626003761836,0.23431724645729637,2.9557477551787197,-0.99935234506238,-0.012121778238607982,0.012338180693310764,0.03155506627841214,0.0027972503448836505,0.0004229123681119909,19219.179215652985
1681064606174759626,58,1681064606174759626,camera_1,64,0,0.09678517986480033,0.23283978359853946,2.955744504350864,-0.9993666200666415,-0.012096724826277926,0.01168941480185199,0.03135897840563083,0.001957720029167831,0.000295951262958709,19221.973913255504
1681064606184664249,59,1681064606184664249,camera_1,65,0,0.09677735357607106,0.231847621359629,2.955299481459571,-0.9993826328550739,-0.012034125160743378,0.011977109761698296,0.030758443085315938,0.0014773953589610755,0.0002232222470420366,19229.715400320012
1681064606194737911,60,1681064606194737911,camera_1,66,0,0.09677196096235002,0.23156627091344997,2.955413065042892,-0.9995214114524792,-0.012037908151216184,0.010495478427987707,0.026493050937073482,0.0011733845458365977,0.00017730693450344214,19240.263043458115
1681064606204617261,61,1681064606204617261,camera_1,67,0,0.09680841390674673,0.23207622088496963,2.9562787037634726,-0.9995118412482555,-0.01190135383549191,0.009376235800242627,0.027322576445548162,0.0005976079846732318,9.036034837581962e-05,19228.219344176345
1681064606214735269,62,1681064606214735269,camera_1,68,0,0.09679540176524298,0.23310186336158445,2.9564251336918885,-0.9995195910050172,-0.012150333109646434,0.012931653807519547,0.025411196986571197,0.0007984711555764079,0.00012072284510765381,19224.937699620037
1681064606224691867,63,1681064606224691867,camera_1,69,0,0.09679149895869432,0.23465096675381833,2.9563936927004377,-0.9993980456198005,-0.012111361377020789,0.012925612654126301,0.02982934585997013,0.0004115139599889517,6.223270893265256e-05,19214.03271220495
1681064606234737157,64,1681064606234737157,camera_1,70,0,0.09677148639508626,0.23659446986640412,2.9562667151291846,-0.9992276469770006,-0.012220634783647898,0.013323056420506935,0.034889278724378525,0.0006006965413689613,9.085853050006475e-05,19199.81105057616
1681064606244650840,65,1681064606244650840,camera_1,71,0,0.09672357300089432,0.2387049951408194,2.9558972962278633,-0.9992881029577402,-0.011912374780801177,0.011178441650693146,0.03400625025586677,0.0016867922968231142,0.00025511604466428616,19207.808697444387
1681064606254689693,66,1681064606254689693,camera_1,72,0,0.09670041028465384,0.24091407297957623,2.9564307218103156,-0.9994047942118578,-0.011747841358605704,0.012078182657123477,0.030102541976857564,0.00021062354790046814,3.186182208322774e-05,19207.719159274366
1681064606264692306,67,1681064606264692306,camera_1,73,0,0.09669913612086739,0.24275423571364774,2.956591888258878,-0.9993714523910838,-0.011848177948051047,0.012259173942141339,0.031081079120636942,0.0016012130654416978,0.0002422816560602587,19200.703495775226
1681064606274772167,68,1681064606274772167,camera_1,74,0,0.096649198589699,0.24408171345485508,2.9550619360118127,-0.9993795963613992,-0.011930132870459572,0.012504768947125164,0.03068753916167063,0.0007797851576469839,0.00011786756935698135,19219.448166899965
1681064606284706830,69,1681064606284706830,camera_1,75,0,0.09663110189979948,0.2450382924953683,2.9553271871535602,-0.9992415926045181,-0.012131090188239612,0.009595569310976161,0.035735155094520604,1.8608581740409136e-05,2.8142240579541873e-06,19204.387925943818
1681064606294731855,70,1681064606294731855,camera_1,76,0,0.09658811985314311,0.24522636470001935,2.95414239158288,-0.9992796423724949,-0.011932195864917406,0.008175672817897746,0.03508528773880686,0.0007627845043316483,0.00011526840214788542,19222.951417210512
1681064606304686546,71,1681064606304686546,camera_1,77,0,0.0966316944180123,0.24496210815916286,2.9557803125707203,-0.9993227324954278,-0.012096708883859018,0.009865390793937633,0.033322965302233394,0.000420203956309706,6.356305949829378e-05,19205.409498352325
1681064606314714193,72,1681064606314714193,camera_1,78,0,0.09662337208590457,0.2439233761173912,2.9555133464864687,-0.9993478117522152,-0.012121016439346223,0.010710757350534483,0.03228485377873124,0.0010330122313462196,0.00015619241455970965,19212.046011663268
1681064606324672460,73,1681064606324672460,camera_1,79,0,0.0966696897972569,0.24249724277931642,2.9563236841903513,-0.9993715470600939,-0.011869908411153948,0.010826576152967393,0.03159749119517834,0.0005406336858868599,8.178842724331196e-05,19205.059646869548
1681064606334674358,74,1681064606334674358,camera_1,80,0,0.09672706896277723,0.24055954728322942,2.9567058890766904,-0.9994654165428053,-0.011993567383310734,0.013011767011276166,0.027490532835559425,0.00043345626909285784,6.557739921657325e-05,19209.56157632277
1681064606344667434,75,1681064606344667434,camera_1,81,0,0.09674123274249471,0.2384165307655003,2.9561263725072617,-0.9993170275684569,-0.01201953972103353,0.008350429064924668,0.03393050855896828,0.0014741079066880047,0.0002230067423794128,19208.786623939173
1681064606354754924,76,1681064606354754924,camera_1,82,0,0.09676521813773503,0.2362696252521897,2.956728126223064,-0.9993288610667248,-0.012251843634456704,0.012636753162481409,0.03212525853825608,0.00013836025027558208,2.0931080701852177e-05,19202.808749012176
1681064606364804983,77,1681064606364804983,camera_1,83,0,0.09681796847464302,0.23432140897352596,2.9563747996140224,-0.999510316507995,-0.012025217745950518,0.01472728024977799,0.024852133684949443,0.004212076135445386,0.0006368875608406241,19222.927779114347
1681064606374734878,78,1681064606374734878,camera_1,84,0,0.09681605740309854,0.23277996357309075,2.955266054847491,-0.999404476180943,-0.01199187670872342,0.015180823682011103,0.02857324753740311,0.001452550117392093,0.00021949219689161158,19229.675666186384
1681064606384582757,79,1681064606384582757,camera_1,85,0,0.09676410919614356,0.23187724099409399,2.955453836524056,-0.9994656934188053,-0.012125474623530983,0.010683378617484432,0.028410666400781204,0.0003679833607748151,5.560905826198442e-05,19235.011272865813
1681064606394717931,80,1681064606394717931,camera_1,86,0,0.0967868411041636,0.2316131210811163,2.955730977721554,-0.999447396653047,-0.011990629205197027,0.013004019518997,0.02814287851411112,0.00032142980489879847,4.858246950266443e-05,19229.05899647996
1681064606404663801,81,1681064606404663801,camera_1,87,0,0.09682848227949212,0.2320459746510631,2.956109280211511,-0.9994342296188082,-0.012188414089428954,0.01601863158970722,0.02694562432450479,0.0008794718887656927,0.00013295876953657002,19221.692424752517
1681064606414761543,82,1681064606414761543,camera_1,88,0,0.09680866717679795,0.2330911170158853,2.9562651056638938,-0.9994294465078906,-0.011899361913767191,0.012853717162899066,0.02887851440211028,0.00042653398122638464,6.448920152461316e-05,19219.451261560076
1681064606424676418,83,1681064606424676418,camera_1,89,0,0.09678435307227123,0.2346014118690717,2.955955627126957,-0.9994043171536899,-0.011923057459815964,0.008436504362884662,0.03126782610786844,0.000932605704292655,0.00014102217058627412,19221.87624259258
1681064606434698581,84,1681064606434698581,camera_1,90,0,0.09674699329817055,0.23660915717872272,2.9560138569034655,-0.9993289080102007,-0.012034620652001204,0.007668384698390591,0.033735699148228764,0.0016600298113189638,0.0002510636361647362,19213.46389151411
1681064606444670915,85,1681064606444670915,camera_1,91,0,0.0966790574465429,0.23867935223694364,2.955550882253422,-0.9992750079883399,-0.01208003580649667,0.011098599677230165,0.03435625459827838,0.0008453711052425206,0.0001278113751325418,19211.485594937465
1681064606454715967,86,1681064606454715967,camera_1,92,0,0.09671618122979972,0.2408877413712309,2.956605425913139,-0.9993786626502188,-0.012056565650307226,0.011506100099426556,0.03105700443832541,7.275410462170839e-05,1.100707975891848e-05,19203.818363826027
1681064606464649677,87,1681064606464649677,camera_1,93,0,0.09671268148122053,0.24275158742057526,2.956676582808016,-0.9993693646035752,-0.011942153805141867,0.01730307407571352,0.028615759327178542,0.0001453993609175086,2.1995232059016323e-05,19197.847819718547
1681064606474799871,88,1681064606474799871,camera_1,94,0,0.09664587764140027,0.2441757587824327,2.956191986610422,-0.9994052712432148,-0.011906136523811287,0.0131073816714417,0.029589597328656885,0.00023852562298998237,3.607785714464337e-05,19206.81726028573
1681064606484685897,89,1681064606484685897,camera_1,95,0,0.09665048971769677,0.24507234597939667,2.9560524032808373,-0.9993333025449911,-0.011926148334782206,0.012172646195675799,0.032288451418624194,0.0011080530239269137,0.00016762003367384095,19201.63955794729
1681064606494733810,90,1681064606494733810,camera_1,96,0,0.09662216512701204,0.2452732931431916,2.9549081075767196,-0.9993326379009635,-0.012102901995428936,0.013754460089972841,0.031600845191608246,0.00212545960675925,0.00032121896984186335,19215.68254167354
1681064606504748821,91,1681064606504748821,camera_1,97,0,0.09666476966043924,0.24491690505853597,2.955522037964206,-0.9993846690647384,-0.01186189065269509,0.014946277901147461,0.029431064632601808,0.00021314446348696947,3.222500079526245e-05,19212.024999388377
1681064606514703512,92,1681064606514703512,camera_1,98,0,0.09662100168296939,0.24392794944505017,2.955283171212615,-0.9993094538734648,-0.01218707680040443,0.010753218203160777,0.033413453225517045,0.0008291515405289828,0.00012535557402085598,19211.799633770715
1681064606524661540,93,1681064606524661540,camera_1,99,0,0.09664745768778149,0.242459512742997,2.955565118667908,-0.9992147926960202,-0.011990882683844078,0.010094572582970873,0.0363884101642113,0.0010442740167491138,0.000157936519125661,19202.11373512598
1681064606534848451,94,1681064606534848451,camera_1,100,0,0.09670769349100633,0.24049497354631513,2.9557233779146657,-0.9992925319736978,-0.012126782016189483,0.014584704350206278,0.03247557695476987,0.0004048001719638705,6.120610443902276e-05,19207.325498511433
1681064606544623136,95,1681064606544623136,camera_1,101,0,0.09674312743764629,0.23837424352706263,2.95600504851279,-0.9992455444947105,-0.012009158393865264,0.012319700648296496,0.03481877220806603,0.00023251253878697748,3.516445017502044e-05,19202.928343179174
1681064606554651737,96,1681064606554651737,camera_1,102,0,0.09675344744859005,0.2362114301176476,2.956019019879093,-0.9992288404867178,-0.011973941051176109,0.012324484549440334,0.03530518596273117,0.0012361304252408445,0.00018695307882335836,19203.669383656113
1681064606564658641,97,1681064606564658641,camera_1,103,0,0.09679287190594528,0.2343499705145735,2.9560930309605737,-0.9993418496999866,-0.012046600079057888,0.008321975505857563,0.03318872682741207,0.0016971362638287246,0.0002566986383800033,19215.425142516382
1681064606574731588,98,1681064606574731588,camera_1,104,0,0.09676974597315013,0.23275513835642442,2.95466592472274,-0.9992129946492995,-0.011908858517123618,0.011432513951681074,0.03606754826076945,0.0017599522252567112,0.00026591138838576677,19223.536402338883
1681064606584696292,99,1681064606584696292,camera_1,105,0,0.09680498516693845,0.23191245417932063,2.955718650343508,-0.9994283781074731,-0.012093212762534201,0.010422161396768588,0.02980016426742758,0.0005489495233632624,8.297034500097305e-05,19228.597083892208
1681064606594726800,100,1681064606594726800,camera_1,106,0,0.09678295508357614,0.23157287359293602,2.9555152188410148,-0.9995144652906914,-0.01192275681983654,0.014913983336597927,0.024622238840405413,0.001711960998363793,0.00025866411919326336,19236.47244328751
1681064606604671001,101,1681064606604671001,camera_1,107,0,0.0967647368429623,0.23194480554142924,2.954783497198081,-0.999423608114813,-0.012057689112740199,0.014590478813983983,0.028181227865513976,0.001489221234805882,0.00022495265210130123,19238.51723653824
1681064606614682197,102,1681064606614682197,camera_1,108,0,0.09680065668270883,0.2331113463124359,2.9566301862402518,-0.9994985631052513,-0.011960517650070886,0.008726574716941366,0.027989556298558125,0.0013823427143506704,0.00020907356549050533,19222.096868384157
1681064606624663829,103,1681064606624663829,camera_1,109,0,0.09679376124533098,0.23465008899020454,2.9564784702741322,-0.9994200821947199,-0.011955920696347443,0.012694958905257311,0.02924710728595154,3.054278204217553e-05,4.619049205272407e-06,19214.680591356006
1681064606634735584,104,1681064606634735584,camera_1,110,0,0.0967725126917095,0.23660273067548301,2.9567036685979216,-0.9993736231836705,-0.01223340456702569,0.010721375317422788,0.031428604944305986,0.0004101533559150994,6.204696431980335e-05,19207.186147528937
1681064606644689559,105,1681064606644689559,camera_1,111,0,0.09673734593816515,0.23868703798693364,2.9557944701354035,-0.9992139320255037,-0.012304987658092525,0.0140753829024904,0.0349569581201577,0.000547802250366658,8.283626690777984e-05,19202.293977898662
1681064606654666900,106,1681064606654666900,camera_1,112,0,0.09670540649470023,0.2408341448686112,2.9556956309422433,-0.99935988693977,-0.01185498462758358,0.013296956483289475,0.031023646843847508,8.343521039932965e-05,1.2615062983956148e-05,19213.125551394543
1681064606664637088,107,1681064606664637088,camera_1,113,0,0.09671214537755388,0.24267796644201114,2.956014675529999,-0.9994036734808027,-0.012116945868052975,0.013830815407897474,0.029226453788657642,2.566725015640259e-06,3.881535414877425e-07,19210.643023367047
1681064606674740314,108,1681064606674740314,camera_1,114,0,0.09666478201349568,0.24408826776323783,2.9553331266435214,-0.9993219461045929,-0.011949952844496667,0.010933960094061682,0.033065014402006765,0.005910757288802415,0.0008938391501159761,19211.608799169422
1681064606684641599,109,1681064606684641599,camera_1,115,0,0.0966414843935891,0.24501931646447375,2.9553741437448835,-0.9992933536898165,-0.01209295711568078,0.010639286728570795,0.03396114305297754,0.00043097021989524364,6.51738294699664e-05,19207.739933753386
1681064606694777965,110,1681064606694777965,camera_1,116,0,0.09660731501119207,0.24525839016675488,2.954637221734066,-0.9992430715115064,-0.011705613445594698,0.010164099613563307,0.03567847711377902,4.852761048823595e-05,7.335396986911946e-06,19212.4504026689
1681064606704681873,111,1681064606704681873,camera_1,117,0,0.09661692924272508,0.2448765720501555,2.954978041430128,-0.999370928737005,-0.01191135693616004,0.015336971049600056,0.0296756413629003,0.001260439574252814,0.00019047919583478165,19217.878269720353
1681064606714726448,112,1681064606714726448,camera_1,118,0,0.09667643024055059,0.24398492835525615,2.9565109229949424,-0.9994658457728663,-0.011993873023934403,0.011763245180946978,0.028032056760568698,0.002834384678862989,0.0004287351595060912,19208.687664747347
1681064606724706888,113,1681064606724706888,camera_1,119,0,0.09670871456744926,0.24258328780575514,2.9573925623350066,-0.9994963149110608,-0.011773517130807307,0.01190057334609618,0.0269606588868705,0.00042835366912186146,6.483636104244492e-05,19201.319965288963
1681064606734731197,114,1681064606734731197,camera_1,120,0,0.09671330311155356,0.24055884084251505,2.955809136174608,-0.9991841734588206,-0.012056540431926025,0.015231545913245392,0.035406600392009525,0.0005521324928849936,8.349519042115542e-05,19196.827012073598
1681064606745113134,115,1681064606745113134,camera_1,121,0,0.09670867931441066,0.2383180810792219,2.955143782082295,-0.999130891567812,-0.012036776672559679,0.012053305934025442,0.038043335005030876,0.0008610478253103793,0.0001301644962597778,19204.82953112234
1681064606754869222,116,1681064606754869222,camera_1,122,0,0.09677777473687738,0.23620885385330812,2.9563144892071835,-0.9994437482809878,-0.012102418788719163,0.01319366520599476,0.028136323141878927,0.0008876726496964693,0.00013423280048063897,19217.22646706435
1681064606765239715,117,1681064606765239715,camera_1,123,0,0.09680385654520057,0.23435391162101535,2.9564650575366485,-0.9994640887035239,-0.011959722585219953,0.010886904329638942,0.02846007276583131,0.001489158777985722,0.0002252003202007308,19219.428828315802
1681064606774729967,118,1681064606774729967,camera_1,124,0,0.09682146165825731,0.23291217431896516,2.9567763307449653,-0.9994951065856928,-0.012162821977064428,0.010306770985546724,0.027483961589627095,0.000711557106114924,0.00010763519283085265,19219.603465346154
1681064606794800996,119,1681064606794800996,camera_1,126,0,0.09677399787735111,0.2315897817952675,2.95559963401641,-0.9994815305757823,-0.012160052644194895,0.011066896165906894,0.027682611271970293,0.0004871960263699293,7.362419039496792e-05,19234.51106164372
1681064606804776430,120,1681064606804776430,camera_1,127,0,0.09682027049970668,0.23210276771707725,2.9566444074217477,-0.9994886762204672,-0.01203722034082551,0.012568591672100936,0.026823906070974398,0.0007068134727887809,0.00010689625480887742,19220.405823610727
1681064606814702272,121,1681064606814702272,camera_1,128,0,0.09675753110655148,0.23298061802621586,2.9549318443140407,-0.9993507703766418,-0.012037550515209664,0.015527263738166196,0.030199986854499608,0.00025799532886594534,3.8972837394804525e-05,19229.47060251003
1681064606824720621,122,1681064606824720621,camera_1,129,0,0.09678925080348835,0.23457254916182002,2.955990323122603,-0.9993893289748864,-0.011990243382759933,0.013384902573135248,0.02996744196384091,0.00038909754948690534,5.88240048438361e-05,19218.287296934388
1681064606834755659,123,1681064606834755659,camera_1,130,0,0.09675922033820195,0.23656095534558183,2.955668337547772,-0.9992265544804291,-0.012160178710306661,0.00801993031099669,0.03652538285508168,0.0008084584260359406,0.00012227130551925946,19209.552397929365
1681064606844756126,124,1681064606844756126,camera_1,131,0,0.09670753557272363,0.2386565067606052,2.9552256808786552,-0.9992342562620627,-0.012289242126727835,0.012994148776549039,0.03479982382032844,0.0019354273681528866,0.0002925630141660613,19211.742112605243
1681064606854906797,125,1681064606854906797,camera_1,132,0,0.09674365466804732,0.24096969503267365,2.957506442401515,-0.9994734803914572,-0.011731597542453159,0.011167147791374813,0.028114523355292163,0.0008831469458527863,0.00013368355575533482,19199.916953060427
1681064606864753484,126,1681064606864753484,camera_1,133,0,0.09669585290127741,0.24273708647094885,2.9563752676059334,-0.9992963042407416,-0.01195288601780475,0.014641408617237263,0.03239836416153712,0.0021990800742059946,0.00033270024570150256,19196.417447032534
1681064606874819517,127,1681064606874819517,camera_1,134,0,0.09664509983379435,0.24408148154857773,2.955086509858247,-0.9993156312967603,-0.012037654744857382,0.014256924062926522,0.03193906746392539,0.0005327020189724863,8.051772948315777e-05,19213.201226852263
1681064606884735345,128,1681064606884735345,camera_1,135,0,0.0966647195066187,0.2450896392006356,2.9564563064504092,-0.9994007594208881,-0.011879948167532805,0.006634880080303156,0.03182714669600361,0.00010325259063392878,1.5626574553307867e-05,19204.218339023642
1681064606894790172,129,1681064606894790172,camera_1,136,0,0.09663833564861285,0.24529928081288685,2.955146698020891,-0.9993508905077864,-0.012019830771824351,0.011728426742389787,0.03187107333711685,0.0008341408101841807,0.00012609772951227801,19214.734976431588
1681064606904735803,130,1681064606904735803,camera_1,137,0,0.09667688990203044,0.245001540917051,2.9565948951767544,-0.9994876221180622,-0.01181142419955365,0.01258380453105761,0.026956100509605292,0.00047710922081023455,7.218904869920992e-05,19207.751711183468
1681064606914870023,131,1681064606914870023,camera_1,138,0,0.09663247025411337,0.24400208786778144,2.955813950718602,-0.9993869550825901,-0.012010430320333014,0.010904578336309092,0.031025050291289782,0.005736391700338573,0.0008675969906475751,19211.196154935526
1681064606924705505,132,1681064606924705505,camera_1,139,0,0.09670257985902428,0.24257147181120423,2.9572058725452592,-0.9994359144708862,-0.01202748588428827,0.011431130299432357,0.02919797440105048,0.0016748380730859935,0.0002534966058048979,19199.003155444625
1681064606934759140,133,1681064606934759140,camera_1,140,0,0.09668598814338261,0.24050997972922805,2.9557900881965926,-0.9992957390811591,-0.012214896353822155,0.01347863956489563,0.0328199396218986,0.0005059918039478362,7.650818906448174e-05,19207.25267466717
1681064606944741010,134,1681064606944741010,camera_1,141,0,0.09678570793110738,0.23846429483377599,2.9573569518877183,-0.9993958258553236,-0.01190155237099742,0.009388584202131378,0.03127604196178557,1.862726639956236e-05,2.8196221905359473e-06,19198.86855072574
1681064606954704046,135,1681064606954704046,camera_1,142,0,0.0967648789934979,0.23620222929445878,2.956265340070277,-0.9993944549645487,-0.011924372740644099,0.015385917718628066,0.028841051589887597,0.0007619727402925491,0.00011521600606406248,19212.82426422077
1681064606964735507,136,1681064606964735507,camera_1,143,0,0.09679361768418712,0.23429862968824897,2.955693785985118,-0.9993328233122222,-0.012204256243532054,0.010763122300586849,0.032697394066010604,0.0016970503493212163,0.0002565821981535339,19219.010845978504
1681064606974710464,137,1681064606974710464,camera_1,144,0,0.0967747851159457,0.2328550341990433,2.956045090244618,-0.999313463846181,-0.012042353875251629,0.00733006571577399,0.0342615356557946,0.0006175246089696884,9.339524387307218e-05,19215.628552717975
1681064606984742879,138,1681064606984742879,camera_1,145,0,0.09680605113511162,0.23188351273610408,2.9556213390449324,-0.999439330833245,-0.012017220085711315,0.014112190130067955,0.027882906855993823,0.0014317016466520727,0.00021638992052103244,19229.13605884229
1681064606994802713,139,1681064606994802713,camera_1,146,0,0.09677551170314516,0.23160870695987176,2.9557906878581583,-0.9994583614784264,-0.011919458039919813,0.010513321685586377,0.028816319300516747,0.0006399609264917672,9.672526217844193e-05,19230.172412844953
1681064607004734516,140,1681064607004734516,camera_1,147,0,0.09679331907330291,0.23200636424081603,2.955666722025733,-0.9994523633683272,-0.012209850852281696,0.011693881090394128,0.0284454925194471,7.612083572894335e-05,1.1504655743914496e-05,19230.71044822724
1681064607014756202,141,1681064607014756202,camera_1,148,0,0.0967721015169769,0.23297744399350223,2.9549025506624464,-0.9993040807294293,-0.01211660212597993,0.011186007004178732,0.033457666352172656,0.0005754638696089387,8.694944100195117e-05,19227.898349663476
1681064607024660825,142,1681064607024660825,camera_1,149,0,0.09678672526602079,0.2346265573020133,2.956245232703435,-0.9994290935129565,-0.012030930019535114,0.013260789419908004,0.0286512691986937,2.3083994165062904e-05,3.4903779736634205e-06,19218.29536772741
1681064607034727334,143,1681064607034727334,camera_1,150,0,0.09678477201181979,0.23665257726114852,2.9571989211043097,-0.9994468127188015,-0.012108124962394788,0.011209083721752682,0.028875912076375004,0.0006513583357445896,9.855611399942394e-05,19206.4654113761
1681064607044787168,144,1681064607044787168,camera_1,151,0,0.09672684816271811,0.23873899248328498,2.956197041138206,-0.9993054729099788,-0.011851835534834631,0.007155129306199944,0.034596386100724706,0.0006163431098684669,9.325112290742708e-05,19206.929943114403
1681064607054788112,145,1681064607054788112,camera_1,152,0,0.09675223422435178,0.24088756406956935,2.956950492931226,-0.9994226001445332,-0.012028655362504888,0.015291644144926422,0.027855760442961754,0.0019489082042127848,0.00029488836621953613,19201.651606796542
1681064607064716815,146,1681064607064716815,camera_1,153,0,0.09672029819736525,0.2427449508499233,2.956505339748814,-0.9994495983291449,-0.011965041831688516,0.013710212186963206,0.02773748826886133,0.0025420907186344266,0.00038460543905099813,19208.03891910635
1681064607074831962,147,1681064607074831962,camera_1,154,0,0.09661416916226409,0.2439975433513087,2.9541299964957375,-0.9990897983313093,-0.012157919901828853,0.010128593816552229,0.039612768664454984,0.0005212994292378426,7.878660048574403e-05,19208.240327143103
1681064607084755420,148,1681064607084755420,camera_1,155,0,0.09663119037348472,0.2450108497859502,2.9552815973016218,-0.9991905649437622,-0.012022483139208852,0.00936175344640556,0.03722945606561489,0.0008938211249187589,0.00013519313747902912,19200.67425668764
1681064607094769239,149,1681064607094769239,camera_1,156,0,0.09664619089725873,0.24530761434129203,2.9553574183936355,-0.9993920373966128,-0.01183855905891416,0.012447379470816903,0.030339196626897397,0.0010595290805213153,0.00016018851159298894,19215.096264056272
1681064607104754209,150,1681064607104754209,camera_1,157,0,0.09665611148272402,0.24498417913160517,2.9562886184653756,-0.99945403612852,-0.012055730070963994,0.01263662187001184,0.02804647618830935,0.00012680940562859178,1.9182341002688933e-05,19209.05956816348
1681064607114735364,151,1681064607114735364,camera_1,158,0,0.09663808966157661,0.24388435734732977,2.955061104941122,-0.9993790199976306,-0.011790459880576958,0.013639429542199964,0.03027417061033122,0.00021882436703890562,3.307398237724849e-05,19219.14438864962
1681064607124733924,152,1681064607124733924,camera_1,159,0,0.09665676647640217,0.2424284238217708,2.955134046054367,-0.9991732462205203,-0.012062197935143694,0.012510112688354535,0.03675356443456351,0.00027791259344667196,4.201541539997584e-05,19203.35351300508
1681064607134796857,153,1681064607134796857,camera_1,160,0,0.09674795534423729,0.24061456440888432,2.9570442258756167,-0.9994130574607644,-0.011914381704819583,0.013093742721766707,0.029328177356511893,0.0006461309967562556,9.77749694078964e-05,19200.614706325923
1681064607144724369,154,1681064607144724369,camera_1,161,0,0.09679733885412048,0.2384331942525411,2.9571835627178915,-0.9994654759119529,-0.012026633839494722,0.012599291400253475,0.027665509118677885,0.0016697525279596448,0.0002526829915072728,19205.770665106837
1681064607154769659,155,1681064607154769659,camera_1,162,0,0.09679388544419378,0.23625948883966358,2.956876414077903,-0.9994041736346979,-0.012222093163045998,0.011186679756170083,0.030278314951357573,0.00048334983875975013,7.312932172067499e-05,19207.5798298542
1681064607164728879,156,1681064607164728879,camera_1,163,0,0.09677412872235922,0.23430982111663498,2.9559032530303813,-0.9993206509850137,-0.011914867193543673,0.009224161321541132,0.033633128052010346,0.002039722225163132,0.0003084721492394136,19215.707926952404
1681064607174770116,157,1681064607174770116,camera_1,164,0,0.09679982383960607,0.2328492077704326,2.9557867949938994,-0.9993927248989664,-0.011783418866322035,0.014733794946699737,0.02929586566920978,0.0009131802362389863,0.00013803626994875106,19221.97374219681
1681064607184741020,158,1681064607184741020,camera_1,165,0,0.09681149069881102,0.23189780239447574,2.956253917039392,-0.9994857595431156,-0.01207791461530846,0.01226631158278871,0.027053244707814325,0.0007866030791774392,0.00011893232238547155,19225.535192856565
1681064607194765806,159,1681064607194765806,camera_1,166,0,0.09678812690309821,0.23155195538362358,2.955236798998908,-0.9994707559249291,-0.011995803561357347,0.013156084733032966,0.02722546936721916,0.0011016708449460566,0.0001664544583244883,19237.287576638748
1681064607204774856,160,1681064607204774856,camera_1,167,0,0.09680336525787964,0.23198908298617604,2.9552371414702785,-0.9993859080418139,-0.012081372666742182,0.0119506088646947,0.03064359948977206,0.002003328292630613,0.00030275047329114945,19230.64031240717
1681064607214715480,161,1681064607214715480,camera_1,168,0,0.0967843221194922,0.23307297804911656,2.9561083540859907,-0.9993749119483564,-0.012034017830671142,0.011813118570075708,0.031071176558273503,8.410552982240915e-05,1.2716572042700001e-05,19217.655761227707
1681064607224766254,162,1681064607224766254,camera_1,169,0,0.09677486187549872,0.23472804513395487,2.9571191980421556,-0.9993738790488346,-0.01201697209745162,0.00842339954189754,0.03219454296386192,0.0004758793511427939,7.201203345920328e-05,19204.455268635877
1681064607234708070,163,1681064607234708070,camera_1,170,0,0.09670573121884546,0.236446463580136,2.9541836146879046,-0.9990794373201407,-0.01206313188349266,0.010850133735398119,0.03971187947146876,0.002030331059359014,0.0003067579621652282,19215.618953697965
1681064607244761705,164,1681064607244761705,camera_1,171,0,0.09669131802504846,0.23871705079302755,2.9557572824291567,-0.9992744649156292,-0.01220513411032565,0.009499633582828411,0.034804244435469776,0.0009468236821703613,0.00014317674225006573,19209.49528993922
1681064607254777431,165,1681064607254777431,camera_1,172,0,0.09668159310797922,0.24077031736880097,2.9549985239804912,-0.9991785622152108,-0.012086599950380318,0.011282618084751903,0.03699753289527723,0.0005232653929851949,7.910477318987079e-05,19208.063700456165
1681064607264739274,166,1681064607264739274,camera_1,173,0,0.09666985095912345,0.24267051411867294,2.955638815326292,-0.9992796626997229,-0.01194519285411872,0.008431362404021784,0.035019711740932824,8.361530490219593e-06,1.2646890841463668e-06,19206.904681324966
1681064607274800300,167,1681064607274800300,camera_1,174,0,0.09665404063393598,0.24410553587411812,2.9553794958852864,-0.9993137376931832,-0.011933896112903986,0.01240810561621816,0.03279748002915972,0.000892793876118958,0.00013499158854130168,19209.769484852444
1681064607284776210,168,1681064607284776210,camera_1,175,0,0.0966343041613679,0.2450443251135771,2.9557286453766145,-0.9994129064311642,-0.011888811242081423,0.009477164372174274,0.030703126575742635,0.0006834071245975792,0.00010335458502049769,19213.601990250747
1681064607294767379,169,1681064607294767379,camera_1,176,0,0.09663831522603929,0.24532867182732812,2.955584720258297,-0.9994021664698949,-0.011974177070059645,0.013508851528020506,0.029486262380458803,0.0019617253565229475,0.0002965795560459791,19212.842232201485
1681064607304736852,170,1681064607304736852,camera_1,177,0,0.09660251086417426,0.2448736088474344,2.9546696621066286,-0.999153619986501,-0.011931865264175577,0.010607540788011932,0.03790981848570573,0.0005319821648299694,8.042640583740016e-05,19205.07214131253
1681064607314772129,171,1681064607314772129,camera_1,178,0,0.09663608257311627,0.24395422400245567,2.9556403683128267,-0.9992865990273972,-0.011964419804045256,0.012147341217758586,0.03369848311644872,0.00012814148794859648,1.937784088441069e-05,19204.48910945258
1681064607324770927,172,1681064607324770927,camera_1,179,0,0.09668009898641465,0.2424544941069177,2.9557797380361337,-0.999228129727546,-0.012031530357279555,0.011846410807464956,0.03546899476208919,0.0005537980468943715,8.375628331906466e-05,19199.81967007462
1681064607334765672,173,1681064607334765672,camera_1,180,0,0.09672520023021675,0.24060960842239607,2.9566214572470293,-0.9992596563659355,-0.0121961990311716,0.01263017597644661,0.034232594751622075,0.0018266358529217541,0.0002763904374338036,19193.70323113503
1681064607344710826,174,1681064607344710826,camera_1,181,0,0.09676182926288551,0.23843747046548655,2.956874970613962,-0.9993983443796577,-0.012138142942231625,0.013148341673269486,0.029710870878455947,7.392105180770159e-05,1.1183671005597546e-05,19204.10557318339
1681064607354795217,175,1681064607354795217,camera_1,182,0,0.09677092302330476,0.23616680522596084,2.9557182362908945,-0.9992596281555992,-0.01175305373731684,0.012350694671657978,0.034489441968650475,0.0006063954788260162,9.168517113393528e-05,19209.8461965007
1681064607364758014,176,1681064607364758014,camera_1,183,0,0.0967901587178776,0.23428641122112603,2.955618226596019,-0.9993018222637643,-0.011984416213268508,0.011048906506923752,0.03361790376196455,0.0027516515110619366,0.00041601104830356914,19217.16311643436
1681064607374779224,177,1681064607374779224,camera_1,184,0,0.09680221056445618,0.23289168820812645,2.9562839156169973,-0.9994236967711154,-0.012056581512834182,0.009212383338681757,0.030365196653455544,0.0007908149855211376,0.0001196007747667893,19220.559130385744
1681064607384779930,178,1681064607384779930,camera_1,185,0,0.0968003645578564,0.23187598402744106,2.9554374967542274,-0.9994259232369233,-0.011844379423510215,0.016531863123586794,0.027096718247022606,0.00023239845177158713,3.5116292237370554e-05,19229.3187988596
1681064607394774198,179,1681064607394774198,camera_1,186,0,0.0968078447865153,0.2315856150593357,2.955515774008546,-0.9994192536836067,-0.012014685663077158,0.013440185910406747,0.028916502167682535,0.0015491537051275373,0.00023410081047126958,19229.414138063803
1681064607404704809,180,1681064607404704809,camera_1,187,0,0.09678114972696579,0.23201236380777296,2.9554519054616706,-0.999342541445235,-0.011839412532065387,0.00828098434512463,0.03325264601426435,0.002784341457299888,0.0004209452099095287,19225.728887322235
1681064607414771556,181,1681064607414771556,camera_1,188,0,0.09683570788606347,0.23314230449577886,2.956789617104155,-0.9994886613434271,-0.012236567371363338,0.01297034738835891,0.026541521311255346,0.0006899194559082389,0.00010435684753998503,19217.68942443478
1681064607424883365,182,1681064607424883365,camera_1,189,0,0.09678790999129469,0.23462374624733667,2.9560351068350483,-0.9994095130323277,-0.012000432928246867,0.014438471508203246,0.028777515711524763,0.0002176620182581246,3.290701840716147e-05,19218.904711759176
1681064607434794187,183,1681064607434794187,camera_1,190,0,0.09680509050555053,0.23661542696092955,2.9570541274961006,-0.9994592250126904,-0.012062835844229819,0.016090477925806524,0.026016188201709752,0.0002564041642472148,3.878894107695839e-05,19207.47542101855
1681064607444818735,184,1681064607444818735,camera_1,191,0,0.09675379527834554,0.23876262246357924,2.9563296206833356,-0.9993419257536313,-0.011889092017604646,0.012540401956159082,0.031892056076685216,0.0016214639181271193,0.0002452728609227457,19206.0539886331
1681064607454768896,185,1681064607454768896,camera_1,192,0,0.09674357777990412,0.24089677236889276,2.956668190283318,-0.9993517900112394,-0.011881690106274727,0.01584642910526571,0.030061868307904874,0.005911258398555219,0.0008943968068879273,19198.9480524012
1681064607464750289,186,1681064607464750289,camera_1,193,0,0.09664993186665605,0.24271454245117474,2.9559265944231328,-0.9993032423099566,-0.012035427462274888,0.009164528510674135,0.034120225846051504,0.0006672938470728695,0.00010093606975471323,19204.97009249695
1681064607474849939,187,1681064607474849939,camera_1,194,0,0.09663349812275115,0.24412908772596795,2.9556777907544616,-0.9992638286774607,-0.011976293678391061,0.006993896463571645,0.035769463217224955,0.0016377026913687587,0.00024772765425098016,19203.864652283726
1681064607484802007,188,1681064607484802007,camera_1,195,0,0.09662759083814433,0.24498675576315457,2.954771858873646,-0.9992616502552695,-0.011695839719572129,0.01074740293118904,0.03498363892742412,5.54544385522604e-05,8.382675070979354e-06,19212.40786492336
1681064607494788885,189,1681064607494788885,camera_1,196,0,0.09663779683207571,0.24534172090094153,2.955532007878247,-0.9993530135199813,-0.011933092102426025,0.009971042471067114,0.03243044855451686,0.0011904536513611674,0.00018001792469503878,19210.476683518504
1681064607504727125,190,1681064607504727125,camera_1,197,0,0.0966225157298092,0.2448582670976251,2.9546588814401598,-0.9992241933742062,-0.0119451298144368,0.012165203590503364,0.035501169994592116,0.0013257196405902505,0.00020038899791940186,19210.57658322318
1681064607514780998,191,1681064607514780998,camera_1,198,0,0.09665106744924087,0.24395536768202017,2.9559090226413627,-0.9993256609894109,-0.012022567308035803,0.012642146512848736,0.03230878046210472,0.0027886340394616127,0.000421699136079144,19204.229552381326
1681064607524761199,192,1681064607524761199,camera_1,199,0,0.09668804233364368,0.2425375766037446,2.956626289912016,-0.999363396603602,-0.01203174021306472,0.013153919259243743,0.030903287276251398,0.0017543454887345433,0.0002654449029254375,19199.72510522604
1681064607534759759,193,1681064607534759759,camera_1,200,0,0.09673464394004777,0.24056456164710227,2.9564070045068505,-0.999244028987393,-0.01203117087645995,0.011678441209194578,0.03507471270455369,0.0013396847643889487,0.00020270701899651668,19195.38371047588
1681064607544776439,194,1681064607544776439,camera_1,201,0,0.09671493027934996,0.23832521561061282,2.9555889884890365,-0.9991009792711352,-0.012085431287804814,0.008355108470081815,0.03976641462968312,9.802344720810652e-06,1.4826835337562133e-06,19198.208629857043
1681064607554726600,195,1681064607554726600,camera_1,202,0,0.09681060638086578,0.23630562384008594,2.9570969075517635,-0.999344396308762,-0.01208980058764805,0.012561957225303117,0.031730293391283006,0.0028990461141802375,0.0004387429112368658,19199.089250368066
1681064607564773797,196,1681064607564773797,camera_1,203,0,0.09676432420345737,0.23429897822043538,2.955504041659113,-0.9993013055389648,-0.012080436397846008,0.012687615595747322,0.03301496956007859,0.00022278964752331376,3.367589148503912e-05,19218.044286316497
1681064607574769496,197,1681064607574769496,camera_1,204,0,0.09671441488579627,0.23275542401245183,2.954480690681772,-0.9992080635369335,-0.011894198347905057,0.00887368401415535,0.036919257040862984,0.0004732505767606199,7.149853347977182e-05,19226.689491944388
1681064607584804534,198,1681064607584804534,camera_1,205,0,0.09683533042808533,0.23189907739725707,2.9557111840917134,-0.9994346361031384,-0.012021212532290779,0.014398380740116316,0.027903140301831417,0.0015721708186902106,0.0002376198228535365,19227.437983209034
1681064607594729900,199,1681064607594729900,camera_1,206,0,0.09676704327820544,0.23155106298204,2.9549665561267324,-0.9993907024789419,-0.012161117407438221,0.009803989727143973,0.03121238227818686,0.0018009536433964968,0.00027208556802930223,19235.942044021336
1681064607604818105,200,1681064607604818105,camera_1,207,0,0.09677995020118269,0.23198751493145323,2.954964316361934,-0.9993875012511944,-0.012178435822044819,0.011243288093563482,0.030820391247799776,0.00034325948217883706,5.18618940010089e-05,19234.716695823707
1681064607614768743,201,1681064607614768743,camera_1,208,0,0.09680542128381735,0.23309602447252292,2.9568014482936187,-0.9995652845370987,-0.011932886823163067,0.013588037501967059,0.023285476099488674,0.0004780897288583219,7.230345614851054e-05,19223.348259458897
1681064607624759197,202,1681064607624759197,camera_1,209,0,0.0967601390803878,0.23459264440541053,2.956106929857841,-0.9994176288159522,-0.01190621734179043,0.008610294673991865,0.030797857492641134,0.0006175041198730469,9.337819112033196e-05,19220.97149639064
1681064607634735822,203,1681064607634735822,camera_1,210,0,0.09679027685510457,0.23668325819436029,2.9574568934532994,-0.9995638160644942,-0.01205894383055273,0.011504870538342477,0.024380267475428444,0.0006828786572441459,0.00010333802063267063,19212.648283036433
1681064607644780397,204,1681064607644780397,camera_1,211,0,0.09673534889877969,0.2387469845315984,2.956010887744509,-0.9992921128576226,-0.011960324304863053,0.011838893700300434,0.03364616499727894,0.0028887525550089777,0.00043694231698040807,19206.397855877185
1681064607654741287,205,1681064607654741287,camera_1,212,0,0.09677400910263581,0.24101185599764827,2.9577992319720763,-0.999474679033182,-0.01177554181842173,0.012573588825148398,0.02745191159931562,0.00140303437365219,0.0002124141361370164,19195.70760505763
1681064607664784431,206,1681064607664784431,camera_1,213,0,0.09670608518216203,0.24280127637272184,2.9571330602475756,-0.9993714181376508,-0.012133304505549577,0.010949069928222054,0.03145901141204351,0.00022031122352927923,3.3348749063371036e-05,19194.47136211116
1681064607674792289,207,1681064607674792289,camera_1,214,0,0.09671593061018811,0.24418739890063462,2.956755410498184,-0.9994721061824282,-0.011907055030204396,0.01403935993175494,0.026769896833487097,0.00013624323764815927,2.0614213047827823e-05,19204.917719847057
1681064607684801816,208,1681064607684801816,camera_1,215,0,0.0966467672524108,0.2450129154467299,2.955160871635815,-0.999253264891333,-0.011997741142219485,0.013226397613019018,0.03426410976047586,0.001660473004449159,0.00025105426635365643,19206.034943408336
1681064607694759845,209,1681064607694759845,camera_1,216,0,0.09663120967266334,0.2452855606124626,2.954953493108013,-0.9993769999882531,-0.01201134150218417,0.012395975015942933,0.030784401459198748,0.0018941309535875916,0.0002863011971921093,19219.22402621107
1681064607704783678,210,1681064607704783678,camera_1,217,0,0.09663880046021063,0.2448764746136916,2.954737398867327,-0.999195388834131,-0.011915078889269915,0.014281805858169783,0.035533587619349834,0.0011229556985199451,0.00016973742537234788,19206.30642845843
1681064607714767694,211,1681064607714767694,camera_1,218,0,0.09664087826001905,0.2439424942142394,2.955613470810354,-0.9992515797932291,-0.01202878910863809,0.00974065828910995,0.03545007883503923,0.00030763918766751885,4.653173192044009e-05,19202.84655451798
1681064607724741935,212,1681064607724741935,camera_1,219,0,0.09667405390590669,0.24253703604009677,2.9567832171203046,-0.999383422897944,-0.012021344155372891,0.01157737616320538,0.030890543579923085,0.0004996078787371516,7.559933300409264e-05,19199.997524584767
1681064607734737396,213,1681064607734737396,camera_1,220,0,0.09671444587585744,0.24054908389736732,2.95625869502369,-0.9992197170621707,-0.012124358305697412,0.011657723704338787,0.035735898588171576,0.0005211416282691061,7.884367846599701e-05,19195.426153251196
1681064607745220899,214,1681064607745220899,camera_1,221,0,0.09673203736421326,0.23838577050422433,2.956347978208034,-0.9993106494525055,-0.012073436922595694,0.009828346512907317,0.033702546142838484,0.0008859528461471199,0.00013403391819798068,19204.92396366538
1681064607754875659,215,1681064607754875659,camera_1,222,0,0.09677050141891003,0.23616044922619406,2.955461018778733,-0.9992062725152988,-0.012161964206904886,0.014756078922481194,0.03494523898252503,0.00130628258921206,0.00019746436721084718,19208.25067698001
1681064607765110492,216,1681064607765110492,camera_1,223,0,0.09683543014275961,0.23435150490340756,2.956222020304211,-0.9993781830192832,-0.011989104661259272,0.011110767973682144,0.03124195111596701,0.00042270025005564094,6.392394492624683e-05,19215.448155727474
1681064607774812221,217,1681064607774812221,camera_1,224,0,0.0968412078664114,0.23288063546379523,2.956490936813052,-0.9994242545697328,-0.011959312763160099,0.014103889182744965,0.028446696220962683,0.002038222039118409,0.0003082510305346086,19215.79053201177
1681064607784862041,218,1681064607784862041,camera_1,225,0,0.09676502034481776,0.23185796350944687,2.9553133205193935,-0.9994138610798595,-0.01192465716784714,0.01207590515730464,0.029730612968932237,1.4886376447975636e-05,2.2493814728151952e-06,19231.894257867476
1681064607794793844,219,1681064607794793844,camera_1,226,0,0.09678034490612919,0.23156930131749337,2.9553761681824837,-0.9993732403964118,-0.012084564593391965,0.010713105395634283,0.03150109602769296,0.00030531093943864107,4.6141985054956716e-05,19228.76402829984
1681064607804748296,220,1681064607804748296,camera_1,227,0,0.09679748921885234,0.2320173571424744,2.9557791508036577,-0.9994146006065158,-0.012011643092735143,0.013728556012777891,0.02894310409294961,5.775614408776164e-05,8.729562173868914e-06,19225.180005838396
1681064607814745426,221,1681064607814745426,camera_1,228,0,0.09674246263934555,0.2329641306525322,2.95419041777918,-0.9992378383772069,-0.012041376103198755,0.00960992346657351,0.03586637684175999,0.0007516028126701713,0.00011353351332875653,19232.37662849482
1681064607824800729,222,1681064607824800729,camera_1,229,0,0.09679549570368975,0.23464531950157672,2.956541350130668,-0.999409380151102,-0.012196334906142475,0.010918506167126087,0.03021467365247618,0.000317364523652941,4.800340522675571e-05,19213.941523678248
1681064607834743261,223,1681064607834743261,camera_1,230,0,0.09677431220628233,0.2366015025599691,2.956128777050998,-0.9993447821877203,-0.012097790976989067,0.013753684127319157,0.031216757368136398,0.0028422687901183963,0.00042985217745777486,19210.84527043346
1681064607844707727,224,1681064607844707727,camera_1,231,0,0.09676105234463396,0.23880873063833705,2.956903735001305,-0.9992928288357319,-0.01215327578289472,0.0068752932770544985,0.03491232543930795,0.0003969428944401443,6.008685971242295e-05,19197.109671679325
1681064607854740381,225,1681064607854740381,camera_1,232,0,0.09671303903653806,0.24087457738938722,2.955943179431444,-0.9993394765780059,-0.012150014823037292,0.011916205176290382,0.032109060197926385,0.0034617775818333034,0.0005236134778361545,19208.960472486455
1681064607864836931,226,1681064607864836931,camera_1,233,0,0.09670793795531148,0.24271612215624416,2.9564934774687543,-0.9994361082967471,-0.011977565255094419,0.017583773755409152,0.025977187371451604,0.00019619305385276678,2.9676243594460963e-05,19205.89976136444
1681064607874806880,227,1681064607874806880,camera_1,234,0,0.09664906885668384,0.2440729399631282,2.9554901537935785,-0.9993685574269354,-0.011846590276987867,0.013760161509934147,0.0305418185515507,8.522102143615484e-05,1.288396664064552e-05,19212.51958444762
