%time,field.header.seq,field.header.stamp,field.header.frame_id,field.image_seq,field.transforms0.fiducial_id,field.transforms0.transform.translation.x,field.transforms0.transform.translation.y,field.transforms0.transform.translation.z,field.transforms0.transform.rotation.x,field.transforms0.transform.rotation.y,field.transforms0.transform.rotation.z,field.transforms0.transform.rotation.w,field.transforms0.image_error,field.transforms0.object_error,field.transforms0.fiducial_area
1681063325963886737,0,1681063325963886737,camera_1,1,0,0.1278319097748589,0.1900035924675461,2.9577671696700034,-0.9993758065694357,-0.011985973225138717,0.016007093265981074,0.029122270768441694,0.0009056084090843797,0.0001368576987430701,19219.736061759653
1681063325973707675,1,1681063325973707675,camera_1,2,0,0.1278510570443548,0.19005153131258595,2.9578408849890567,-0.9992802635378177,-0.012057968589277289,0.009961041886868758,0.03455919475071432,0.00018437113612890244,2.7876184428958188e-05,19213.06159203127
1681063325983908891,2,1681063325983908891,camera_1,3,0,0.12781715487110443,0.18999790443411002,2.957261903273895,-0.9992438601109318,-0.012146624564499898,0.011371787225312232,0.03514043251862161,4.438083851709962e-05,6.707181288755742e-06,19217.12575876445
1681063325993865728,3,1681063325993865728,camera_1,4,0,0.12780230084406263,0.18995838455248432,2.956968220736376,-0.9992848422263635,-0.012042905258242515,0.013982383726565958,0.033004022101798924,0.00023613322991877794,3.567193943727018e-05,19223.270568052772
1681063326013833045,4,1681063326013833045,camera_1,6,0,0.1278417487499407,0.1899889516742434,2.957330788757955,-0.999290258751875,-0.012155060867716337,0.0123243577396714,0.033456590759034135,0.0005961407441645861,9.009603250300381e-05,19219.683240815997
1681063326033838510,5,1681063326033838510,camera_1,8,0,0.12786007308543382,0.19006263013227417,2.958313500281406,-0.9994180947477297,-0.012215901670725348,0.012637012776048421,0.0292326794065693,0.000719220086466521,0.00010874225703695313,19217.58611427773
1681063326043901205,6,1681063326043901205,camera_1,9,0,0.12784399933515997,0.19001031244783487,2.9578811786287535,-0.9994157320500486,-0.012153611875352074,0.012392838878557333,0.029443196052380494,0.0019436556613072753,0.0002937623390713585,19223.05079202087
1681063326053770065,7,1681063326053770065,camera_1,10,0,0.12784627410826885,0.1900505747132308,2.9582322816281517,-0.999412333577795,-0.012042766783198081,0.012645055361229934,0.029496810602221972,0.0019616017816588283,0.00029655175541382127,19218.010120428626
1681063326063747406,8,1681063326063747406,camera_1,11,0,0.1278531477794666,0.19000247110844568,2.9576728129111998,-0.999457581418981,-0.011967117917637816,0.017507922115590352,0.025195310993531842,0.00037164468085393315,5.6162134519447477e-05,19227.288610129497
1681063326073823451,9,1681063326073823451,camera_1,12,0,0.1278465402570163,0.18999832263165028,2.957884541532695,-0.9993798599155713,-0.011879369595695449,0.014426781293709652,0.029843661883981406,0.00220514734974131,0.00033332174682467386,19218.980906318408
1681063326083665847,10,1681063326083665847,camera_1,13,0,0.12786786056202107,0.18999520296657957,2.957823167870556,-0.9993540942166499,-0.011909518745654012,0.01607185074509353,0.029853866571913367,0.0010463559883646667,0.00015816006739286946,19217.025811689557
1681063326093651533,11,1681063326093651533,camera_1,14,0,0.12782522229404092,0.19003337067294554,2.9575933916350117,-0.9993791263698115,-0.012088470839404045,0.013146059478069506,0.03037123259395795,0.0020586721948347986,0.00031111311038283407,19223.34012304293
1681063326103752374,12,1681063326103752374,camera_1,15,0,0.12781401399748638,0.19002654193475094,2.9571866526866812,-0.9992069721084481,-0.012218971725073689,0.00952596200493404,0.03667941749441311,0.0017275623395107687,0.0002611443646235581,19215.799536064274
1681063326113904714,13,1681063326113904714,camera_1,16,0,0.12782032738137278,0.18998309248405287,2.95739946220984,-0.9992961761056931,-0.011926933995448266,0.008233431293206764,0.034599295876472175,0.00017549365293234584,2.652874365108253e-05,19220.716384829724
1681063326123584508,14,1681063326123584508,camera_1,17,0,0.12785987479699074,0.19007378487972842,2.958434868553405,-0.999369854016606,-0.011906665418101254,0.013675410321370726,0.030514084518319086,0.0013361911405809224,0.00020203235622496112,19211.305558376018
1681063326133907556,15,1681063326133907556,camera_1,18,0,0.1278341893244079,0.19004531694489446,2.9576573202402425,-0.9993415868963595,-0.011859347956961988,0.010122589810616612,0.032760978938790715,0.0002598710125312209,3.928496326087432e-05,19220.26943139173
1681063326144241571,16,1681063326144241571,camera_1,19,0,0.12784097738866437,0.1900028266918472,2.95721792956368,-0.9992519603909199,-0.011979685735421427,0.015434414827408949,0.033373426907039,0.0015675611211918294,0.00023687549511136372,19216.613385048695
1681063326154220581,17,1681063326154220581,camera_1,20,0,0.12786028321430234,0.1899725732871521,2.9580579184815483,-0.999448504870616,-0.011783848138458236,0.011514956954099547,0.028831108221600805,0.00040040456224232907,6.05280537045613e-05,19223.483762299416
1681063326163889646,18,1681063326163889646,camera_1,21,0,0.12785212274536586,0.1900252326131545,2.957838617658236,-0.9994532466854983,-0.011844263495077204,0.012954174895083633,0.02801982271291817,0.00015769817400723696,2.3836249820746396e-05,19226.18560381815
1681063326173994541,19,1681063326173994541,camera_1,22,0,0.12789571996674293,0.1900802120003068,2.958712566810946,-0.9994678243098672,-0.011998478094416886,0.013620435536007426,0.02710329183932478,0.0012310351594351232,0.00018618519646557925,19215.981571795663
1681063326183974981,20,1681063326183974981,camera_1,23,0,0.12784809693754218,0.18997881650119214,2.9570721882689868,-0.9993427474074583,-0.012333827539432199,0.016207792336736228,0.029987620277540022,5.198840517550707e-05,7.85348759680101e-06,19226.164272143047
1681063326193893194,21,1681063326193893194,camera_1,24,0,0.12784399750912562,0.18999605070353975,2.957321926993285,-0.9992418874351966,-0.01203567128409893,0.011380476132450926,0.03523177223311134,0.0012148668174631894,0.0001836259418594658,19216.024577501004
1681063326203830957,22,1681063326203830957,camera_1,25,0,0.12783226921346047,0.18996620975179704,2.9575549636933327,-0.9994468207500313,-0.012071883537719331,0.01467709109853023,0.027292949957670905,0.0010099222999997437,0.00015259501721204057,19229.011529760326
1681063326213764905,23,1681063326213764905,camera_1,26,0,0.12786439749932915,0.19003205029198691,2.958094360373706,-0.9993129197423394,-0.011919967283074796,0.012725202233313743,0.032705841131705625,0.0023871591547504067,0.00036093897401841767,19211.308046509504
1681063326223572969,24,1681063326223572969,camera_1,27,0,0.12784823873664639,0.1900105821751847,2.957445124178728,-0.9993707985790106,-0.011791771331378932,0.013924693373163094,0.030414864636924423,0.0009878614218905568,0.00014929069328468127,19223.936598753673
1681063326233806371,25,1681063326233806371,camera_1,28,0,0.12788140323725644,0.19003255239474895,2.9578125533096453,-0.9993362755833717,-0.012040029194748551,0.01614237259197058,0.03035572116170335,0.0016690423944965005,0.0002522822830662179,19215.723175186085
1681063326243825674,26,1681063326243825674,camera_1,29,0,0.12786950811831543,0.19004020946830466,2.958518118496457,-0.9994750566147615,-0.012154030933025988,0.011869871548863486,0.027586172014465532,0.0005053597269579768,7.64214497796003e-05,19219.95638371678
1681063326254009962,27,1681063326254009962,camera_1,30,0,0.12785415631258662,0.19000383685026195,2.9575951951453803,-0.999327647618571,-0.012032377759548858,0.01109197385701656,0.03280918631328944,0.0005810969742015004,8.783963117153055e-05,19219.708460024907
1681063326263751268,28,1681063326263751268,camera_1,31,0,0.12783836162360063,0.18999839437481658,2.957793048691144,-0.9994199910246326,-0.012111372071610612,0.011123857400154818,0.029820395762081234,0.0006364088039845228,9.618927718900075e-05,19224.982694565206
1681063326273754835,29,1681063326273754835,camera_1,32,0,0.12789647971350704,0.190102247135399,2.959185778695353,-0.9994841401206244,-0.012197722942931668,0.010557854342569306,0.027770504389091226,0.00013936200411990285,2.108351669005053e-05,19212.593386015844
1681063326283839941,30,1681063326283839941,camera_1,33,0,0.1278459217190226,0.19001266151007012,2.9576667402414847,-0.9993649528050906,-0.011918602727239264,0.009514673946564366,0.03220417664838046,0.004405849089380354,0.0006660972768392868,19222.3900531393
1681063326293698072,31,1681063326293698072,camera_1,34,0,0.1278248878066118,0.19001944064449383,2.9576256679434834,-0.9993527971772139,-0.01205784080320131,0.011931475736534034,0.03172120956066449,0.0003813725197687745,5.763983260746766e-05,19221.162143872938
1681063326303908348,32,1681063326303908348,camera_1,35,0,0.12782406043071082,0.1899870775748997,2.95721056121874,-0.9992638931926062,-0.012032243206595617,0.010727414722704845,0.03481119731264926,0.0001693066442385316,2.5587202600137886e-05,19219.57512622873
1681063326313908576,33,1681063326313908576,camera_1,36,0,0.12782115579023537,0.19001002454800814,2.9576819948129445,-0.9993505069131139,-0.012015786981778822,0.01085313500423961,0.03219308398228804,0.0007094162283465266,0.00010722606622959323,19220.635995157998
1681063326323702573,34,1681063326323702573,camera_1,37,0,0.12783031281342316,0.1900296254398408,2.9574773145454336,-0.999269485245572,-0.012071163951702575,0.009880526308021867,0.034887792388987975,0.00032558233942836523,4.9213806729893443e-05,19216.937920432763
1681063326333914995,35,1681063326333914995,camera_1,38,0,0.1278987117426847,0.19004793293265929,2.9584371156169778,-0.9994821404869302,-0.012023226286254745,0.01670374614183806,0.024736162640211563,7.248861948028207e-05,1.0959614150687684e-05,19219.759895023075
1681063326343747615,36,1681063326343747615,camera_1,39,0,0.1278091736757816,0.1899930469837301,2.957490944780021,-0.9993389682503778,-0.012058507934376891,0.012788879014678138,0.031822374144850105,9.667646372690797e-05,1.4610463714708216e-05,19221.462832085897
1681063326353878974,37,1681063326353878974,camera_1,40,0,0.1278727165059806,0.19005733343116926,2.9588160413173066,-0.9994576066877826,-0.01185187139965803,0.009808457120445377,0.02911734443887494,0.00013418885646387935,2.0297545018830017e-05,19215.123816968637
1681063326363706350,38,1681063326363706350,camera_1,41,0,0.1278126803793271,0.1900207670635167,2.957387718757518,-0.9993205759538035,-0.01221787954792355,0.009890620892616145,0.0333359492600597,0.00028317695250734687,4.279961919852285e-05,19222.494483708288
1681063326373767614,39,1681063326373767614,camera_1,42,0,0.12784291198987824,0.19002509936603557,2.957756808442442,-0.9993053065477,-0.012250492384413413,0.012330669279733315,0.032966412256425395,0.0004837022861465812,7.311302180084058e-05,19215.54132777918
1681063326383759975,40,1681063326383759975,camera_1,43,0,0.12787923234625648,0.19005573833786713,2.9585543890267147,-0.9995011302442149,-0.011966725437152177,0.010961272051741055,0.027094992855814223,0.002249685232527554,0.0003402421105601488,19221.79401688021
1681063326393758058,41,1681063326393758058,camera_1,44,0,0.12785635414036925,0.18998963044794426,2.957861812643019,-0.9994082118331246,-0.011973222934074206,0.012606480553863368,0.029680712611597954,0.0011206530616618695,0.0001693922337756086,19222.392573783414
1681063326403730392,42,1681063326403730392,camera_1,45,0,0.12785421858434703,0.19004316368131402,2.9579695624268334,-0.9993957628428914,-0.011643264278167385,0.012935784721010988,0.030086692777299296,0.001243409642484039,0.00018798259712979928,19219.462634762043
1681063326413720369,43,1681063326413720369,camera_1,46,0,0.12785118708335025,0.19001513734826364,2.9580261244365356,-0.999513217949518,-0.011928230283063937,0.013976695635327668,0.025213021350704894,0.0007247997564263642,0.00010954501404847737,19228.59890955779
1681063326423651933,44,1681063326423651933,camera_1,47,0,0.12786683480578037,0.19002915798395836,2.95795682654844,-0.999425582874908,-0.012152809223462674,0.013511227254230597,0.02860524884025716,0.0001837935415096581,2.778187103805719e-05,19222.429076497792
1681063326433725595,45,1681063326433725595,camera_1,48,0,0.12786338146664022,0.19003201043075438,2.9579986444801594,-0.9994097089739395,-0.0119613758080006,0.014868932308752261,0.028567008058298468,0.0003173316945321858,4.796931912739115e-05,19219.884383112192
1681063326443824291,46,1681063326443824291,camera_1,49,0,0.12781200308995774,0.18998125911054067,2.9573378540392303,-0.999335706692848,-0.011816825930511348,0.011337781845186171,0.03255706768836887,0.00043408782221376896,6.559907567352079e-05,19223.478751986295
1681063326453771352,47,1681063326453771352,camera_1,50,0,0.12785813996720613,0.19006691941101758,2.9583154745739004,-0.9993987940398388,-0.012050390164487787,0.012227952448310628,0.030121682348792627,0.0002609484945423901,3.945726379111388e-05,19215.92159004871
1681063326463845968,48,1681063326463845968,camera_1,51,0,0.1278445417364877,0.18999535927475453,2.957244978012188,-0.9992631874009962,-0.01222207025330399,0.013380484316476517,0.03383291213273696,1.1527037713676691e-05,1.7418357837768144e-06,19218.212207265897
1681063326473876237,49,1681063326473876237,camera_1,52,0,0.12783610118825345,0.1899923959080868,2.9574091745905795,-0.9993333289039186,-0.012015064903171876,0.016214973659279177,0.030423848974347092,0.0012008630437776446,0.00018146156147648854,19220.719317702693
1681063326483738183,50,1681063326483738183,camera_1,53,0,0.12784456443304726,0.19001721800510402,2.9577903930346077,-0.9993634516617174,-0.011994764018545004,0.008993388091404618,0.032371840997310684,0.00011150061618536711,1.685634152402674e-05,19220.97707848507
1681063326493743896,51,1681063326493743896,camera_1,54,0,0.12784695486768907,0.19006758438699675,2.9582060770505816,-0.9994069920480757,-0.012213389680399273,0.013983107350354677,0.02899948390507465,0.0013121213996782899,0.00019835960462819447,19217.567973621313
1681063326503675937,52,1681063326503675937,camera_1,55,0,0.12784081319010718,0.19003665758560048,2.957913401887165,-0.9993828853955702,-0.011850471987502447,0.013383978841526051,0.030237126227002305,0.0002524291630834341,3.815870823604612e-05,19219.18262754682
1681063326513686180,53,1681063326513686180,camera_1,56,0,0.12782025817387543,0.1899689353445135,2.9570504614465882,-0.9993395331849979,-0.012000895462322215,0.013893995376974227,0.0313597323674418,0.00033303973032161593,5.031440428323106e-05,19226.709016145905
1681063326523811340,54,1681063326523811340,camera_1,57,0,0.1278236106186313,0.19000865969199224,2.9573232063211368,-0.9993381853346017,-0.012018856648577115,0.012048316143221553,0.032149284519552256,4.2927684262394905e-05,6.48691314772493e-06,19223.75645768491
1681063326533726453,55,1681063326533726453,camera_1,58,0,0.1278714259205434,0.1900433671823511,2.9584042433158024,-0.9994227894408516,-0.012017590978113984,0.013186057345104401,0.028910090713130863,0.0010352899553254247,0.0001565258001298677,19216.425083239097
1681063326543691635,56,1681063326543691635,camera_1,59,0,0.1278612290032055,0.19005591202422847,2.958354682709233,-0.9994191256477869,-0.01214316144376363,0.012387170017954694,0.02933450082258412,0.0001205701264552772,1.823050169536071e-05,19217.16357649327
1681063326553773641,57,1681063326553773641,camera_1,60,0,0.12788866274185137,0.19007299137243613,2.9591371292802724,-0.9993998221549026,-0.012184666758498372,0.011794681616390919,0.030206205625689223,0.0015574887511320412,0.00023560938232739236,19205.722749923123
1681063326563711881,58,1681063326563711881,camera_1,61,0,0.12782008212850313,0.19000646086710288,2.9575929704879336,-0.9993582704398436,-0.012011689657772762,0.01184510931455227,0.031598417687857316,0.0014154993696138263,0.00021391717318762003,19222.054693853133
1681063326573779344,59,1681063326573779344,camera_1,62,0,0.12788837936331376,0.19004518448660795,2.958494071309197,-0.9994691718613532,-0.011847112629151857,0.012426842741876538,0.027687433983701572,0.0026333887362852693,0.0003982559511780839,19219.210602982206
1681063326583720207,60,1681063326583720207,camera_1,63,0,0.1278808329082541,0.1900458393281179,2.9581978592741067,-0.9994885247757042,-0.012219475738552161,0.017666752412812042,0.023690907824437096,0.0020597208058461547,0.0003113384895607463,19223.327281124075
1681063326593767642,61,1681063326593767642,camera_1,64,0,0.12781436460656617,0.189980498777171,2.9572870102807505,-0.9993248747420076,-0.01211370912375208,0.012445758000125746,0.032375235612087355,0.001462591637391597,0.00022099421098577745,19223.10897925518
1681063326603727102,62,1681063326603727102,camera_1,65,0,0.1277863586068977,0.18999204492014957,2.9566941593126383,-0.9992381574450512,-0.012132977360961332,0.012962359913154873,0.03475446434142702,0.0008906836155802011,0.0001345514921802398,19223.36778325902
1681063326613765478,63,1681063326613765478,camera_1,66,0,0.12782546035647815,0.1899992906863014,2.9576330050421635,-0.9993701585203925,-0.011979730774415581,0.010252408679013482,0.03179088589166179,0.000528298900462687,7.985017030559352e-05,19223.098475250175
1681063326623420715,64,1681063326623420715,camera_1,67,0,0.12784200936619539,0.18997936128512574,2.9575188791815243,-0.9994524195386836,-0.012010370282672041,0.016253299297370166,0.026200044768940944,7.099274080246687e-05,1.07268942124455e-05,19229.318097424228
1681063326633791685,65,1681063326633791685,camera_1,68,0,0.12783962504888388,0.1900409135523086,2.957797703037288,-0.9993001255005087,-0.01206186336794003,0.014604966558653214,0.03225624867496673,0.0012727752909995615,0.00019236386496851093,19213.555314929803
1681063326643779039,66,1681063326643779039,camera_1,69,0,0.12785663679618328,0.1900370677497237,2.9577442031508143,-0.9994148234341012,-0.0120336080630318,0.014191304644108178,0.028702087897361794,0.0018334033666178584,0.00027711235471042676,19223.893176685786
1681063326653756618,67,1681063326653756618,camera_1,70,0,0.12785437780374154,0.1900318996483001,2.9580950708878277,-0.9994089920224762,-0.01194214749618144,0.008065913874111789,0.031208857896004142,0.0008872650214470923,0.0001341762879997717,19221.127008979085
1681063326663827419,68,1681063326663827419,camera_1,71,0,0.12782274371590185,0.1899665037657636,2.956889161500783,-0.9993104125776902,-0.012087020729823107,0.015278992419467856,0.03160942318881179,2.7445785235613585e-05,4.145845871819739e-06,19225.93938400712
1681063326673699140,69,1681063326673699140,camera_1,72,0,0.12785365266459336,0.19001816293199328,2.9580480815349803,-0.9994279503275193,-0.011860717133915788,0.010233862178463593,0.0299727135594176,0.0002621616586111486,3.9633501096973104e-05,19222.416956206667
1681063326683726549,70,1681063326683726549,camera_1,73,0,0.12783949768355918,0.1899891942794758,2.9576205742152446,-0.9994208119530216,-0.011986044135734094,0.01490744748045456,0.02814504202798261,0.0005176771664991975,7.823434143988678e-05,19225.758496378083
1681063326693705320,71,1681063326693705320,camera_1,74,0,0.12778202793124982,0.18993802062119808,2.956646818930944,-0.9993159850538296,-0.012167705178923963,0.012766681481733325,0.03250416604863113,7.12098553776741e-05,1.0756005458853147e-05,19230.60432324128
1681063326703683137,72,1681063326703683137,camera_1,75,0,0.12782022350418337,0.18998615441131567,2.957366998241748,-0.9993376572803817,-0.01192146655364232,0.011700655009798496,0.03232986311308051,6.857194239273667e-05,1.0362878557287045e-05,19223.207112569595
1681063326713701009,73,1681063326713701009,camera_1,76,0,0.12783670648481632,0.19001403115104043,2.957617370522557,-0.9993967445548089,-0.011920077608667437,0.012789006255914162,0.03000833287671526,0.0006450131186284125,9.748326456253043e-05,19224.459640764984
1681063326723657131,74,1681063326723657131,camera_1,77,0,0.12781604590223214,0.18995700161878631,2.9570096893781437,-0.9993412309196732,-0.011906573792029241,0.01646995542418721,0.030067894053502922,0.000426311104092747,6.439284060017076e-05,19226.402078554147
1681063326733881711,75,1681063326733881711,camera_1,78,0,0.12785500986527493,0.19003578488437747,2.9576880770729153,-0.9992811826705087,-0.012134035091242475,0.0136273033735701,0.03322920034846633,0.0008262610645033419,0.00012488884626783,19213.78297564073
1681063326743827819,76,1681063326743827819,camera_1,79,0,0.12782204588969098,0.19001802628687503,2.9572559644034855,-0.9992572690454886,-0.011928004738012135,0.01176498931401217,0.034701844175248124,0.0006281694513745606,9.493846583231375e-05,19217.90258687525
1681063326753715038,77,1681063326753715038,camera_1,80,0,0.12780541347288082,0.18995922324558767,2.9568724073373955,-0.9992944329214432,-0.012174259469444603,0.016390988002107733,0.03152394726071989,0.00020653335377573967,3.119650584702941e-05,19224.555647013243
1681063326763705015,78,1681063326763705015,camera_1,81,0,0.12784623496739472,0.19000455160551408,2.9577026521574017,-0.9993444461881316,-0.01218266142770232,0.012444921954913687,0.03173932184232935,0.00012547377264127135,1.8965492785504567e-05,19219.382824733395
1681063326773669719,79,1681063326773669719,camera_1,82,0,0.12782578094165611,0.190010581718321,2.9576773186908807,-0.9993825716726361,-0.01210539082224015,0.012111829821011956,0.03067961095607183,0.0001705777831375599,2.5782206131603504e-05,19222.958907037275
1681063326783652544,80,1681063326783652544,camera_1,83,0,0.1278628108434029,0.19001491488386213,2.9580436831442274,-0.9994665627988228,-0.012087781587730283,0.015421536722860325,0.026127602042661516,4.426034865900874e-05,6.690123617934765e-06,19224.05991056526
1681063326793742895,81,1681063326793742895,camera_1,84,0,0.12787316249503683,0.19005858543068535,2.9585491257557144,-0.9993946544772985,-0.012055586267408248,0.0135562885939415,0.029685256972241454,4.232709761708975e-05,6.400808058524929e-06,19212.0812314793
1681063326803722143,82,1681063326803722143,camera_1,85,0,0.12783621618505697,0.1899818710435818,2.957103502329596,-0.9992886095258559,-0.011759076285753402,0.011627647630857656,0.033893905165383584,0.00037234683986753225,5.6266660408606876e-05,19222.360618956154
1681063326813746213,83,1681063326813746213,camera_1,86,0,0.12779580281287622,0.19000171559253778,2.957218301638518,-0.9991915025200803,-0.011928010444915739,0.008552720595979113,0.03742879678666584,0.00041538121877238154,6.279299042676815e-05,19214.29249903094
1681063326823504447,84,1681063326823504447,camera_1,87,0,0.12784582625152704,0.19002548994491117,2.9577421479129327,-0.9994041912730033,-0.012283006823168748,0.01375232410986827,0.02917642525933259,0.000837442057672888,0.0001265704826176035,19223.47218309075
1681063326833903789,85,1681063326833903789,camera_1,88,0,0.12780144466956528,0.18998343443349047,2.9568352409449177,-0.9992024906593149,-0.011856837036977295,0.008900745695235855,0.03707525862039526,0.0010019660112448037,0.00015142791017278343,19219.906610105412
1681063326843733549,86,1681063326843733549,camera_1,89,0,0.12783505907403853,0.190001505842883,2.957593762915981,-0.9993746474274894,-0.012054772718088814,0.011000326483266359,0.03136860454591635,0.00010418228339403865,1.5746248782700788e-05,19223.739343279274
1681063326853711128,87,1681063326853711128,camera_1,90,0,0.1278163101033215,0.18997711879233078,2.9572091843610604,-0.9993587040227548,-0.011863323064772814,0.012184716973188417,0.031511504757851146,0.0001351119135506451,2.0415427923698304e-05,19226.763251436412
1681063326863695144,88,1681063326863695144,camera_1,91,0,0.12780679404436296,0.18994813176258857,2.956666954235148,-0.9993239041145945,-0.012141660448962645,0.014250027599258312,0.03164255773680665,0.0005784304230473936,8.736041833975367e-05,19230.39320379042
1681063326874043226,89,1681063326874043226,camera_1,92,0,0.12781738400730802,0.18997203792472,2.9570844025901692,-0.9993163640151947,-0.012308355710492928,0.014040616699759206,0.031908777379356934,0.0008445728453807533,0.0001276068703575634,19224.588763569594
1681063326883949518,90,1681063326883949518,camera_1,93,0,0.1278413187811904,0.190074179469907,2.957916907209558,-0.9992457382860349,-0.012141120560422866,0.010604847487971488,0.03532824533558114,0.00014698971062898636,2.222476717470714e-05,19209.057476276073
1681063326893870115,91,1681063326893870115,camera_1,94,0,0.12780088996516678,0.18996655692473485,2.9572501637540505,-0.9992689736254076,-0.0119023166188691,0.009456810247264281,0.0350773708917297,7.447233656421304e-05,1.1256116887362584e-05,19219.913705359217
1681063326904003620,92,1681063326904003620,camera_1,95,0,0.12785183413432608,0.1899980899134863,2.957884562521936,-0.9993867608506262,-0.011799010480110665,0.014619973033645359,0.02954897589899139,4.6580214984714985e-05,7.040700328163375e-06,19219.40461172583
1681063326913408279,93,1681063326913408279,camera_1,96,0,0.12787761575834122,0.19007323951421054,2.958671376276975,-0.9995014627327135,-0.012201913780379672,0.012510115483744812,0.02629517647489121,0.00045638269511982804,6.902080247118259e-05,19219.990871822585
1681063326923847675,94,1681063326923847675,camera_1,97,0,0.12784432999407883,0.19001686695154296,2.9576529507315326,-0.9993306851756343,-0.01182544848957017,0.012836004311386524,0.03214929902402365,0.0004331305390223861,6.5462951387523e-05,19218.37645501922
1681063326933836936,95,1681063326933836936,camera_1,98,0,0.12783107935675142,0.18998817266266033,2.9576836113089837,-0.9994159059441701,-0.012029405589540455,0.012134679132554735,0.02959543730553794,0.0007947637932375073,0.00012011017123866957,19225.60805441788
1681063326953676700,96,1681063326953676700,camera_1,100,0,0.12790833946877786,0.19005761927610304,2.9586627581083653,-0.9994631568910456,-0.011801645565703298,0.016997145226534782,0.02540110693404806,5.5424985475838184e-05,8.38080409867769e-06,19214.914890745316
1681063326963627815,97,1681063326963627815,camera_1,101,0,0.12780621363689132,0.19001529578641338,2.957387998474207,-0.999330692085893,-0.012068460558674141,0.012815587543031479,0.032066818220726344,0.00016798218712210655,2.5386021226030174e-05,19222.074574255617
1681063326973826646,98,1681063326973826646,camera_1,102,0,0.12784485832215312,0.19000032647582507,2.957764885079063,-0.9993306399971954,-0.011984749406563315,0.0112741699853703,0.032673090389477764,0.00012282113311812282,1.8566149055726578e-05,19217.692310131035
1681063326983839750,99,1681063326983839750,camera_1,103,0,0.12784879147766898,0.18998512311673732,2.9576787420111077,-0.9993552469592584,-0.012101800431026294,0.014864557801526845,0.030359211496549278,0.0007619360112585127,0.00011514245255981492,19219.657396164843
1681063326993729352,100,1681063326993729352,camera_1,104,0,0.12780194508758894,0.19000258785143373,2.9571677636272535,-0.9993046451026462,-0.012219773267540986,0.009477705737535709,0.03392751849925045,0.00021322944667190313,3.222308615459119e-05,19224.204781459408
1681063327003790378,101,1681063327003790378,camera_1,105,0,0.1278711039650521,0.19001640791255817,2.9579841725289455,-0.9994479271765594,-0.01204667881224727,0.01520509440634635,0.026972643477559087,0.0002231576363556087,3.3731194531848474e-05,19223.261795383878
1681063327013833284,102,1681063327013833284,camera_1,106,0,0.1279048420589801,0.19006720117274958,2.9582719565890585,-0.9993742191090552,-0.011842245820683495,0.011468992123943079,0.03129526503722116,0.003868147497996688,0.0005850102273250039,19214.409182654577
1681063327023359775,103,1681063327023359775,camera_1,107,0,0.12782147800871757,0.18997826744676316,2.9571911918010554,-0.9992363650097165,-0.012098708600684559,0.009369112105154483,0.03595174308327164,0.0001877582399174571,2.8377409789572897e-05,19218.171394760953
1681063327033591508,104,1681063327033591508,camera_1,108,0,0.12780949561940783,0.19000766032988112,2.9567876152322508,-0.9991967335137126,-0.012189703663466899,0.013202762106657348,0.03581879301259084,0.003457030979916454,0.0005223454151410939,19218.63525883971
1681063327043812751,105,1681063327043812751,camera_1,109,0,0.12779117284226912,0.18997255503786653,2.957029170322696,-0.9992735763592577,-0.012072866712921411,0.014077413348435595,0.033292520375125034,0.001208011177368462,0.0001824919016998651,19221.55805590691
1681063327053689241,106,1681063327053689241,camera_1,110,0,0.12785065039941512,0.19003364145415685,2.957680904803329,-0.9993867985282872,-0.011997040664037556,0.01386920957043654,0.02982855961285222,0.0017208372591994703,0.0002601065874702341,19222.439855451237
1681063327063641786,107,1681063327063641786,camera_1,111,0,0.1278059652221146,0.1899974604313498,2.9569376691002898,-0.999301875573343,-0.012022165393621876,0.01274753931898919,0.03299589756557568,0.0016785917105153203,0.0002536265541292157,19225.44567517226
1681063327073694229,108,1681063327073694229,camera_1,112,0,0.12779454493791764,0.18996176858177,2.956693618953137,-0.999273965690298,-0.012052481578097258,0.011639577794797212,0.034216946242374736,0.0005804509273730218,8.769112901011654e-05,19226.77808062662
1681063327093699693,109,1681063327093699693,camera_1,114,0,0.12782457600566347,0.18999837850090387,2.957748040167749,-0.9993381521889212,-0.01212384931941858,0.008282934532708503,0.033281569266484394,0.0012131707626394928,0.00018340086717329052,19219.888919423807
1681063327103543996,110,1681063327103543996,camera_1,115,0,0.127781884127477,0.18996916316417845,2.956762213439957,-0.9992974102279715,-0.011905280813434648,0.009244717443150679,0.034314507133556986,0.0001761940075084567,2.6620482652422826e-05,19228.657068622997
1681063327113670349,111,1681063327113670349,camera_1,116,0,0.1279008916396553,0.19004142932709267,2.958419935179099,-0.9993814726272034,-0.01219097156005593,0.013569039706133833,0.030065487578913218,0.0019220017129555345,0.00029065869468522076,19212.72218450368
1681063327122573137,112,1681063327122573137,camera_1,117,0,0.12785394034402608,0.19002357422733737,2.957998354315536,-0.9994239320159258,-0.011742593305355828,0.012662404044187945,0.029216076740606518,0.0016037659952417016,0.0002424673079552029,19221.662835103572
1681063327144069910,113,1681063327144069910,camera_1,119,0,0.1278332131732247,0.18999934045381595,2.9574315171220156,-0.9993342221095335,-0.01199256696877001,0.01082539837645087,0.032712407557750296,7.963727694004774e-05,1.2036005318798839e-05,19222.4683096453
1681063327154741764,114,1681063327154741764,camera_1,120,0,0.12785025060890007,0.19000452433834172,2.9581711695424366,-0.9994230648857276,-0.012004892931530045,0.012385318724618375,0.02925788441106098,0.0020759504986926913,0.00031381578315246384,19219.78994801129
1681063327173746585,115,1681063327173746585,camera_1,122,0,0.12780294872275832,0.18997422209928996,2.957106195667663,-0.9993012267369108,-0.01194971085566632,0.010028369732828231,0.03396607797601885,0.00019371125381439922,2.927176425648771e-05,19224.252368568206
1681063327184255599,116,1681063327184255599,camera_1,123,0,0.12783589226111977,0.19001365901728018,2.95741714107137,-0.9993421441933613,-0.01205497323095475,0.013521954447843765,0.03141835780760314,0.0005603600875474513,8.468240014455424e-05,19222.333425302866
1681063327193627834,117,1681063327193627834,camera_1,124,0,0.12790286400727166,0.1900461376878896,2.9585369496200156,-0.9994029627170761,-0.012275282339915658,0.01397403609532298,0.029116350578542793,0.0002816359628923238,4.2590026901238036e-05,19212.962914284435
1681063327203493118,118,1681063327203493118,camera_1,125,0,0.12783925830534884,0.19003500673933865,2.958131050285187,-0.9993290590853002,-0.011820291212337629,0.008219431991765301,0.03367719289187832,0.0006064851186238229,9.171636038215007e-05,19213.880277742515
1681063327212975025,119,1681063327212975025,camera_1,126,0,0.12785194568028838,0.19002910934698797,2.9580533304603747,-0.9994208432036945,-0.01182707362452418,0.014848629183399619,0.028242108824772526,0.00024864228907972574,3.758385071606788e-05,19220.025819881706
1681063327223447322,120,1681063327223447322,camera_1,127,0,0.12785712351444545,0.18999870003157135,2.957849327534006,-0.9994663603684509,-0.011882107137594399,0.015698152887146655,0.026064880927103278,5.1633804105222225e-05,7.803384806655454e-06,19226.268430834403
1681063327233778953,121,1681063327233778953,camera_1,128,0,0.12785090112787503,0.19003489021775213,2.957997070094108,-0.9993366005792358,-0.011931416409070415,0.012953018799926486,0.031878195513218896,0.00022729916963726285,3.4361336243459276e-05,19214.483478631475
1681063327243943929,122,1681063327243943929,camera_1,129,0,0.12782158538704147,0.19000888192194942,2.95734900963465,-0.9992271611313581,-0.012102515309988045,0.011307651889965542,0.03564753272351463,0.00041755201527848834,6.31137539526018e-05,19214.578534540487
1681063327253930807,123,1681063327253930807,camera_1,130,0,0.1278552136738413,0.1900224924366487,2.9575978593960257,-0.9994049214896155,-0.012175074211286269,0.01653470096707413,0.027715954506652346,0.000352409144397825,5.3251685360501596e-05,19224.31126766489
1681063327263988733,124,1681063327263988733,camera_1,131,0,0.1278200437899456,0.19000575700904174,2.957423694474608,-0.9993726017930803,-0.01209020230598571,0.012799049927834566,0.03073132139161533,0.0003894669935107231,5.8857668483479796e-05,19225.12195148412
1681063327274056434,125,1681063327274056434,camera_1,132,0,0.12786922708409243,0.19002906901291486,2.9584584752101497,-0.9994415589974355,-0.011837508697102633,0.012078622309761316,0.028819271672272828,5.114474333822727e-06,7.733895569539819e-07,19217.527994878124
1681063327283928155,126,1681063327283928155,camera_1,133,0,0.12782742236112118,0.18997444771086705,2.957102207598439,-0.9993694715507015,-0.012090669892771222,0.01423658483680745,0.030195938240099522,0.0005225499044172466,7.894860167018393e-05,19228.48528905587
1681063327293695688,127,1681063327293695688,camera_1,134,0,0.12784280479637908,0.18999689908724118,2.957840984993025,-0.999414467759003,-0.012061409583099552,0.012827127273272038,0.029337839708691256,0.0004177508526481688,6.313985406203871e-05,19223.214179843435
1681063327303775548,128,1681063327303775548,camera_1,135,0,0.12783879852247496,0.19002701060931307,2.9577145461890244,-0.9993284658676692,-0.012097274060005733,0.012120164423996561,0.03239405626381435,0.0009793377248570323,0.00014804544449074312,19217.914462177658
1681063327313511371,129,1681063327313511371,camera_1,136,0,0.127895065925118,0.19005169578242392,2.9589198630258773,-0.9995270741269814,-0.011963468668731774,0.012101450425842016,0.025613637034969033,0.0006253825849853456,9.458287179344211e-05,19218.87928612042
1681063327323669910,130,1681063327323669910,camera_1,137,0,0.12782981856174105,0.19001313705172773,2.9575677476439806,-0.9994611514114639,-0.012030951732386741,0.012641990753096865,0.027800055566178594,0.0002163563622161746,3.269415902744979e-05,19230.68655517418
1681063327333869218,131,1681063327333869218,camera_1,138,0,0.12780572452203967,0.18998885862785425,2.9573126786826403,-0.9992817878120562,-0.012009797475861995,0.009119539092192227,0.034763591852331285,0.0008167885825969278,0.0001234485591297494,19220.396871998666
1681063327343860387,132,1681063327343860387,camera_1,139,0,0.12786628395024713,0.1900451919588914,2.9583387743117173,-0.9992848713737003,-0.012103578037674954,0.011387927967522507,0.03396416256791522,0.0008567894692532718,0.00012958304218890285,19206.51535891333
1681063327353893041,133,1681063327353893041,camera_1,140,0,0.12782747650766318,0.19004237063209967,2.9577944555247893,-0.9993782740990682,-0.011849639154004889,0.010163329633939674,0.031612624716076586,0.000703769619576633,0.0001063975301955277,19221.54446574324
1681063327363689899,134,1681063327363689899,camera_1,141,0,0.12785342589255372,0.19003803194437624,2.9580539414722864,-0.9993115586228892,-0.011764273922569785,0.012421696100636663,0.03291978322757153,0.002024345099925995,0.00030607171832663064,19211.692013087442
1681063327373694896,135,1681063327373694896,camera_1,142,0,0.12787152056490658,0.19001887805221007,2.957741840071054,-0.9993602956389218,-0.011699222572033558,0.014961931190775822,0.030302942212585088,0.0032652391819283366,0.0004935731144505019,19218.732456549777
1681063327383783817,136,1681063327383783817,camera_1,143,0,0.12781516830122513,0.18998392210819853,2.9572832147916888,-0.9994173761546392,-0.012134311940518065,0.017742928231358136,0.02651141662913445,0.0019811324891634285,0.00029928000996567945,19229.078717189605
1681063327393846273,137,1681063327393846273,camera_1,144,0,0.12779478476178013,0.18996525987091645,2.9566428336483264,-0.999220016049973,-0.012161640640486287,0.011435456741738879,0.03578665045979208,0.0008465633145533502,0.00012790128287641436,19223.146634489072
1681063327403750419,138,1681063327403750419,camera_1,145,0,0.12778751663345667,0.18998627763153142,2.9567317528697044,-0.9991717811866314,-0.012045321912744834,0.009731400345727783,0.03762926716884164,1.9372673705220222e-06,2.927323442441012e-07,19218.5884056238
1681063327413749933,139,1681063327413749933,camera_1,146,0,0.1278348387064763,0.19005731726982603,2.957825883362401,-0.9992768003104866,-0.011954450046791873,0.01061341090613243,0.034501057871495426,0.0023650009534321725,0.000357606085188352,19212.606363142848
1681063327423587322,140,1681063327423587322,camera_1,147,0,0.12784916841678956,0.19001630048237317,2.9583543100852947,-0.9994186320108938,-0.01195897069568388,0.011282667819690824,0.02986774876424476,0.0004706652835011482,7.11658412234475e-05,19217.413934124408
1681063327433845758,141,1681063327433845758,camera_1,148,0,0.12785201476200883,0.19007290863518478,2.958362671303799,-0.9994193877408991,-0.01209865489425644,0.014078979411030252,0.028570829461185505,0.0021670378046110272,0.000327637006331773,19216.433203969962
1681063327443900346,142,1681063327443900346,camera_1,149,0,0.12784422024821868,0.1900551991169831,2.9582996382450197,-0.9994327333656595,-0.01203680930953038,0.014596978972757847,0.027861351434588684,0.0002925820299424231,4.423285552741445e-05,19218.148283659015
1681063327453900098,143,1681063327453900098,camera_1,150,0,0.12789995388795966,0.1900659220595761,2.9592264957686507,-0.9994965141390761,-0.011937974230080703,0.010543170848142233,0.027441657085249187,0.0013767966884188354,0.00020828293174668652,19212.88879261305
1681063327463957786,144,1681063327463957786,camera_1,151,0,0.12782695053180432,0.1899939268795689,2.9572780327507555,-0.9993499736727737,-0.01210919851645164,0.013184824046120484,0.03129149798888905,0.0002389891305938363,3.61117621725002e-05,19224.989424075466
1681063327473894834,145,1681063327473894834,camera_1,152,0,0.12778556162138777,0.18994684233788908,2.9565030965968258,-0.9992345176346773,-0.012061295094539072,0.011918986897318013,0.035253959768770264,0.00023945595603436234,3.616838514090918e-05,19225.9070195862
1681063327483836412,146,1681063327483836412,camera_1,153,0,0.1278005775107549,0.18999483753584628,2.957150007359656,-0.9992771959987523,-0.011978334423433967,0.012679375474928308,0.033776300846559616,5.607755156233907e-05,8.473553346819493e-06,19220.681458005216
1681063327493881702,147,1681063327493881702,camera_1,154,0,0.1278036811914573,0.18998983565285302,2.95733842497168,-0.999345204311106,-0.012343091492958353,0.013698819936245207,0.031131222994686996,0.0028293532668612897,0.00042746677931585956,19223.928021834
1681063327503844022,148,1681063327503844022,camera_1,155,0,0.12784700426313245,0.19003377296358356,2.957508905463414,-0.999368886071108,-0.011950100659718816,0.015421513836506959,0.029685039299384118,0.002029109396971762,0.0003066548912956592,19222.560171806486
1681063327513841152,149,1681063327513841152,camera_1,156,0,0.12782026384744918,0.19001806534627952,2.9578810054874776,-0.9994210492502131,-0.01197508378183827,0.011036986914375085,0.02987220453654354,0.0002992259687744081,4.523282813138448e-05,19223.83708210056
1681063327523866891,150,1681063327523866891,camera_1,157,0,0.1278146872169821,0.19000513054375454,2.957651551453664,-0.9992878438537615,-0.011902172593624855,0.009266417661365607,0.0345872363362155,0.0010707807959988713,0.00016186793659469124,19216.356281659333
1681063327533732414,151,1681063327533732414,camera_1,158,0,0.1278772499814067,0.19004802011545324,2.958389354752972,-0.9994030848560036,-0.012014205448097831,0.008718253697570962,0.031194949915322064,0.00036351074231788527,5.497770611408788e-05,19216.628369206555
1681063327543703079,152,1681063327543703079,camera_1,159,0,0.12784214481877365,0.1900291133084976,2.957766132695221,-0.9993897274246237,-0.011875246091291694,0.013168295148943533,0.030095635086800177,0.0012902272283099592,0.00019501182643209394,19221.759490319873
1681063327553755283,153,1681063327553755283,camera_1,160,0,0.12782586276822464,0.19000123958828663,2.957672652928807,-0.9993058570137755,-0.012277386951565236,0.010776546079255326,0.033480381751214774,0.000285430287476629,4.314591616244604e-05,19217.33280593983
1681063327563713073,154,1681063327563713073,camera_1,161,0,0.1278738457514075,0.19001904843261883,2.9581391397320673,-0.999461739593269,-0.011998028794422248,0.013604725416920547,0.02733477346851505,0.00010362296598032116,1.5665224297815286e-05,19222.9342799827
1681063327573693275,155,1681063327573693275,camera_1,162,0,0.12783993345479674,0.19001443789237582,2.957640855585357,-0.9992956800254775,-0.011946175336389881,0.011403525127870419,0.03369558416036879,0.0001329556107521057,2.009759619127034e-05,19216.2871736472
1681063327583711862,156,1681063327583711862,camera_1,163,0,0.127853631570653,0.19003061822710976,2.9583666526538615,-0.9994726453933086,-0.01185346442236178,0.012718437535216115,0.027425678448347427,0.000189969374332577,2.8721779529558527e-05,19221.133627839743
1681063327593706130,157,1681063327593706130,camera_1,164,0,0.12778765818498924,0.18997953874416945,2.9568738257166673,-0.9993027409128523,-0.012244045876798346,0.012295979687439678,0.03305940453416937,0.0007823332562111318,0.0001181862874629851,19226.797340796566
1681063327603827238,158,1681063327603827238,camera_1,165,0,0.12782106264869852,0.18998086276266463,2.957114742040453,-0.9992846339032642,-0.011830513826728303,0.013261488653806799,0.03338251497565557,0.0009118201560340822,0.00013778070680796028,19221.359673542196
1681063327613714456,159,1681063327613714456,camera_1,166,0,0.12782557341661768,0.1899892723980243,2.957006357180186,-0.9994110800804218,-0.011837315352080706,0.0130264252835254,0.029456463162998308,0.002812851103954017,0.0004249950275293389,19233.361360560637
1681063327623508691,160,1681063327623508691,camera_1,167,0,0.12785861182695057,0.19000524001675975,2.9576525953236548,-0.9993634324815925,-0.01199525989137564,0.01684508549390979,0.029070374153948995,0.0010043078800663352,0.00015178169197037984,19219.82869348908
1681063327633759260,161,1681063327633759260,camera_1,168,0,0.1277696927607289,0.1899446147025035,2.9562716888010794,-0.9992769622538729,-0.012122920882695638,0.015020627757895113,0.03275619391356074,0.00045460788533091545,6.864586161338606e-05,19231.321248900385
1681063327643907070,162,1681063327643907070,camera_1,169,0,0.12783108446096528,0.18995774925057818,2.9570760436868384,-0.9993580826058525,-0.011865131196806222,0.013107747944875172,0.031158118297652092,1.750554656609893e-05,2.6447415294329605e-06,19228.07567728113
1681063327653901100,163,1681063327653901100,camera_1,170,0,0.12790257905261743,0.19006819019980545,2.9589935105200134,-0.999450457523371,-0.012002573805904287,0.01578232906498401,0.02656387147316493,0.00030939013231545687,4.6793193842507574e-05,19210.194677380387
1681063327663652181,164,1681063327663652181,camera_1,171,0,0.12782939605364851,0.19000743839742978,2.95764025337347,-0.9994273654387815,-0.012164809969167032,0.011861949056129941,0.02926179719532044,0.0004976632772013545,7.520868657753052e-05,19227.34635923023
1681063327673898458,165,1681063327673898458,camera_1,172,0,0.1277718696684666,0.1899419261436147,2.956659673852084,-0.9992147764173898,-0.012197805158391212,0.014753150036479992,0.03468989337638583,0.00098616408649832,0.000148959519851282,19221.34950333671
1681063327683998346,166,1681063327683998346,camera_1,173,0,0.12783164504738304,0.18997233015739673,2.95700243748175,-0.999343982092085,-0.011916483789890898,0.013223544176415325,0.031539510932074764,0.0006690924637950957,0.00010108880347192395,19227.828776773415
1681063327693674802,167,1681063327693674802,camera_1,174,0,0.12784604499279553,0.19007421548982678,2.9582997589705604,-0.9994536871603993,-0.011960699916899522,0.01174595185808774,0.02848335468178273,0.0009299567318521439,0.00014059933014708097,19220.83551157289
1681063327703704833,168,1681063327703704833,camera_1,175,0,0.12782011986649702,0.18999076416553587,2.957303011827508,-0.9992900241784324,-0.012187324771590059,0.012617635200570534,0.03334234506337597,0.002952076320070773,0.00044612681155457954,19219.98035303596
1681063327713742494,169,1681063327713742494,camera_1,176,0,0.1278244694879757,0.1900239968076642,2.957504686812057,-0.9992991972782022,-0.01211350336609759,0.009983244763995897,0.03398105618315436,0.0023841229849494994,0.00036042677775188417,19219.036509677073
1681063327723725795,170,1681063327723725795,camera_1,177,0,0.1278521459672352,0.1900360475753471,2.9582573932187928,-0.9994595758951285,-0.011979371008586651,0.013039225829937157,0.02769529583746499,0.001183965359814465,0.00017899220860908394,19221.444937243832
1681063327733782052,171,1681063327733782052,camera_1,178,0,0.12781561936893893,0.19002270839962737,2.957246440601878,-0.9992786856242647,-0.012119752883317852,0.009872036481577211,0.03460871194939014,0.0014943333808332682,0.00022586982552593007,19220.72293391393
1681063327743344545,172,1681063327743344545,camera_1,179,0,0.12782881341551805,0.1900045799521397,2.9574778755496878,-0.9992969356815946,-0.011994597891862933,0.01303774563791066,0.033042111728346944,0.0001842681667767465,2.7847524769750708e-05,19217.94519631192
1681063327753025054,173,1681063327753025054,camera_1,180,0,0.12782825675209925,0.19000729966927446,2.957414983795676,-0.9992296010385999,-0.011971412742079957,0.011820061421484045,0.03545667543907075,0.0005774063756689429,8.726748706693955e-05,19213.61796089098
1681063327763014078,174,1681063327763014078,camera_1,181,0,0.12784419884992326,0.1900172493239915,2.9576208969724513,-0.999385228314397,-0.012030818379603403,0.010978158751159714,0.03104681733337746,0.0010070785065181553,0.00015222187153517152,19224.21914799302
1681063327773968458,175,1681063327773968458,camera_1,182,0,0.12785191028591253,0.19000823177755072,2.9574303978646515,-0.9992816455571969,-0.011838573489345756,0.01340085172453671,0.033413443451632795,0.00017909123562276363,2.7066236427957668e-05,19216.946316034187
1681063327783768415,176,1681063327783768415,camera_1,183,0,0.1278122834730005,0.19000495040680582,2.957293766493774,-0.999301144579289,-0.012147106540834316,0.011119598877225084,0.03355629249512742,0.0015346254804171622,0.0002318978321173925,19221.571238047443
1681063327793991088,177,1681063327793991088,camera_1,184,0,0.12783384719594146,0.1900147181797337,2.9578372989982507,-0.9993202021580272,-0.012103188056715699,0.013087957164466904,0.03226998256839494,0.000565619848202914,8.54949293527638e-05,19215.340286334744
1681063327803710937,178,1681063327803710937,camera_1,185,0,0.12784172297704566,0.1899999607563271,2.957457331162283,-0.9993887602525662,-0.011975760393171563,0.014775255283496496,0.029332215653640015,0.0013408214435912669,0.0002026076755059186,19225.195493322677
1681063327813769817,179,1681063327813769817,camera_1,186,0,0.12782749965202891,0.18999212530523735,2.957561652047542,-0.9994490093030918,-0.011977163641951241,0.014222253334311551,0.027494597001173827,8.807139238342643e-05,1.330872100242172e-05,19229.1423690418
1681063327823521137,180,1681063327823521137,camera_1,187,0,0.12783862374051802,0.19004084072579328,2.9582081402094937,-0.9994353580633492,-0.011802607526771446,0.010893257656778859,0.02951271668242448,0.0005736160674132407,8.672391227414037e-05,19220.677777988836
1681063327833777666,181,1681063327833777666,camera_1,188,0,0.12780284501553704,0.18995239607400444,2.9570942827223825,-0.9993565569315214,-0.012121017501891332,0.010436258694475817,0.03210354430831244,0.000661280530039221,9.992125710666186e-05,19229.02420471515
1681063327843660593,182,1681063327843660593,camera_1,189,0,0.12790349021413322,0.19005606051546486,2.958577622145081,-0.9994577457891266,-0.011941168317905839,0.01252964755222316,0.02801126226248948,0.0006098095327615738,9.222002677182954e-05,19217.213980522592
1681063327853651523,183,1681063327853651523,camera_1,190,0,0.12780515946308676,0.1899799578357906,2.956843297850054,-0.9992573793600473,-0.0120878270726128,0.010775783110299406,0.03496364868707369,0.0002741197822615504,4.141810627643061e-05,19223.823075717908
1681063327863646030,184,1681063327863646030,camera_1,191,0,0.1278445793554447,0.19001288406508224,2.957955884931473,-0.9994443575673352,-0.011930387191627175,0.010422038960669532,0.029326150312936197,0.00017195421969518065,2.599431094269001e-05,19224.986024204187
1681063327873656749,185,1681063327873656749,camera_1,192,0,0.1278413505248246,0.1900324018451208,2.9575926583316754,-0.9992469906530477,-0.012034212880476658,0.009763779974055767,0.03557102742111651,0.0004397127195261419,6.647820896136489e-05,19213.575345004785
1681063327883677244,186,1681063327883677244,camera_1,193,0,0.12781682983506865,0.18995283661025397,2.957175053628891,-0.9994151206758612,-0.011893801732647143,0.012822767075973664,0.029385892692130607,3.568257670849562e-05,5.390936873523609e-06,19231.735250157297
1681063327893665790,187,1681063327893665790,camera_1,194,0,0.12782589706827097,0.18997212644105127,2.9574560865831097,-0.9993715556273872,-0.011939111779375516,0.013016851004754781,0.03073293026601597,0.0003130369004793465,4.73073787602869e-05,19224.411140074953
1681063327903692245,188,1681063327903692245,camera_1,195,0,0.12786391396948962,0.19004014227291216,2.9579255064948957,-0.9993716824603919,-0.01201284489564959,0.015375018428892794,0.02958953636186368,0.0002332784933969378,3.526175360810402e-05,19217.503542324062
1681063327913516759,189,1681063327913516759,camera_1,196,0,0.12787120165734867,0.19007373086347132,2.958440261204667,-0.9994250265512773,-0.011822649283963167,0.010295767992356283,0.030063905739850707,0.001601695897988975,0.00024225085838198136,19216.97268587491
1681063327923315048,190,1681063327923315048,camera_1,197,0,0.1278473650274284,0.19001981167402918,2.9578064578802907,-0.9994374448450154,-0.011875597667798641,0.011630162258065041,0.029129080787944173,0.0002029807073995471,3.068164156248811e-05,19225.800855477573
1681063327934096336,191,1681063327934096336,camera_1,198,0,0.1278396481076282,0.19003175429227864,2.9576900395415002,-0.9993064451638495,-0.011909644948653108,0.010207172262503596,0.03377280926412571,0.0009436990367248654,0.00014266045262996744,19216.9642094709
1681063327944037675,192,1681063327944037675,camera_1,199,0,0.12782541864573285,0.18999399513065712,2.957473545143769,-0.9993814066489328,-0.012210747461044984,0.013124280124884572,0.030256486280578324,0.0013250893680378795,0.00020022123080447278,19225.246978175128
1681063327954006671,193,1681063327954006671,camera_1,200,0,0.1278229969840956,0.19001424264765537,2.9577914505689766,-0.999341090931059,-0.01213098276104703,0.012038954251737614,0.03202010016374653,6.757740629836917e-05,1.0214908784856392e-05,19218.09592181828
1681063327963855028,194,1681063327963855028,camera_1,201,0,0.12781627773740972,0.19001420423619705,2.9574714181738586,-0.9993042314243118,-0.012069753517566438,0.008028809265990826,0.03436440497463856,5.687004886567593e-06,8.597017905010777e-07,19220.662176767717
1681063327973775148,195,1681063327973775148,camera_1,202,0,0.1278048152733591,0.19006701249004684,2.9575153494966187,-0.9992099970728477,-0.011926697133565301,0.008970097969865021,0.03683304206245787,0.0012972262338735163,0.0001961384461591866,19211.74368186074
1681063327983964443,196,1681063327983964443,camera_1,203,0,0.1278114151734473,0.18997081086241246,2.9571782457268796,-0.9993204182155245,-0.01171036722582653,0.012356195479854217,0.03269393629175267,0.000896498910151422,0.00013545558816309712,19223.784411069242
1681063327993794441,197,1681063327993794441,camera_1,204,0,0.12783215232120387,0.19001477494689217,2.957383633853042,-0.9993520743757903,-0.011960654962079795,0.01154562846114089,0.03192291711482888,0.0018573688575997949,0.0002807272861572672,19224.226546977297
1681063328003857851,198,1681063328003857851,camera_1,205,0,0.12786066486501618,0.18998917114388508,2.957901164078647,-0.9994114726042131,-0.01201890065266993,0.013503110975794074,0.029153395139416897,0.00141227146377787,0.0002134490772542741,19221.887754452073
1681063328013716697,199,1681063328013716697,camera_1,206,0,0.127817910864851,0.1900001612460949,2.957155307718424,-0.9992809249399979,-0.012001585120300915,0.013590068149565,0.03330022602555165,0.0008465388091281056,0.0001279127732468941,19220.568729941035
1681063328023498535,200,1681063328023498535,camera_1,207,0,0.12780527615201925,0.18999449735150464,2.9571915315312682,-0.9992878093362088,-0.01209443756530594,0.01055534447641123,0.034149427447677266,0.0005574588431045413,8.424932991207842e-05,19221.942615442895
1681063328033735275,201,1681063328033735275,camera_1,208,0,0.12782875396909085,0.18996864541675068,2.957512109251414,-0.9993992328231364,-0.012011706015195397,0.01558746494767995,0.028529340820213953,0.002129434491507709,0.0003217299408547693,19225.194342511713
1681063328043881416,202,1681063328043881416,camera_1,209,0,0.12784941938519015,0.19003445413106984,2.9581234235920815,-0.9995008385454164,-0.011961832917599993,0.016839599841090805,0.023904312946685075,0.001791186979971826,0.00027074855445348217,19225.37647381355
1681063328053704500,203,1681063328053704500,camera_1,210,0,0.1278922413808306,0.19007097993701133,2.9585107041378818,-0.9994060067033343,-0.011863605721097324,0.01315208585256903,0.02956199016162422,0.00024743092944845557,3.741796547657844e-05,19213.433070943458
1681063328063814401,204,1681063328063814401,camera_1,211,0,0.12782437830950888,0.18995066220281098,2.9569330271237417,-0.99931607580774,-0.012031515773437322,0.013656742272144697,0.03218876591180671,0.0006419728742912412,9.698574481103912e-05,19226.38512249105
1681063328073808431,205,1681063328073808431,camera_1,212,0,0.12787450960793467,0.19008709614610622,2.958672105657689,-0.9994203289279591,-0.012139416846955346,0.015374213075699146,0.027843747169679578,0.00047270237701013684,7.147841761209113e-05,19212.08838790888
1681063328083715438,206,1681063328083715438,camera_1,213,0,0.12785874775782166,0.19004554690667763,2.957915980946931,-0.999337783162565,-0.01192516955896723,0.01196438883160949,0.0322279207304204,0.00015035911928862333,2.273158542520304e-05,19215.952327986713
1681063328093713521,207,1681063328093713521,camera_1,214,0,0.127840076580609,0.19002462994673924,2.957992425149967,-0.9993263651168288,-0.012028316952807122,0.010361576568612123,0.033087358683975325,0.0009695239132270217,0.00014658219916187045,19214.8028192973
1681063328103851556,208,1681063328103851556,camera_1,215,0,0.12785693567648806,0.19002875839649516,2.9580035824047415,-0.999312642756177,-0.012125565392599737,0.012935578495094517,0.03255585201730078,0.0007895163143984973,0.00011936262545904504,19212.593936251717
1681063328113736152,209,1681063328113736152,camera_1,216,0,0.1278411797739727,0.19004035130422564,2.957755544469257,-0.9993154494513621,-0.012016805360730956,0.012815706353964692,0.03255743459478576,0.0014938857639208436,0.00022583781468824555,19215.944804023253
1681063328123201608,210,1681063328123201608,camera_1,217,0,0.12781693961287235,0.1899857028515488,2.957508880027677,-0.9993627959933299,-0.011876487222641775,0.01547493788006133,0.029891091202112093,0.00047429377445951104,7.166849767189575e-05,19222.073003932368
1681063328133386135,211,1681063328133386135,camera_1,218,0,0.12776900186709614,0.18994492184958442,2.9563669313407166,-0.9991513755454805,-0.012405485853119543,0.012424170894540214,0.03725953091365429,0.0003134444705210626,4.7342605525614935e-05,19220.970141446214
1681063328144021987,212,1681063328144021987,camera_1,219,0,0.12780323195517232,0.19000452666834003,2.9575425891105183,-0.9992803375502387,-0.01203953522351674,0.010543746490836354,0.034390201904319614,0.0009945742785930631,0.00015033167125926247,19216.773908306845
1681063328154624938,213,1681063328154624938,camera_1,220,0,0.12785614847166485,0.19005616280337126,2.957947656816915,-0.9993607999191111,-0.01204982539269541,0.014718973826339065,0.030267888967348118,0.000982385710813105,0.0001485093597298108,19216.564803803813
1681063328164022684,214,1681063328164022684,camera_1,221,0,0.12786581068088726,0.1900675928349232,2.9584588296457945,-0.999417784928723,-0.012092550333212545,0.008680078176673194,0.030700450118045175,0.0004526103148236871,6.84491461656404e-05,19217.0658853841
1681063328174276590,215,1681063328174276590,camera_1,222,0,0.1278843869029683,0.190115944577234,2.9591829939777075,-0.9995149474239703,-0.012047615067108261,0.016728469526600166,0.023342732371135974,0.00043032329995185137,6.509432114894412e-05,19212.96698549682
1681063328183838605,216,1681063328183838605,camera_1,223,0,0.1278437577017505,0.19000894756154693,2.957554803922532,-0.9993744322735766,-0.011953702790230778,0.014605837020062377,0.029908571219849616,2.6622263249009848e-05,4.0231443413351255e-06,19222.769064696404
1681063328193703651,217,1681063328193703651,camera_1,224,0,0.1278363560897236,0.19004262608703623,2.958004010879017,-0.9993660145667227,-0.012146072206166274,0.009839721319412277,0.031987837428370886,0.0007619476527906954,0.00011520544618135519,19218.24366329308
1681063328203976154,218,1681063328203976154,camera_1,225,0,0.12785279409555228,0.19002467774666867,2.9580263038428276,-0.9994216263208014,-0.012064107385338706,0.01736591450583014,0.02663259598040714,7.275294046849012e-05,1.0996719636653876e-05,19219.829949056497
1681063328213714361,219,1681063328213714361,camera_1,226,0,0.12785314955279292,0.19001354979454801,2.957840828053268,-0.9994388808596215,-0.011900384637668774,0.018279691141955226,0.025419621619878895,6.901676533743739e-05,1.0430391161081817e-05,19223.232807648128
1681063328223637580,220,1681063328223637580,camera_1,227,0,0.1278142948026702,0.18998144308504303,2.957149697954837,-0.9992584334274721,-0.012124108225941609,0.013681065468875079,0.03388831172301868,0.0008371303556486964,0.00012648915528633116,19218.890449636263
1681063328233612060,221,1681063328233612060,camera_1,228,0,0.127829931315406,0.18998220399774393,2.95740173294183,-0.9993502228160775,-0.011895571581037555,0.014923178020992522,0.03057656442392434,0.0014220160664990544,0.00021488959297138386,19222.574555276427
1681063328243512392,222,1681063328243512392,camera_1,229,0,0.12784207523630542,0.19002247554812707,2.95775147800821,-0.9993367360690477,-0.011908594128704085,0.012452243081517938,0.032081380440669265,0.0016182090039364994,0.00024463086927236846,19217.8122151969
1681063328253661632,223,1681063328253661632,camera_1,230,0,0.12782763936199362,0.19006740289613788,2.9582299823712863,-0.9994252863987009,-0.012020039331035433,0.00986922646386341,0.030119992203849647,0.0012064011534675956,0.00018240467487207364,19220.153333714457
1681063328263797760,224,1681063328263797760,camera_1,231,0,0.12782788073581347,0.18999503496432818,2.9572819532215164,-0.999245168707617,-0.01192628294279792,0.01647912486109553,0.033095241855389895,0.0006044195615686476,9.132914741384421e-05,19214.843207312748
1681063328273920536,225,1681063328273920536,camera_1,232,0,0.12781799792837306,0.1900154715156768,2.9576688516375143,-0.9993693284498887,-0.011989770342160741,0.014356189480521796,0.030184277105145287,0.0009699473157525064,0.0001465849502966004,19221.0438326688
1681063328283813476,226,1681063328283813476,camera_1,233,0,0.12785806228241148,0.19003835498889288,2.958217759101995,-0.9994576046425472,-0.01199920133210691,0.013130673211526136,0.027714637118055982,0.0002860516542568803,4.324521473891978e-05,19221.75932433665
