%time,field.header.seq,field.header.stamp,field.header.frame_id,field.image_seq,field.transforms0.fiducial_id,field.transforms0.transform.translation.x,field.transforms0.transform.translation.y,field.transforms0.transform.translation.z,field.transforms0.transform.rotation.x,field.transforms0.transform.rotation.y,field.transforms0.transform.rotation.z,field.transforms0.transform.rotation.w,field.transforms0.image_error,field.transforms0.object_error,field.transforms0.fiducial_area
1681218287228983879,0,1681218287228983879,camera_1,1,0,0.030271069484555276,0.09049054930729225,1.5512070266463747,0.9995163222137275,0.012097371840296148,-0.01529632643312483,-0.024223905972261088,0.08577050192980096,0.0035667103147933453,69701.14638202357
1681218287239178419,1,1681218287239178419,camera_1,2,0,0.03024435257994198,0.0919177423992405,1.5510479053981943,0.9994291379654883,0.012286409989097592,-0.016480994710264454,-0.026810802459103087,0.09053613955620676,0.0037648641603468267,69679.05831055375
1681218287249051094,2,1681218287249051094,camera_1,3,0,0.030210885032602313,0.09316125219479757,1.5508028875395983,0.999456026474517,0.01226607446601411,-0.014777349917969149,-0.02681090245339741,0.09732894226908684,0.0040470701327417835,69695.37143326817
1681218287259167671,3,1681218287259167671,camera_1,4,0,0.03018946454425341,0.09414962514827,1.5509777799087194,0.9996103253095273,0.012304585855594945,-0.015633721360204918,-0.01958012916032217,0.0849433065741323,0.003531830293044282,69726.83091851466
1681218287269066572,4,1681218287269066572,camera_1,5,0,0.030182791200149554,0.09491435328905279,1.551031224816464,0.999572930260915,0.012261994087298085,-0.015107041924791198,-0.02180316203888328,0.08942036115331575,0.0037190721676425404,69700.61285437492
1681218287279105901,5,1681218287279105901,camera_1,6,0,0.030107806022455896,0.09520526859673153,1.5506208480545316,0.9992680289241218,0.012791765904087402,0.0036232399273624025,0.03586989305231251,0.08581880951533094,0.0035678021731588684,69725.55322081258
1681218287289041996,6,1681218287289041996,camera_1,7,0,0.03015572489491593,0.09565234348499758,1.5504075496329706,0.9995410798157669,0.012270383049440567,-0.015649142968724616,-0.02285107841865013,0.08940954197896644,0.0037162061364416324,69739.39139716116
1681218287298955678,7,1681218287298955678,camera_1,8,0,0.030169731546877396,0.09561438501994658,1.5506123809862538,0.9995322447564566,0.012131533937639135,-0.016508758564277415,-0.02270635301199164,0.0932889647083357,0.0038782244154664082,69720.17424586657
1681218287308975696,8,1681218287308975696,camera_1,9,0,0.03014332779670422,0.09525897393564417,1.5502719367525863,0.9994692836357505,0.012262401192460371,-0.013904628118824687,-0.02678518065110256,0.09846421249676496,0.004092815139860902,69725.86494771818
1681218287319046974,9,1681218287319046974,camera_1,10,0,0.030178961153567725,0.0946888099119985,1.5504468760566408,-0.999379972840645,-0.012206805223646453,0.015645745198523495,0.029083920788757697,0.08681630430510269,0.0036093822497420117,69689.515269837
1681218287329050540,10,1681218287329050540,camera_1,11,0,0.030185373135936763,0.09381411758341765,1.5503460855903854,0.9994404834713925,0.012320819815353878,-0.014485803922268123,-0.027515066459536025,0.10451915336307138,0.00434399838878032,69724.52514759614
1681218287339184284,11,1681218287339184284,camera_1,12,0,0.03020732628202982,0.09272049225722037,1.5507248828582758,0.999419811295117,0.012181720863393508,-0.013855952802936406,-0.028629688080066017,0.1001192862750031,0.0041634612578821525,69691.70228742855
1681218287348977088,12,1681218287348977088,camera_1,13,0,0.030238849858147065,0.09143905562591376,1.5507352779520784,0.9993699813557442,0.012259421792761852,-0.016752494972002693,-0.028787164753404784,0.09552186244400218,0.00397087984644167,69691.79688878973
1681218287358981609,13,1681218287358981609,camera_1,14,0,0.030247934511259452,0.0900602033557967,1.550942860914841,0.9993796927424488,0.012394856386757008,-0.015205497870547965,-0.029247052905707085,0.09921451547415927,0.004124846897022925,69684.3246364526
1681218287369003295,14,1681218287369003295,camera_1,15,0,0.030277783292183728,0.08859513682669935,1.5510265973825945,-0.999411239421182,-0.012349857588590979,0.015173991455950688,0.028185200362125955,0.07822742511052638,0.0032519186172430825,69697.10496349072
1681218287379019260,15,1681218287379019260,camera_1,16,0,0.030314759245611746,0.08706659453371515,1.5509146975454913,-0.9993434361407714,-0.01218886922116954,0.015671851727596744,0.030307114229062498,0.08656938356580213,0.0035989123229661756,69696.35623147068
1681218287389035940,16,1681218287389035940,camera_1,17,0,0.030274144729438308,0.08533276101088387,1.5513771014240396,0.9994520567716259,0.012732508135347256,0.005587568994266469,0.030037452027165974,0.09399126359494403,0.003906551404694769,69720.03727555278
1681218287399006605,17,1681218287399006605,camera_1,18,0,0.030345101831728557,0.0840311023491518,1.5509136703605708,0.9994403141514879,0.01227874166493878,-0.013230327142063958,-0.028164683481530423,0.09167965316737536,0.0038096748390039777,69738.76666517579
1681218287409172773,18,1681218287409172773,camera_1,19,0,0.030374152044696272,0.08270533399500837,1.550595008470705,-0.9993033059475778,-0.01228484055525098,0.01597383206145141,0.03141372477192644,0.10231415038288105,0.004249084109464733,69737.18588567644
1681218287419439554,19,1681218287419439554,camera_1,20,0,0.03036775926449892,0.08158452092718137,1.5503993300941228,0.999369998035966,0.012243687446154228,-0.015093491582091337,-0.02969655965217668,0.10590377946209628,0.004396615917287268,69777.3799117941
1681218287428881168,20,1681218287428881168,camera_1,21,0,0.030312360030958375,0.08043782253248342,1.5504403679258303,0.9993881574985484,0.012686032867137152,0.005156599363796573,0.032183609256139584,0.10752365359803662,0.00446366791642902,69784.07910304889
1681218287438910007,21,1681218287438910007,camera_1,22,0,0.030380792795687485,0.07992986935828907,1.5498236171365134,-0.9992530068822665,-0.012282459690505825,0.014295341235715223,0.03373740712702686,0.09699530400393996,0.004024071829219266,69799.68819530681
1681218287448973894,22,1681218287448973894,camera_1,23,0,0.030336125127381097,0.07931099951860143,1.5503885940496782,0.9994036524923846,0.012680075546241312,0.0056058559368313806,0.031624823291809885,0.10905636948882602,0.004526013509871855,69789.79967806267
1681218287458996534,23,1681218287458996534,camera_1,24,0,0.030341660624183746,0.07916545071259079,1.5504474278508473,0.9995268861012694,0.012703141082765707,0.003686596922090875,0.027767664116117866,0.0890188243065495,0.0036939461251698376,69819.62365678289
1681218287468951225,24,1681218287468951225,camera_1,25,0,0.030348435029624334,0.07930409928123112,1.5505922004577608,0.9994718319368084,0.012737876271001685,0.005029796174316073,0.029470405891837137,0.08505403215531261,0.0035306721931274232,69790.61666833062
1681218287479001283,25,1681218287479001283,camera_1,26,0,0.030347991197562596,0.07971248951782597,1.5504338665127904,0.9994081802089464,0.012583125186121551,0.006838425735165325,0.03127603276403849,0.1066136549343355,0.004424705641325845,69785.78015970137
1681218287488931655,26,1681218287488931655,camera_1,27,0,0.03031558212900863,0.08041467149120758,1.550474095722237,0.999377189348668,0.012663172573743095,0.004492629092401265,0.03262964532082017,0.10534007556270808,0.004373165002719272,69779.07951068421
1681218287499037504,27,1681218287499037504,camera_1,28,0,0.030310318082260826,0.08140511116150718,1.5507931661916905,0.9993775581953223,0.012555834519384844,0.004101997955177369,0.032711172523356744,0.10942385043017566,0.00454458735721506,69752.64429608993
1681218287508964538,28,1681218287508964538,camera_1,29,0,0.030349256064283476,0.08274731164326117,1.550557342025952,-0.9993575102672239,-0.012127113519810192,0.014566075060589052,0.03041922496551708,0.08942045888397843,0.003713559605604003,69753.33200142457
1681218287518990278,29,1681218287518990278,camera_1,30,0,0.030341289949486726,0.08400106655710797,1.5505184552774967,-0.9993165962551207,-0.012249648713709314,0.015922457417137024,0.03102840481349431,0.0982908071600832,0.004082168871287344,69741.4601178952
1681218287529007196,30,1681218287529007196,camera_1,31,0,0.030315405697874383,0.08543862743594521,1.5507875084195537,-0.9994062063227287,-0.01212759213936497,0.013171556987607991,0.02943919766289421,0.10205843456787989,0.004240612977044149,69731.55786195723
1681218287539001703,31,1681218287539001703,camera_1,32,0,0.030293291905035095,0.08703700103967571,1.550635008949035,-0.999252085819745,-0.012314157121466269,0.014710946768544926,0.0335740757795347,0.10101800638949499,0.004198141026249276,69691.80279257198
1681218287549120664,32,1681218287549120664,camera_1,33,0,0.03030311937166171,0.0886098089574914,1.5509385275541954,-0.9993224149105325,-0.012307087817249427,0.017470428664689047,0.029967161512427787,0.08394338935613632,0.0034901892702586842,69681.5764851221
1681218287558992624,33,1681218287558992624,camera_1,34,0,0.030264361890733133,0.09008520774069512,1.5512880962331064,0.9995645161230471,0.012194108706484347,-0.015470227715074572,-0.021971660724599263,0.07857586967293174,0.003267075739699058,69713.49268191213
1681218287569173574,34,1681218287569173574,camera_1,35,0,0.03018492152087761,0.09124836204710156,1.551143932727937,0.9992092899204356,0.012672475112255856,0.00423117818399924,0.037447302204608714,0.0907678275834769,0.0037749645053239455,69676.41891608664
1681218287579000234,35,1681218287579000234,camera_1,36,0,0.030221502926796887,0.09273142597703078,1.5513413855450633,0.9996024665289172,0.012307922827830671,-0.014098257460403813,-0.02108703586446386,0.0852003789623268,0.0035438121306495983,69699.40639179084
1681218287589041471,36,1681218287589041471,camera_1,37,0,0.030196615296681512,0.09382107416237202,1.5508286636526893,0.9994847168813789,0.012309165759640259,-0.014388159574454643,-0.02591844946966744,0.09825887804618105,0.004086216302392142,69696.27266028686
1681218287599041938,37,1681218287599041938,camera_1,38,0,0.030181568215216656,0.0946926665908478,1.5507417463084279,0.9995337524211123,0.012201492056371393,-0.015551532193690236,-0.023271252845467987,0.09789175057085231,0.004069816869163951,69715.38754661311
1681218287609026908,38,1681218287609026908,camera_1,39,0,0.03010281994766129,0.09512921483712711,1.5509384686255139,0.9993322219278045,0.012685061023435813,0.005047058607489091,0.03389287009212678,0.08298251550877465,0.00345069612242412,69709.41810248463
1681218287618968725,39,1681218287618968725,camera_1,40,0,0.030092994205342696,0.09543347138323734,1.5504389653091968,0.9992875907049489,0.012600205002636575,0.004151711720877106,0.03533141925788982,0.10088649252429605,0.004192198884930204,69743.8756657008
1681218287629038572,40,1681218287629038572,camera_1,41,0,0.03014065089783118,0.09566660208156223,1.5505110220915646,0.9995751204514584,0.01212635643562368,-0.013857627643612189,-0.022594163187418786,0.09880865080049261,0.004107399066675175,69736.82715277691
1681218287638994216,41,1681218287638994216,camera_1,42,0,0.030159071575720883,0.09537738026228694,1.5507222711095716,0.9996404662618288,0.01220724509587874,-0.014561068777603704,-0.018918156756324418,0.08684722933685407,0.003609914154855585,69746.45161079871
1681218287649183273,42,1681218287649183273,camera_1,43,0,0.030170671523731447,0.0948919131149372,1.5504943150041588,0.9994645946956666,0.012223880149223737,-0.01662355987055541,-0.025392084616162585,0.09519997966708615,0.003957088248207645,69714.43519266974
1681218287659012317,43,1681218287659012317,camera_1,44,0,0.030183608680834237,0.09412180742733796,1.5507424619370516,0.9994688650253076,0.012255527617428699,-0.015492340349066241,-0.02591866660055306,0.1029155227006413,0.004279196995410081,69698.2270513504
1681218287669154167,44,1681218287669154167,camera_1,45,0,0.030207821503737527,0.09312327404565253,1.5504904969345157,0.9994371581415894,0.012183059453127854,-0.01489511280709361,-0.02747863902542047,0.0847837376059033,0.0035243529144327016,69717.05908499612
1681218287679031610,45,1681218287679031610,camera_1,46,0,0.030215785195937806,0.09194201607848021,1.5508824654341091,0.9994846728765328,0.012198127312248484,-0.014887999424156067,-0.02568933335279282,0.08366229519015178,0.0034785085531686202,69707.83094659656
1681218287688991785,46,1681218287688991785,camera_1,47,0,0.030229386611343084,0.0905367104178044,1.550592890934729,0.9993732669441993,0.012346858674154174,-0.015845863542031727,-0.029146818124215754,0.094017886207439,0.0039074066308350825,69710.87357324341
1681218287698992490,47,1681218287698992490,camera_1,48,0,0.03025930622792903,0.08902527912254658,1.550609420870528,-0.9992568035302416,-0.012367458635111768,0.014286124721835988,0.03359751785273968,0.11607547866879031,0.004824637273322265,69680.98143506263
1681218287709063768,48,1681218287709063768,camera_1,49,0,0.03028177604819468,0.0875165048151845,1.5506840845230478,-0.9993565907419165,-0.012336759421071836,0.014695476785609705,0.030302670999834917,0.10310550022404641,0.00428423472971424,69716.5543785195
1681218287718989372,49,1681218287718989372,camera_1,50,0,0.030302713001385578,0.08603340748152336,1.5507500556710874,-0.9994580293987626,-0.012229826822110733,0.012578129100487192,0.027854433660996946,0.08095163077814503,0.0033636250841300014,69746.78877952055
1681218287729255199,50,1681218287729255199,camera_1,51,0,0.03035786299069136,0.08460199404143377,1.550908428768501,0.9993566885274022,0.01226041341188986,-0.01589715141527534,-0.029718208818739204,0.1109439712599851,0.004609814750674273,69715.83999824175
1681218287739025354,51,1681218287739025354,camera_1,52,0,0.03035284483218975,0.08316182280464277,1.5507203352304797,-0.9993531258345077,-0.012053980139289778,0.013739492768608705,0.03097188702778025,0.1030158547218889,0.004279535934717283,69733.96287157288
1681218287749055862,52,1681218287749055862,camera_1,53,0,0.030368393453530176,0.0819176358597726,1.5510036145330117,0.9995134852338231,0.01231312099644124,-0.012768661383183688,-0.02565426228806205,0.0886102530057542,0.003681079888988943,69761.04809179447
1681218287758991003,53,1681218287758991003,camera_1,54,0,0.03037674670299116,0.08090830022543719,1.5505615991206096,-0.9993906214446222,-0.01221197712105909,0.015537516866963912,0.028772190617597324,0.0935762266308302,0.003885058914112273,69772.11296451128
1681218287769040107,54,1681218287769040107,camera_1,55,0,0.030390971128854742,0.0801515882454671,1.550716997723071,-0.9994093497868354,-0.012345174307915806,0.015217117113330706,0.028230968398574075,0.08993973334145267,0.003734415988292361,69766.23158989055
1681218287778998374,55,1681218287778998374,camera_1,56,0,0.030349084934927145,0.07945301857918834,1.5506349814950418,0.9994554451599238,0.012522683931864974,0.004095568465355955,0.030252633707938015,0.08611761285283137,0.0035754208360648377,69783.45987026441
1681218287789030075,56,1681218287789030075,camera_1,57,0,0.03040888239163254,0.07935855686205265,1.5505049800501516,0.9994844477899901,0.012324677617204348,-0.015590939825199894,-0.025216334843465457,0.09147741811466403,0.003796527430542366,69809.84484702721
1681218287798975229,57,1681218287798975229,camera_1,58,0,0.030342417646944942,0.07922759760689949,1.5504300544168998,0.9994783890093321,0.012545730794734943,0.0044821177912243585,0.02941878927219406,0.09579092724015936,0.003975421105485922,69806.8608500601
1681218287808918952,58,1681218287808918952,camera_1,59,0,0.030343993714502703,0.07955674640737573,1.5505950412560976,0.9994567623066374,0.012496995812902319,0.0032414624449507287,0.030323230309519184,0.09165486252459233,0.003805236151237776,69788.75683524569
1681218287819034814,59,1681218287819034814,camera_1,60,0,0.03032148228742554,0.08017950713162858,1.5507098988688974,0.9994427383421889,0.01270491607626072,0.006031008502887041,0.03027250929474525,0.09745705257228111,0.004046252798080449,69772.5347069296
1681218287828986644,60,1681218287828986644,camera_1,61,0,0.030384462902224314,0.08123538019729942,1.5508924108070494,0.9994733461183992,0.01227851717477805,-0.012727885000022032,-0.027207891471141592,0.09464909002417699,0.003931964796557221,69761.42323165736
1681218287839020252,61,1681218287839020252,camera_1,62,0,0.030372451592860544,0.08233989258172589,1.55069222757356,-0.9993657225125371,-0.012331256622771845,0.015095354579920893,0.029803071103573248,0.08648385807464365,0.003591948837503865,69747.27040689928
1681218287849009037,62,1681218287849009037,camera_1,63,0,0.0303536058257541,0.08363123950184996,1.5507130368619941,-0.9993111396291379,-0.012293946626651921,0.01581285632166598,0.031241937590444618,0.06860535818850622,0.002850107434186592,69724.32985842123
1681218287859119176,63,1681218287859119176,camera_1,64,0,0.030324630237802904,0.08502718642330047,1.5509382474505569,0.9994599961785153,0.012232708825169143,-0.013011202345528479,-0.02758234013213176,0.09844682272523642,0.004091060820604633,69736.96532258313
1681218287869050025,64,1681218287869050025,camera_1,65,0,0.03032239743807579,0.08649634885553317,1.5510340441779868,-0.9994156640140351,-0.012149361978245704,0.014349410575783582,0.028545016080468555,0.09196582721779123,0.0038225205456901027,69708.82198552357
1681218287879019021,65,1681218287879019021,camera_1,66,0,0.030322945741999244,0.08800446727018875,1.5517472040616285,0.99966257195266,0.012167139163611838,-0.016339978310527505,-0.01611546060085919,0.0780194613034837,0.003244690505018973,69720.74473197642
1681218287889054536,66,1681218287889054536,camera_1,67,0,0.03025609032052054,0.0895924842504869,1.5507107994071285,-0.9992870867639043,-0.012337166129574533,0.015150457384401426,0.03230443003434625,0.09237172169378029,0.0038397327362359847,69678.76093963895
1681218287898962974,67,1681218287898962974,camera_1,68,0,0.030235685084511642,0.09107600783952408,1.5509400982960244,-0.9994715027636378,-0.012200341781184978,0.013349809000873632,0.02701202368313036,0.08530635322676972,0.0035466709676920125,69701.8015741883
1681218287909051418,68,1681218287909051418,camera_1,69,0,0.030207700230720044,0.09236506187089553,1.5510590612587962,0.9995595869254031,0.012179839791989047,-0.012890317995583121,-0.023793347602464175,0.07711750629823655,0.0032070417848317667,69709.28274218983
1681218287918859481,69,1681218287918859481,camera_1,70,0,0.030145895782146822,0.09330659828066881,1.5511154714381723,0.999372665850281,0.012471107356174129,0.003932507084477564,0.03291324384870148,0.09011045785155147,0.0037471033797119653,69711.10339372153
1681218287928937196,70,1681218287928937196,camera_1,71,0,0.03017461743647332,0.09443079367827151,1.5510037227718967,0.9995345337774159,0.012198777798180821,-0.014258720059674997,-0.024053991536838033,0.07557040057145059,0.003143248874492159,69691.47217109276
1681218287938999652,71,1681218287938999652,camera_1,72,0,0.030147803651406322,0.09513475037117551,1.5504777511379024,0.999502642231419,0.012122628879193187,-0.013599487955682112,-0.025740317962537153,0.08887669537216425,0.0036947521253616385,69718.82709565271
1681218287948959827,72,1681218287948959827,camera_1,73,0,0.030165462192423748,0.09555798402912181,1.5505613696690992,0.9994949028707688,0.012117480099252863,-0.01566641489938639,-0.024852952653496935,0.09941283642547206,0.004132834967240274,69709.87665647012
1681218287958957672,73,1681218287958957672,camera_1,74,0,0.030179855687168886,0.09566210514492926,1.5501867836031562,0.9994500489197743,0.012261080928553183,-0.018747985601370004,-0.02444951215495371,0.08616900688502939,0.0035801322946050337,69735.35408373026
1681218287968928098,74,1681218287968928098,camera_1,75,0,0.030161896650518535,0.09552647397038835,1.5504322209939683,0.999460688848141,0.012142518993037569,-0.016849989089035025,-0.0254355764118457,0.1034962022677064,0.004301496947916332,69712.89454828526
1681218287978952169,75,1681218287978952169,camera_1,76,0,0.03017088482574623,0.09512536155353418,1.5507349697295194,0.9995521840298104,0.012112358278975464,-0.015399842284789213,-0.02261784772610925,0.09202292829286307,0.0038257412160227224,69717.73634897718
1681218287989135026,76,1681218287989135026,camera_1,77,0,0.03012596991246874,0.0942257476285232,1.5508938345986736,0.9993388727612605,0.012518712585614369,0.0038641235818829413,0.03391412349443985,0.09114558063447475,0.0037900422823835584,69720.00125027192
1681218287998994588,77,1681218287998994588,camera_1,78,0,0.030185652165643156,0.09344712746791663,1.5507850667603666,0.9995717875389581,0.012171405333018723,-0.013377595131983172,-0.02300300843098541,0.08217173063894734,0.0034162993912669978,69729.99068781346
1681218288008979558,78,1681218288008979558,camera_1,79,0,0.030223113304145677,0.09229705552998374,1.5510070174066106,0.9995010026346555,0.012255934166060392,-0.014870056482349406,-0.02502836850950492,0.07884746778290719,0.003278803236635332,69699.60230830079
1681218288019191503,79,1681218288019191503,camera_1,80,0,0.030229705185234566,0.09102384002152736,1.5510908718522436,0.9994488041813564,0.012170531770211086,-0.014624646398400077,-0.027204516070107723,0.10471017111558467,0.004354250315470351,69684.02701640676
1681218288028968334,80,1681218288028968334,camera_1,81,0,0.030246383813428812,0.08962623527685473,1.5511085058476741,-0.9995160504262725,-0.01220459542346177,0.011824707823407984,0.026055499912798354,0.08210757095366716,0.0034140811809552562,69708.8893237021
1681218288038992404,81,1681218288038992404,camera_1,82,0,0.030287104511020808,0.08809450409285348,1.5513240979517136,-0.9993732978511997,-0.012127243473278548,0.013754428144037045,0.030277998847145597,0.10166010318789631,0.004228039526368549,69658.48208297646
1681218288049015760,82,1681218288049015760,camera_1,83,0,0.03030790973874291,0.0864981299065292,1.551206691475023,-0.9994120107207564,-0.012282298438792987,0.013749997193158005,0.028908745205270432,0.10235061019193381,0.004255002560562368,69691.62872230893
1681218288059014320,83,1681218288059014320,camera_1,84,0,0.030274994994813023,0.084807131761517,1.5511606255795753,0.9993769599663747,0.012550712505013687,0.005219955128064435,0.032571821755079944,0.10591475537512449,0.004401285125922778,69720.7861152708
1681218288069025516,84,1681218288069025516,camera_1,85,0,0.030345223297487796,0.08360631037409115,1.5503998374387764,-0.999264754477472,-0.012268505394230491,0.01600165615375016,0.03260952674919895,0.07953792455373332,0.0033030360393535244,69738.69548231667
1681218288079151630,85,1681218288079151630,camera_1,86,0,0.030328603437130876,0.08218118846718996,1.5510342210728552,0.9994302687295674,0.0125664412819602,0.002700853449671076,0.0312078177913019,0.09262763394508511,0.0038483192208923623,69747.917426097
1681218288088940143,86,1681218288088940143,camera_1,87,0,0.030376594458131703,0.08124170592766243,1.550478191714117,-0.9993540198353063,-0.012279327611719534,0.01467060139821276,0.030422600267455024,0.09974854320171289,0.004141652774462643,69766.42694326778
1681218288098994970,87,1681218288098994970,camera_1,88,0,0.030377846768652433,0.0803599899535024,1.5502522489678896,0.9992753352425211,0.012336643189724151,-0.015077137401349541,-0.032700023525031735,0.12588544575555716,0.005224696052544399,69767.76086110486
1681218288108921527,88,1681218288108921527,camera_1,89,0,0.030399021962345778,0.07974754861827807,1.5504948296496286,0.9994186846181536,0.012188858473827497,-0.015431948637663045,-0.027849228471704218,0.09902714019699488,0.004110265889135244,69789.81132977064
1681218288119157552,89,1681218288119157552,camera_1,90,0,0.03034114813610938,0.07920373702417731,1.5503584121055978,0.999468903222164,0.012596553408747761,0.0047831955793791025,0.02967085058023445,0.0724124123371439,0.003005099475434273,69810.38340384568
1681218288128989934,90,1681218288128989934,camera_1,91,0,0.030332021903439213,0.07916566785602565,1.5501768967540341,0.9994654261992576,0.012680435782934025,0.006459502939343539,0.02943370860880492,0.0892735431116307,0.0037031730556046248,69823.44588526501
1681218288139090538,91,1681218288139090538,camera_1,92,0,0.030388376007798538,0.0796087712781757,1.5504570757221137,-0.9994306112919719,-0.012221076009937283,0.011451692316669048,0.029290907408260902,0.1067148520523915,0.004430176264462932,69790.79096538568
1681218288149070501,92,1681218288149070501,camera_1,93,0,0.030393031843606862,0.0801522186041343,1.5506296283258036,-0.9994477186288967,-0.012269402557461843,0.014327972921228406,0.027357424592698028,0.0860233938001329,0.0035714300351300412,69783.48289095896
1681218288158975124,93,1681218288158975124,camera_1,94,0,0.03037024506622553,0.08091695486029121,1.550445785625969,-0.9993580179371593,-0.012341870444383134,0.013612495684683232,0.030755977953579226,0.10813093124306761,0.004489406501658637,69770.14664048258
1681218288169064998,94,1681218288169064998,camera_1,95,0,0.030301512006339577,0.08172844723019454,1.5506544000240536,0.999404493742296,0.01271466280917945,0.004702407703459011,0.03173141344384713,0.1060150091216201,0.004402281573068467,69772.06126792176
1681218288178974628,95,1681218288178974628,camera_1,96,0,0.030344594829697532,0.0831107438296924,1.5506164723252,-0.9992994377649902,-0.012338960868534107,0.01487963887636657,0.03204652983036135,0.09707485453691334,0.004032064094624414,69730.43206417991
1681218288189075469,96,1681218288189075469,camera_1,97,0,0.030336068678096937,0.08450678262411453,1.5508349361760478,0.9993451892710136,0.012398278203837031,-0.016556425729108964,-0.029687710345175405,0.10421192698413506,0.004329235795098153,69721.00838478422
1681218288198977947,97,1681218288198977947,camera_1,98,0,0.03031167412923819,0.08602496485282315,1.5505680605364942,-0.9993655330742495,-0.012179177733903248,0.014490920178618345,0.03016972265905461,0.09322172246174887,0.0038728562448103075,69737.9453033855
1681218288208988428,98,1681218288208988428,camera_1,99,0,0.03029975113867962,0.08754801647097595,1.5507949945778974,-0.999466628447638,-0.012240323020650647,0.015177161863616445,0.026197077501637526,0.07199405698338524,0.002991505917070829,69741.63582055562
1681218288219119310,99,1681218288219119310,camera_1,100,0,0.030268120128149615,0.08907360363573495,1.5510921512687228,-0.9995090770622419,-0.012255339841509172,0.012967994267631584,0.025753497630985323,0.08269611990544945,0.0034379697124934223,69714.43631210469
1681218288229044437,100,1681218288229044437,camera_1,101,0,0.030269283916775865,0.09052491763663587,1.5515051390296335,0.9995468131576232,0.012265945952386559,-0.014584149615749272,-0.023302734953613475,0.09300522587727757,0.003868790855271741,69683.60191423772
1681218288239068269,101,1681218288239068269,camera_1,102,0,0.030231243614012904,0.09189659136276243,1.5506912312128165,0.9994171533365686,0.012211220467355219,-0.017049797195517784,-0.026935926323764535,0.08227874973090366,0.0034198771955181316,69707.8871417183
1681218288249019145,102,1681218288249019145,camera_1,103,0,0.030218534611321415,0.09314466516948253,1.5508089566396979,0.9994793245263373,0.012105359531833735,-0.0156824059615326,-0.025467670844410723,0.09118542360374703,0.0037910930748016824,69704.21660425002
1681218288258958578,103,1681218288258958578,camera_1,104,0,0.030189578279041222,0.09416365287840368,1.5510121662091474,0.9995551406893417,0.012294387080729939,-0.015694836265234952,-0.02218199455474759,0.08057350741000845,0.0033504922831408272,69704.20779828586
1681218288269040822,104,1681218288269040822,camera_1,105,0,0.030163665921118327,0.0949046092960852,1.5503312602322463,0.9994639799885394,0.012221066923537405,-0.016244363793228418,-0.025661622584557554,0.09183823957573622,0.003816745786282011,69727.58968083629
1681218288278938770,105,1681218288278938770,camera_1,106,0,0.03016432328838764,0.09540042441010288,1.5507005722932203,0.9995829315288588,0.012275056293529228,-0.016603140746825378,-0.020189643545754046,0.07733741792617366,0.003214632632479052,69733.21713768796
1681218288289029121,106,1681218288289029121,camera_1,107,0,0.03016414653954201,0.09565473043377799,1.5504765472183837,0.999509905801895,0.012274506305874979,-0.015231422557704214,-0.02443948579047728,0.09551043383544311,0.003970579553639256,69721.307654056
1681218288298978328,107,1681218288298978328,camera_1,108,0,0.030173949671001146,0.09561147384733797,1.5507499311846946,0.9995509011292933,0.012273478786258327,-0.016160527580377376,-0.022049832616711434,0.09492178988875821,0.003946661037210697,69714.30852790223
1681218288308980464,108,1681218288308980464,camera_1,109,0,0.030148360739453615,0.09525745354545917,1.5504780853856257,0.9995279484336557,0.012178134060455975,-0.01444084529262703,-0.024228812146853393,0.09254320105537772,0.0038468192805938385,69728.65989136766
1681218288318991661,109,1681218288318991661,camera_1,110,0,0.030166611661769673,0.09467123871095987,1.5506269487163946,0.999521765566618,0.012235187001182894,-0.013496684376559017,-0.024987594291500534,0.07848688372178005,0.0032631841468527684,69716.680965092
1681218288328945636,110,1681218288328945636,camera_1,111,0,0.030197226587696864,0.09383187576949231,1.5506719770881006,0.9994768585080935,0.012111007085318181,-0.01602822341325152,-0.025346180548295325,0.08433860150398687,0.0035062813730117473,69710.45167748709
1681218288339003801,111,1681218288339003801,camera_1,112,0,0.030220306118648146,0.09273567567030117,1.5511736421412743,0.99954736400499,0.01230544130525754,-0.014944721369661343,-0.023028211570639938,0.07863894762704149,0.0032705998504311373,69697.32970909917
1681218288349093914,112,1681218288349093914,camera_1,113,0,0.030228425405280143,0.09144795582951074,1.551238963334893,0.9995221010259909,0.012103949262970114,-0.011828469279226442,-0.02586795870065469,0.09582214581314476,0.0039858225301330555,69685.4809338329
1681218288358942747,113,1681218288358942747,camera_1,114,0,0.03026914225596029,0.0900406015381079,1.5510957243165393,0.9994481773242344,0.012121904563662508,-0.014836996826656875,-0.02713418136190356,0.09837385104037821,0.004090992768923655,69691.17213990857
1681218288368970155,114,1681218288368970155,camera_1,115,0,0.03028236155496647,0.08859248219848068,1.550893482896663,-0.9993750476936911,-0.0122741167671071,0.015117357111417772,0.029501281646497124,0.0786440004594624,0.0032694023968652336,69697.1914228088
1681218288378876686,115,1681218288378876686,camera_1,116,0,0.03031254825416933,0.08706186347390521,1.551017854551229,-0.999416827943458,-0.012347908307985331,0.014834577735952668,0.028168572687482945,0.07643714646110311,0.00317741389839697,69708.9384725309
1681218288388990879,116,1681218288388990879,camera_1,117,0,0.030320465185541875,0.08553091620273177,1.5503032997972384,-0.9991551522895715,-0.012334635204658752,0.015550106771462692,0.035986561477405685,0.09451365965651348,0.003925795867744253,69703.08917931435
1681218288398956298,117,1681218288398956298,camera_1,118,0,0.030287437420603195,0.0838176637893934,1.5508020044984283,0.9991779751799552,0.012821589293811662,0.005939096664287058,0.037996156306632334,0.1292863434064202,0.005371804729593885,69701.64864469552
1681218288409028053,118,1681218288409028053,camera_1,119,0,0.030381172655061458,0.08272653213852925,1.5513495875605583,0.9994926944872782,0.012205607651652267,-0.01363198390215876,-0.026068099725633495,0.09673034126171842,0.004020854185702608,69722.07096698368
1681218288418979644,119,1681218288418979644,camera_1,120,0,0.03037132849681439,0.08159018032170352,1.5508430085419256,0.9993970451977893,0.01222692455829734,-0.014613672466921248,-0.029025660075240024,0.10393061245849822,0.004317067419316092,69744.9091111937
1681218288428996086,120,1681218288428996086,camera_1,121,0,0.030373750574368162,0.08064923680444104,1.5505554659036311,-0.9994642224257551,-0.012232090106341085,0.0119650012452169,0.02790130476721977,0.0861178604827728,0.003575641213824681,69789.28995598205
1681218288439189195,121,1681218288439189195,camera_1,122,0,0.030392757204681903,0.0799267490001804,1.5504652015455171,-0.9993877692078993,-0.012153619689486162,0.013455283567563252,0.02992209267779275,0.10153430707578082,0.00421475439685836,69779.59277451696
1681218288449004650,122,1681218288449004650,camera_1,123,0,0.030407792193720955,0.07949170595188132,1.5504500785937405,-0.9993779443500314,-0.01224904166137732,0.01450633734639406,0.029719547470919167,0.10424216033425182,0.00432698983619747,69781.55492255569
1681218288458968639,123,1681218288458968639,camera_1,124,0,0.03034448396185759,0.07913220606824191,1.5501511855753296,0.9993664408412288,0.012632643837670442,0.005101041062613406,0.032880276916148865,0.10019674188515637,0.004157081242935348,69801.38358569355
1681218288469091653,124,1681218288469091653,camera_1,125,0,0.030400922933757374,0.07951789019129628,1.550077138132611,-0.9992341344595927,-0.012231869854279516,0.014970959435370875,0.0340205271011614,0.11722295232175384,0.004864658635862011,69774.04648203499
1681218288478960275,125,1681218288478960275,camera_1,126,0,0.030332310016702318,0.07968290447914236,1.55023731892993,0.9993560470617514,0.012697090473808738,0.005612792568014746,0.03308733374266965,0.08759973535779864,0.0036353592605249696,69791.62851460534
1681218288488984584,126,1681218288488984584,camera_1,127,0,0.03032213381947953,0.08040757977440406,1.5503473967084305,0.9993356753534507,0.01261585093371618,0.005017162092562078,0.03382124118978922,0.11237589597294573,0.004664612108515141,69778.64662675542
1681218288499002695,127,1681218288499002695,camera_1,128,0,0.030374559197192126,0.08160676647535485,1.550870651897105,0.9994448990176001,0.012268042129734468,-0.014814199214852155,-0.027201626268020012,0.10179987527953926,0.004227953715950624,69756.98946867746
1681218288508931875,128,1681218288508931875,camera_1,129,0,0.030358154756064543,0.08275921344380797,1.5509079352019295,0.9994387832136862,0.012257861318412062,-0.015637716989026808,-0.02696896830833428,0.08721281991165597,0.003622850670794008,69748.71068125873
1681218288518927574,129,1681218288518927574,camera_1,130,0,0.030339809888632076,0.08403698322209803,1.5510313423356303,-0.9994049506154346,-0.012413719290457663,0.014750600441300034,0.02860181891698487,0.081673797336407,0.0033938196209886613,69720.69787471238
1681218288528974294,130,1681218288528974294,camera_1,131,0,0.030337152999476747,0.08543643461198719,1.5509284309178266,0.9994657572252913,0.012293459081079311,-0.014394170892555602,-0.026643551606585412,0.09392355574527755,0.003902754602885011,69740.3171793397
1681218288538909435,131,1681218288538909435,camera_1,132,0,0.03031727309364731,0.08699057624719295,1.550839395247388,-0.9994565970792137,-0.012413161810066463,0.015679937251986107,0.02620235746052322,0.07055343926185742,0.0029319622285186326,69739.66505896786
1681218288549015283,132,1681218288549015283,camera_1,133,0,0.030281173176782875,0.08860858655620003,1.5509876753749405,-0.9993776105076352,-0.012325917971270766,0.016134229081311416,0.028847010489247312,0.08096338645555079,0.0033658098795949884,69691.76726460316
1681218288558992385,133,1681218288558992385,camera_1,134,0,0.030215520254572765,0.08988284199861357,1.5510766677421288,0.9992337724048788,0.012755810223030165,0.0049716829925100835,0.036666602778155415,0.11487068358110265,0.004775537581821009,69690.16660411787
1681218288568911314,134,1681218288568911314,camera_1,135,0,0.030232259736162212,0.09146407990718906,1.5511279038240133,0.9995279196247231,0.012219699885638724,-0.013631117057775446,-0.024674064787446923,0.09912772837560622,0.004122056982183049,69701.45622609634
1681218288578914403,135,1681218288578914403,camera_1,136,0,0.0302302073211403,0.09271917979515709,1.550922409010912,0.9994673691434486,0.012422059903844691,-0.015288637832983941,-0.02601784000317114,0.09202172432560474,0.0038263199750717203,69694.12543013293
1681218288589051485,136,1681218288589051485,camera_1,137,0,0.030144447245874877,0.09360728834278956,1.5507655084275835,0.999245636131647,0.012677906895903349,0.004631913070254605,0.03641393592992493,0.1097789560444653,0.004563526699407746,69711.5731005394
1681218288598934173,137,1681218288598934173,camera_1,138,0,0.03015313193603275,0.09467207351638773,1.5499439283004597,0.9993879407562484,0.012331623335947181,-0.015010010548326916,-0.029092516567405406,0.11206524627050385,0.004655724392728354,69735.93239176075
1681218288608888149,138,1681218288608888149,camera_1,139,0,0.03010346093705243,0.09510867856188557,1.5507841354415912,0.9993006099228023,0.012703465360674267,0.004592114869841692,0.034868688773274405,0.1010495814261958,0.004200977939622519,69716.9772416318
1681218288618899106,139,1681218288618899106,camera_1,140,0,0.030163500001272162,0.09558800302410901,1.5500518623024027,0.9994343944331783,0.012116712902752522,-0.01793660402837628,-0.025736253191709656,0.09804298303788528,0.004073031780054255,69739.75220097805
1681218288628922700,140,1681218288628922700,camera_1,141,0,0.03017060072244223,0.09566978835511963,1.5506839851849856,0.9995280665399826,0.012242146855130729,-0.016415731588032657,-0.022897549992330624,0.09886219218606129,0.0041103062557284395,69712.07538538155
1681218288639024496,141,1681218288639024496,camera_1,142,0,0.030157077392900442,0.09541294843985987,1.5507644329624621,0.9996001669645275,0.01227987655139717,-0.013762988510085365,-0.0214310751863374,0.09765487950062379,0.004059948029329974,69726.01450411556
1681218288648954153,142,1681218288648954153,camera_1,143,0,0.030167992538149016,0.0948685402893153,1.5503454235039762,0.9994334863869684,0.012142524119770313,-0.016250101373126654,-0.026855159685865614,0.0886365624028258,0.003683970094639178,69715.96548393602
1681218288658893108,143,1681218288658893108,camera_1,144,0,0.03012958499446764,0.09391224241297186,1.5507266512452849,0.9992636767948045,0.012568653521471481,0.0032439205928462746,0.0361055420451356,0.09955793974222614,0.004139257816909274,69719.96201069235
1681218288668884038,144,1681218288668884038,camera_1,145,0,0.030202333437044083,0.09311014081960635,1.5508198389676895,0.9995378733034963,0.012132698148991735,-0.013876088249212435,-0.024172125319247395,0.08974161109654234,0.0037312924958868136,69719.18311497371
1681218288678893327,145,1681218288678893327,camera_1,146,0,0.03022190507058536,0.09191563362959967,1.5503987753311281,0.9993481748715689,0.012406798535336697,-0.016423367040469965,-0.02965754113242906,0.10165500588482246,0.004224786983483732,69710.57292748534
1681218288688936948,146,1681218288688936948,camera_1,147,0,0.030264232395448433,0.0905745854482608,1.5513072474288654,0.9994434370368875,0.012137807197735788,-0.014227915920067308,-0.0276234720644418,0.09411476226523519,0.003914906418841545,69665.64510739644
1681218288698935985,147,1681218288698935985,camera_1,148,0,0.03021338529583327,0.08880383475796388,1.5510144646068753,0.9992281376762236,0.012759253562090735,0.005149115978178535,0.03679425130760772,0.1067928226548247,0.0044393000245751945,69695.54348226359
1681218288708913564,148,1681218288708913564,camera_1,149,0,0.030297283297640056,0.08749964867494422,1.551085091727466,-0.9995133656498311,-0.012193577330566857,0.013257899789798466,0.025467168126716115,0.07621119305258617,0.003168169285028547,69726.93614351851
1681218288718910455,149,1681218288718910455,camera_1,150,0,0.030337050579504428,0.08603827218025767,1.5512359457755611,0.999420065508769,0.012187749594774405,-0.01574833902726043,-0.02762211498320269,0.09245643496979028,0.0038437034471938626,69697.77105074983
1681218288728938341,150,1681218288728938341,camera_1,151,0,0.030297921635003614,0.08439260822305042,1.551276124024934,0.9993845990811533,0.01260873403596075,0.0036413457701359978,0.032529733266588264,0.10320205596508458,0.0042899172718462945,69714.95811378371
1681218288738951921,151,1681218288738951921,camera_1,152,0,0.03035836658222515,0.08314334869208535,1.550859888180762,0.9993722768476406,0.012265974754291961,-0.014491552150129362,-0.029909748376906374,0.11790604070120025,0.004898143772485839,69729.4149089515
1681218288748973369,152,1681218288748973369,camera_1,153,0,0.030378492258039125,0.08192342430980003,1.5509373163464313,-0.9994348752974015,-0.012183568032426081,0.01284202359269028,0.028575743897786554,0.08552224027516786,0.0035532487516812825,69743.29027246899
1681218288758968591,153,1681218288758968591,camera_1,154,0,0.03037506290623519,0.08088548310877758,1.5507398733965236,0.9994273961054715,0.012351933163799414,-0.01579332161971841,-0.027255837047689364,0.10068511551071424,0.004180456405870504,69767.98724191694
1681218288768967866,154,1681218288768967866,camera_1,155,0,0.03039349839699591,0.08015418632994684,1.550904561586351,-0.9994704730973185,-0.012223089711244943,0.015218916763793083,0.026033710013559648,0.08392233814811334,0.0034850920086103307,69766.88369978662
1681218288778957605,155,1681218288778957605,camera_1,156,0,0.030326505565715915,0.07940852693868344,1.5502010800803867,0.9993218365868075,0.012648092081502629,0.005673375678879223,0.03411312791102622,0.10009927221108228,0.004154058973302539,69784.88006091298
1681218288788934946,156,1681218288788934946,camera_1,157,0,0.030356523577574346,0.07917694322983557,1.5506681685986912,0.9994688556269782,0.01263830268810991,0.0022719659679602813,0.02995192994620916,0.09868576390726957,0.004096817262511651,69786.49376750956
1681218288798919677,157,1681218288798919677,camera_1,158,0,0.030406152600092575,0.07939495916666177,1.5502561916314168,-0.9993190743716532,-0.012322722614964638,0.01635963865427654,0.030690394709716188,0.09673612065671476,0.004014592705591235,69785.427703164
1681218288808988332,158,1681218288808988332,camera_1,159,0,0.030408182865944936,0.07973220678491545,1.5501681858839484,0.9993148736728159,0.012233345697996422,-0.016340243217141844,-0.03087272195518185,0.1202082783129299,0.004987858047976202,69790.6517342713
1681218288819094419,159,1681218288819094419,camera_1,160,0,0.030389940033565235,0.08036602536487372,1.5508644848498443,-0.9994580512450599,-0.012166483288164847,0.013577903800131024,0.027408411377179052,0.08037515287287533,0.003338165728696697,69763.27922399926
1681218288828965663,160,1681218288828965663,camera_1,161,0,0.030394865779300378,0.08119885971631853,1.5507566805266757,0.9994025490583229,0.012164459080467776,-0.014321705848623478,-0.029007923272644197,0.09699699679913465,0.004028726653031114,69755.07809829009
1681218288838946342,161,1681218288838946342,camera_1,162,0,0.03035559427065776,0.0823120333898676,1.5506408973569599,0.9994163031796772,0.012235736192919594,-0.015018151811583062,-0.02813884885081703,0.1032508426142158,0.004287361407140012,69766.41797062749
1681218288848947763,162,1681218288848947763,camera_1,163,0,0.03034693994339446,0.0836174119918315,1.550957607940142,0.9994145123638103,0.012261263800820526,-0.015947235174028223,-0.027676336045770904,0.09113504906417803,0.0037862430113815054,69733.76714254564
1681218288858932733,163,1681218288858932733,camera_1,164,0,0.030342441891988804,0.08500528034834924,1.550972061620818,0.9994506988332946,0.012262670271884497,-0.015328144744638625,-0.026701601040565084,0.09678267332492396,0.0040216770872359515,69735.69932924991
1681218288868966341,164,1681218288868966341,camera_1,165,0,0.030352448566520796,0.08649885918378251,1.552829753094731,0.9998852268874521,0.012330015582391725,-0.008398248010091714,0.0026406814134765618,0.10616930335527286,0.00441903330917642,69701.32944119557
1681218288878951787,165,1681218288878951787,camera_1,166,0,0.030284814392761115,0.08800835846771149,1.5509462714042803,0.9993678795880441,0.012244662063792173,-0.013430056854276987,-0.030553937087243535,0.11256801505805925,0.004680017870513053,69690.82236448023
1681218288888967990,166,1681218288888967990,camera_1,167,0,0.030280585203665025,0.08955836215000215,1.5505516086118085,-0.9993366542642296,-0.012177463266470701,0.018234332077614587,0.02907696624568654,0.071014336834196,0.002950658843695784,69714.73283285892
1681218288899071693,167,1681218288899071693,camera_1,168,0,0.030242846287490986,0.0910403795826184,1.551261762203646,0.9995430544997975,0.012111967278703683,-0.012893377828282369,-0.024510064423247924,0.0862634486402385,0.003587684141164297,69695.76802593001
1681218288909033060,168,1681218288909033060,camera_1,169,0,0.03020319809539007,0.09232832986588982,1.5505999627350249,0.9994911191975414,0.012261641754828113,-0.012811314237129005,-0.026514618877895663,0.0831774195539765,0.0034577155563654104,69727.62055745944
1681218288919024229,169,1681218288919024229,camera_1,170,0,0.030201200431752985,0.09347523625549173,1.5510135552286806,0.9995532993911129,0.012248291654337239,-0.014783519692539914,-0.02290477184760734,0.08665199286770076,0.0036032804294050106,69706.83400273323
1681218288928931236,170,1681218288928931236,camera_1,171,0,0.03017956524357342,0.09439897294352889,1.550384490605527,0.9994502137345114,0.012218360099773671,-0.014950602842696418,-0.02695294820890616,0.09962467040168123,0.0041406687101115825,69719.7247200747
1681218288938994407,171,1681218288938994407,camera_1,172,0,0.03016036325150226,0.0951062931427531,1.5506545762032555,0.9995612225938001,0.01219933806788302,-0.014380936284077826,-0.02284134648146818,0.08244987140642479,0.0034276519074627875,69725.9536411691
1681218288948988199,172,1681218288948988199,camera_1,173,0,0.03013782165376621,0.09553956378765595,1.5505350130752156,0.9995645098656337,0.012256520697436829,-0.013066020322269159,-0.023448825778848676,0.09873030835296959,0.004104687515680967,69730.75930528922
1681218288958927154,173,1681218288958927154,camera_1,174,0,0.03015464303961477,0.09565079993079867,1.5502334575805314,0.9995383564346367,0.01221601116166407,-0.01580648678169178,-0.022891003972373883,0.10079950449289754,0.00418802129847804,69754.04149442291
1681218288968869209,174,1681218288968869209,camera_1,175,0,0.03010006892515869,0.09534089672535406,1.550720071317265,0.9993935963166896,0.012554424434231144,0.002718219714921831,0.03236413678596098,0.0830109982052818,0.0034511692738768327,69745.06530005453
1681218288978898763,175,1681218288978898763,camera_1,176,0,0.030176021142296602,0.09512606378682709,1.5508027499686692,0.9995369475978197,0.012138589325274386,-0.014520524650015016,-0.023826443291314923,0.08980391139630228,0.0037343950968489674,69704.31605239489
1681218288988891601,176,1681218288988891601,camera_1,177,0,0.03014641208892485,0.09424074986982856,1.55103725086194,0.9993848524993773,0.012548629094756602,0.002835421581153932,0.032625279877686465,0.08951289544347674,0.0037225851330146306,69719.39299898033
1681218288998913526,177,1681218288998913526,camera_1,178,0,0.03018970671855854,0.0934349014270697,1.5506135326700066,0.9994569177673348,0.01238653568203823,-0.0149020236919535,-0.02665282256536942,0.08561704715248197,0.003559357837920525,69710.81921985917
1681218289008917808,178,1681218289008917808,camera_1,179,0,0.03020264856814688,0.09228217594661996,1.5507441849730126,0.9994699936733784,0.012266807885819513,-0.014837572436615752,-0.026250783131510764,0.09567018115194514,0.003977006664188526,69712.61956022795
1681218289018933057,179,1681218289018933057,camera_1,180,0,0.030225834656488232,0.09101390583358755,1.550628810362552,0.9994022654901916,0.012252492681420413,-0.013365657276012006,-0.02943377926370323,0.11313205846818164,0.0047026470825408395,69707.76658043009
1681218289028935194,180,1681218289028935194,camera_1,181,0,0.03025319451411919,0.08961364250838796,1.550773996307686,-0.9993917564946847,-0.012275080864984769,0.015286426198206029,0.02884032964988162,0.08125532791018486,0.0033773168115977955,69706.13519521247
1681218289038919448,181,1681218289038919448,camera_1,182,0,0.030288886850572717,0.08805065115341787,1.551043390778053,-0.9994285604703464,-0.012297394154460179,0.014228048245999466,0.028087172450965602,0.08187228685710579,0.0034038050889474074,69702.67108130756
1681218289048877477,182,1681218289048877477,camera_1,183,0,0.030305056036889277,0.08649326555577314,1.5512836853417291,-0.9994851991488088,-0.01216909319651401,0.011238886989203226,0.02747612186034309,0.08697194530395791,0.0036166631043581445,69702.47977528285
1681218289058890581,183,1681218289058890581,camera_1,184,0,0.030327757540716583,0.08495317447147507,1.5507519347912868,0.9993615591627832,0.012349061485065212,-0.01439377596682434,-0.03027860567440165,0.1116599774104543,0.004639478527906609,69726.89581134904
1681218289068852901,184,1681218289068852901,camera_1,185,0,0.03036950683933141,0.0836039290017076,1.5509206021273478,-0.999410271871843,-0.01227518749999021,0.01627153694148432,0.027634495371741872,0.076193378015887,0.003165274918622448,69736.55887576382
1681218289078933000,185,1681218289078933000,camera_1,186,0,0.030398802944559097,0.08236257516748895,1.5505510141288816,0.9992941812976632,0.012347781693393008,-0.017624607499951064,-0.030790334885448772,0.10044501803349704,0.004171171647108936,69743.16578032891
1681218289088855028,186,1681218289088855028,camera_1,187,0,0.03038906845008221,0.08122796538891962,1.5505542314014265,0.9994023677751295,0.012228172935169403,-0.015457951530167019,-0.028397725377631067,0.09422190193436109,0.003911858167075986,69775.05249979469
1681218289098944187,187,1681218289098944187,camera_1,188,0,0.03036703295060853,0.08035088896225416,1.5505862346648724,-0.9993918143637865,-0.012219494920258915,0.012331805562297323,0.03024255111802795,0.10248402979050297,0.004255603289396915,69766.94162838627
1681218289109055757,188,1681218289109055757,camera_1,189,0,0.030400120916685508,0.07974034982076307,1.5503552271730074,-0.9993772208626454,-0.012235332567484705,0.015202714540744166,0.02939973687656756,0.08069588786747772,0.0033492095732920897,69790.08730890643
1681218289118955612,189,1681218289118955612,camera_1,190,0,0.030410801826253428,0.0793731704162268,1.5502191371939387,0.9994352157428266,0.012233054331234137,-0.016093099172978412,-0.0268442558814248,0.08348706940887494,0.003464128669640053,69821.58851935342
1681218289128887891,190,1681218289128887891,camera_1,191,0,0.030360606675121735,0.07919739481752698,1.5508778232186542,0.9996455314564655,0.012563968722578162,0.0038798649386060677,0.023149617213182268,0.07592455699341372,0.003151817243016113,69811.58417184908
1681218289138940334,191,1681218289138940334,camera_1,192,0,0.030338725481872858,0.07940150316402696,1.550445213766937,0.999366202716491,0.012593712933389825,0.005487818762841676,0.032840144759107875,0.10113680115318857,0.0041981889208737785,69774.91711190756
1681218289149023056,192,1681218289149023056,camera_1,193,0,0.030417565213546622,0.0801458143254899,1.5508528456517618,0.9994575872271695,0.01232498236338624,-0.015459687249365217,-0.02633674645697427,0.09225075152062345,0.003830711340495795,69768.62510495188
1681218289158932447,193,1681218289158932447,camera_1,194,0,0.030338854263697798,0.0807302004768943,1.550685534435666,0.9994226548719541,0.012579999820275833,0.004026633589277222,0.031303142895791114,0.10443078292883001,0.004335970273466041,69773.19131562323
1681218289168961763,194,1681218289168961763,camera_1,195,0,0.030395498548885146,0.081917627564441,1.5512171694584636,-0.9995743055015692,-0.012293189261693978,0.013515836888327375,0.022746591657653442,0.0746149224578403,0.0030998956614940827,69761.53216375635
1681218289178900003,195,1681218289178900003,camera_1,196,0,0.0302930755621788,0.08288473478653963,1.5507285209432122,0.9992689046977887,0.012553729959533353,0.004288043916974626,0.03585627765888139,0.11917278608598281,0.004950732630324314,69732.1212184377
1681218289188979864,196,1681218289188979864,camera_1,197,0,0.030289054693498428,0.08429576443485949,1.5509406316825867,0.9992130429607864,0.012677505141565725,0.003948632769837167,0.03737624833607589,0.12699496414279565,0.005277654062863591,69701.2321193642
1681218289198952674,197,1681218289198952674,camera_1,198,0,0.03032267623021715,0.08603470394321144,1.5511006461902273,-0.9994538927512323,-0.01223552707424729,0.013172075013109678,0.027725522203783638,0.09191459056455642,0.0038205425140566676,69715.49274332632
1681218289208924531,198,1681218289208924531,camera_1,199,0,0.03030462659786418,0.08756958586799679,1.550563395812578,-0.9993033245049432,-0.012196449311084424,0.01563137410474497,0.03161917774338723,0.09349421720253304,0.0038848343525315983,69711.80312210228
1681218289218910217,199,1681218289218910217,camera_1,200,0,0.03028531354819851,0.08907636605148089,1.5514338813366004,0.9995629173020347,0.012195219207793088,-0.012163666297907324,-0.024026989102110638,0.08416145463706926,0.003500474889446132,69699.71956543543
1681218289228948116,200,1681218289228948116,camera_1,201,0,0.030262334277304716,0.09048029384615716,1.5505782591432542,0.9992604255481988,0.012175107383068238,-0.016427436407797907,-0.03256544221273941,0.11094981961650774,0.004611456468648689,69677.31651112567
1681218289238935947,201,1681218289238935947,camera_1,202,0,0.030227784300555467,0.09188999250886738,1.5507403707326208,0.9994070464928719,0.01218470101808538,-0.015409177304697859,-0.02827800799714946,0.12018592946697026,0.004996641186659615,69696.51298480421
1681218289248904228,202,1681218289248904228,camera_1,203,0,0.030219475760283814,0.09314273452908708,1.5510120264759617,0.9995430629450086,0.01219545675967609,-0.015558668666634136,-0.02286621923832782,0.07762268959777428,0.003227580157954576,69707.91550594234
1681218289258847713,203,1681218289258847713,camera_1,204,0,0.03017300647023872,0.09414367811550123,1.550529080153259,0.9994907441612492,0.012184152383200288,-0.015254204999890154,-0.025240998326468058,0.11044294585008174,0.004590228819330185,69723.45974316835
1681218289268891811,204,1681218289268891811,camera_1,205,0,0.030185140003272624,0.09491317253350998,1.5508947920755132,0.9995103132575539,0.012282408214871452,-0.01626123311683835,-0.02374549299866333,0.10239932627882808,0.0042582425465509345,69693.88159327024
1681218289278894186,205,1681218289278894186,camera_1,206,0,0.03010890769009057,0.0952357217712443,1.550891065185448,0.9994141415650005,0.01258702557778466,0.004053938893855662,0.03156748337200929,0.086013940803241,0.0035762154366485014,69732.84842849147
1681218289288884878,206,1681218289288884878,camera_1,207,0,0.03016388821638912,0.09564474826939119,1.5506083291497321,0.9994955758991376,0.012155500212569928,-0.016958828544204933,-0.023942341302424154,0.09496909898007289,0.003948206000804657,69708.6500167742
1681218289298864364,207,1681218289298864364,camera_1,208,0,0.030158007110389694,0.09559815683092948,1.5505374361349231,0.9995243347869658,0.012143408751718744,-0.014760656852890788,-0.024202578412921904,0.09179228777065873,0.003815837207512425,69719.63999337214
1681218289308884143,208,1681218289308884143,camera_1,209,0,0.030180686247939792,0.09526868819427292,1.550822139772348,0.9995387975159753,0.012267296984130363,-0.015617070188569008,-0.022974176889429307,0.09567722323117779,0.00397846892711361,69705.30491662722
1681218289318849563,209,1681218289318849563,camera_1,210,0,0.03016817612130205,0.09465686367874747,1.5504189666200119,0.9994778092342953,0.012230412553313771,-0.015187336086077812,-0.02576568802881366,0.09311467845691368,0.0038701363833816916,69724.24544731248
1681218289328903436,210,1681218289328903436,camera_1,211,0,0.03019852015039727,0.09381102963739496,1.5506268802817578,0.9994836615123661,0.012121822159267147,-0.015069524437673598,-0.02565894055871024,0.0925098717561923,0.0038463273597167057,69714.74210933365
1681218289338875532,211,1681218289338875532,camera_1,212,0,0.030218412211410577,0.0927181717819607,1.5510190989203638,0.9995465786592156,0.012288458304278825,-0.015073768908437299,-0.02298722197342582,0.08535439631668851,0.0035491580900340086,69711.16456652877
1681218289348917961,212,1681218289348917961,camera_1,213,0,0.030237432603919968,0.09145130942620665,1.551381834267387,0.999557945969828,0.012237281767021341,-0.012909609123447284,-0.0238223335509484,0.08802326151635498,0.0036618852561502054,69687.56732040012
1681218289358872652,213,1681218289358872652,camera_1,214,0,0.030195370681485634,0.0898149995075569,1.551032278984449,0.9992100572007137,0.012712609893501264,0.0070693080938633995,0.0369821040736799,0.12238917243666946,0.005087739909705254,69684.86026799052
1681218289368918895,214,1681218289368918895,camera_1,215,0,0.030297805236885446,0.08857821855145534,1.5510105535056422,0.999374656256126,0.01221056336203098,-0.017550766861411715,-0.028163259007229526,0.09391243680147454,0.00390400435878417,69691.60728926913
1681218289378843545,215,1681218289378843545,camera_1,216,0,0.030302034695313836,0.08706534917223946,1.5508081884744356,-0.9993892690935403,-0.01239017312596867,0.014994254565954114,0.029030066493192338,0.09363424801267682,0.003890951271214196,69719.39229226556
1681218289388899087,216,1681218289388899087,camera_1,217,0,0.030341199846685953,0.08551249955130501,1.5509886839800722,-0.999280104338785,-0.012315148251947648,0.01441093436283848,0.03286236703266357,0.09160768665606156,0.003808012817635822,69677.9188224375
1681218289398897886,217,1681218289398897886,camera_1,218,0,0.030374463200238087,0.08401632456569118,1.550964316801966,0.9993497534535779,0.012143177912378567,-0.015763530011540832,-0.03006866515222527,0.11317838251125067,0.004703061584324321,69711.12660103221
1681218289408928155,218,1681218289408928155,camera_1,219,0,0.030365298752911146,0.0827054704946901,1.5506261525525207,-0.9993719694524823,-0.012166939647682984,0.013462612822614819,0.030436660596472615,0.09644597832811996,0.004006152293271812,69750.04596759111
1681218289418891191,219,1681218289418891191,camera_1,220,0,0.030321718055315063,0.08139453264814002,1.5506663022738132,0.9994039094843943,0.012620461897142264,0.003505490830602634,0.0319415275597137,0.10441964819619898,0.004335910501712357,69771.95012878397
1681218289428894042,220,1681218289428894042,camera_1,221,0,0.03039170573267375,0.08064406017459406,1.5508895740268445,-0.9995332540688736,-0.012366506323135868,0.012895745676218704,0.024779896595887623,0.08176799038483296,0.0033958010803431292,69781.84986621761
1681218289438913345,221,1681218289438913345,camera_1,222,0,0.030408142786773455,0.07990455945138299,1.5505040529010012,0.9994598648517768,0.012422982251335464,-0.014843029801175757,-0.026558097235542186,0.09592979653098155,0.0039815496748664145,69800.41137456853
1681218289448895692,222,1681218289448895692,camera_1,223,0,0.03034942864691169,0.0792894598848003,1.5506071646222532,0.9994646333228979,0.012543944966146863,0.004298664488333252,0.029910159896400713,0.07693900402227882,0.0031940501959765457,69787.76505846479
1681218289458833694,223,1681218289458833694,camera_1,224,0,0.03040750112709587,0.079320899156223,1.5499812403047333,-0.9993483487338232,-0.012287660100107881,0.015936123262993974,0.02996550129051392,0.10069283991470002,0.004176849094928956,69817.79784225386
1681218289468977212,224,1681218289468977212,camera_1,225,0,0.03041393362479476,0.07949197847804912,1.550605432073482,0.9993880525834963,0.012197068383409735,-0.016008973730027364,-0.02860882095313826,0.10636530585179571,0.004415243244378602,69772.828170135
1681218289478902578,225,1681218289478902578,camera_1,226,0,0.030403002722272723,0.0798960693284256,1.5504065019732252,0.9993882582683328,0.012319776506933769,-0.015006311836263208,-0.029088536355070777,0.11002089036628603,0.004566559247187189,69788.23473552789
1681218289488904237,226,1681218289488904237,camera_1,227,0,0.030373712098872716,0.08061548337397642,1.550187563669755,-0.9992799449518366,-0.012225936649409706,0.013906347519080415,0.03311693809484253,0.109674299164908,0.0045524072889670435,69771.65049012564
1681218289498920202,227,1681218289498920202,camera_1,228,0,0.03037276439772553,0.08157763234015378,1.5509442899018138,-0.9994696671854231,-0.012218930874954926,0.013489044541264962,0.02700236622773125,0.08804294999572448,0.003657213538745458,69755.43500057595
1681218289508892774,228,1681218289508892774,camera_1,229,0,0.030350285463877833,0.08273476803323222,1.5505805311311334,-0.9993358117983666,-0.01224071204670144,0.013965473485710478,0.03135387976326713,0.10335263558954466,0.00429244070438671,69744.26682026639
