%time,field.header.seq,field.header.stamp,field.header.frame_id,field.image_seq,field.transforms0.fiducial_id,field.transforms0.transform.translation.x,field.transforms0.transform.translation.y,field.transforms0.transform.translation.z,field.transforms0.transform.rotation.x,field.transforms0.transform.rotation.y,field.transforms0.transform.rotation.z,field.transforms0.transform.rotation.w,field.transforms0.image_error,field.transforms0.object_error,field.transforms0.fiducial_area
1681219435180916547,2,1681219435180916547,camera_1,2,0,-0.024660406988692075,-0.08612202142044124,1.5509828235274163,-0.9992081722995413,-0.012329142274056343,0.014088760626484918,0.03510737080167023,0.10929472395218909,0.004544036970846903,69658.8199533988
1681219435190823316,3,1681219435190823316,camera_1,3,0,-0.0246581561719687,-0.084475429634251,1.5515100469259888,-0.9995139899431233,-0.012279208422319565,0.014964026911779251,0.024435278739616925,0.06096793449250982,0.002534830365318053,69714.71441006512
1681219435200933218,4,1681219435200933218,camera_1,4,0,-0.02469334480862028,-0.08314407001250852,1.5516144638647722,0.9995532674203602,0.012286053110315021,-0.011528352656570446,-0.024686343862115427,0.09386550605995579,0.0039028298759272288,69714.8647312131
1681219435210883140,5,1681219435210883140,camera_1,5,0,-0.02468605104351743,-0.08234782144264649,1.551502385051814,0.9995668219249115,0.012245758864610096,-0.014091288778703078,-0.022751823604217965,0.09317424753680825,0.0038727186355845657,69736.85474202677
1681219435221212387,6,1681219435221212387,camera_1,6,0,-0.024693960598705357,-0.08214562907227715,1.551237452899259,0.999513573404877,0.012172431012534107,-0.017128849495092403,-0.023044544205365936,0.06473231437848881,0.002689774519652161,69749.8133715587
1681219435230927467,7,1681219435230927467,camera_1,7,0,-0.024717787476336607,-0.08269656973596247,1.5516399391245632,0.9995282183913634,0.012267649566784099,-0.01280287842513121,-0.025078511070740044,0.0975056971074082,0.004054661336693584,69707.95836453236
1681219435240944623,8,1681219435240944623,camera_1,8,0,-0.02468874384861712,-0.08386388451871075,1.5511134144830971,-0.9993727590325617,-0.01236758558153748,0.013652711347478965,0.030244583042109495,0.09307618590537459,0.003868885129789616,69703.9135158168
1681219435250869989,9,1681219435250869989,camera_1,9,0,-0.0246662262142463,-0.08541588018178989,1.5513047406239187,-0.9993915416431381,-0.01240703100199341,0.01457522526171049,0.02915775852904189,0.0931893717497587,0.0038742931233503594,69690.42980371756
1681219435261219263,10,1681219435261219263,camera_1,10,0,-0.02464923692339316,-0.08706109714334577,1.5513861864453393,0.9994883940281103,0.012352325479781446,-0.014731964865411498,-0.025560506050446227,0.07969123573275284,0.0033130865909278546,69707.56193192277
1681219435271198511,11,1681219435271198511,camera_1,11,0,-0.024595146157364668,-0.08844451961213923,1.5503605274338705,-0.9992668510610604,-0.01228672744467542,0.0158746666487282,0.032600485548604695,0.09306078718509526,0.0038654666316416193,69726.94240951829
1681219435280923604,12,1681219435280923604,camera_1,12,0,-0.024582321718527124,-0.0894296191816009,1.5503153247826378,0.9994035850202871,0.012294033592296574,-0.013212956205016562,-0.029440597394642103,0.10588205025123898,0.004397637927211876,69763.04207783019
1681219435291273117,13,1681219435291273117,camera_1,13,0,-0.024579714491343045,-0.08972205162873939,1.5505201321108009,-0.9995155917875578,-0.012267450968320158,0.01580412747634822,0.02383948353088605,0.06385330099146813,0.0026516561417171437,69781.96843429451
1681219435301278352,14,1681219435301278352,camera_1,14,0,-0.02459373945389381,-0.08922755940139941,1.5503816731297289,0.9994188879274066,0.012394336436975881,-0.016334607321872842,-0.027229533265799046,0.10796413275238592,0.004482442521326634,69768.70740192567
1681219435311285257,15,1681219435311285257,camera_1,15,0,-0.024620031245726398,-0.08819525861437728,1.5508932479954602,0.9995078106274449,0.012373468031534836,-0.015459985109301763,-0.02433151544858396,0.09239230217644945,0.003838224689197129,69753.90919186105
1681219435321271181,16,1681219435321271181,camera_1,16,0,-0.024624623355633046,-0.0867034742561769,1.551299951460476,-0.9994373897481375,-0.012208302142519101,0.015194222471391986,0.027294631994522575,0.07802728668320924,0.0032441092141236704,69701.29179990152
1681219435331293344,17,1681219435331293344,camera_1,17,0,-0.024667172821314802,-0.08497788584757218,1.551284777866713,-0.9993870430098245,-0.012248979100321793,0.014574768377639269,0.029378170498133228,0.09330080129439011,0.003878780831077655,69691.55723759368
1681219435341253280,18,1681219435341253280,camera_1,18,0,-0.024688602512686893,-0.08345575359119603,1.5515724037493914,0.999485026761159,0.012243155716576274,-0.013691893521584805,-0.02631194538871085,0.08708827011287212,0.003621279990174047,69699.79346009041
1681219435351071119,19,1681219435351071119,camera_1,19,0,-0.024685234292169567,-0.08247046792140827,1.5515415583244716,0.999544859159666,0.012351358436385552,-0.01511598066104967,-0.02300055653488285,0.07756058324594049,0.003224438067013883,69728.50771728564
1681219435360932350,20,1681219435360932350,camera_1,20,0,-0.024681792497498183,-0.0820765737861654,1.5509792972893954,0.9995080737077242,0.012214186704209318,-0.0165764784555171,-0.023656808707920345,0.08131863683229312,0.0033776562113071195,69770.0246204097
1681219435370895862,21,1681219435370895862,camera_1,21,0,-0.02470940507114497,-0.08247183152902939,1.5515282156839918,0.9995565985876403,0.012211314204019653,-0.015364979401634685,-0.022392128824766617,0.07375274470541625,0.0030655837153499795,69733.41339072945
1681219435380904674,22,1681219435380904674,camera_1,22,0,-0.024685169475478795,-0.08350870659146986,1.5516957968182212,-0.9994280591676951,-0.012290773048789559,0.015839017913517328,0.02723264507337852,0.07614707958418876,0.0031667527174099957,69674.9901023237
1681219435390852212,23,1681219435390852212,camera_1,23,0,-0.024668052160821727,-0.08499833842570803,1.551456393805488,0.9993797787599258,0.01233376498810258,-0.015012581528163338,-0.02936934529131024,0.10317942377878353,0.004290457665783726,69675.1849117201
1681219435400877475,24,1681219435400877475,camera_1,24,0,-0.024615886365196436,-0.08662999140565102,1.5509113580335505,-0.9993503182159003,-0.012195822562950232,0.018041782127614963,0.028717546751974153,0.07664514385396615,0.003184966164567734,69714.67775302986
1681219435410933494,25,1681219435410933494,camera_1,25,0,-0.024606958456029268,-0.08812884637467858,1.5509689385173993,0.9994474945491436,0.012294011442492892,-0.014883902726987419,-0.027056096571846995,0.09537808125605807,0.003963789035668538,69727.51666184605
1681219435421251773,26,1681219435421251773,camera_1,26,0,-0.024654323750907967,-0.0894041374549757,1.5503261932831267,0.9993208605293822,0.012580437367983583,0.0046542856217878835,0.03432037196471497,0.09423418657388538,0.0039137236727204835,69764.48065776308
1681219435430915594,27,1681219435430915594,camera_1,27,0,-0.024570554640528534,-0.08970314353713896,1.5503012681982442,-0.9994524998602101,-0.012140083104710903,0.015404520880860875,0.026646193758555748,0.06356276870064903,0.002639274429999644,69781.08754695297
1681219435442339658,28,1681219435442339658,camera_1,28,0,-0.024661365999198076,-0.08966426722537409,1.5507428890831505,0.999481424382067,0.012621275681650293,0.005603121546164532,0.029089357921779788,0.08030617085751146,0.0033358145647372993,69763.87356891857
1681219435451313495,29,1681219435451313495,camera_1,29,0,-0.024596221570485043,-0.08849155889329678,1.5503824948648164,-0.9993459234761749,-0.01241052759775885,0.015815140876076335,0.030059696528183553,0.10025682504056022,0.0041634382266966165,69749.07626660807
1681219435460909128,30,1681219435460909128,camera_1,30,0,-0.024636424330412812,-0.08714983443037964,1.5513602053052498,0.9994878143009318,0.012225825154510091,-0.015033163322403578,-0.025468456250026767,0.08554666937561706,0.003556420557978467,69709.51065413115
1681219435470911264,31,1681219435470911264,camera_1,31,0,-0.02466607215661879,-0.08553011671836334,1.5514791786312747,0.999482205175846,0.012186589230807131,-0.01399321117950571,-0.026286852619390157,0.10094934864901006,0.004197516908630773,69701.20016392379
1681219435481271505,32,1681219435481271505,camera_1,32,0,-0.02466685236533874,-0.08391929905059382,1.5518048441506267,-0.9994972859878916,-0.012237843234756582,0.016858773011107858,0.02389962904231794,0.0644450913532637,0.002679878043604307,69688.79445261508
1681219435490983724,33,1681219435490983724,camera_1,33,0,-0.024698426090281653,-0.08269320490414883,1.5514480154861297,0.9995038000304529,0.01218223800014704,-0.013363528490572204,-0.025790752378978054,0.09067724749911577,0.003769677706849148,69717.94456885882
1681219435501281976,34,1681219435501281976,camera_1,34,0,-0.024683030411885406,-0.0821560248645937,1.5514008098579029,0.9995589236682073,0.012262989852489562,-0.017646216493026837,-0.020498493569381458,0.09448352822801098,0.003925891285988317,69752.47716263795
1681219435511301994,35,1681219435511301994,camera_1,35,0,-0.02468396796812649,-0.08229652970739,1.5513949858529037,0.9995749081007368,0.012334234205668067,-0.015532850396821868,-0.021368208172738754,0.06702881754608825,0.002785579514680263,69753.04861092285
1681219435521263837,36,1681219435521263837,camera_1,36,0,-0.024692180841944987,-0.08309990580304143,1.5514472528380727,0.9994620986563205,0.012271766454964604,-0.014529021444383219,-0.026717496766110592,0.08536523854127154,0.0035492477527853143,69706.28161858466
1681219435530946493,37,1681219435530946493,camera_1,37,0,-0.024666838736558824,-0.08451765978142667,1.551692564313497,0.9995165809899973,0.012187336837466872,-0.01435903737881583,-0.024736434513285502,0.08728975284611808,0.0036301088055222513,69697.5123145238
1681219435540928363,38,1681219435540928363,camera_1,38,0,-0.024709861790023588,-0.08641528167394545,1.5516355739496104,0.9993711820416256,0.012490468923817416,0.003966163097873983,0.032946900325651514,0.10287056065862998,0.004277739071514017,69690.76839437941
1681219435550887107,39,1681219435550887107,camera_1,39,0,-0.02461881373831916,-0.08775082571735118,1.5509637382573835,0.9994070025829603,0.012274166853582574,-0.01322701465576347,-0.029326337982937253,0.10276766947936267,0.004271341117616332,69713.94021767263
1681219435560976743,40,1681219435560976743,camera_1,40,0,-0.024641927840518944,-0.0891448197949554,1.5505683022774042,0.9993289130361512,0.01255837909874962,0.0031277543130206428,0.034267008001199736,0.11231797456275672,0.00466580468370707,69750.18819672929
1681219435570956707,41,1681219435570956707,camera_1,41,0,-0.024563361650709013,-0.08961999150934641,1.5500943915255652,-0.9993786788331873,-0.012235358285347876,0.015922215923596793,0.028966106768853958,0.07298562939104158,0.003029981673727271,69778.91142505623
1681219435581320047,42,1681219435581320047,camera_1,42,0,-0.024582233869633208,-0.08961183314413193,1.5502642840421543,-0.9994469521480192,-0.012318958867672041,0.014698717562831181,0.0271658019660724,0.07360489055281505,0.003056195081609635,69782.48062794669
1681219435590901613,43,1681219435590901613,camera_1,43,0,-0.024608049121134113,-0.08886505816367941,1.5508418406283542,0.9995141842303235,0.012150131806994343,-0.014899168313352881,-0.02453129843759308,0.08614336518803611,0.0035792808491727393,69755.2687111984
1681219435600905656,44,1681219435600905656,camera_1,44,0,-0.024630176468547947,-0.0875688454695732,1.5512568921314775,0.9994683312235852,0.012323507291481337,-0.016001799859320282,-0.025595477148138143,0.08933692390564829,0.0037131092540493493,69713.04371901187
1681219435611300706,45,1681219435611300706,camera_1,45,0,-0.024669226099508258,-0.0859768602885621,1.5515819800223112,0.9994733547404893,0.012311160544244448,-0.013691779702983218,-0.026720472645720784,0.10148106957785785,0.004220225658815023,69687.47323580904
1681219435621241092,46,1681219435621241092,camera_1,46,0,-0.024658450377674175,-0.08437166048255242,1.551764632392876,0.99953873371772,0.012136823090427665,-0.014747060680627143,-0.023612317220691847,0.09105385572183877,0.003786743766040034,69699.50410057628
1681219435631299257,47,1681219435631299257,camera_1,47,0,-0.02473419360211626,-0.08320360208009997,1.5516627158798098,0.9993479510083431,0.012655998379744645,0.0037351153047891126,0.03360874044201004,0.09856149775441736,0.00409811159306682,69710.5746716091
1681219435640967607,48,1681219435640967607,camera_1,48,0,-0.02469724630872369,-0.082248759931701,1.5514039590381816,0.9995516092958077,0.012250000434563355,-0.014217529572496517,-0.02333194583333349,0.09848378360038623,0.004093272611594321,69741.00195464549
1681219435650914907,49,1681219435650914907,camera_1,49,0,-0.02468418903543293,-0.08217300754199192,1.5510297320797315,0.9994864282856691,0.012229699183363443,-0.01754115208463745,-0.023866757512993803,0.0907332139904611,0.003768961555190574,69760.45695582239
1681219435661321163,50,1681219435661321163,camera_1,50,0,-0.02470081278419404,-0.08277779080409782,1.5510727595127072,-0.9994595254944053,-0.012331335596411381,0.013568905683904838,0.027285158226554907,0.07475753652397543,0.003106695355207939,69737.64864394184
1681219435671340465,51,1681219435671340465,camera_1,51,0,-0.024687870336353196,-0.0840234074998521,1.5513850726777616,-0.999401032654422,-0.012260191009418452,0.013980534959760982,0.02918575488018769,0.08135680557461455,0.003382612308134595,69688.53301649899
1681219435680998563,52,1681219435680998563,camera_1,52,0,-0.02466338161033607,-0.08566924760749049,1.5516623479196279,-0.9994544156713471,-0.012105563823368996,0.0134984688262276,0.027606478567757237,0.07989623688627033,0.003323359590315257,69674.33997557385
1681219435690992593,53,1681219435690992593,camera_1,53,0,-0.02468781267650558,-0.08756500514845528,1.5511362002975306,0.999316343799552,0.012628737748696847,0.004146329424461533,0.03449881085304635,0.11137071566190569,0.004628852084552626,69710.988841063
1681219435700961828,54,1681219435700961828,camera_1,54,0,-0.024579095560649383,-0.08868215078520107,1.5506494690341877,0.999318324420142,0.0122922770455377,-0.01738702742604243,-0.030157547652977762,0.09807333588832991,0.004074359099730057,69718.73778872775
1681219435711294651,55,1681219435711294651,camera_1,55,0,-0.02457648124695717,-0.08952932788227437,1.550466630244434,-0.9994802311966832,-0.01227666156488299,0.013510133600519983,0.02657117456835659,0.08077082854288165,0.0033548064817927295,69772.81387488474
1681219435720961332,56,1681219435720961332,camera_1,56,0,-0.024581410241057512,-0.0897004996322901,1.5502556958864842,0.999491216252748,0.012368289654101933,-0.015205199557718917,-0.02516219289022453,0.08981296258571092,0.0037283982634380122,69797.36545350275
1681219435730890035,57,1681219435730890035,camera_1,57,0,-0.024583510217672112,-0.08910052107419747,1.55025858528692,0.9993344157690199,0.012259164678962597,-0.014421207806104563,-0.031184404858500832,0.10511177906300873,0.004365502076649629,69750.81057315473
1681219435740924119,58,1681219435740924119,camera_1,58,0,-0.02460365650800573,-0.08798473803762392,1.551262074556792,0.9995331720807767,0.012212765664232067,-0.01591919587614012,-0.02304051795485692,0.08064011519309133,0.0033516344185194557,69730.55720142263
1681219435750920772,59,1681219435750920772,camera_1,59,0,-0.024647294201787226,-0.08636956422422877,1.5510592267366627,-0.9994471048968865,-0.012178361725567546,0.013993830425169631,0.027592475948071692,0.08390439604409039,0.00348713601127494,69724.37276291575
1681219435761068820,60,1681219435761068820,camera_1,60,0,-0.02465339377305361,-0.08478641911850976,1.5513717813314893,0.9994376738963413,0.012268333890856494,-0.017720491475552443,-0.02568673124549042,0.10625111981062219,0.0044158412384507776,69707.31467459907
1681219435770873308,61,1681219435770873308,camera_1,61,0,-0.024697439545473064,-0.0833662458681383,1.5517741824757636,0.999592393814885,0.012257784143577647,-0.013664040942358057,-0.021865199300328597,0.07797789422329517,0.003242374593496172,69717.41467361824
1681219435780933380,62,1681219435780933380,camera_1,62,0,-0.024684134029887395,-0.08242996506500357,1.5515460496433087,0.9995784856162578,0.012171555056485425,-0.014197635739995381,-0.02220656389471656,0.08034079999197274,0.0033396756275899733,69736.65218896433
1681219435790932416,63,1681219435790932416,camera_1,63,0,-0.024683602733597997,-0.08212037946237383,1.5513107902030254,-0.9994923897435298,-0.012353059792566387,0.017698659371813648,0.023433356886490193,0.06469365634256974,0.0026882874923708803,69738.4342620991
1681219435800912141,64,1681219435800912141,camera_1,64,0,-0.024715752492967934,-0.08260576588719877,1.5516473041196448,0.9995321601760152,0.012170945297754131,-0.013284184352330634,-0.024715568181230527,0.08698383683804424,0.003616839899733753,69709.44386245625
1681219435810897588,65,1681219435810897588,camera_1,65,0,-0.024682953719754135,-0.08365375575181316,1.551384884223193,0.9994645396031753,0.012269110676385704,-0.015964472051371588,-0.025792220360889812,0.08541648619575426,0.003550645880092677,69714.28131289672
1681219435821129560,66,1681219435821129560,camera_1,66,0,-0.02463895024610798,-0.085147114014719,1.5514804171233565,-0.9993906248486404,-0.01232899462779279,0.018767564096196475,0.0267236485908514,0.07428225863259286,0.0030882275265593996,69684.05718488747
1681219435831156969,67,1681219435831156969,camera_1,67,0,-0.024630216214553573,-0.086805839291633,1.5508759917416501,-0.9992361019268953,-0.01226507248664206,0.015255469306659145,0.033823826795241325,0.09115479572210461,0.003789370946261855,69676.75672751467
1681219435840919733,68,1681219435840919733,camera_1,68,0,-0.024612591646130895,-0.08835264664232895,1.5508493354881157,0.9993788348997301,0.012257875556708637,-0.014147242311122217,-0.029858740366679577,0.11508906725794077,0.004782583846136391,69714.49198695124
1681219435850981950,69,1681219435850981950,camera_1,69,0,-0.024586203256338153,-0.08934659985576748,1.5503901448425133,-0.9994008298448488,-0.012212844115682579,0.015581047106443834,0.028391173189930858,0.07883199061325286,0.0032739763175899913,69759.87265969533
1681219435860945224,70,1681219435860945224,camera_1,70,0,-0.024589436713876648,-0.08971936870105923,1.550139125980088,0.9994841972544958,0.012280457995290211,-0.014996857481954387,-0.025605156817100648,0.08465248161519412,0.0035139385890825352,69804.72116289253
1681219435870894670,71,1681219435870894670,camera_1,71,0,-0.024590014947934655,-0.08936234555053933,1.5502657668476356,-0.9993806035179426,-0.012266626696918841,0.014315296388468618,0.02971550892887409,0.09633558262430598,0.00400065010512231,69762.6157691956
1681219435880936622,72,1681219435880936622,camera_1,72,0,-0.024683758424077523,-0.08858639766985368,1.5510930915594423,0.9993132714031402,0.012702579896312913,0.0033065759240138476,0.034651069495622216,0.1120475988718681,0.004657999481308886,69705.35994733687
1681219435890999794,73,1681219435890999794,camera_1,73,0,-0.02463176740652438,-0.08679559028663278,1.5512862040202389,-0.9993048000535001,-0.012083225371522678,0.014492098472602298,0.03215418070042682,0.06283807748695835,0.002613506119113484,69659.22966806765
1681219435900958776,74,1681219435900958776,camera_1,74,0,-0.024657547945029373,-0.08520997947012762,1.551621761226028,0.9994402386928338,0.012342256494493737,-0.015890463905394746,-0.026727722370356394,0.10466908774105833,0.004352152505042792,69680.82079217029
1681219435911267518,75,1681219435911267518,camera_1,75,0,-0.024657048194466416,-0.0837273036405497,1.551481650087597,0.999476088355799,0.012102851213427718,-0.015286956013646305,-0.02583367518053683,0.0981397926225327,0.0040802638473567375,69707.28911692626
1681219435921216964,76,1681219435921216964,camera_1,76,0,-0.024735777143964154,-0.08281578746908658,1.5517021146561254,0.9994057953624177,0.012606460097788326,0.0037944881326459723,0.03185490887803247,0.08810422837268563,0.0036630541587008123,69723.35960510164
1681219435931315898,77,1681219435931315898,camera_1,77,0,-0.02467205000441659,-0.08210966355405609,1.5509889003320125,0.9994675981164104,0.012188466034734932,-0.017366006455096884,-0.0247867591858069,0.08187130751321092,0.0034009835849558227,69757.44545362612
1681219435941307544,78,1681219435941307544,camera_1,78,0,-0.02469738363679514,-0.08238828769967027,1.5513090319926364,0.9995721623862877,0.01224333342664687,-0.013227656745479517,-0.023035235315247937,0.07658068818273023,0.0031832017598545713,69753.78641993998
1681219435950952053,79,1681219435950952053,camera_1,79,0,-0.024687189340000533,-0.08333123497662985,1.5515366177888075,0.9994642087760727,0.012231305314801398,-0.015186153058253514,-0.026288235034072696,0.08683270157780498,0.0036104150167709887,69699.6972021409
1681219435960993051,80,1681219435960993051,camera_1,80,0,-0.024687348980058803,-0.08468948047738573,1.5514056030607088,0.9994223337445854,0.012436075464997072,-0.014106665064338572,-0.028308034907391436,0.1004469798062928,0.0041761271789948545,69692.53199530138
1681219435970883369,81,1681219435970883369,camera_1,81,0,-0.02464104758084593,-0.08629059735772962,1.550960133902246,-0.9993125082989948,-0.012296644365761618,0.016225804619370027,0.030984295360191035,0.106567193986848,0.0044284152150736306,69696.39544007904
1681219435980872869,82,1681219435980872869,camera_1,82,0,-0.02461021564908003,-0.08798381917450804,1.5516577144792587,0.9995344379269041,0.012110402893602181,-0.014833771086614446,-0.023752995079627137,0.06845827825600281,0.002847349161419118,69693.25301382525
1681219435990882396,83,1681219435990882396,camera_1,83,0,-0.02459557715693688,-0.08918280945231874,1.5510140943704853,0.9995943720000782,0.012292577674151222,-0.01290098599162277,-0.022215952834352452,0.08417351079697255,0.0034976404945383003,69759.96812822338
1681219436001312494,84,1681219436001312494,camera_1,84,0,-0.024639623960256422,-0.08988593060545315,1.550632481657851,0.9995531253406812,0.01261051612809031,0.004144275145294245,0.026783380820577914,0.0796584473719122,0.003307920412737962,69791.67417036243
1681219436011298656,85,1681219436011298656,camera_1,85,0,-0.02458393183807763,-0.08954525985465647,1.5502397692428358,0.9994587021915278,0.012272971571541813,-0.01413088497525025,-0.027055403753172946,0.09516988997347652,0.003951556760892169,69787.39320494802
1681219436021326780,86,1681219436021326780,camera_1,86,0,-0.024623013234128802,-0.08879536407570739,1.5511018558160956,-0.9995720006808659,-0.01231136418706483,0.01298045690987197,0.02314634971471031,0.0706981563125737,0.0029381307584634437,69747.3029141128
1681219436031263113,87,1681219436031263113,camera_1,87,0,-0.02463739795537293,-0.08738028758068761,1.5515055518886327,0.9994572108051827,0.012342033754316202,-0.01483515934459157,-0.026699738192583207,0.09048633382190019,0.00376266708698644,69686.08451293682
1681219436040926933,88,1681219436040926933,camera_1,88,0,-0.02465635064965848,-0.08564046386925238,1.5513929873462646,0.9994787922153499,0.01221110439855843,-0.013985716048742282,-0.026408949008187438,0.0854825553833507,0.0035540414679442914,69707.5049053298
1681219436050886392,89,1681219436050886392,camera_1,89,0,-0.024690309222748206,-0.08407653425551279,1.5515921470561091,-0.9994548969120298,-0.012308091093449106,0.013019698573338491,0.027729179238824092,0.07933322235476226,0.0032994193959047474,69685.46001503646
1681219436060890436,90,1681219436060890436,camera_1,90,0,-0.02467837335785951,-0.08287761104726532,1.5513746892573215,0.9994978275144029,0.012164391800060164,-0.015270009382920582,-0.02495890982332898,0.07895020104479045,0.003281395320715225,69726.22656692378
1681219436071248292,91,1681219436071248292,camera_1,91,0,-0.024692456439705125,-0.0821910677608843,1.5511879370493808,0.9995079777049045,0.012184421334329518,-0.014710751587255318,-0.024878427778655135,0.07963917416054755,0.0033096066077430964,69746.66472398481
1681219436081084728,92,1681219436081084728,camera_1,92,0,-0.02469792169579071,-0.08225701412905717,1.5514981569567718,0.9995784509066205,0.01222445570465896,-0.013335069698236121,-0.022708128104028127,0.08639007085002959,0.0035911596597752735,69739.53021402005
1681219436090934038,93,1681219436090934038,camera_1,93,0,-0.024690121907798464,-0.0830288022464421,1.5518526334712424,0.9995124253363796,0.012195856809014576,-0.01598092920801005,-0.02389105641303646,0.08965495502343401,0.003728473068925749,69689.8479497415
1681219436100973606,94,1681219436100973606,camera_1,94,0,-0.024682789978743964,-0.08431571619278873,1.5517505045873121,0.9995693049890102,0.012181011866557772,-0.012276052815985379,-0.02370919654803081,0.0817418762599118,0.0033997393044374415,69705.72958028351
1681219436110949277,95,1681219436110949277,camera_1,95,0,-0.02465537095719895,-0.08584513482349748,1.5512855121527875,-0.999386345837125,-0.012302641465103868,0.014038515580774492,0.029639447491270288,0.1008033305988647,0.004190773962566554,69687.66614261747
1681219436120931625,96,1681219436120931625,camera_1,96,0,-0.02463474761321182,-0.08748577054044233,1.5511639299609596,-0.9994248154361189,-0.01232301104161029,0.01164974346051193,0.029367757262893514,0.08134285797132178,0.0033821616842244035,69699.97255451721
1681219436130902767,97,1681219436130902767,camera_1,97,0,-0.024600793212009007,-0.08882405957248114,1.5505023330076957,0.9994132364076312,0.01211862066287869,-0.013550200891136933,-0.02902953637699737,0.09853862377349287,0.0040934443411731825,69752.12311734096
1681219436140891313,98,1681219436140891313,camera_1,98,0,-0.024587716173310105,-0.08958858865569447,1.550125750675816,-0.9994069833898905,-0.012297718402678164,0.014583782339407492,0.028666373441445892,0.0757348900224315,0.0031443724973195804,69782.48316543526
1681219436150963306,99,1681219436150963306,camera_1,99,0,-0.02457953146196838,-0.08968601745016534,1.5505302496653417,0.9995471449975092,0.012363074787297494,-0.015776818185582856,-0.022444405028222914,0.07542847626609728,0.0031321706213929476,69791.3291712511
1681219436160943031,100,1681219436160943031,camera_1,100,0,-0.02460817147298309,-0.08902079388048786,1.5507640536862741,0.9994697925737925,0.012186612253992193,-0.013800632244083563,-0.026854473816010267,0.09572058671619742,0.003976971095340903,69745.77897651316
1681219436170991420,101,1681219436170991420,camera_1,101,0,-0.024696198215628285,-0.08803518052885967,1.5513800342405768,0.9994470104151089,0.012637015386334046,0.0038149034970823754,0.030519268106149768,0.08770886878482997,0.0036463846259542744,69717.56128810348
1681219436180981397,102,1681219436180981397,camera_1,102,0,-0.02463327189279494,-0.08615270271278389,1.551049017303271,0.9991801756850532,0.01237951964888649,-0.016849789025417734,-0.03466711151867143,0.12214101862628013,0.005077445222593501,69649.85926315426
1681219436190967082,103,1681219436190967082,camera_1,103,0,-0.024681200492427252,-0.08449962555780971,1.5517055155929391,-0.9994551611972502,-0.0121680275594297,0.013701515783877752,0.027451563283643118,0.0720784129225649,0.0029980122976097675,69675.08223247016
1681219436200935125,104,1681219436200935125,camera_1,104,0,-0.024698081117968868,-0.08313877983620871,1.5514113815498405,0.9994932188867109,0.012318769145215624,-0.013058543013627199,-0.026287407262598775,0.08557713677873835,0.0035577900011508814,69716.53852445725
1681219436211145639,105,1681219436211145639,camera_1,105,0,-0.024738929302157976,-0.08249209813327994,1.5516955488272892,0.9995107538273821,0.012577270520172395,0.0026925529982830643,0.028509917713531858,0.06544070853851736,0.0027206747406860374,69752.01673996089
1681219436220892667,106,1681219436220892667,camera_1,106,0,-0.024688797899194155,-0.08214313117306021,1.5513783467647806,0.999528655053043,0.012263933812388923,-0.016752144240634266,-0.022614803086505895,0.09163163480116054,0.003807695043163765,69741.87512559877
1681219436230967760,107,1681219436230967760,camera_1,107,0,-0.024698507862438206,-0.08269310310375631,1.5513917566217925,0.9994046873474687,0.012210517774218903,-0.015387459019801522,-0.028361951070186416,0.10926749359350652,0.004542308641794664,69695.0874447352
1681219436241378307,108,1681219436241378307,camera_1,108,0,-0.024670383941561763,-0.08385369775662264,1.5509963299093557,-0.9993165717888547,-0.012201352372523042,0.01498400789072834,0.03151183675990469,0.0889546952676028,0.0036973011592104157,69698.7190658087
1681219436251530408,109,1681219436251530408,camera_1,109,0,-0.024660661075611975,-0.08541734062255091,1.550935966907823,-0.9993155126326255,-0.012329527365304039,0.014536815699612782,0.031704415403164904,0.10752337204758078,0.004468757032942297,69699.10647081395
1681219436260982513,110,1681219436260982513,camera_1,110,0,-0.02465274980313148,-0.08703283587803419,1.5511623806426524,-0.9993840650960202,-0.012369390567542049,0.014335117735385528,0.02954645509454276,0.08355388016207144,0.0034735372143400865,69694.35833703667
1681219436271173238,111,1681219436271173238,camera_1,111,0,-0.024592242722429887,-0.08843724290978716,1.5504910362766482,0.9992296537270849,0.012302712761381836,-0.016186803395329283,-0.033566795602227875,0.11723819369217381,0.004870696610142523,69704.82428058106
1681219436281387805,112,1681219436281387805,camera_1,112,0,-0.024596494819784348,-0.08944355599740642,1.5505195414639066,-0.9994318037608213,-0.012093161293311248,0.013784153295360911,0.028281127969995074,0.08561190649925265,0.0035563007444197755,69753.49060147873
1681219436290942192,113,1681219436290942192,camera_1,113,0,-0.02459217468346947,-0.08972310776078389,1.5503367833254582,-0.9994944425654031,-0.012124132829018103,0.014532781721758647,0.02554726872771905,0.0699265239527449,0.0029035046740600095,69788.78002783237
1681219436300922155,114,1681219436300922155,camera_1,114,0,-0.024602003028701497,-0.08924008303443198,1.5505569737035207,-0.9994013772132364,-0.01226846519055739,0.013860920092063226,0.02922750212310417,0.07414516802236903,0.0030802139126247944,69742.70011843488
1681219436310951471,115,1681219436310951471,camera_1,115,0,-0.02462090073254888,-0.08825904114763022,1.5515519022790314,0.999590695769566,0.012340926702284814,-0.014263467376993884,-0.021510368602823123,0.07028754305792972,0.0029224005185819408,69718.6298453538
1681219436320962190,116,1681219436320962190,camera_1,116,0,-0.024704836391128023,-0.08689431723168836,1.5516822678371736,0.999481695232605,0.01256890990895051,0.0022064674850360657,0.02955494713066615,0.09243425523163751,0.003844004767314341,69712.56864141501
1681219436330974578,117,1681219436330974578,camera_1,117,0,-0.024659284596189823,-0.08498931772441143,1.5514815968567834,0.9994136008382093,0.012208717447433636,-0.014829367428961114,-0.028345926330779696,0.0899823271902278,0.003741961013453375,69682.87626644713
1681219436341305017,118,1681219436341305017,camera_1,118,0,-0.024668038478658047,-0.0834613862104204,1.5512705650104732,0.9993867205065207,0.01244200967630675,-0.014746315501551435,-0.02922200283288095,0.09339560254011302,0.003882596193105406,69698.08166979848
1681219436351294755,119,1681219436351294755,camera_1,119,0,-0.02469740736940762,-0.08251599618043844,1.5516320293467405,0.9995724700113906,0.012279263093308337,-0.014297928613877518,-0.022353212980811173,0.07858293742174283,0.003266818116116884,69727.30582178288
1681219436361316204,120,1681219436361316204,camera_1,120,0,-0.02468637613196737,-0.08213174923784286,1.5512792418954295,0.9995519399035986,0.012146489111772537,-0.016630284010890617,-0.02172132341565952,0.08841937122633681,0.003673344289628561,69757.81501131237
1681219436371034860,121,1681219436371034860,camera_1,121,0,-0.02474572854407342,-0.08264429625302429,1.5510500894204677,0.9992345040483014,0.012669707202407201,0.002869473203925518,0.03690054962032795,0.11415781156392768,0.004743567157128482,69743.62607279838
1681219436381084680,122,1681219436381084680,camera_1,122,0,-0.024701244831057123,-0.08346516311738743,1.5515889440875001,-0.9994537557072339,-0.012247607697887485,0.014168653870278578,0.027229314275020903,0.06911405548453331,0.0028740687937059946,69689.05318126315
1681219436391371726,123,1681219436391371726,camera_1,123,0,-0.02465615409599692,-0.08498981610535103,1.5512057541209063,0.9993563877370897,0.01227567138465631,-0.014710237217916885,-0.030327002854294644,0.10831619484815747,0.004503093159177748,69689.40313790817
1681219436401349067,124,1681219436401349067,camera_1,124,0,-0.024632307941665283,-0.08662071486184442,1.5510154708906612,-0.9993388184158204,-0.012318996514166071,0.016878555077107785,0.029753700789397708,0.08153216989012435,0.0033880234647034294,69699.81507858381
1681219436411334753,125,1681219436411334753,camera_1,125,0,-0.024570434957327737,-0.08810844314546967,1.5508390447051439,-0.9993710849729316,-0.01230986842028484,0.017612719266235585,0.028208044589259112,0.07361202000174673,0.003058730779159622,69721.19424454783
1681219436421376943,126,1681219436421376943,camera_1,126,0,-0.02458240304042472,-0.08922905655118733,1.5504785394916742,0.9994749409366117,0.01230952748237566,-0.015240189775412461,-0.025808033410677972,0.09382753663521726,0.0038963346665343646,69774.95724820212
1681219436431327819,127,1681219436431327819,camera_1,127,0,-0.02457008415994327,-0.08970764093944067,1.5503733331128968,-0.9994791104971434,-0.012209037768711066,0.015011111168746826,0.025828542701452552,0.07329429594392421,0.003043796572999218,69782.34086562449
1681219436441327571,128,1681219436441327571,camera_1,128,0,-0.024595115867819047,-0.0894426418599223,1.5504281011214824,-0.9994275729920296,-0.012280592935532318,0.014720804620776483,0.027874922273081335,0.08160182315623388,0.0033889131157109967,69762.70975155142
1681219436451359987,129,1681219436451359987,camera_1,129,0,-0.024673673480938938,-0.08872655602556048,1.5504986018749958,0.9992797173790745,0.012669775369284339,0.004481693553149588,0.035488556603284774,0.10991511784959584,0.0045654698429958614,69746.32617299134
1681219436461368083,130,1681219436461368083,camera_1,130,0,-0.024640419677965028,-0.08714413419090913,1.5514506255146674,0.9994001255718555,0.012391210444122667,-0.014003864400057714,-0.029150277744025038,0.10049777873791754,0.004179278145057143,69672.83327179088
1681219436471446990,131,1681219436471446990,camera_1,131,0,-0.024654757002561672,-0.08554259018919942,1.5518891985512921,0.9995395176582784,0.012473309299197302,-0.016339657334769924,-0.022320053601305335,0.08307645941385998,0.00345500006539132,69689.28853141915
1681219436481317281,132,1681219436481317281,camera_1,132,0,-0.024681098326634253,-0.08387797536210187,1.5514732601211498,-0.9993928070820867,-0.012098510847958842,0.013981359418596873,0.029532436009527988,0.08777058683335782,0.0036499937827141012,69677.92061676289
1681219436491333961,133,1681219436491333961,camera_1,133,0,-0.024671051760580064,-0.08267599979642416,1.5513387511617605,0.9994462376983996,0.012170157290934874,-0.015395322383390548,-0.026871718790202757,0.08801964356098324,0.0036588050273470077,69713.39934106197
1681219436501085758,134,1681219436501085758,camera_1,134,0,-0.02468772957473065,-0.08216377953915274,1.5513624632885579,0.9995593915010205,0.012283230691354893,-0.017114709576068268,-0.020910089000756228,0.08155108446953818,0.0033886414736309825,69754.70213345438
1681219436511167526,135,1681219436511167526,camera_1,135,0,-0.024758492725420272,-0.08248281571244652,1.5514372396043208,0.9993685530998451,0.012625869340239989,0.00348164305763511,0.03302969361263816,0.09129164222395048,0.003794439326370377,69740.99649871058
1681219436521016597,136,1681219436521016597,camera_1,136,0,-0.02469286305781611,-0.083083577152984,1.5512657485531238,-0.999422219839061,-0.012253825002133957,0.015402556686623404,0.02770977286619643,0.08276493742596358,0.0034399222774010602,69711.25241183057
1681219436531015396,137,1681219436531015396,camera_1,137,0,-0.02470509719361827,-0.08450751576998297,1.5518255743350966,-0.9995231992902825,-0.012060453396926412,0.011191857155664434,0.026127798946447504,0.08140925696352497,0.0033865461167622915,69680.64212203285
1681219436541044950,138,1681219436541044950,camera_1,138,0,-0.024642326681433725,-0.08622153511237735,1.5515321869516991,0.9994886927104332,0.012345117575238993,-0.015061924017685555,-0.025359212545512457,0.10076357366051525,0.0041895919135662004,69698.87003307382
1681219436551039934,139,1681219436551039934,camera_1,139,0,-0.024613008498686376,-0.08779961381361566,1.5511918933384905,0.9994995747795281,0.012202376799465928,-0.01345412432891663,-0.025897655386704067,0.08504219457972795,0.0035351919427297814,69722.25857074653
1681219436561128854,140,1681219436561128854,camera_1,140,0,-0.02464200889441193,-0.08917945206156627,1.5507657365785064,0.9994215387595509,0.012647197395169223,0.004074637587716486,0.031305488178083804,0.09772615705151111,0.004059614342559328,69754.46621178405
1681219436571021556,141,1681219436571021556,camera_1,141,0,-0.024580073154447504,-0.0896683889888906,1.5504046685989248,0.9995115538933942,0.012167606122799686,-0.015921517886017318,-0.02398141495113178,0.08457537140930071,0.0035115846106465705,69791.14753566904
1681219436580984115,142,1681219436580984115,camera_1,142,0,-0.02458873260062025,-0.08960978546323117,1.5503627864238219,0.999485908579814,0.012287119010661639,-0.015158658412382177,-0.025439346138178366,0.08003048640966881,0.0033231546322691494,69786.30208465597
1681219436590981006,143,1681219436590981006,camera_1,143,0,-0.024599709068987487,-0.08885828303724834,1.5509766795537163,0.9995120262843628,0.012425296981355912,-0.013429640106595978,-0.025317307804340536,0.09463811526075006,0.003933309461244067,69741.02688544031
1681219436600965976,144,1681219436600965976,camera_1,144,0,-0.024629200345602627,-0.08753544506529039,1.551076745203678,-0.9993403197738685,-0.012301507353570815,0.014795952476495003,0.030800616575089652,0.09378354717046022,0.0038985267582978137,69687.26363743142
1681219436611044406,145,1681219436611044406,camera_1,145,0,-0.024652136955556465,-0.08596061234325321,1.5513026295796457,-0.9993658613189627,-0.012318380632229071,0.014630781625916434,0.030034529425687028,0.09599118476035073,0.003991198039280295,69680.62140920387
1681219436620991706,146,1681219436620991706,camera_1,146,0,-0.024662932226804817,-0.08432985303540755,1.5512162076897362,0.9994035490105415,0.012292504555597076,-0.016498777369955177,-0.027735012208064572,0.09702813636977226,0.004032415130020475,69709.0148482952
1681219436631019592,147,1681219436631019592,camera_1,147,0,-0.024666997624225695,-0.08297503850736955,1.551196692715583,0.9993966574469247,0.01228991592573808,-0.01443763201272656,-0.02910040948711287,0.0923593484912999,0.003839170023016183,69707.75634333235
1681219436641059160,148,1681219436641059160,camera_1,148,0,-0.024699678901055323,-0.08226818099551919,1.5516851561940854,0.9995850130687868,0.012186456822820971,-0.015415614138214736,-0.02106301875611438,0.08321748895104975,0.003459537915219413,69729.76426924091
1681219436651043653,149,1681219436651043653,camera_1,149,0,-0.024690936284359068,-0.08221166650546685,1.55139154581947,0.9995637055812208,0.012175152968522153,-0.017216427749962602,-0.02068232942543415,0.09063275612425059,0.00376581485363578,69753.2356416688
1681219436661396980,150,1681219436661396980,camera_1,150,0,-0.024720896814279428,-0.08278400698269898,1.5513432240130978,-0.999432534594673,-0.01221170825382155,0.014233071609127268,0.027980397562596303,0.08070384262828156,0.0033549970876519323,69705.57762119456
1681219436671035766,151,1681219436671035766,camera_1,151,0,-0.024683044906571708,-0.08401745141707034,1.5512987526239481,-0.9993788734066548,-0.012302199307306695,0.0149986851899258,0.029420447366118704,0.07422087417216972,0.003085422813155899,69691.41306688765
1681219436680957078,152,1681219436680957078,camera_1,152,0,-0.024658583987699934,-0.0856448254310268,1.551509250525921,-0.9993805779685575,-0.012277880456317485,0.01228350307979362,0.03060767196016397,0.08659543457906693,0.0036020382331813654,69663.25259889079
1681219436690992832,153,1681219436690992832,camera_1,153,0,-0.024634490504429167,-0.08733334390888087,1.5512710315505542,0.9993836559383977,0.012211182679715372,-0.013217371140062021,-0.030141273379056265,0.10441246209666133,0.004341573915700788,69680.84026053335
1681219436701060533,154,1681219436701060533,camera_1,154,0,-0.024585655200208556,-0.0887104451951141,1.5507755245489934,0.999446816076583,0.012247077107762142,-0.015504902195521607,-0.026751989544793672,0.1003100547241047,0.004167513333987142,69742.84667469222
1681219436710970163,155,1681219436710970163,camera_1,155,0,-0.024569233249579783,-0.08952734845602527,1.5502717031998356,0.9994723151838809,0.012473330678775658,-0.015093966634238795,-0.025916777847476608,0.09219216376368422,0.003827441439450598,69791.40246517002
1681219436721187114,156,1681219436721187114,camera_1,156,0,-0.024584631935418468,-0.0896966618988547,1.5504183956874609,-0.9995090617059972,-0.012153801482621055,0.013772414962877066,0.02538190818690686,0.06634450919227675,0.002755419790763904,69784.95149604639
1681219436731007814,157,1681219436731007814,camera_1,157,0,-0.024608502485288397,-0.08913078205031598,1.5507335510419504,-0.9994136547065695,-0.012210026630672138,0.01298650122500082,0.02923376167497588,0.09006727661471814,0.0037425618584789352,69729.45851876852
1681219436741052150,158,1681219436741052150,camera_1,158,0,-0.024631702203647812,-0.08793584357409455,1.5510915299289365,-0.9994326250172255,-0.012296199314444112,0.013858400272216995,0.02812785586375909,0.08935003203805536,0.0037140441748388315,69710.80551178311
1681219436750915765,159,1681219436750915765,camera_1,159,0,-0.02464130221839341,-0.08634115371937956,1.5508753722365378,-0.9992576519511343,-0.012260746800581427,0.015046237819600102,0.03327806834047998,0.10377114807488398,0.004313009516865832,69684.47282805716
1681219436761016130,160,1681219436761016130,camera_1,160,0,-0.024686962996521414,-0.08479705087840184,1.5515545040981364,0.9994470378265284,0.012226429920489777,-0.013191445139780296,-0.02796638636472881,0.10803138080518693,0.004492496506121677,69684.18436610932
1681219436770984172,161,1681219436770984172,camera_1,161,0,-0.024669609809938778,-0.08335980850783689,1.5516009279395169,0.9994155998649036,0.01226683677846731,-0.01631344570747615,-0.02741997358267574,0.08548288786550984,0.0035545060818902257,69680.8454500516
1681219436780969619,162,1681219436780969619,camera_1,162,0,-0.024687982844253505,-0.0823565416409045,1.551062602106336,0.9993873005552216,0.012209507750728522,-0.013832278211512665,-0.029742553503544992,0.10410243360092863,0.004326571396168973,69716.26051187332
1681219436790996074,163,1681219436790996074,camera_1,163,0,-0.02467502693221578,-0.08211282547721471,1.5510355851225772,0.9994775671743732,0.012293558203874903,-0.016653150899848337,-0.02482204074993265,0.08788661839207634,0.0036513091154429258,69755.34257962508
1681219436800947189,164,1681219436800947189,camera_1,164,0,-0.024693871425680768,-0.08257689009413509,1.5513374966451208,0.9994813001185514,0.012190063998791873,-0.014916685698837941,-0.025807470639291622,0.07762477541109547,0.003226665770186571,69724.09265678724
1681219436811020612,165,1681219436811020612,camera_1,165,0,-0.024687166276776185,-0.08362727996642642,1.5511634604364382,-0.99935877215675,-0.012393977520705826,0.014841571225507444,0.030135719638458253,0.0848340088268742,0.0035263395576591015,69698.11743125603
1681219436821001291,166,1681219436821001291,camera_1,166,0,-0.024670117340213935,-0.08513685292745946,1.5513765927629368,-0.9993910573195115,-0.012304828392927219,0.015489036907814347,0.0287436163987427,0.07954683678690344,0.003307274966280216,69686.19101994054
1681219436831088066,167,1681219436831088066,camera_1,167,0,-0.024643173211150622,-0.08681957204700676,1.5512566819117826,-0.9993437629499401,-0.012229765137578124,0.011939025757948772,0.03193643627088976,0.11269729043124244,0.0046864819368788915,69669.51143552214
1681219436841018199,168,1681219436841018199,camera_1,168,0,-0.02465604217333036,-0.08857620303609035,1.5511851679859774,0.9994251621649459,0.012648579065507454,0.0022878426114688686,0.03137075796630323,0.0925413960358128,0.003846814418433809,69726.81892649525
1681219436850998163,169,1681219436850998163,camera_1,169,0,-0.024573561858217595,-0.08934461807460971,1.550220922789651,0.9993781398819191,0.012211054892781676,-0.01556275446745522,-0.02918945593783059,0.10352701070951298,0.004298406100387438,69768.08876345583
1681219436861020088,170,1681219436861020088,camera_1,170,0,-0.024599792833594612,-0.08974699981252023,1.5505609936771998,-0.9995174926056991,-0.012306970241357004,0.015042984622811053,0.024228682843531607,0.072365285246633,0.00300522015951555,69777.33316947732
1681219436870976686,171,1681219436870976686,camera_1,171,0,-0.024611933459584318,-0.08939863892441902,1.5506786963527386,0.9994755933940359,0.012156854612227572,-0.014353620228952783,-0.026357592490590723,0.09105066549091134,0.0037822551924637546,69754.03796516874
1681219436881062030,172,1681219436881062030,camera_1,172,0,-0.024620742501969946,-0.08835992932165075,1.551120119859023,0.9993991780841907,0.01223025153757776,-0.013580166632213782,-0.02944966665707901,0.10706714197294787,0.004451014005819888,69695.43116453335
1681219436891406297,173,1681219436891406297,camera_1,173,0,-0.024634025270421515,-0.08680425268898727,1.551172534748084,-0.9993303600485002,-0.012435199516777901,0.01491033153895435,0.03101417920422047,0.08217554667498916,0.0034164640587750457,69679.24327332375
1681219436901488780,174,1681219436901488780,camera_1,174,0,-0.024667166877160026,-0.08519533637740004,1.5515787427142687,0.9994915024885891,0.012348564069691679,-0.014456925326567597,-0.025597787572789316,0.09029923437628896,0.0037547264399425736,69698.0591734531
1681219436911368370,175,1681219436911368370,camera_1,175,0,-0.024738628686263114,-0.0839452485112476,1.5518858769615236,0.9993561359367787,0.012625125142212769,0.0030955093133254057,0.03344155502881526,0.09034627501387149,0.0037581625567724205,69687.67817737442
1681219436921362161,176,1681219436921362161,camera_1,176,0,-0.024700826558671073,-0.08262696244856854,1.55154480263336,0.9995164282316199,0.012155344029066982,-0.012796207686138802,-0.02560106199932152,0.07900882500689477,0.003285461745023309,69712.35962081468
1681219436931184053,177,1681219436931184053,camera_1,177,0,-0.02469804059402743,-0.08215735357443521,1.5515336520174952,0.9995766623199946,0.012190389829174024,-0.016910111075352122,-0.020296272673859476,0.08528223866596818,0.0035440536712521642,69744.41067292902
1681219436941041231,178,1681219436941041231,camera_1,178,0,-0.024697873339720407,-0.08236930783218825,1.551127359067932,0.9995000907518262,0.012132830751850667,-0.013042180521986482,-0.026120193955442492,0.10259162890724838,0.004263554551371508,69745.18502867999
1681219436951009035,179,1681219436951009035,camera_1,179,0,-0.024683801343901676,-0.08329975866135186,1.551325968055626,0.9994193052151372,0.012160289561771703,-0.015723962988986033,-0.02767556158395412,0.0942230235086754,0.003916894738814609,69704.86877025897
1681219436961034536,180,1681219436961034536,camera_1,180,0,-0.024660519187424346,-0.08468306223653665,1.5512475065980027,-0.9993842069035107,-0.01239413488085588,0.016071852616377887,0.02862320677131968,0.08603883197065443,0.0035763903343523436,69698.54433781422
1681219436971035480,181,1681219436971035480,camera_1,181,0,-0.024637302220139143,-0.08637663474845601,1.5518000256498536,0.9995368992224285,0.012325355074568344,-0.01609573951924974,-0.022693608889450514,0.07019854575628415,0.002919743488011661,69691.96456834814
1681219436981033563,182,1681219436981033563,camera_1,182,0,-0.02460929086502829,-0.08795712339252507,1.5510452632962939,0.9994405070443433,0.012283204636110786,-0.013663899905737936,-0.027948051849448374,0.10545707389246672,0.004382908518310956,69716.98115907038
1681219436991279125,183,1681219436991279125,camera_1,183,0,-0.024598768064127224,-0.08915647162758798,1.550810384098209,0.9995253846509857,0.012263113095753803,-0.012421270412486486,-0.025383725826593286,0.08838432288030162,0.003672477774787657,69755.87365396123
1681219437001023769,184,1681219437001023769,camera_1,184,0,-0.024576535890817378,-0.08969156305352093,1.5503592948876268,0.9994926086615981,0.012204018810432524,-0.014577116843163119,-0.025555719912555598,0.09986173786455765,0.004146704873664151,69786.92641983455
1681219437011086225,185,1681219437011086225,camera_1,185,0,-0.02459346408971627,-0.08958374520336891,1.5506097162194281,-0.9995095664429047,-0.012291485223382713,0.014900828541708953,0.024647744093337674,0.0705470683897147,0.0029303172578698587,69771.24615629284
1681219437021021604,186,1681219437021021604,camera_1,186,0,-0.024660779443530838,-0.0889378884244356,1.5507912967049529,0.9993436788225248,0.012610473610660936,0.002743627564944402,0.03384760051410205,0.1033646566211246,0.004295245047944081,69736.85067165273
1681219437031398773,187,1681219437031398773,camera_1,187,0,-0.02462037895797491,-0.08737710907616604,1.5512386683069885,0.9994624535622206,0.012340030638274973,-0.015949587534099276,-0.025848369788526247,0.09412825742037967,0.003912726505292044,69713.77131913816
1681219437041017293,188,1681219437041017293,camera_1,188,0,-0.024662810130747385,-0.08567498052511682,1.5517748967027776,0.9995586621757107,0.012309557296415417,-0.014988786296207094,-0.022500932292605604,0.08649758825777099,0.003596994503584268,69701.47137686366
1681219437051065444,189,1681219437051065444,camera_1,189,0,-0.024675172354178335,-0.08406720785848741,1.551458563247499,0.9994093365643975,0.012072550931440353,-0.01372709570536096,-0.029099799748709087,0.11244698154041544,0.00467577172486107,69683.4300002105
1681219437061388492,190,1681219437061388492,camera_1,190,0,-0.0246966122977261,-0.08284423213980348,1.5511728140794567,-0.9994348307663453,-0.01233253625067113,0.014546192785258753,0.027682772190061593,0.084805506572593,0.003524559223314531,69722.66597862169
1681219437071358442,191,1681219437071358442,camera_1,191,0,-0.024674548500348125,-0.08217831306023442,1.5510969075161058,0.9994671292529117,0.012239904792306003,-0.01665694980324399,-0.02526238897790833,0.07740684843156487,0.0032159285056800806,69746.00048615402
1681219437081307888,192,1681219437081307888,camera_1,192,0,-0.024694041081078276,-0.08225068739941233,1.5513861028092268,0.9994933338335658,0.012163432400254718,-0.017153924028792136,-0.023892873936032552,0.0824939840240404,0.003428626448469839,69729.59580821941
1681219437091007709,193,1681219437091007709,camera_1,193,0,-0.024693474105377346,-0.08298992783751258,1.5512965221025545,0.9993634268636936,0.012122508560344991,-0.014950181369669269,-0.030037941182332342,0.12001285899896175,0.004989357103347697,69688.42278203659
1681219437100981235,194,1681219437100981235,camera_1,194,0,-0.024671635731802775,-0.08430635294215444,1.5515735276216769,0.9994048805077038,0.012410804790018593,-0.016622529474108434,-0.02755990304280299,0.08496124582597986,0.0035327497437921697,69678.4380142805
1681219437111076116,195,1681219437111076116,camera_1,195,0,-0.024653124203412126,-0.08586665175383934,1.5513546684665207,-0.9994059662284029,-0.012199909334098187,0.015111947682425575,0.028469385602007107,0.08094237424666063,0.003365664379925759,69689.35763669293
1681219437121041059,196,1681219437121041059,camera_1,196,0,-0.02462615036486978,-0.08745753037811707,1.5508819608010962,-0.9993042149365173,-0.01231328253719646,0.013609019041189125,0.03246942691220082,0.10779388569062574,0.004480001748060582,69691.69490952953
1681219437131448030,197,1681219437131448030,camera_1,197,0,-0.024600966477760288,-0.08885429542427199,1.5507714614645407,0.9995027906791518,0.012286058436719918,-0.013646210165864387,-0.025632111516339717,0.09132392995525153,0.003793826018831876,69756.20983457775
1681219437141429901,198,1681219437141429901,camera_1,198,0,-0.024579123913282434,-0.08965647359029696,1.5508838937388831,0.9996085500167288,0.012355168291079409,-0.014586504461986616,-0.020428667052275522,0.07481877809914295,0.003108249406570214,69776.85052712353
1681219437151519060,199,1681219437151519060,camera_1,199,0,-0.02457001625389947,-0.08967145846799542,1.550396707744078,0.9994796284565504,0.012278845505998599,-0.016774647905135845,-0.024664011049599775,0.0745933369762497,0.003097441825039707,69784.19498509535
1681219437161437273,200,1681219437161437273,camera_1,200,0,-0.024673451719582518,-0.0892391136723946,1.5508983123841116,0.9994091840302172,0.01265224447593674,0.004339221274497947,0.031660302343907355,0.09047711617313325,0.003759567187623671,69738.3381131899
1681219437171400785,201,1681219437171400785,camera_1,201,0,-0.024633822773231756,-0.08782991244336387,1.5512099252049965,0.9994306409028335,0.012188303198584409,-0.015093996824048205,-0.027604538568258234,0.10948863311205059,0.00455176750231868,69702.09736436371
1681219437181410789,202,1681219437181410789,camera_1,202,0,-0.024654821707271332,-0.08615320373104517,1.5513264449308946,-0.999362323824063,-0.0123311689527021,0.013688005078295424,0.030586377853630775,0.10343132365960629,0.004300843343162813,69674.95407064262
1681219437191394805,203,1681219437191394805,camera_1,203,0,-0.024662973598091192,-0.08448797276449937,1.551631162591586,-0.9994550313406672,-0.012209595436425432,0.014010890298318602,0.027281148439048022,0.07492456480395049,0.003116376004339789,69682.6540816701
1681219437201539516,204,1681219437201539516,camera_1,204,0,-0.024674009699330122,-0.08316060433954871,1.5515826733766342,0.9994473473603199,0.012207810218829045,-0.015824808489596713,-0.026562090662230083,0.09098468103911728,0.0037829108645500314,69691.93195975442
1681219437211141586,205,1681219437211141586,camera_1,205,0,-0.024697124787564917,-0.08228046137048951,1.5509840647681072,0.9994593417213116,0.012347899394699179,-0.014856854695511281,-0.026605027628203572,0.09159327170345932,0.0038051711326957684,69749.46755101602
1681219437221093177,206,1681219437221093177,camera_1,206,0,-0.024672249116924436,-0.08214094792960625,1.5511698846831616,0.9994904306151265,0.01218459402705344,-0.018119063313546468,-0.023283348595606594,0.08855272096116096,0.0036787399814025923,69750.70895327187
1681219437231052398,207,1681219437231052398,camera_1,207,0,-0.024704395361544083,-0.08272766072364941,1.5517689129789238,0.999530549419387,0.012190351083781985,-0.014055491294047958,-0.02434171896796966,0.08790045301429927,0.0036551742228167266,69699.61082480267
1681219437241070985,208,1681219437241070985,camera_1,208,0,-0.024693182612745727,-0.08387357771652786,1.5513100363023895,-0.9993956574135432,-0.012214017295449617,0.012269759832418868,0.030142838587516523,0.09954272623872383,0.004139131606567973,69690.35705983079
1681219437251012325,209,1681219437251012325,camera_1,209,0,-0.024651239687017226,-0.08542919915978206,1.5513097254914454,0.9994273040538489,0.012224261366142464,-0.016569264573343467,-0.026853134215698616,0.09305577637860551,0.0038678224521236895,69704.66842048592
1681219437261040449,210,1681219437261040449,camera_1,210,0,-0.024627406559566384,-0.08705946499047823,1.5513482626055615,0.9994130883713651,0.012217703308839898,-0.01671628217435989,-0.027290519015477445,0.0947028151131235,0.003936818954298233,69690.96375203096
1681219437271083593,211,1681219437271083593,camera_1,211,0,-0.024614938721070446,-0.08851869082687729,1.5513155990188068,0.9995008165723629,0.012255045621886665,-0.014156743432631633,-0.025446377804476967,0.08971399307483807,0.0037295950132527024,69709.70843678074
1681219437281005144,212,1681219437281005144,camera_1,212,0,-0.024571005908058993,-0.08944491264460663,1.5506475758520597,-0.9993756168480293,-0.012207782318794914,0.016021518517491718,0.02902856256984718,0.08002946391934529,0.003325157288596604,69729.79155113222
1681219437291077375,213,1681219437291077375,camera_1,213,0,-0.02459111919607667,-0.08972395067303866,1.550514307229533,-0.9995147274157375,-0.012228747354783456,0.015272637609712786,0.0242386872090728,0.0661784980475204,0.0027484461782076876,69781.00056809012
1681219437301037549,214,1681219437301037549,camera_1,214,0,-0.024611236260667108,-0.08927770830980147,1.5506401273794286,-0.999508417357855,-0.012443686466806655,0.014361422978742051,0.02493647585240416,0.07229329670371953,0.0030029104009654415,69769.28524067195
1681219437311080455,215,1681219437311080455,camera_1,215,0,-0.024623232697659092,-0.08821032265548046,1.5510574910947095,0.999519478536515,0.012361469226497683,-0.014640618791314968,-0.024365105911177645,0.08583988639293239,0.003567212114066481,69741.23803656476
1681219437321163415,216,1681219437321163415,camera_1,216,0,-0.024634727058807832,-0.0866856601379441,1.5512615216878027,-0.9993631934784196,-0.012249489375736148,0.014891359550509022,0.030023406558652505,0.08623852051096037,0.003585831087885295,69681.1983758339
1681219437331048011,217,1681219437331048011,camera_1,217,0,-0.024659080811272688,-0.08500619984651256,1.5515025822675292,-0.999434721792111,-0.012190677591838723,0.01537971416145525,0.027296311994285425,0.07107459404505788,0.002955566978520783,69688.68951874322
1681219437341035604,218,1681219437341035604,camera_1,218,0,-0.024676025311476345,-0.08344305151857645,1.5512963663458874,0.9994133552416669,0.012240706070222585,-0.01397800142599798,-0.028770226895720622,0.08979455311782658,0.003733268646904994,69701.94153409307
1681219437351092815,219,1681219437351092815,camera_1,219,0,-0.02469462053924639,-0.08246325174473321,1.5510894411964333,0.9994470878025862,0.012273843094907508,-0.015825189711736513,-0.02654119117897581,0.10196589463157579,0.004236487372719951,69737.53295384976
1681219437361066818,220,1681219437361066818,camera_1,220,0,-0.02467617716373259,-0.08214441317596569,1.5516182654563355,0.999542682708122,0.012278920405991246,-0.018205726934432696,-0.02078954220522745,0.07787953276420014,0.0032372197035127116,69729.170059873
1681219437370995521,221,1681219437370995521,camera_1,221,0,-0.024692379553989646,-0.08242187132145126,1.5511218515941743,-0.9994323101049016,-0.012220817178366906,0.014879174485524447,0.027646325479207572,0.07305592618649824,0.0030361496290458546,69727.62988123251
1681219437381018638,222,1681219437381018638,camera_1,222,0,-0.024683243464625755,-0.0834978597459999,1.5516496514631817,0.9994623665565122,0.012156017531733267,-0.015055871107735857,-0.026467523877606605,0.09973114624153823,0.004147664682021713,69688.0883578354
1681219437391066789,223,1681219437391066789,camera_1,223,0,-0.02467699714911952,-0.08501956848070401,1.5516175912616659,0.999432498878009,0.0121564430010754,-0.013860234223060625,-0.028192108599784754,0.09075120964553207,0.003774705642526071,69674.41180335394
1681219437401056289,224,1681219437401056289,camera_1,224,0,-0.02463742884704329,-0.0866602015019616,1.5512635153427108,-0.9994702019864777,-0.012359109097976956,0.015888757165634985,0.025575675145443552,0.07014624739531428,0.002915736554278136,69716.86195622079
1681219437411028623,225,1681219437411028623,camera_1,225,0,-0.024606257663685054,-0.0881249201408913,1.5510144063328015,-0.9994606587700101,-0.012267410495201391,0.015407713918371778,0.026277453502375592,0.08442363061476499,0.003508033279297594,69728.40046477783
1681219437421021938,226,1681219437421021938,camera_1,226,0,-0.02464523346614641,-0.08942296519947864,1.5506055641898697,0.9994540027368972,0.012609820721940735,0.003847670266838849,0.030296604893493752,0.09543457908148412,0.0039634688510037895,69774.4857711168
1681219437431105136,227,1681219437431105136,camera_1,227,0,-0.024593703632323015,-0.08973014494305037,1.5504868808136885,-0.9995303536139872,-0.012370793725630292,0.01222098998702094,0.02523257954773612,0.07401428587036207,0.0030742460780113488,69783.1452168906
1681219437441489696,228,1681219437441489696,camera_1,228,0,-0.02459469424256403,-0.08946002593380906,1.5505175057015834,0.9995129569279099,0.012236758293050197,-0.013903400768956846,-0.025115854091816506,0.08445797790773213,0.003507547816137404,69779.06463709738
