%time,field.header.seq,field.header.stamp,field.header.frame_id,field.image_seq,field.transforms0.fiducial_id,field.transforms0.transform.translation.x,field.transforms0.transform.translation.y,field.transforms0.transform.translation.z,field.transforms0.transform.rotation.x,field.transforms0.transform.rotation.y,field.transforms0.transform.rotation.z,field.transforms0.transform.rotation.w,field.transforms0.image_error,field.transforms0.object_error,field.transforms0.fiducial_area
1681064815936183691,7,1681064815936183691,camera_1,11,0,0.13181520958083617,0.1800613908082541,2.957203160899242,-0.9991696550222694,-0.0121402014428185,0.009721934321956928,0.037657668337890374,7.473689038306475e-06,1.1293801633419155e-06,19218.17768453074
1681064815946199655,8,1681064815946199655,camera_1,12,0,0.13182457538934622,0.18159955239264552,2.9574851530871844,-0.9991393386623008,-0.011884247232214346,0.009829427928037936,0.03850621965074312,0.0005688013625331223,8.598215272292849e-05,19210.35613819572
1681064815956181049,9,1681064815956181049,camera_1,13,0,0.13181843504159121,0.18297638693978346,2.9578631775718813,-0.999344587731803,-0.011869870980344381,0.013639654397353426,0.0313601811535532,0.000326360110193491,4.932246192939291e-05,19219.755142829265
1681064815966198921,10,1681064815966198921,camera_1,14,0,0.13183341374759083,0.18402839803206966,2.9582018185813594,-0.9993698830952041,-0.012040519183580272,0.009077396245644017,0.03213197064400702,0.0007516411715187132,0.0001136440660558841,19218.427269356434
1681064815976182699,11,1681064815976182699,camera_1,15,0,0.1318201933162011,0.1844718539723537,2.9575794772314117,-0.9992825022595965,-0.01170664910149244,0.01719588596456502,0.03165022196616862,0.002290530421305448,0.00034612922171249605,19215.38244242943
1681064815986189842,12,1681064815986189842,camera_1,16,0,0.13182973329717187,0.18435189644301814,2.9585763735343207,-0.999383762147868,-0.012168491631651302,0.011600147438084903,0.030813314427352113,0.00017902121180668473,2.706991822006452e-05,19213.664380716385
1681064815996187448,13,1681064815996187448,camera_1,17,0,0.13190015365442825,0.1836445565382628,2.9596438539383256,-0.9994536740510174,-0.012039321395073297,0.011869565934116288,0.028399323421603888,0.000705910730175674,0.00010681915590979825,19206.15580650465
1681064816006208181,14,1681064816006208181,camera_1,18,0,0.1318021440414106,0.18224494420102116,2.9571230388119547,-0.9991862095112227,-0.01216930176864895,0.012856024878576884,0.036242922638492006,1.497811172157526e-05,2.2629122531786154e-06,19217.384655274225
1681064816016211509,15,1681064816016211509,camera_1,19,0,0.1318300074656299,0.18083141610359948,2.958099208654814,-0.9992725710780489,-0.01207307766913959,0.011376756203289172,0.03433859206419601,0.0003235639305785299,4.89152694672426e-05,19213.670835644836
1681064816026190280,16,1681064816026190280,camera_1,20,0,0.13191007169659444,0.17938044184538335,2.9591373645001826,-0.9994527100936947,-0.012068283112163031,0.014281272408150367,0.027288863800057517,0.0002877183142118156,4.3513657403938587e-05,19215.120795230734
1681064816036187887,17,1681064816036187887,camera_1,21,0,0.1318790982909655,0.17819785419335346,2.9583498277146902,-0.9993976526575563,-0.0119184254768483,0.012326582702456571,0.030171813926225685,0.00054688670206815,8.26705661302997e-05,19222.21083231772
1681064816046200037,18,1681064816046200037,camera_1,22,0,0.13189439220424395,0.1775876642210529,2.9581913668939803,-0.9994578625354118,-0.011847329534703507,0.012141632711043217,0.02821706140178788,0.0007491640863008798,0.00011322635236008693,19229.592142197536
1681064816056156396,19,1681064816056156396,camera_1,23,0,0.13188749721936796,0.17768258293299266,2.9582690814022183,-0.9993848729684035,-0.01200185208297166,0.015743371318068355,0.028947840818409277,0.000988162006251514,0.0001493430743844187,19221.32766264142
1681064816066144943,20,1681064816066144943,camera_1,24,0,0.13186731973210206,0.17839499809981435,2.957993029076086,-0.9994267329303212,-0.012155479113621569,0.013391497092098734,0.02862023125998481,0.0008340523927472532,0.00012604797849193278,19228.874838868385
1681064816076132774,21,1681064816076132774,camera_1,25,0,0.1318647612777955,0.17965770303778936,2.9580604787027145,-0.9992997996899357,-0.012152038074778933,0.011254225292054098,0.033549675458331714,0.0008748528780415654,0.00013225074365005545,19217.457301992457
1681064816086239337,22,1681064816086239337,camera_1,26,0,0.1319255538563065,0.18122168193934188,2.9592096551800653,-0.9994557829319317,-0.011848187408988102,0.014586352724551539,0.027110823175180317,0.0002458500093780458,3.71829774087757e-05,19212.717959343572
1681064816096265316,23,1681064816096265316,camera_1,27,0,0.1318680999496139,0.18264974467661382,2.9587713857187437,-0.9994178485858716,-0.011871123133813897,0.013932851290777124,0.02879090166074796,0.0001039814087562263,1.5723121250728928e-05,19214.34091490729
1681064816106200933,24,1681064816106200933,camera_1,28,0,0.1318709630156673,0.18386247111502102,2.9592989250384893,-0.9993830165350945,-0.012171946858875531,0.012752053828314219,0.03037787178259114,0.000551231496501714,8.338994849281471e-05,19204.294784051595
1681064816116199970,25,1681064816116199970,camera_1,29,0,0.13183400643497828,0.18442185001226385,2.95785601104891,-0.999343632138652,-0.012106451306633476,0.013957610371475145,0.031159651047545915,0.0011416796478442848,0.0001725625697945776,19218.518518978384
1681064816126187562,26,1681064816126187562,camera_1,30,0,0.13180240764432807,0.18444220553229818,2.9581584398977783,-0.9992831944396829,-0.011912476833100647,0.011355860224835505,0.034091562661131496,0.00026956055080518126,4.075465043571206e-05,19210.37205631577
1681064816136149168,27,1681064816136149168,camera_1,31,0,0.1318305768789049,0.18381557483825747,2.957987413746595,-0.9992954240334961,-0.01212726093754861,0.012835386837712962,0.03311854303247739,0.0012872897204943001,0.00019460370340307402,19213.785771498577
1681064816146194219,28,1681064816146194219,camera_1,32,0,0.13189493882432532,0.18276279106315385,2.9593439507020287,-0.9994154707219707,-0.012023053471968977,0.010523180813689002,0.030222933880651927,0.0006303889676928521,9.536989007766355e-05,19208.064135050172
1681064816156406164,29,1681064816156406164,camera_1,33,0,0.13186422748080218,0.18129029219019507,2.958678048020317,-0.9991999671420584,-0.011872002337176994,0.010198877134591703,0.036803045105115596,0.0007168602314777672,0.00010843257265415227,19200.09157499076
1681064816166410207,30,1681064816166410207,camera_1,34,0,0.13186852819551823,0.17972685806050515,2.9580062233229114,-0.9993756893679033,-0.012214877331122144,0.009857774717418463,0.03165205443307393,0.0010568781290203333,0.0001597661894111726,19224.941491896057
1681064816176339149,31,1681064816176339149,camera_1,35,0,0.13187334096332526,0.17846015743215657,2.957868552008774,-0.9993275172714666,-0.012079927249205235,0.014515785971576003,0.031430566958426484,0.00012944202171638608,1.9560440615530633e-05,19221.77558845724
1681064816186374425,32,1681064816186374425,camera_1,36,0,0.13186690455200856,0.1776970611308339,2.958013599481471,-0.9993536843548123,-0.012025992797140374,0.015318482427131203,0.030214783795934327,0.0008562613511458039,0.00012939064331763628,19222.267290413023
1681064816196257829,33,1681064816196257829,camera_1,37,0,0.13183257832298623,0.17755042267701018,2.9571878425268303,-0.9993695193476289,-0.012097273691736183,0.0113622642997544,0.03138660093254919,0.0005774357705377042,8.722721087693607e-05,19235.949292890255
1681064816206222295,34,1681064816206222295,camera_1,38,0,0.1318878610357366,0.17812487031070687,2.9585873538387077,-0.9994934577681303,-0.012007971287661977,0.016179435590296058,0.024634576680774775,8.719193283468485e-05,1.317957613171872e-05,19225.73063324857
1681064816216220617,35,1681064816216220617,camera_1,39,0,0.13188904615475874,0.17926706503778211,2.958629869202849,-0.9993959400223289,-0.01164515583631545,0.011732607968577469,0.030569450807780375,0.0018636317690834403,0.0002818170882720228,19217.616623289185
1681064816226211547,36,1681064816226211547,camera_1,40,0,0.13185805247921323,0.18071428976172776,2.958140822712525,-0.999308343844357,-0.012117537707631047,0.012288646535506669,0.0329391616359295,5.376368062570691e-05,8.126976508223129e-06,19215.834441694427
1681064816236178398,37,1681064816236178398,camera_1,41,0,0.13183014258119208,0.18227130220890905,2.9578154110228794,-0.9991615507972441,-0.012001568160387907,0.011486842061023591,0.037419383073518137,0.002168435661587864,0.0003277905221067802,19206.76212460862
1681064816246178388,38,1681064816246178388,camera_1,42,0,0.13190508524379468,0.18361893344323021,2.9599923445510488,-0.9994470405839759,-0.01181111442977618,0.008082416471721858,0.030013083610931576,0.0004802957409992814,7.270709667086017e-05,19202.357425758855
1681064816256211996,39,1681064816256211996,camera_1,43,0,0.1318427210705907,0.18430994533467265,2.957912726790105,-0.9993259721397033,-0.011895150127782701,0.019088619707723797,0.02901260774436477,0.000503269606269896,7.60520138543397e-05,19214.503904013196
1681064816266370773,40,1681064816266370773,camera_1,44,0,0.1318596444583786,0.18454956631384667,2.9588562296511745,-0.999411952466486,-0.011991331883860224,0.0167210180923562,0.027429268687532406,2.4016888346523046e-05,3.631700792743441e-06,19210.29515244953
1681064816276245832,41,1681064816276245832,camera_1,45,0,0.13189357705472102,0.18414007818994493,2.9596760083249376,-0.9995076391562872,-0.011711546590049152,0.012514681636198099,0.02628120408655391,0.00010410742834210396,1.5752162074943402e-05,19209.36210899544
1681064816286225557,42,1681064816286225557,camera_1,46,0,0.1318273077052275,0.18300031782058046,2.9577691693888837,-0.9993280061297427,-0.01202101705164298,0.016220341377629115,0.030593003111669247,0.0011153187369927764,0.0001685387654337513,19218.7705569351
1681064816296239137,43,1681064816296239137,camera_1,47,0,0.13187875268053975,0.1816708307320815,2.958969651066419,-0.9994902291503743,-0.011829537612457688,0.012708366977098217,0.02679256019090267,0.00028744107112288475,4.347004021021325e-05,19219.06410790234
1681064816306142091,44,1681064816306142091,camera_1,48,0,0.13188220672245782,0.18018924486889706,2.9586393290192086,-0.9993574312944113,-0.012044939112898034,0.013366727831389986,0.030999589440573037,0.0016211018664762378,0.00024513738543924273,19213.368567113303
1681064816316180229,45,1681064816316180229,camera_1,49,0,0.13183735712819641,0.1788217265779771,2.9577572996083568,-0.999310619441954,-0.01205017451606099,0.011135619323817838,0.03330280989564726,0.0007439892506226897,0.00011243831658548524,19222.902041280173
1681064816326210737,46,1681064816326210737,camera_1,50,0,0.13187071731577998,0.17786812980439154,2.9579247129457014,-0.9992739523010916,-0.012171657897084225,0.013003987096580863,0.03367959792194916,0.00037016987334936857,5.594455371350497e-05,19217.81931128027
1681064816336215019,47,1681064816336215019,camera_1,51,0,0.13185592770503246,0.17751829510912517,2.9576051378921493,-0.9993103049137972,-0.012125346196556626,0.009459481075217123,0.03379953683846707,0.00019807968055829406,2.9934933013270605e-05,19226.559087600323
1681064816346168518,48,1681064816346168518,camera_1,52,0,0.13190058695340298,0.1779231915637523,2.958114370575464,-0.9994319733377512,-0.012066881741855773,0.015703171886898543,0.027267772698313097,0.0010033260332420468,0.00015163455729882245,19227.055674083527
1681064816356233358,49,1681064816356233358,camera_1,53,0,0.1319050053447213,0.17890302273644315,2.958667839809471,-0.9994855693509099,-0.01192677184787965,0.013272680507974432,0.026649291260918948,0.000401382043492049,6.0685284222264647e-05,19224.461184338434
1681064816366246938,50,1681064816366246938,camera_1,54,0,0.13187063135598026,0.18029694726426979,2.9586950224652595,-0.9992931578906749,-0.012191174454683467,0.012159449222869842,0.033417176016155424,0.0006749847671017051,0.0001020770010800421,19207.9116030538
1681064816376196146,51,1681064816376196146,camera_1,55,0,0.13190143853647412,0.181899083695983,2.9594411356030554,-0.9993791052710119,-0.01188946036022718,0.011126418511881857,0.031244959451926634,0.00012523389887064695,1.89482971582486e-05,19204.147501252482
1681064816386188745,52,1681064816386188745,camera_1,56,0,0.1318112764700318,0.18313544674025872,2.9574909872494985,-0.999295398292552,-0.01220808005972414,0.012536795197014405,0.03320389282559492,0.0004368385998532176,6.600953527695649e-05,19221.03242330417
1681064816396209478,53,1681064816396209478,camera_1,57,0,0.13185462670243367,0.18414525237929127,2.9584224650521684,-0.9993957447612024,-0.012084740321512721,0.01388372144937977,0.0294846855719955,0.0008511674823239446,0.00012868501764257001,19215.889172888237
1681064816406201839,54,1681064816406201839,camera_1,58,0,0.13180858555566227,0.18449552023369958,2.9578559023538933,-0.9993094292959218,-0.011958626499832245,0.016559414804728514,0.031039354919549435,0.001145467802416533,0.00017309292462341938,19214.59898779844
1681064816416192531,55,1681064816416192531,camera_1,59,0,0.13188216631928854,0.1843418012915965,2.958979666165683,-0.9994346354247264,-0.01175348900938882,0.01725459634532615,0.026354201078960866,0.0011560210259631276,0.0001748081951556407,19210.40286037885
1681064816426172494,56,1681064816426172494,camera_1,60,0,0.13189850457701138,0.18343858056037496,2.9592340428981894,-0.999433360235377,-0.011905461572895269,0.013010950666775338,0.02866938429939383,0.0011947558959946036,0.00018073837979761513,19209.331731443992
1681064816436193943,57,1681064816436193943,camera_1,61,0,0.1318654603132975,0.18203704790683087,2.9583814701580633,-0.9993091869626806,-0.011881949097565585,0.011471413881884749,0.03329226338325409,0.0011163022718392313,0.00016878123005805053,19211.742436273133
1681064816446170806,58,1681064816446170806,camera_1,62,0,0.13188969681672877,0.18054904827634577,2.9585204063349306,-0.9994612214451228,-0.012069170314611098,0.010316842135870363,0.028725680560842674,6.064184708520771e-05,9.168724117949909e-06,19224.41581657366
1681064816456176280,59,1681064816456176280,camera_1,63,0,0.13189459812249546,0.17914696185634849,2.958422587232302,-0.9995156414234687,-0.011873848768329493,0.010644234167032524,0.02672441850174301,0.0003600129275582731,5.4424280749385754e-05,19230.91207678127
1681064816466210365,60,1681064816466210365,camera_1,64,0,0.13191989580720723,0.17809715678972576,2.9586642123451288,-0.9993764601031198,-0.011863719858690086,0.014358352914825616,0.029996347185040944,0.0013261044514365494,0.00020050888434559985,19215.587467951707
1681064816476243019,61,1681064816476243019,camera_1,65,0,0.13182661199350723,0.17753005374292635,2.956784804828576,-0.9993013643129472,-0.012297074186425113,0.010248539325459882,0.033771773575437335,0.00027097243582829833,4.092631685825878e-05,19236.26570411864
1681064816486263036,62,1681064816486263036,camera_1,66,0,0.13189848755527747,0.1777524155224716,2.958313595667047,-0.9994409016706804,-0.01207172211930022,0.013391291969968366,0.028157252922587316,0.00017848191782832146,2.697755993342291e-05,19226.236941866584
1681064816496246099,63,1681064816496246099,camera_1,67,0,0.13189516263948914,0.1785796521707319,2.9583209526498053,-0.9993798234972341,-0.01210841216874104,0.01706832577393405,0.028320081155675133,0.00044453598093241453,6.718936061750004e-05,19219.205462082515
1681064816506247997,64,1681064816506247997,camera_1,68,0,0.1319335851456846,0.17991793293144587,2.959601795704265,-0.9994235848890699,-0.012013109076015688,0.009364576765636424,0.03033954317072541,0.00035398209001868963,5.3564740410175435e-05,19208.14919985074
1681064816516247510,65,1681064816516247510,camera_1,69,0,0.13184903334314696,0.1813378443427884,2.9579094398581978,-0.9992790696395636,-0.012039288024981302,0.010286121313051663,0.034504959534434804,0.0009251483133994043,0.00013985556026534354,19216.565039218873
1681064816526242494,66,1681064816526242494,camera_1,70,0,0.13187272101865327,0.18286520604551465,2.9589778132262707,-0.9993728021193151,-0.012100693601107534,0.01280587163696231,0.030717832771502765,0.0041764978668652475,0.0006316570501901949,19208.35617948266
1681064816536170244,67,1681064816536170244,camera_1,71,0,0.1318495701560767,0.18392522711257994,2.958034399828061,-0.9993414278900321,-0.011987500382380365,0.013649197037005291,0.03141193654550817,0.0015731441671960056,0.00023781028811558272,19216.46939436509
1681064816546221733,68,1681064816546221733,camera_1,72,0,0.13186539363373,0.18448203627517915,2.9584039477528314,-0.9994244804642956,-0.011860967378723065,0.0158715029072038,0.027533991664492993,0.0003284740378148854,4.965776416206845e-05,19217.350097498624
1681064816556197643,69,1681064816556197643,camera_1,73,0,0.13182587072155572,0.1843861675024091,2.9580357128688,-0.9994592197533626,-0.012102678814330907,0.016541373901253886,0.025713346047836764,0.002610179828479886,0.00039440556895781485,19225.269192911677
1681064816566174745,70,1681064816566174745,camera_1,74,0,0.13183702855720075,0.18374657297846422,2.958515894506975,-0.9994018130118699,-0.012054603428799436,0.010861903683334244,0.030540493334847582,0.0009060230804607272,0.00013700289073327962,19216.655785958865
1681064816576186180,71,1681064816576186180,camera_1,75,0,0.13189012523454363,0.18248983813326644,2.9586334749446572,-0.9994392154390845,-0.012028047937663973,0.013128242999858547,0.028358948165493118,1.2173200957477093e-05,1.8405608512743027e-06,19218.452511652606
1681064816586181163,72,1681064816586181163,camera_1,76,0,0.1319285281793593,0.18105199452695825,2.959381217182325,-0.999480098311978,-0.011949017516731495,0.012614740664533178,0.027159204270932744,0.0004507182748056947,6.81732281926398e-05,19213.502437511692
1681064816596168994,73,1681064816596168994,camera_1,77,0,0.131850085278246,0.17946196479585388,2.9575838237759355,-0.999323639406221,-0.011972113404029797,0.012075107715321338,0.03260558231667508,0.0007549471920356154,0.00011407373804158853,19225.226481834776
1681064816606213092,74,1681064816606213092,camera_1,78,0,0.13195478848189046,0.17836310314093426,2.9591255933231766,-0.9995297908009152,-0.011914025281026554,0.011702229982183792,0.02571597006775995,0.0012121153413318098,0.00018332044287885273,19223.11452045606
1681064816616206407,75,1681064816616206407,camera_1,79,0,0.13186107898050153,0.17763387845181242,2.9575947323836997,-0.9993282720629132,-0.012219440805549198,0.010409241074557337,0.03294446269714543,0.0029917407082393765,0.00045208052153610325,19227.760868138874
1681064816626189470,76,1681064816626189470,camera_1,80,0,0.13192443390260325,0.17766947110756376,2.958793968844244,-0.9995012376367262,-0.012133451668704285,0.014701564898068837,0.02517775412549401,0.0001692453515715897,2.558621500773314e-05,19224.61729176517
1681064816636204004,77,1681064816636204004,camera_1,81,0,0.1319321057397801,0.17827700317927025,2.9586025220372894,-0.9995022046649746,-0.012005493574162621,0.014888339636790081,0.025090801835647644,0.0023051867028698325,0.000348491662212983,19226.53401215397
1681064816646213769,78,1681064816646213769,camera_1,82,0,0.1318631780668559,0.1795048954132402,2.9582576325451346,-0.9992710758228806,-0.012185426718164662,0.013831734939208864,0.03342926125493611,0.0007547157583758235,0.00011409415839918732,19211.717768287752
1681064816656201362,79,1681064816656201362,camera_1,83,0,0.1318881040752781,0.1809062787591199,2.9579899963333522,-0.999250452412712,-0.011953321016941031,0.01623155095515289,0.03304827110828438,0.0012048014905303717,0.00018210132443014694,19211.120193815084
1681064816666125059,80,1681064816666125059,camera_1,84,0,0.13185803388459644,0.18238499689190754,2.957978736688953,-0.9992360647422304,-0.011896759901823995,0.011993446173400969,0.035240761501215113,0.0006533280829899013,9.876945295954998e-05,19210.351157770718
1681064816676175117,81,1681064816676175117,camera_1,85,0,0.1318856893084057,0.1836369823294105,2.958991970056949,-0.9994249670209916,-0.011816941470270324,0.012529213963383313,0.02920811508533176,0.0012168040266260505,0.00018403187123860567,19211.674959357115
1681064816686207056,82,1681064816686207056,camera_1,86,0,0.1317684811700098,0.18428182821038386,2.9564085504231876,-0.9991691828099534,-0.011691199616392926,0.012324385188083068,0.03704550585638482,6.429979111999273e-05,9.710992782920628e-06,19222.94986585783
1681064816696242570,83,1681064816696242570,camera_1,87,0,0.1318373819295411,0.184476209908554,2.957977948110846,-0.9993857173924646,-0.011860558287337205,0.017266997878830057,0.028095654705202523,0.0006683443789370358,0.00010100985328227248,19219.118025379023
1681064816706186294,84,1681064816706186294,camera_1,88,0,0.13188040443552157,0.1840312922256595,2.959012461567979,-0.999433062806223,-0.011885639401330713,0.01178385573514424,0.02921344364855008,0.0001216043601743877,1.839320524443395e-05,19212.084780970355
1681064816716199874,85,1681064816716199874,camera_1,89,0,0.13185400718806478,0.18288980225031473,2.9581789754655663,-0.9992994177399648,-0.01188721102298297,0.013799244360884358,0.03269478205663691,0.0015792124322615564,0.0002387258841844989,19211.9056689837
1681064816726214408,86,1681064816726214408,camera_1,90,0,0.13191313665242155,0.18148745954277934,2.9591666178730702,-0.9993504594404273,-0.011788896555542447,0.013502347476153408,0.03126288129464072,0.0005819114157930017,8.802382032059488e-05,19204.61799877021
1681064816736149072,87,1681064816736149072,camera_1,91,0,0.13189680864943146,0.17989689136689077,2.95840852408519,-0.999478833675293,-0.011860549202960488,0.01594592802973165,0.02543847060950652,0.0003383799339644611,5.114332612607285e-05,19225.52605151642
1681064816746241569,88,1681064816746241569,camera_1,92,0,0.1318552244973862,0.1785535457173403,2.9574515828008936,-0.9993350607891409,-0.012105183099697095,0.012101083247180882,0.032194170340785914,0.0006252204766497016,9.446736662925178e-05,19228.66967475041
1681064816756218194,89,1681064816756218194,camera_1,93,0,0.13189078787199116,0.17777779986080675,2.9583347411963907,-0.9994586380594832,-0.012059472512640288,0.014225148212525138,0.027104337094486616,0.0002090489724650979,3.159635862224388e-05,19227.092486504225
1681064816766286373,90,1681064816766286373,camera_1,94,0,0.13183923369476416,0.17749136230874157,2.9572262200636925,-0.9994152519590571,-0.012047464623448408,0.013417847762553635,0.029051232489898004,0.0005499967955984175,8.306418551010458e-05,19238.377236124714
1681064816776208162,91,1681064816776208162,camera_1,95,0,0.13186459650846885,0.17804979743533966,2.9581775989285117,-0.9993382859606442,-0.012130691158861081,0.009654978044028793,0.032903160094727324,0.001410248049069196,0.00021321511762791928,19220.975180402864
1681064816786206722,92,1681064816786206722,camera_1,96,0,0.13193353514533512,0.17913282512451856,2.959379633022055,-0.9994640666636769,-0.012114326910724038,0.01026434555225278,0.02862631205708017,0.00028051616391167045,4.243382094154616e-05,19214.685775910977
1681064816796187400,93,1681064816796187400,camera_1,97,0,0.13183011934183375,0.18046966609858456,2.9575120983093175,-0.9993024875104266,-0.011916188879239705,0.012041164428769277,0.03327992273529525,0.0009700653026811779,0.00014657934404060677,19223.57253490854
1681064816806185245,94,1681064816806185245,camera_1,98,0,0.13193471618547087,0.18207353152780048,2.960210284573416,-0.9995405470996255,-0.012056192518023163,0.012559992990393749,0.024811076192521955,0.0010699349222704768,0.00016191275974662548,19207.287147494615
1681064816816198825,95,1681064816816198825,camera_1,99,0,0.13185393032382697,0.18331783095533585,2.9583400219798546,-0.9992937948380228,-0.011955310429075381,0.012369349178573586,0.0334063070641825,0.00029970373725518584,4.531610762455218e-05,19209.568711613072
1681064816826133728,96,1681064816826133728,camera_1,100,0,0.1318239641153992,0.18425255385983308,2.958133670363681,-0.999331026316784,-0.012015171168444755,0.011617492691718332,0.03252951530524289,0.0016052756109274924,0.0002426982320563982,19214.832819200703
1681064816836195468,97,1681064816836195468,camera_1,101,0,0.131888422246484,0.184562937066454,2.9592496433494526,-0.9995201497929772,-0.011818123689215285,0.012437070049618231,0.02578994763220135,0.0010719065903685987,0.00016215443219553622,19215.667032549158
1681064816846184730,98,1681064816846184730,camera_1,102,0,0.13183283577105642,0.18415740140774192,2.9581249995996735,-0.9993499261602244,-0.012131331057659034,0.012613086835359293,0.03151929457978576,0.00018381106201559305,2.7786143797591477e-05,19216.370531861674
1681064816856203794,99,1681064816856203794,camera_1,103,0,0.13183448617505553,0.18319885338392705,2.9583115701569715,-0.9993448735671876,-0.011926642795907851,0.016001119114506402,0.030191771290934435,0.0006745533901266754,0.00010196583720676316,19213.025380588013
1681064816866268873,100,1681064816866268873,camera_1,104,0,0.1318576806529764,0.1818787655258865,2.95832074584491,-0.9992818638776946,-0.011935047399440797,0.010122585197869764,0.034508613962395684,0.00018086197087541223,2.7349039157449417e-05,19210.98709503014
1681064816876174688,101,1681064816876174688,camera_1,105,0,0.13190635841088444,0.18038511806464136,2.9587517448315634,-0.9993055109642774,-0.011962088547266133,0.012606488129781202,0.03296180594332423,0.0028368682833388448,0.00042906700088723575,19207.65134775883
1681064816886162996,102,1681064816886162996,camera_1,106,0,0.1319355029490521,0.1789629520094519,2.9590113291479287,-0.9994740297035835,-0.012060604876059111,0.014595201589167807,0.026328422829246773,2.546852920204401e-05,3.85117675179379e-06,19218.647326819257
1681064816906188964,103,1681064816906188964,camera_1,108,0,0.13190375883797686,0.1775870875153516,2.958713074069305,-0.9994632047864993,-0.01192595370950737,0.017336298298980347,0.025110290068170626,0.0014382561785168946,0.00021744501853673178,19221.421949736192
1681064816926173686,104,1681064816926173686,camera_1,110,0,0.13187423994487,0.17874633664089076,2.958282048453087,-0.9992569792885212,-0.01215198534534166,0.013199218279560698,0.03411157035604115,0.001266196253709495,0.00019143404126439214,19211.04711611488
1681064816936254024,105,1681064816936254024,camera_1,111,0,0.13187219035224013,0.18009878434705032,2.9584382429513982,-0.9994084859531237,-0.01227391577313782,0.014100264995840689,0.028865407038980058,0.000308531045448035,4.6638586326198865e-05,19220.240925427657
1681064816946241855,106,1681064816946241855,camera_1,112,0,0.1318710672388154,0.1816618870496194,2.95873220752368,-0.9993265611790493,-0.011970023674931756,0.010851545891838992,0.032945206131313874,0.0013693253276869655,0.00020710450779873663,19209.314442825154
1681064816956213712,107,1681064816956213712,camera_1,113,0,0.13187004688117449,0.18297778478630344,2.9585368799245644,-0.9994498778756897,-0.011881676569084265,0.015586123735047886,0.02675518871345186,3.7465651985257864e-05,5.663950715131673e-06,19219.219961460207
1681064816966154575,108,1681064816966154575,camera_1,114,0,0.13186301064069128,0.18402483580639928,2.958452315610724,-0.999400157019269,-0.011804784484940682,0.010005052057902574,0.03098180347306011,0.0008587223710492254,0.0001298588356175952,19217.1087846672
1681064816976170063,109,1681064816976170063,camera_1,115,0,0.131881928203775,0.1845577400351185,2.95899695381994,-0.9993983299262862,-0.011741689831533054,0.015008489094282394,0.02898027114360919,0.0007255276432260871,0.0001097337003709956,19207.58370843343
1681064816986163377,110,1681064816986163377,camera_1,116,0,0.1317978529005471,0.18432125473256825,2.9580715950265972,-0.9993263134218333,-0.011901531894512587,0.014718317774308064,0.03144270922147806,0.0010039947228506207,0.00015174894626815324,19213.99803305429
1681064816996219635,111,1681064816996219635,camera_1,117,0,0.13178929201217268,0.18348776784382878,2.95778556375763,-0.9992203553482304,-0.011988520507598625,0.010084614175929946,0.03623889334289662,0.00037961051566526294,5.7385685646818523e-05,19211.437217332423
1681064817006141662,112,1681064817006141662,camera_1,118,0,0.13184491077688812,0.1823196316069477,2.9585059349469245,-0.9993432929897798,-0.012190523225118922,0.013879984516480027,0.031172422582524256,2.5141402147710323e-05,3.8011296256969837e-06,19212.164705980802
1681064817016196012,113,1681064817016196012,camera_1,119,0,0.13190248916015526,0.1808238919125848,2.958912671156516,-0.9993719894568822,-0.011991209835713227,0.01556790601514662,0.02948691028190202,0.001054607331752777,0.00015946122319719717,19209.692677041865
1681064817026212692,114,1681064817026212692,camera_1,120,0,0.13191450221371137,0.17936237095922408,2.958978542636747,-0.9994257391212604,-0.012021982899063045,0.01682622994463692,0.026842911446926198,0.0014562232536263766,0.00022021083236313264,19213.962563229485
1681064817036278963,115,1681064817036278963,camera_1,121,0,0.13187492973421003,0.17819367177404766,2.9582393968425347,-0.9993751765090543,-0.011959006009525359,0.01153712810701435,0.031195086597142912,0.0005886632134206593,8.898543804306973e-05,19222.14978324319
1681064817046197652,116,1681064817046197652,camera_1,122,0,0.1319107856552284,0.17764150519814262,2.9592343066564046,-0.9995745671471682,-0.011803387717800587,0.015987815767495497,0.021348407386019248,0.001606648787856102,0.00024295543556878297,19224.305071718518
1681064817056250333,117,1681064817056250333,camera_1,123,0,0.13192225230166485,0.1776991790770748,2.9589675214901807,-0.9995011740596154,-0.011777253184556257,0.015357681966353934,0.024956781953964686,0.0008143590530380604,0.00012312737958737193,19221.776654352663
1681064817066213846,118,1681064817066213846,camera_1,124,0,0.13189699122906806,0.1784005999406719,2.958611883263091,-0.999455324223046,-0.01178899439787338,0.012781183306253508,0.028048455333317582,0.0010786355123855174,0.00016308514994693122,19223.09245291399
1681064817076186656,119,1681064817076186656,camera_1,125,0,0.13187920571399872,0.1797282683817275,2.958859060783601,-0.999354727261382,-0.012346083566492359,0.0078197345579318,0.032810898682323876,0.0003385875024832785,5.121691177715256e-05,19213.215033394514
1681064817086368083,120,1681064817086368083,camera_1,126,0,0.131900157194905,0.1812045902269637,2.95889508228988,-0.9994088427374979,-0.011907102295055596,0.010773180087977697,0.030399417162544486,0.0013151727034710345,0.00019892589564647647,19214.35415452859
1681064817096190690,121,1681064817096190690,camera_1,127,0,0.13191199143894275,0.18269891413976458,2.959626769360365,-0.9995025621828595,-0.01177972414640406,0.01245323932202532,0.026472308537829205,0.0005010660388506949,7.580759409163904e-05,19210.839603301836
1681064817106222867,122,1681064817106222867,camera_1,128,0,0.13184512689149608,0.1837845495563464,2.95820850185203,-0.9993308002058295,-0.011940662237930296,0.01689482164038489,0.030165167777351284,0.0022252207272686064,0.00033637817605692986,19212.31559668947
1681064817116180181,123,1681064817116180181,camera_1,129,0,0.13185488061120978,0.18443177054580728,2.958777067574756,-0.9994120359366693,-0.012071914513984134,0.01677326049919508,0.027358893199745635,0.0003061756142415106,4.629344990202065e-05,19211.502436211675
1681064817126207113,124,1681064817126207113,camera_1,130,0,0.13184516813429153,0.18448244096617836,2.9586736881812032,-0.9993039676276617,-0.011837329414977154,0.014739480953389826,0.03215906741743745,0.00018229655688628554,2.7565722615565602e-05,19204.091781722964
1681064817136218070,125,1681064817136218070,camera_1,131,0,0.13189678511105507,0.1838846956871622,2.959623299871481,-0.999332267290826,-0.011988286230739166,0.012291130172582453,0.03225257607862799,0.0006332172779366374,9.582803863284348e-05,19195.787279027514
1681064817146198749,126,1681064817146198749,camera_1,132,0,0.13185397454925651,0.18262556368977387,2.957913643873663,-0.9993721459552323,-0.011938593462029193,0.015216688047663058,0.029685624127554273,0.0014613484381698072,0.00022086507576187417,19221.15565707709
1681064817156390428,127,1681064817156390428,camera_1,133,0,0.1318767750958959,0.18124286141565307,2.9591093407437756,-0.9995081187914413,-0.01181781448259924,0.014424950369487172,0.025214688927031378,0.00013601488899439573,2.056835720385013e-05,19218.505195440262
1681064817166482210,128,1681064817166482210,camera_1,134,0,0.13185152002104933,0.17977279108535502,2.9581363513532435,-0.9993347530823141,-0.012058337168863842,0.011521816966659036,0.03243293881872513,0.005486518028192222,0.0008294634947756227,19219.06508149999
1681064817176357030,129,1681064817176357030,camera_1,135,0,0.1319256547475617,0.17850584793403615,2.959096499449146,-0.9994633693239469,-0.012137904118810256,0.013599269651169246,0.02721588742226037,0.0004701621946878731,7.110191390406348e-05,19217.447487803292
1681064817186339378,130,1681064817186339378,camera_1,136,0,0.13191978452863412,0.17771210894744538,2.958929706190925,-0.9995346815369276,-0.012009661030927436,0.01076494166152162,0.025890239045228063,0.00015397794777527452,2.3282486233297056e-05,19226.99544321944
1681064817196293115,131,1681064817196293115,camera_1,137,0,0.13188930836793966,0.177634500258987,2.9585831593091543,-0.9994383131391866,-0.012285471065173121,0.011301806533901651,0.029058468632640323,0.0009473859099671245,0.00014323649552047785,19223.685233836644
1681064817206242084,132,1681064817206242084,camera_1,138,0,0.13188597800824667,0.17810832236738197,2.9579303596633473,-0.999301959537981,-0.012261763291776678,0.01339277751671976,0.032647761560569095,0.0014737327001057565,0.00022273312137861362,19219.74479819741
1681064817216155052,133,1681064817216155052,camera_1,139,0,0.13187289269980113,0.17923038215507833,2.9581669810497595,-0.9993283830257523,-0.012106895053229958,0.011871444087560098,0.03248499325198294,0.0004230161430314183,6.39407028277656e-05,19218.486794475808
1681064817226264715,134,1681064817226264715,camera_1,140,0,0.13190302327359238,0.18075393563483466,2.958925635291937,-0.9993339256227892,-0.012047124941249349,0.010436453012717084,0.03282761533387844,0.0011301817139610648,0.00017092845837809325,19208.432935100413
1681064817236262798,135,1681064817236262798,camera_1,141,0,0.13183667876814353,0.18223438722179192,2.9579375769181766,-0.9992845475643316,-0.011892236723847613,0.017004788363091623,0.031619691294816336,0.0031728149042464793,0.0004795271801010842,19213.22765734978
1681064817246231317,136,1681064817246231317,camera_1,142,0,0.1318826623553457,0.18349556418467428,2.9584357044098857,-0.9993638765253563,-0.01166100923673168,0.014691950448739466,0.030331662529524055,0.0018338256631977856,0.0002772755071929375,19212.85395843805
1681064817256184101,137,1681064817256184101,camera_1,143,0,0.13185450943628602,0.18431533349409254,2.9586795122170715,-0.9994380964698218,-0.011863716483543885,0.014384874844447568,0.027853526377941373,0.001575516362208873,0.00023819139902565465,19215.659892749507
1681064817266270875,138,1681064817266270875,camera_1,144,0,0.13182195923837298,0.18453025600846737,2.958419106069859,-0.999407841110314,-0.012076722250420318,0.014205857969380653,0.028919085501822095,0.0011762496433220804,0.00017782935104957242,19216.541246768793
1681064817276250600,139,1681064817276250600,camera_1,145,0,0.13183550738772998,0.1840658032647744,2.9582024577801915,-0.9992678832423593,-0.01193704727991625,0.012786673285871434,0.034025070299001654,0.00027252727886661887,4.120338917659488e-05,19208.321422821027
1681064817286237239,140,1681064817286237239,camera_1,146,0,0.13182521552612528,0.1830220970902398,2.95819172368221,-0.9992394180156168,-0.012229704049316132,0.010383974761859907,0.03554142499707271,0.00022050482220947742,3.3340571509282325e-05,19208.32202129159
1681064817296238183,141,1681064817296238183,camera_1,147,0,0.13192237850423924,0.1817194305345501,2.960066810839449,-0.9995059644912844,-0.011839950346965996,0.013000588069862241,0.026050474697530735,0.0015904022147879004,0.00024070104269635626,19206.09901284404
1681064817306223154,142,1681064817306223154,camera_1,148,0,0.13186070272920003,0.18010120717566225,2.9574844953965465,-0.9992534757001228,-0.012037724007164961,0.013928044304919803,0.03396460045093664,0.00079388078302145,0.00011995514722962758,19219.537236323
1681064817316229581,143,1681064817316229581,camera_1,149,0,0.13189476535087383,0.17881740907292817,2.9584784535009745,-0.9993900629440101,-0.012207930187053776,0.01306373171731212,0.02999679054388525,0.0009429968777112663,0.00014256065533327497,19219.449940570048
1681064817326214313,144,1681064817326214313,camera_1,150,0,0.13194201299261565,0.17788894397374855,2.9592792188570565,-0.999524345106544,-0.012105461533751203,0.017588734011814183,0.02225259032677296,0.00021915981778874993,3.314122790154755e-05,19219.081036749758
1681064817336241722,145,1681064817336241722,camera_1,151,0,0.1319080227280314,0.1776084349566792,2.9590502723474703,-0.9994571392271564,-0.011997527033978795,0.009838736930896166,0.02906347275433829,1.4588353224098682e-05,2.2062912497371443e-06,19219.52437521692
1681064817346247911,146,1681064817346247911,camera_1,152,0,0.1319095798763827,0.17797964382130205,2.958684693607872,-0.9993591216446658,-0.012116099485585086,0.011511498119715542,0.03165488161243684,0.0004562177346087992,6.898707912342227e-05,19215.379057213202
1681064817356273174,147,1681064817356273174,camera_1,153,0,0.13188304819749147,0.1789042405853257,2.958708708614682,-0.9993415303601321,-0.012009878637848888,0.013545365578851184,0.03144505658937066,0.00014638254651799798,2.2133061257455803e-05,19212.088466559202
1681064817366250991,148,1681064817366250991,camera_1,154,0,0.13191572053659079,0.18030288501490552,2.9591500350747193,-0.9994444139864427,-0.012116331116784711,0.012458497948511347,0.02844017757384297,0.000648059300146997,9.802047577056146e-05,19214.299809916884
1681064817376251220,149,1681064817376251220,camera_1,155,0,0.13187859691748202,0.1818832748838913,2.959612111121157,-0.9994272814724342,-0.012067628156659231,0.005579802503449801,0.031118277640563394,0.0005289398250170052,8.004853129739134e-05,19208.42950264923
1681064817386353969,150,1681064817386353969,camera_1,156,0,0.13185266496754833,0.1831844275423646,2.9585355259756003,-0.9993929659366588,-0.011842429269522272,0.012578327074704741,0.030252969991828294,0.0005054512876085937,7.642898945598453e-05,19215.28751511639
1681064817396201133,151,1681064817396201133,camera_1,157,0,0.13181018621802915,0.18414652002135534,2.958470077450594,-0.9995410186185492,-0.012028481158536287,0.01577959088608399,0.022892624390394616,0.0008870642632246017,0.00013408707068564502,19227.122125767637
1681064817406226396,152,1681064817406226396,camera_1,158,0,0.13183851077962136,0.18450218350089814,2.9578993283491863,-0.9993415631437579,-0.011958527091173664,0.014558557746788764,0.031007776436462554,0.001726064132526517,0.0002608988069133357,19217.342914561395
1681064817416212320,153,1681064817416212320,camera_1,159,0,0.1317771312451721,0.18423094762201697,2.9577380883582443,-0.9993344912231583,-0.011962487413508357,0.012450572372301356,0.03213186571357404,0.0006696341442875564,0.00010119577727400767,19219.959286700236
1681064817426228523,154,1681064817426228523,camera_1,160,0,0.1318782199824685,0.18340949723918928,2.9589393360493395,-0.9994860271661937,-0.011990313421209984,0.014887393846007525,0.025734789450740505,0.0006868104683235288,0.00010386156202926051,19217.09233608795
1681064817436214685,155,1681064817436214685,camera_1,161,0,0.13183458903670786,0.18202166155646501,2.9576239429041675,-0.9992222088432083,-0.011899957786242114,0.0115003637343382,0.03579259690443598,0.0015438160626217723,0.00023333258307838914,19214.334616816377
1681064817446226358,156,1681064817446226358,camera_1,162,0,0.1318940412924626,0.18060000356770736,2.9591645901201136,-0.9994899599375305,-0.012105982670720224,0.008973434412995484,0.02815568579320225,0.0002092447830364108,3.165180027301811e-05,19219.049511875848
1681064817456276893,157,1681064817456276893,camera_1,163,0,0.1318882670241847,0.17915011375861412,2.9584288946162944,-0.9994152139679381,-0.011945359315309491,0.013710222024488378,0.028958043654355718,0.00038602942368015647,5.8356328015350445e-05,19221.41529980011
1681064817466241598,158,1681064817466241598,camera_1,164,0,0.1318684862135534,0.17805404229518226,2.9578982430369014,-0.9993196918235538,-0.012259889030064974,0.012215142539037141,0.032567452270616484,0.0008498367969878018,0.0001284234474966338,19222.16095059226
1681064817476239204,159,1681064817476239204,camera_1,165,0,0.13188130169193413,0.1775968160919703,2.9587261054166225,-0.999526661828116,-0.011984411572928982,0.01089765323638332,0.02615468080350917,0.0003864677855744958,5.842713045958736e-05,19229.01528462336
1681064817486228704,160,1681064817486228704,camera_1,166,0,0.1318265234658766,0.1777313190919882,2.9573382785972226,-0.9993149620098889,-0.012236976640955676,0.011929052461959739,0.032826221427740825,0.0008434677147306502,0.0001274324657020123,19229.35215628018
1681064817496253490,161,1681064817496253490,camera_1,167,0,0.1319307225240316,0.17862122061638183,2.958940405394504,-0.9994304754550318,-0.011997540593408794,0.01477021074376557,0.02786798568291653,0.0004167023580521345,6.301187438514647e-05,19216.0700945193
1681064817506292581,162,1681064817506292581,camera_1,168,0,0.1318656075804155,0.17978477004374327,2.958033903186827,-0.9994436831443676,-0.011997252311675994,0.016270081631589065,0.02652686569296356,5.748157855123283e-05,8.68615462590433e-06,19227.54919296724
1681064817516204357,163,1681064817516204357,camera_1,169,0,0.1318881978017934,0.18139507523425147,2.9593657337829535,-0.9994384271920933,-0.011823831314049788,0.011688985307521521,0.02909286660562311,0.0002788666752167046,4.218746603176323e-05,19210.2172279309
1681064817526240348,164,1681064817526240348,camera_1,170,0,0.13185164308575698,0.1828078230127368,2.95834776293166,-0.9993395902662715,-0.011859519932729781,0.006383665002820224,0.03374883604715005,0.0008024323033168912,0.00012136299912473699,19216.0378536079
1681064817536222934,165,1681064817536222934,camera_1,171,0,0.13185899081958827,0.18394574284611503,2.9583896718915494,-0.999394834990428,-0.01183328463971187,0.014605786134974437,0.029267869421434185,0.0024847658933140337,0.0003756908801305215,19215.88449218659
1681064817546199798,166,1681064817546199798,camera_1,172,0,0.13182401585743958,0.18450815087304095,2.9585887568393363,-0.9993816095746495,-0.011982346736869176,0.016599554272430227,0.028588050101694688,0.001225274580065161,0.00018525238165867684,19211.266144972764
1681064817556243419,167,1681064817556243419,camera_1,173,0,0.1318593881330064,0.18444876429156726,2.9591076450096963,-0.9994913821140357,-0.01209300532843563,0.014715602977618458,0.02557708605190337,0.0010483496589586139,0.00015853537215458226,19214.715718145933
1681064817566202402,168,1681064817566202402,camera_1,174,0,0.13183670164479513,0.18373021352815722,2.9585834375715363,-0.9994379618080858,-0.012049624159435373,0.01382597119963596,0.028060819212961368,0.0020003090612590313,0.0003024556771487875,19217.775134898715
1681064817576184749,169,1681064817576184749,camera_1,175,0,0.13184082637834815,0.18249984623357035,2.958510373624087,-0.9993401884549663,-0.012092785424830962,0.011194070633207352,0.032367345614369575,0.0006925518973730505,0.00010472035617433737,19212.603431150197
1681064817586243629,170,1681064817586243629,camera_1,176,0,0.13193938705058597,0.18106245910098848,2.9598154952227795,-0.9994674399061209,-0.01191155834594502,0.008821413836928908,0.02907118854112458,0.003095667576417327,0.00046855744146740596,19208.234765657457
1681064817596216678,171,1681064817596216678,camera_1,177,0,0.13187167890839147,0.17952913387827477,2.9584577187717622,-0.9993798463321267,-0.012133673142250131,0.014753944199610656,0.029580700664563905,0.000854623387567699,0.00012920076445031584,19217.657694572812
1681064817606266975,172,1681064817606266975,camera_1,178,0,0.1319130856818708,0.1784199262480025,2.959138352788497,-0.999382393866558,-0.012122989354161543,0.01169449568536127,0.030839953458652352,0.0028387752245180304,0.000429419675716657,19211.046826844926
1681064817616227865,173,1681064817616227865,camera_1,179,0,0.13183763035437351,0.17762540375655184,2.9576973685219885,-0.9994763332148724,-0.012150422892736408,0.015168323365443407,0.025871770970740327,0.001764335494954139,0.0002665227232921491,19236.68679621863
1681064817626235723,174,1681064817626235723,camera_1,180,0,0.1318532415114223,0.17763252689663764,2.957907288290501,-0.9994545826520865,-0.01200492927933596,0.013591915768256349,0.027598527397132123,0.0004696969990618527,7.097345646457177e-05,19232.60079001682
1681064817636227130,175,1681064817636227130,camera_1,181,0,0.13186464879210247,0.17831277708108048,2.9582221786692804,-0.9994235567170409,-0.012206569115799185,0.009694923053777935,0.030158952509370382,0.0014172318624332547,0.0002142423042841811,19227.24340024299
1681064817646218061,176,1681064817646218061,camera_1,182,0,0.13186243862621316,0.17951871711548958,2.958290708780959,-0.9993931036120605,-0.012080147208504742,0.009529400669175582,0.031251960241889025,0.002114343224093318,0.00031967345152582424,19222.892305611047
1681064817656242370,177,1681064817656242370,camera_1,183,0,0.13190694309311407,0.18098296695089752,2.9593583523708284,-0.999302156162032,-0.011853631413417309,0.010706880109594112,0.033764697992837454,8.859415538609028e-05,1.3404767713165206e-05,19199.750446579885
1681064817666268348,178,1681064817666268348,camera_1,184,0,0.13188366925142123,0.1824037584189537,2.9590861691280703,-0.9993946978428052,-0.011749747683350178,0.010807197845930837,0.030909316197304127,0.00041861279169097543,6.332494889123874e-05,19209.57650458592
1681064817676175117,179,1681064817676175117,camera_1,185,0,0.13186667645741817,0.18369478991407817,2.9590055357254617,-0.9993702030756805,-0.012197988101115637,0.013991917535180599,0.030242892296323386,2.6786758098751307e-05,4.051311242767345e-06,19206.722004128736
1681064817686184406,180,1681064817686184406,camera_1,186,0,0.1318339024050803,0.18440000572460144,2.9586394321662395,-0.9994002640059337,-0.011974049040123655,0.01679812889890154,0.027812898445696174,0.0001147789298556745,1.7353985608875833e-05,19212.211906434393
1681064817696254491,181,1681064817696254491,camera_1,187,0,0.131827244256843,0.18447402119820688,2.9580962465790073,-0.9993706550535183,-0.01224639558784774,0.01159943987251759,0.031205329795592075,0.00039317604387179017,5.943847417044187e-05,19218.67767425836
1681064817706265926,182,1681064817706265926,camera_1,188,0,0.1318430502759482,0.1839441151555571,2.958017624936782,-0.9993725094046735,-0.011809235048697768,0.018543047786473383,0.027772014557085795,0.0011391793959774077,0.00017216957929552172,19217.504939611536
1681064817716249704,183,1681064817716249704,camera_1,189,0,0.13183584989511218,0.18286765655560597,2.957584321860931,-0.9992648176241435,-0.011910245878074953,0.016430314605544217,0.03252714349084103,0.0023882047971710563,0.00036089400599934333,19215.76045992237
1681064817726234197,184,1681064817726234197,camera_1,190,0,0.131822602383324,0.18141858871633157,2.9577040717537937,-0.9992709349548586,-0.01202946622931852,0.009942431496300565,0.03484305601726021,0.0001304828329011798,1.9722677214885696e-05,19218.634316581185
1681064817736284017,185,1681064817736284017,camera_1,191,0,0.13181665766420125,0.17983217692019698,2.9573606038502316,-0.9992656483342268,-0.012065362695903683,0.013918025097754862,0.03359880443664673,0.001137654238846153,0.0001718574599929296,19222.477391011664
1681064817746226787,186,1681064817746226787,camera_1,192,0,0.13183456264194143,0.17861176390095443,2.95750777488948,-0.9992270556231835,-0.01210232603664495,0.011919541611942665,0.03545066350419601,0.0013044000952504575,0.00019711526149585837,19219.19613432035
1681064817756235837,187,1681064817756235837,camera_1,193,0,0.13188183209254153,0.17780994818835202,2.958448630667946,-0.999484637070448,-0.01219314366630199,0.012696409890951105,0.02684378295935231,0.00021272181766107678,3.2153561071222965e-05,19228.480636529403
1681064817766289234,188,1681064817766289234,camera_1,194,0,0.1318709533643171,0.17755884652604478,2.958001342218979,-0.9993653760089021,-0.011923851005137645,0.01150970391116505,0.0315308377254748,0.0006939379964023829,0.00010488475842252839,19224.851851457257
1681064817776215553,189,1681064817776215553,camera_1,195,0,0.1319069117920457,0.1780625896485586,2.9590710432375142,-0.9995101476084071,-0.011993062220586992,0.012923664008881631,0.025857497848379617,0.00039666646625846624,5.9985614504520466e-05,19222.08110013442
1681064817786218643,190,1681064817786218643,camera_1,196,0,0.1318579423517807,0.1791056887407182,2.957839396335151,-0.9992310016038489,-0.012005177343572806,0.010574335095720217,0.035797550027926284,0.0001301362062804401,1.9671375041127584e-05,19215.27219139481
1681064817796261548,191,1681064817796261548,camera_1,197,0,0.13186536256008133,0.1805552727794945,2.9588185799782756,-0.9995216513087025,-0.011793307574262233,0.009836819910037353,0.026844430253609417,0.0012014469830319285,0.00018167362039649016,19225.579408672522
1681064817806189060,192,1681064817806189060,camera_1,198,0,0.1318803085730908,0.1820124236917904,2.9585949679711065,-0.99936446013264,-0.011892732932089587,0.01032636781275298,0.03197819342925452,0.0003942666808143258,5.9624756795830705e-05,19214.03436887637
1681064817816249608,193,1681064817816249608,camera_1,199,0,0.1318676948350765,0.18336847772335577,2.959221462770275,-0.9994048212861002,-0.011897718046775294,0.010468780567668515,0.03064069400003575,0.0022431419347412884,0.0003393449825678886,19208.14380107529
1681064817826195001,194,1681064817826195001,camera_1,200,0,0.13184828805835136,0.18424932582748063,2.95831677783052,-0.9993034844778181,-0.011950386780424658,0.016066553446184517,0.03148968127260683,0.000537463347427547,8.124675588247799e-05,19208.500613083947
1681064817836238384,195,1681064817836238384,camera_1,201,0,0.13186662848683378,0.18456850795719773,2.9586135911129245,-0.9993647059749312,-0.011671002330585906,0.015149963511170652,0.03007408788058308,0.0028741384157910943,0.00043464191479670875,19209.532893658856
1681064817846264123,196,1681064817846264123,camera_1,202,0,0.13178339497949282,0.18413569276939695,2.957706871875893,-0.9994020558756581,-0.011972625820983114,0.013264504161901957,0.029601349155026484,0.0019508296390995385,0.0002948209904438044,19225.827686560806
1681064817856223583,197,1681064817856223583,camera_1,203,0,0.13190971994797293,0.18332645473329445,2.959660168404365,-0.9994951486234505,-0.011876895646957465,0.010231091656803389,0.027635339539949625,0.002431283879559487,0.0003679418281083932,19210.149282381863
1681064817866226673,198,1681064817866226673,camera_1,204,0,0.13187159856367486,0.18193172892576986,2.958697490761141,-0.999322239824215,-0.012204954604476776,0.012010934735071614,0.032585848502173935,0.0006066405912861228,9.17337432714394e-05,19208.971199915395
1681064817876263856,199,1681064817876263856,camera_1,205,0,0.13187778990559973,0.18039029829829956,2.958964756455874,-0.9993471135302133,-0.0121864170372391,0.00949692045731333,0.03265955328005626,0.0006668028072454035,0.00010086822568329101,19209.847583870047
1681064817886287450,200,1681064817886287450,camera_1,206,0,0.13187926516180576,0.17895703455194314,2.9589036306130674,-0.9993609979100211,-0.01214821146519833,0.010108438883394784,0.032059885804916886,0.00033884833101183176,5.1250976561882615e-05,19212.62965114275
1681064817896269083,201,1681064817896269083,camera_1,207,0,0.1318847768586693,0.17799012923179686,2.958718123427536,-0.9992952820783052,-0.01198797585731266,0.013338037199481146,0.03297460256849527,0.0007556531927548349,0.00011425620187193536,19208.944301198706
1681064817906266927,202,1681064817906266927,camera_1,208,0,0.1319211307227611,0.17764204896364566,2.959038491308509,-0.9993956963350378,-0.012097081118012448,0.007907322997858268,0.031612924863680794,0.00189598387805745,0.0002868106553408356,19215.499669103654
1681064817916290283,203,1681064817916290283,camera_1,209,0,0.1318631798934355,0.1778226676007877,2.958076947545677,-0.9993667266823112,-0.011773274848240436,0.010465734213977427,0.03190617506052574,0.0018290170119144022,0.0002764915704831792,19224.081108222825
1681064817926290750,204,1681064817926290750,camera_1,210,0,0.1318994152497001,0.17880422297324255,2.9590208116795957,-0.9994066017971839,-0.012136419004735128,0.013542154181688172,0.029253404555129123,0.0007307608611881733,0.00011051400346420107,19213.590464533772
1681064817936265945,205,1681064817936265945,camera_1,211,0,0.13184968372103928,0.18010544357413047,2.957957809104794,-0.9993079224057948,-0.012041923384190464,0.011612776114900017,0.03322366218718962,0.0011804710957221687,0.00017844062201582235,19218.84328832932
1681064817946293592,206,1681064817946293592,camera_1,212,0,0.1318352932697085,0.1815937161524623,2.957633122080167,-0.9991965939316032,-0.011919438069482483,0.009153472886835205,0.03715249124488106,0.0009287567809224129,0.0001404045473961174,19213.454634943515
1681064817956202507,207,1681064817956202507,camera_1,213,0,0.13185721904359576,0.1829875714587246,2.958335070086859,-0.9993462392235081,-0.012235853541037811,0.016606136524993077,0.0296919899580106,0.0005203697946853936,7.866348862548284e-05,19213.081262523767
1681064817966150999,208,1681064817966150999,camera_1,214,0,0.13183496633151803,0.18407254331479278,2.9584986349146742,-0.9993059849124077,-0.01200298426531896,0.011052068777083694,0.03348624587373182,0.0008847675053402781,0.00013379555744113232,19208.42074366101
1681064817976169824,209,1681064817976169824,camera_1,215,0,0.13187761740358525,0.18460537639044558,2.9595685224189974,-0.9994239245101415,-0.011812121361623976,0.01587411924147654,0.027573633130085623,0.0015178229077719152,0.00022965384035634903,19202.17507996608
1681064817986279964,210,1681064817986279964,camera_1,216,0,0.13184516627532122,0.18440709286317447,2.959282690294726,-0.9994947871663856,-0.01216458845129459,0.013162742246519836,0.02624757953762138,0.0034048156230710447,0.0005150332920961018,19213.390386548366
1681064817996249437,211,1681064817996249437,camera_1,217,0,0.13187325006492234,0.18356190900295802,2.9590444912890033,-0.9994041841808905,-0.012007954353048286,0.013160481690284094,0.029561586487595017,0.0002812588354572654,4.253796065393914e-05,19209.30213661818
1681064818006249427,212,1681064818006249427,camera_1,218,0,0.1318715238547157,0.18232369602137663,2.9586998164060416,-0.9993387478829125,-0.012119986570688449,0.012699015959269398,0.03184192046665734,0.000470464990939945,7.114666634622311e-05,19209.60878686676
1681064818016270399,213,1681064818016270399,camera_1,219,0,0.13186052090241485,0.18086030785375848,2.9583707158009767,-0.9992576271478264,-0.012013813257569516,0.011288011167614482,0.03482016200116639,0.0003845153260044754,5.814274683141297e-05,19208.85943185036
1681064818026219367,214,1681064818026219367,camera_1,220,0,0.13190566254557679,0.17938110856693845,2.9589896624009797,-0.9994102480589532,-0.011838871896531688,0.013127971257190134,0.02943898024099629,0.0007080297218635678,0.00010708094630974767,19213.714566844516
1681064818036277294,215,1681064818036277294,camera_1,221,0,0.1318982920649871,0.17813267576721772,2.95829074120397,-0.9994116933633187,-0.011889905184826155,0.01299156409527239,0.02942985874444704,0.0015059567522257566,0.00022762814567527822,19223.848993131425
1681064818046200037,216,1681064818046200037,camera_1,222,0,0.13186010089054823,0.1775943522986322,2.9582431965470817,-0.9995012079988208,-0.012098393020792648,0.009580848098499926,0.02755306598050466,0.0016236621304415166,0.0002453946133337167,19233.81127362116
1681064818056252717,217,1681064818056252717,camera_1,223,0,0.13188358364707836,0.17769912254584866,2.9584510292876653,-0.9994646743404995,-0.011859879265164353,0.015468957917645458,0.026275832055277042,0.0004917283076792955,7.432554371002575e-05,19225.498007942573
1681064818066210508,218,1681064818066210508,camera_1,224,0,0.13191889283235117,0.17842780046970053,2.9592402937644584,-0.9995823596935258,-0.011968105707183875,0.017112259047090437,0.019976016259752802,0.00048763403901830316,7.374310271570724e-05,19224.18388488853
1681064818076252222,219,1681064818076252222,camera_1,225,0,0.13188171618649597,0.1796984973625017,2.95868542419972,-0.9993872506829669,-0.012258443081129566,0.010000648672086143,0.03122244019459323,0.003143759502563625,0.0004754712854483996,19217.145463413908
1681064818086127758,220,1681064818086127758,camera_1,226,0,0.13189990561718792,0.18121845964103533,2.9590992807182146,-0.9992929980756782,-0.012196227704512896,0.009904216061889187,0.03415644201174539,0.0019200198585167527,0.00029047986687875255,19202.781625529988
1681064818096334218,221,1681064818096334218,camera_1,227,0,0.1318011739855205,0.18263113618627447,2.957901591191961,-0.9992820566080173,-0.012036305748690163,0.010816536583833318,0.03425640409479936,0.000666800478938967,0.00010079019771397875,19215.62701207504
1681064818106225490,222,1681064818106225490,camera_1,228,0,0.13191803466712032,0.1838890258568319,2.959803920299165,-0.9993941904658582,-0.01189467813409578,0.015123396697234025,0.029000889081480793,0.0008179956348612905,0.0001237855286943748,19197.54286629265
1681064818116170406,223,1681064818116170406,camera_1,229,0,0.13183004325224545,0.18447318288658662,2.9588623437724992,-0.9993621499746579,-0.0119194603743604,0.01273850289698404,0.031160073914500607,0.0008939541294239461,0.0001351906920210135,19207.403305374093
1681064818126200914,224,1681064818126200914,camera_1,230,0,0.13184973746414974,0.18448838471721443,2.9587980406117813,-0.9993451031955982,-0.012183509103231294,0.015689636158630144,0.03024503499948996,0.0006187392282299697,9.357137676067099e-05,19205.956404036377
1681064818136230468,225,1681064818136230468,camera_1,231,0,0.13183375055660942,0.18384181455193754,2.9584996663871777,-0.9992744074363263,-0.012107268935940439,0.012110910615451016,0.03402056033865821,4.0908344089984894e-07,6.186180567754082e-08,19205.694703794205
1681064818146192073,226,1681064818146192073,camera_1,232,0,0.1318885652097224,0.18272406270575903,2.959027868990089,-0.9993628917797345,-0.011912569015274257,0.012367522796960115,0.03128810657374058,0.001326603232882917,0.00020067099072135257,19206.943636042764
1681064818156383752,227,1681064818156383752,camera_1,233,0,0.13186213411443998,0.18128544547481548,2.958723193118543,-0.9992994887941905,-0.012189303498061316,0.008178873755001242,0.034424680100206176,0.00042367365676909685,6.408113154790209e-05,19208.84596403489
1681064818166456937,228,1681064818166456937,camera_1,234,0,0.1318954211260588,0.1797681048593734,2.959061724994607,-0.9995285643306805,-0.011948033884459341,0.015339168971633585,0.023761386083396313,1.6553618479520082e-05,2.5030766509888623e-06,19221.68763012509
1681064818176412582,229,1681064818176412582,camera_1,235,0,0.13183842284273578,0.1784314887746669,2.9570260606719447,-0.999203346786914,-0.012015988641783229,0.01184939316510874,0.03616461901374536,0.004355781071353704,0.0006581221404404277,19223.52087945304
1681064818186342239,230,1681064818186342239,camera_1,236,0,0.13191709361229537,0.1777369946765818,2.958755884168665,-0.999414241146176,-0.011830727136072645,0.01218965212305871,0.029708935873971495,3.404839662835002e-05,5.148070918908904e-06,19218.592432100315
1681064818196329832,231,1681064818196329832,camera_1,237,0,0.13191301850479398,0.17764542650252393,2.9587955881097865,-0.9994937804103209,-0.011988415498734105,0.01176915398498477,0.02701754669456185,0.0012296122731640935,0.00018593194430971462,19224.97504848545
1681064818206258773,232,1681064818206258773,camera_1,238,0,0.1318854385728756,0.17816239961058633,2.9584667927088444,-0.999385723314315,-0.012129938371442323,0.013263154534828514,0.030085367912220533,0.0018277179333381355,0.0002763175812844301,19219.5777915105
1681064818216323614,233,1681064818216323614,camera_1,239,0,0.131941868360365,0.17936594249351717,2.9601686083210748,-0.9995134165585781,-0.012237927028791454,0.012656555460792267,0.02574829829919663,0.0013060967321507633,0.00019764556561992466,19207.672907692504
