%time,field.header.seq,field.header.stamp,field.header.frame_id,field.image_seq,field.transforms0.fiducial_id,field.transforms0.transform.translation.x,field.transforms0.transform.translation.y,field.transforms0.transform.translation.z,field.transforms0.transform.rotation.x,field.transforms0.transform.rotation.y,field.transforms0.transform.rotation.z,field.transforms0.transform.rotation.w,field.transforms0.image_error,field.transforms0.object_error,field.transforms0.fiducial_area
1681217536338367462,0,1681217536338367462,camera_1,1,0,0.027933778915133305,0.07563308747168895,1.5517620927022044,0.999593342167547,0.012267650055890627,-0.014478088201448216,-0.021284736748444145,0.0854266393580474,0.0035500663362773473,69755.40176630582
1681217536348458051,1,1681217536348458051,camera_1,2,0,0.027943208217739043,0.07482096143221319,1.5512192935716518,-0.9994850086644731,-0.012259526102393219,0.014541359086335675,0.025845122376289664,0.07097072049509734,0.0029477335133939546,69773.6314128112
1681217536358433961,2,1681217536358433961,camera_1,3,0,0.027939440787218384,0.07445801441964615,1.5515835649426506,0.9995369775476065,0.012367839255550746,-0.013447394342836259,-0.024331762215935377,0.08561529021244496,0.003557005194237233,69756.81675004796
1681217536368449211,3,1681217536368449211,camera_1,4,0,0.027941931254232014,0.0744244414512254,1.5510882606157064,-0.9994395749796877,-0.012298771365293807,0.01611509749560617,0.026637939485490456,0.06425410312658641,0.002668378200545109,69776.12696361457
1681217536378402233,4,1681217536378402233,camera_1,5,0,0.027928939812552546,0.07482522721740449,1.551011709603637,-0.9994432577183605,-0.012350828135213085,0.014397461207788804,0.027447126560997348,0.08277984069718512,0.0034375048275125386,69779.44105557978
1681217536388488769,5,1681217536388488769,camera_1,6,0,0.02794279618216911,0.07564038855696116,1.5521743029313713,0.9996719277402976,0.01223765675655472,-0.012237767793271306,-0.018881569970325654,0.06828185473568738,0.0028390228723962183,69739.08089575279
1681217536398360013,6,1681217536398360013,camera_1,7,0,0.027923220782121432,0.07674692503351124,1.5512948633770631,0.9993899503469055,0.01228077954230571,-0.016548277484428293,-0.028196881241398176,0.10384803346823901,0.0043142353095073915,69732.77186160909
1681217536408599376,7,1681217536408599376,camera_1,8,0,0.02789630956887986,0.07801274887872864,1.5512326020064349,-0.9994198373467755,-0.012212308039172639,0.014071295500793304,0.02851046988441928,0.08818280737614259,0.0036644575904445534,69735.70331334695
1681217536418388128,8,1681217536418388128,camera_1,9,0,0.027833643970741864,0.0791002427070135,1.5517786457326563,0.9993223442833267,0.01256472079190765,0.003422410096486782,0.03442770855908135,0.0909371804445982,0.003780886574732434,69701.4389860779
1681217536428441286,9,1681217536428441286,camera_1,10,0,0.02786894240216126,0.08052291014854301,1.5514931833423915,0.9994647013049492,0.012347139886767024,-0.014708811724843151,-0.026486031028986588,0.10476154781645164,0.004354967553080251,69713.25085157713
1681217536438424110,10,1681217536438424110,camera_1,11,0,0.027842531981945542,0.08160053683564684,1.5513825392378868,0.9994410066162269,0.012354073562790682,-0.016109985652060652,-0.026561617470304243,0.0888087876373902,0.0036913469022416333,69711.05191336185
1681217536448444843,11,1681217536448444843,camera_1,12,0,0.027827686826565733,0.08238868331589475,1.5513494041717806,0.9995430754926878,0.012202282203098389,-0.01574276388032562,-0.022735653257891272,0.09181984711904079,0.0038157447472225783,69740.81669587654
1681217536458411693,12,1681217536458411693,camera_1,13,0,0.027830802651042957,0.08278429972926565,1.5511288981774565,0.9995435682110747,0.012174947947880339,-0.01587767297532196,-0.022634606054177775,0.0929082014481537,0.0038603624638892265,69758.06504687793
1681217536468216419,13,1681217536468216419,camera_1,14,0,0.02782041542905947,0.08278797992150908,1.5513601100410845,0.9996163106959214,0.012229449472933349,-0.015895375584017133,-0.01910520848636502,0.08549107162980363,0.0035526707145789203,69762.80273498723
1681217536478008508,14,1681217536478008508,camera_1,15,0,0.027821605936299017,0.08239025258406785,1.5512366597583342,0.9995699893121971,0.01232919157940775,-0.015483610006200549,-0.021635279581934053,0.07618576160166413,0.003165715397066894,69759.86257339886
1681217536488098144,15,1681217536488098144,camera_1,16,0,0.027828429260895116,0.08163733202061407,1.551325794319105,0.9995032288649778,0.012226775621449236,-0.013403543908125995,-0.025771039115445385,0.09657935053110123,0.004014713256415629,69729.80573740974
1681217536497208356,16,1681217536497208356,camera_1,17,0,0.02785613634719069,0.08052995767430099,1.5513901982391893,-0.999476889039572,-0.01224648749468496,0.015986522982524332,0.025306183093288245,0.07260730274720117,0.0030175983596905536,69728.54704995
1681217536507187366,17,1681217536507187366,camera_1,18,0,0.02783900921709148,0.07911514880315158,1.551938932969787,0.9994541206627251,0.012523820911411463,0.002562887644113458,0.030463850823582345,0.08531258918810636,0.0035471333714850602,69720.04914535918
1681217536517993450,18,1681217536517993450,camera_1,19,0,0.027899934857229493,0.07799315145583632,1.5512762467634873,0.9994270684900758,0.012241801268910689,-0.014109001452087903,-0.028224265252630585,0.10708287253510207,0.004449613134866273,69734.37755315893
1681217536528543472,19,1681217536528543472,camera_1,20,0,0.027922855480723603,0.07674868602455424,1.5512463679314934,-0.9994189159225398,-0.012330520133957015,0.015995366441273577,0.02745791364709025,0.07220989925554022,0.0029999839476186835,69745.14987744542
1681217536538727283,20,1681217536538727283,camera_1,21,0,0.027882042745535483,0.07545314292489728,1.5515865206444701,0.999395557230862,0.012669661381340035,0.004174585517206184,0.032102534221718076,0.08445329044479877,0.0035092261602973182,69735.8126055093
1681217536548786163,21,1681217536548786163,camera_1,22,0,0.027946290796880203,0.07480805413871965,1.5513406057729282,0.999540550238897,0.012273652163991226,-0.01375010360941435,-0.02406201449195543,0.08336567523656413,0.0034627750624385777,69778.48862160448
1681217536558848142,22,1681217536558848142,camera_1,23,0,0.027894808499510006,0.07422196466466292,1.551181446222499,0.9994237432130727,0.012563611244744078,0.004477037843342462,0.03121367178994154,0.09165889507858083,0.0038061593348276282,69777.22896450956
1681217536569131612,23,1681217536569131612,camera_1,24,0,0.027932903531928007,0.0744129712744548,1.5508088801311017,-0.9994081440418939,-0.01219039597053184,0.016127533443427117,0.02783268822535518,0.08831134310457855,0.0036656504511850315,69791.1147968225
1681217536578230619,24,1681217536578230619,camera_1,25,0,0.027928735690613198,0.07482652159888122,1.5510825380021214,-0.9994703910118524,-0.01221671540478435,0.015250739520774017,0.02602122786117076,0.08309287537122145,0.003450239518924834,69782.40218478577
1681217536589235305,25,1681217536589235305,camera_1,26,0,0.027886473988217673,0.07546527568961807,1.5516153120204879,0.9994109798557429,0.012636470766858712,0.0025463560467233787,0.03180454403423855,0.10097145050531253,0.004195887278355416,69739.48759431732
1681217536599114894,26,1681217536599114894,camera_1,27,0,0.027913808507477475,0.07672706128209475,1.5510277138013944,-0.9994049874658828,-0.012374178437654641,0.015112116179708807,0.028428413267059693,0.0825634371722117,0.0034290139540970174,69758.83242326019
1681217536608952283,27,1681217536608952283,camera_1,28,0,0.02789449316291214,0.07802055448698982,1.551511492318058,0.999474249632278,0.012372415819075989,-0.014309888074864217,-0.026332010027335116,0.08252904674736783,0.003430058126563697,69728.94118173199
1681217536619657993,28,1681217536619657993,camera_1,29,0,0.027893149255615465,0.07929937726064598,1.5516559029395394,0.9994530228002391,0.012206669098690923,-0.018135683821770984,-0.024814298646075667,0.09869623777922243,0.004101704546419447,69709.45539103543
1681217536628353834,29,1681217536628353834,camera_1,30,0,0.027871041731931855,0.08053225264543773,1.5516526729690754,0.9994922441133053,0.012243366062189072,-0.015612776745704632,-0.024931809944430422,0.08631555951433256,0.0035887390949283495,69709.46532023742
1681217536638744354,30,1681217536638744354,camera_1,31,0,0.027846554506217987,0.08160852176598649,1.5516436917094605,0.9995478189535653,0.01213912978210876,-0.015580996055992351,-0.022672267535628142,0.0904978736070916,0.003762060325623949,69720.98917503186
1681217536648619890,31,1681217536648619890,camera_1,32,0,0.027777905827413008,0.08216276754183446,1.5507999617404047,0.9992094091768439,0.012614766286466048,0.003526040717175032,0.03753653314920782,0.09674882970284673,0.004018868596233541,69757.87002830234
1681217536658560514,32,1681217536658560514,camera_1,33,0,0.027821545453198572,0.08278059230425375,1.5510637300149483,0.9995349090768888,0.012150310598766385,-0.01593257981439795,-0.022988875341501964,0.08340145496185869,0.0034651304348792718,69760.92689923913
1681217536668534755,33,1681217536668534755,camera_1,34,0,0.027828255907354552,0.08279536806512777,1.5515169345835234,0.9995977975731473,0.012060797824397297,-0.015267793588864166,-0.020631886042730557,0.0921940880944021,0.003831973542474817,69740.04674851347
1681217536678497314,34,1681217536678497314,camera_1,35,0,0.027833263982242566,0.08240059225257888,1.5514244132286679,0.999550173166774,0.012283582338659924,-0.015449014934258713,-0.022580807442661287,0.0975066403625533,0.004052860882883013,69736.17244723116
1681217536688608407,35,1681217536688608407,camera_1,36,0,0.02786382641458183,0.08162960645452542,1.5516068435815236,0.9995203100829257,0.012173328238842245,-0.015366832545935953,-0.023975409669633005,0.0868200195254758,0.003609850807347268,69714.72432160983
1681217536698348522,36,1681217536698348522,camera_1,37,0,0.02781114915981514,0.08034403539521599,1.5519179914883174,0.9993962845457274,0.01259211993610232,0.002896170491237684,0.03225084724772449,0.09043540072161704,0.003760485631569134,69706.33202844136
1681217536708405017,37,1681217536708405017,camera_1,38,0,0.027871354117012047,0.07927891417072129,1.5513963768533887,0.9994559555772895,0.012252199431038342,-0.014428766772641457,-0.027009019967591946,0.10487826383905485,0.004359085696649809,69725.90482755227
1681217536718396186,38,1681217536718396186,camera_1,39,0,0.027887246332410878,0.07800080084349575,1.5513883498308607,0.9994546133259654,0.012171612488483434,-0.01370170956318791,-0.02746981809042865,0.08721059374511242,0.0036246217720646945,69731.87499975588
1681217536728324651,39,1681217536728324651,camera_1,40,0,0.027924485929312338,0.07673880443206178,1.5514309784971214,0.9994395506229817,0.012427723018838766,-0.015322467745877345,-0.027043637574775323,0.0932209383463487,0.0038735689711851514,69734.23689454433
1681217536738327503,40,1681217536738327503,camera_1,41,0,0.027940258483912003,0.07564094849268561,1.5514195022781863,0.999506899130332,0.012220921045115393,-0.013162859111144372,-0.02575552017912959,0.09564599458826706,0.003974039554666792,69756.3947982142
1681217536748371124,41,1681217536748371124,camera_1,42,0,0.027934330665133688,0.07481007363140436,1.5510739481991036,-0.9995404454225044,-0.012239850277273092,0.012978842278634514,0.024507829011925494,0.07459163560997695,0.0030975032355419108,69800.64574696207
1681217536758387088,42,1681217536758387088,camera_1,43,0,0.02793997314551431,0.07442897006980864,1.551084484877646,-0.999469387501089,-0.012342012373960147,0.01345574777212723,0.02697333925660881,0.07951322234293912,0.0033019918431388693,69780.80245109873
1681217536768423318,43,1681217536768423318,camera_1,44,0,0.02793024617441192,0.07444360756030054,1.5512465006820704,-0.9994666773759813,-0.012384660313330359,0.012759398846681296,0.027389391103326444,0.07961520145181566,0.003306874131255013,69764.34862609507
1681217536778342247,44,1681217536778342247,camera_1,45,0,0.027869993750440303,0.07463396914823106,1.5512390743073614,0.9994256598041484,0.012707921163640598,0.005996546415965017,0.030836677768895975,0.08604211232159287,0.0035730883684796304,69770.97304972366
1681217536788411617,45,1681217536788411617,camera_1,46,0,0.027940629796016452,0.07562803405887975,1.5511025796447835,0.9993603044280064,0.012267024778029219,-0.015518527002011489,-0.029793914753612143,0.10293083387659863,0.004275504089639513,69744.38737124603
1681217536798434734,46,1681217536798434734,camera_1,47,0,0.02790793457000979,0.07672963647339966,1.5514106345082448,-0.9994840051763467,-0.012252742943725255,0.014062838557917899,0.02615014834943616,0.07854963495628908,0.003263968424943503,69746.72906245058
1681217536808386564,47,1681217536808386564,camera_1,48,0,0.027895837365971402,0.07798002366730691,1.551005393596909,-0.9993741501593982,-0.012236567448427917,0.01630546667032516,0.028908582928324326,0.08212567761074752,0.0034111478857189485,69746.26968808158
1681217536818439960,48,1681217536818439960,camera_1,49,0,0.027846722580446508,0.07908089714474381,1.5516783530817293,0.9992930441253308,0.012553859882656193,0.002480837916567801,0.03535050223134219,0.11097312130732462,0.004613811780074357,69704.75398572048
1681217536828464031,49,1681217536828464031,camera_1,50,0,0.027882692894400426,0.08051356410088491,1.5514998035079375,0.9995118449395007,0.012298563355272123,-0.015862996390180156,-0.023941230347602042,0.09562404901953414,0.003974468304565794,69730.39755526188
1681217536838385820,50,1681217536838385820,camera_1,51,0,0.02784997973738153,0.08161074322931013,1.5514964650661704,0.9995684003116412,0.012140951571025764,-0.014618938887468324,-0.022403058255098293,0.06974913849262522,0.0028992933112491656,69738.76802744753
1681217536848472118,51,1681217536848472118,camera_1,52,0,0.027840992760628243,0.08237105175720205,1.5511504728794516,0.9995142653752443,0.012283112839077176,-0.01729681789666983,-0.02282933509802157,0.08846450422424823,0.0036755685930386028,69753.09915193742
1681217536858273029,52,1681217536858273029,camera_1,53,0,0.027796339457053624,0.08278075294981235,1.5510013608058135,-0.9995109013065416,-0.012207534829387762,0.013666300697974223,0.025341004084419833,0.0760864935000427,0.0031616391385966805,69753.32605887309
1681217536868184804,53,1681217536868184804,camera_1,54,0,0.02781400210644039,0.08277547037338014,1.551597296786757,0.9997181900510196,0.012237112668683846,-0.011592443446608737,-0.01671552600382702,0.06981800333596767,0.002902490823516692,69767.27557005617
1681217536878803253,54,1681217536878803253,camera_1,55,0,0.02776463415109746,0.08220323001058816,1.5512092784124805,0.9993570513163009,0.012602085014506131,0.0020747297002942757,0.03350174524329099,0.08960818295599893,0.003723795809387653,69758.22753509643
1681217536889712095,55,1681217536889712095,camera_1,56,0,0.02784501477136136,0.08163089103381592,1.5515306893455383,0.9995604534098361,0.012242567806207479,-0.014914341340810489,-0.022507375124679048,0.08037597464863211,0.003341331681742759,69734.0359832735
1681217536898499011,56,1681217536898499011,camera_1,57,0,0.02784365376755656,0.08053223002222973,1.5513466188056677,-0.9994775271921724,-0.012294532237595416,0.012729586804740225,0.02704578959208962,0.08384647424099967,0.0034850138787810387,69725.91554629327
1681217536908348560,57,1681217536908348560,camera_1,58,0,0.027896971456126116,0.07927857192004802,1.5518097755239655,0.9995916404394681,0.012195868210587728,-0.015182462010965526,-0.020911862887090023,0.0802646285155788,0.003336257509410771,69734.38593321944
1681217536917856693,58,1681217536917856693,camera_1,59,0,0.02790756833590175,0.07798793592916871,1.5516327565163703,0.9995716777868277,0.012250393604662188,-0.01209654883171295,-0.02366563604299056,0.08956659154500812,0.0037227555534973533,69744.45057566989
1681217536928395509,59,1681217536928395509,camera_1,60,0,0.027925961386960393,0.07674629052193996,1.5516397694855568,-0.9995017879794996,-0.012223993688298409,0.014865436801676122,0.02501536713277089,0.07079101860290393,0.0029423576587457737,69733.31067795912
1681217536938410520,60,1681217536938410520,camera_1,61,0,0.02793289046479255,0.07564326161119152,1.5515095066483748,-0.9995305560524648,-0.012326837192157335,0.013368530822443924,0.02465763544904868,0.06889629841316491,0.0028627761738592794,69756.3965279113
1681217536948514461,61,1681217536948514461,camera_1,62,0,0.027949076971714188,0.07480824335445402,1.5512953280810495,-0.9994829757019573,-0.012233426712121282,0.014242786748630902,0.02610110301256838,0.07999791152542457,0.003323065188047461,69765.67510391859
1681217536958377361,62,1681217536958377361,camera_1,63,0,0.027939246456351458,0.07442195230947206,1.5512879935542339,-0.9995346974676657,-0.012289271204371838,0.013476196970679699,0.024449018113106763,0.07232808729168026,0.0030040734078830016,69782.3738686716
1681217536968383073,63,1681217536968383073,camera_1,64,0,0.02795285365701514,0.07442404204266546,1.5513790969394579,0.9995160203692636,0.012196727711905374,-0.014882045773793644,-0.02444359981463817,0.07420944086334202,0.003082501882620908,69770.82023497112
1681217536978427648,64,1681217536978427648,camera_1,65,0,0.02794190001249738,0.0748326030895619,1.5513651121301604,-0.9995392540697223,-0.012293338810757263,0.01532194557243469,0.02313852584980564,0.07020432519493625,0.0029157491144103024,69778.77342926545
1681217536988467454,65,1681217536988467454,camera_1,66,0,0.027882737371728993,0.07549588069215712,1.552046655798362,0.999543534712891,0.012554249148582329,0.003587441414700154,0.027244142601138856,0.07902537257177755,0.003285291267648388,69731.96525181436
1681217536998402833,66,1681217536998402833,camera_1,67,0,0.02794396728829597,0.07676042161311321,1.5518017680070153,0.9995229154879103,0.012243015576676508,-0.015608647318083778,-0.023673193976243834,0.0758356714504771,0.0031521518821887775,69727.04342087955
1681217537008415699,67,1681217537008415699,camera_1,68,0,0.027894332446945898,0.07795453716375597,1.5512548771323618,0.9994726121746641,0.01225710756840002,-0.015619740803608879,-0.02569600210224448,0.08313058066414669,0.00345372629557012,69753.79914260656
1681217537018239974,68,1681217537018239974,camera_1,69,0,0.02783233828179143,0.07908172710635299,1.551415217651549,0.9993155840396575,0.012567841340611303,0.004429080271486238,0.03450791369330242,0.09572100959485397,0.003977677163561108,69730.71200601161
1681217537028344631,69,1681217537028344631,camera_1,70,0,0.027871846180745445,0.08048632016300154,1.5517991733737622,0.9995896462817772,0.01220622943228682,-0.016020772451211484,-0.020368648933709783,0.08925423980690539,0.003710194713035786,69729.66385098571
1681217537038345575,70,1681217537038345575,camera_1,71,0,0.02785516904620942,0.08160628240884565,1.5514033035483925,0.9995031394265783,0.012295579996700261,-0.015941249680038103,-0.024252207066524974,0.09312367148231715,0.003870783553538306,69729.06089441967
1681217537048515081,71,1681217537048515081,camera_1,72,0,0.02783025417624492,0.08239284441820792,1.5514636562496895,0.9996131138560963,0.012160348054653021,-0.014155345964316456,-0.020624614487043738,0.07907708722632378,0.003286685309851324,69750.55648877831
1681217537058444023,72,1681217537058444023,camera_1,73,0,0.0278121664113436,0.08279003862787157,1.551427800689105,0.9995907196327012,0.012275206347225842,-0.014071054413484135,-0.02167297766815538,0.08501137583516538,0.0035334356001598703,69743.52593428647
1681217537068423509,73,1681217537068423509,camera_1,74,0,0.02781510800011542,0.08276787832699517,1.5510425640388399,0.9995667351547928,0.012250754832058883,-0.01429100360933827,-0.022628039991811188,0.08006459067109972,0.003326475047814424,69770.19766122833
1681217537078359603,74,1681217537078359603,camera_1,75,0,0.02776542871234399,0.08219755574425683,1.551213277346541,0.9993433103242244,0.012601272493544285,0.003998781175787381,0.03373671280478595,0.10031853406690061,0.004168196185756948,69751.74714573052
1681217537088526487,75,1681217537088526487,camera_1,76,0,0.02778823956204209,0.08143404677380787,1.5514796382912897,0.9993998917219322,0.012583871744579452,0.0036863941936426774,0.032061083823777085,0.08488477248465642,0.0035281252914286924,69743.19601831482
1681217537098402261,76,1681217537098402261,camera_1,77,0,0.027862406575191775,0.08052955274504048,1.5511559719174508,0.9993722555225982,0.012230234552337705,-0.016527239131387008,-0.028850764654747257,0.09050571522675455,0.003760950526106864,69716.84356278586
1681217537108425140,77,1681217537108425140,camera_1,78,0,0.027894175285858077,0.07929802899657917,1.551560104690713,0.9994669779753713,0.012235355523802602,-0.016132180091407714,-0.025608763685176835,0.08802692021708934,0.0036586388902335497,69718.24135491134
1681217537118386268,78,1681217537118386268,camera_1,79,0,0.027856374557034682,0.07781802220711201,1.5518483899093083,0.9995065904107067,0.012517227106765026,0.004413915416323256,0.028467737911875533,0.07845564547460526,0.0032611608793770624,69738.87406781077
1681217537128209352,79,1681217537128209352,camera_1,80,0,0.027938386624355598,0.0767318150290299,1.5512787078846315,-0.9994095043396531,-0.012378206567121396,0.016865681966239804,0.027257501895151685,0.07556469435803592,0.003139467761578173,69741.40647344649
1681217537138482570,80,1681217537138482570,camera_1,81,0,0.027935453969825486,0.07562529900789786,1.5509384147515974,-0.9993946483008985,-0.012242719079578307,0.014850660407020804,0.028981212233742358,0.08642408286686987,0.003589176387555613,69768.12971771392
1681217537148371458,81,1681217537148371458,camera_1,82,0,0.02790311071230848,0.0746316402104661,1.551354158072352,0.9994938433060353,0.01257164895286048,0.0033883790991695094,0.02902636255228785,0.08784185147669632,0.0036480410353025602,69781.53953081323
1681217537158385038,82,1681217537158385038,camera_1,83,0,0.02793058860094152,0.07440687994819435,1.5509220082999953,-0.9994386502782252,-0.012280217769258615,0.013596278744831457,0.028048561208589173,0.08898962278908584,0.0036950433541239006,69786.08522513628
1681217537168415307,83,1681217537168415307,camera_1,84,0,0.027938940326539066,0.0744349716215032,1.5508961171638833,-0.9993963598986295,-0.01226365281972433,0.014433581808874496,0.029123707817734153,0.0903977396665141,0.0037533485947961382,69776.9720285539
1681217537178516387,84,1681217537178516387,camera_1,85,0,0.02792329804448982,0.07481826874636666,1.5509269525769898,-0.9994374909057862,-0.012384842822014146,0.014553498296030943,0.027559265729842644,0.08333270787261426,0.003459982373832283,69785.65367388783
1681217537188419580,85,1681217537188419580,camera_1,86,0,0.027944911147389413,0.07562746484271929,1.551100172825059,-0.9993955542910105,-0.012315103424069945,0.015403189853528702,0.028628762344094068,0.08670370548497885,0.0036012707613281812,69755.29893189843
1681217537198437929,86,1681217537198437929,camera_1,87,0,0.027936712492490582,0.07675645700878801,1.5517466085644567,0.9995130777898696,0.012205833424710936,-0.015163631858053495,-0.024386250763571645,0.09090175374876708,0.0037782170827385677,69727.83165517024
1681217537208417892,87,1681217537208417892,camera_1,88,0,0.027905519667836578,0.07800793699647353,1.551315164817203,-0.9994591478270684,-0.01222624280461125,0.014758293351447968,0.026723090933231785,0.07572052109753713,0.003146504333257214,69742.10309695487
1681217537218433856,88,1681217537218433856,camera_1,89,0,0.02782113322041711,0.07904978896399786,1.5512751835676073,0.9992256801865901,0.012708618043503352,0.004283307298551307,0.03698897621801805,0.11262872949009761,0.004680548450068288,69721.87017940242
1681217537228596687,89,1681217537228596687,camera_1,90,0,0.027880189764660585,0.0805161872361699,1.5516835565082883,0.9995078002563205,0.012237026059756496,-0.01599592542956931,-0.02405291644761431,0.08858014072757214,0.0036827270406731556,69712.75482633608
1681217537238339662,90,1681217537238339662,camera_1,91,0,0.027839562983661113,0.0815983662358226,1.5514168942852757,0.999545381458121,0.012094156249023654,-0.013974152328297174,-0.02382194066547127,0.08845494996057823,0.003676567259632626,69736.56801744062
1681217537248481750,91,1681217537248481750,camera_1,92,0,0.0278255938557478,0.08239521102726237,1.5517704806509212,0.9995922712130155,0.012260882122918313,-0.015227370951808483,-0.02081079706953009,0.08774337259819731,0.0036481056864441966,69719.08653047096
1681217537258397579,92,1681217537258397579,camera_1,93,0,0.02777414127340407,0.0825617936558436,1.5509055926984505,0.9992490714187845,0.012650584344538505,0.002872874024775469,0.03651030784965292,0.10068169177975506,0.0041828500116872485,69758.24041119727
1681217537268689870,93,1681217537268689870,camera_1,94,0,0.027772886943927405,0.08259144482016438,1.5512861825136401,0.9993487010768746,0.012517213010606175,0.0029994781649146157,0.0337119587854094,0.0963601070106961,0.004004564934971553,69747.02750665901
1681217537278406143,94,1681217537278406143,camera_1,95,0,0.027827426622382505,0.08237999766392966,1.5511506135238016,0.9995246134312729,0.012138268875710992,-0.016032647272880885,-0.0233701475217606,0.10408185387495905,0.0043245991796274745,69752.80158689152
1681217537288378715,95,1681217537288378715,camera_1,96,0,0.02783503328960878,0.08161250482712704,1.5514326709495798,0.9995311061661944,0.012263952377900596,-0.013846803076225763,-0.024401420508335853,0.0982540744007565,0.0040842328244872945,69730.76252696023
1681217537298520565,96,1681217537298520565,camera_1,97,0,0.027853494377055983,0.08050917430543711,1.550942564443484,-0.9992956656481343,-0.012232684390110125,0.016525114914640784,0.031391951620154644,0.09251802013022825,0.003844248937332381,69711.63891842912
1681217537308410406,97,1681217537308410406,camera_1,98,0,0.027860449760893358,0.07927364921129784,1.5511302976138044,0.999458041111943,0.01221338015863132,-0.012828479963270696,-0.027746846732744645,0.08928034105338156,0.0037099359908199154,69746.89176447646
1681217537318336725,98,1681217537318336725,camera_1,99,0,0.027901495538333383,0.07798582884535524,1.5516826453859194,0.999534634136559,0.012207589794231581,-0.013437445048527223,-0.02451377130265516,0.07866620511049405,0.0032699500990488986,69730.64266534032
1681217537328146219,99,1681217537328146219,camera_1,100,0,0.027926877210462928,0.0767503275200921,1.5515512202495092,-0.9994012980822298,-0.01220407817233378,0.016290351983172944,0.027977317594472667,0.07408863434102385,0.003079185082921692,69712.64969310013
1681217537338338851,100,1681217537338338851,camera_1,101,0,0.027902157178797314,0.07561623730896652,1.5508616080268893,-0.9994714856309358,-0.01229048432858545,0.010774450979882607,0.0280999041233448,0.07742210838478059,0.0032153082936977662,69791.21138475835
1681217537348181247,101,1681217537348181247,camera_1,102,0,0.027941105737807184,0.07479754234035504,1.5512407415296945,-0.9994712742099614,-0.012392517642893355,0.014799036112061785,0.026164595654061627,0.0796708943817066,0.003309133610686389,69768.59729260503
1681217537358583927,102,1681217537358583927,camera_1,103,0,0.027898120255290863,0.07424123007008976,1.5513330418309668,0.999484436828207,0.012613127580035235,0.0021692016215260493,0.029445952441330976,0.08563406970642973,0.0035568349446191447,69782.59201152391
1681217537368536233,103,1681217537368536233,camera_1,104,0,0.027939795164708958,0.07441742357447853,1.55123206747015,0.9995096124244196,0.012262587395979935,-0.014261124321633121,-0.025035653668828043,0.08436816523317246,0.0035037948673049906,69781.04747130303
1681217537378508567,104,1681217537378508567,camera_1,105,0,0.0279229137584814,0.0748350952122704,1.5515160861482853,0.9996172165948055,0.012286584399397713,-0.011944710013087615,-0.021720590087600095,0.0791017608862603,0.003286019202487562,69783.03523689821
1681217537388450622,105,1681217537388450622,camera_1,106,0,0.027946254535829013,0.07564387341277068,1.5514574120880045,0.9994956955339945,0.012171877643843709,-0.015016438819598311,-0.025193383433299653,0.08038336772006005,0.0033395904559809153,69752.81049931471
1681217537398456335,106,1681217537398456335,camera_1,107,0,0.02785144479817971,0.07655254815556375,1.5514365880930716,0.9993571018420148,0.012696067547812842,0.005717101549428756,0.03303797234431823,0.09828225604724139,0.004083124561500843,69737.7881490488
1681217537408439636,107,1681217537408439636,camera_1,108,0,0.027883873782546517,0.07798989015806733,1.5513209396025338,0.9994684363804085,0.012302148032174881,-0.013289222525558636,-0.027109009531189488,0.09400498389732093,0.0039062323625347205,69741.93913527089
1681217537418718576,108,1681217537418718576,camera_1,109,0,0.0278904887871512,0.07927123887506278,1.5514637200194357,0.9994438824343949,0.012272834075262463,-0.01694270696143537,-0.02596628754834986,0.09927080350462347,0.004125214953199333,69721.44773999996
1681217537428427934,109,1681217537428427934,camera_1,110,0,0.027877895422245315,0.08052212292582206,1.551725155132739,0.9994963232432641,0.01223769513085535,-0.015999199824551773,-0.02452272917223741,0.08467092958744615,0.0035202121402778544,69705.23509898808
1681217537438383817,110,1681217537438383817,camera_1,111,0,0.027851662784582586,0.08158583738821798,1.551477549395326,0.9995528207572926,0.012149298368700708,-0.01433322980668051,-0.02326180535979697,0.09873636718839407,0.004104211609190302,69734.83549769607
1681217537448365211,111,1681217537448365211,camera_1,112,0,0.027824344568716523,0.08240375467739076,1.551462343983874,0.9995580341638146,0.012191974279043538,-0.014263976830228715,-0.02305712615952165,0.08599180390592664,0.0035746375729925955,69732.23378665815
1681217537458523035,112,1681217537458523035,camera_1,113,0,0.02783210396147668,0.08277559959328973,1.5512452201867555,0.9995173807184752,0.012146913464766219,-0.01605572834514699,-0.023657381982481976,0.092589998152107,0.003848027657990455,69739.25189675228
1681217537468403339,113,1681217537468403339,camera_1,114,0,0.02781251538517615,0.0827836380086625,1.551139792595538,0.9995304899782155,0.012221299041359327,-0.014129318867448422,-0.024285835418864758,0.09882269898662342,0.004106507028957351,69748.7080728216
1681217537478347778,114,1681217537478347778,camera_1,115,0,0.027769275411634223,0.0822195966278288,1.55137503792949,0.9994209655067917,0.012581999956088753,0.004661805789572603,0.031268107543594444,0.09168170462362468,0.0038098788876111058,69754.20713852158
1681217537488644361,115,1681217537488644361,camera_1,116,0,0.0277906860830894,0.0814147306181048,1.5514851047848914,0.9993089887684437,0.012543567922553876,0.0026233083683219523,0.03489014364498086,0.0889442854677327,0.00369765659594452,69722.82903399595
1681217537498579740,116,1681217537498579740,camera_1,117,0,0.02780926792444323,0.08035500436541754,1.551831601217354,0.9994516737142545,0.012652555000804148,0.0028081232580124548,0.0304693158028692,0.08534086483996361,0.0035482501991839833,69727.37718228342
1681217537508373022,117,1681217537508373022,camera_1,118,0,0.027829117465066913,0.07909501440874911,1.551590254716432,0.9993945290161486,0.012601439608727928,0.0029853865120237698,0.032293444532164976,0.09862429148051886,0.0040991269444148595,69736.46045545346
1681217537518241643,118,1681217537518241643,camera_1,119,0,0.027838000409712002,0.07777568988220461,1.5513172527446875,0.9993355118830088,0.012670408334003283,0.0046090681401561905,0.03386372591806535,0.0965003942255862,0.004009539879104141,69744.81776293425
1681217537528190374,119,1681217537528190374,camera_1,120,0,0.027917772888124217,0.0767124635489335,1.5511812193519865,0.9994586794969433,0.012287765755394668,-0.014697505562048878,-0.026745880453266337,0.09455052122939378,0.0039276253880621195,69760.77589446757
1681217537538645267,120,1681217537538645267,camera_1,121,0,0.027888228488772406,0.07545691152929315,1.5516094297404068,0.9995039809553184,0.012639959944770428,0.0027978346082996337,0.02870880681202019,0.08675777859752998,0.0036046365593209225,69762.76314917812
1681217537548501253,121,1681217537548501253,camera_1,122,0,0.02793717358289332,0.07480699678879679,1.5510237696760139,-0.9995138960925956,-0.01230894990422096,0.015187592567915631,0.02428576336141214,0.06757309155364057,0.002805444091852757,69801.29586349009
1681217537558355093,122,1681217537558355093,camera_1,123,0,0.027965386987930906,0.07442045768644442,1.551444780431495,0.999544225376437,0.012210163154877069,-0.01463402497438682,-0.02341150882363315,0.0879930922528729,0.0036548351722755566,69773.22684468525
1681217537568390130,123,1681217537568390130,camera_1,124,0,0.02788486297130264,0.07427607817161554,1.5516142210142025,0.9995737990966355,0.012642326932643992,0.005161844388864854,0.0258020753380889,0.07873143983306363,0.003270390696269034,69775.33058432801
1681217537578445196,124,1681217537578445196,camera_1,125,0,0.027945298904614606,0.07482514071448082,1.5513201415284061,0.9995130352358864,0.012266953057809851,-0.014047950989763908,-0.025017380542583012,0.09196451411116868,0.003820136780601802,69772.34548848527
1681217537588413238,125,1681217537588413238,camera_1,126,0,0.027893591421774003,0.07546773233159068,1.5517820183209525,0.9994971921610157,0.012648388943993982,0.003607401040440665,0.028850784687783085,0.08547979936702177,0.003552437169546109,69744.5061274413
1681217537598520994,126,1681217537598520994,camera_1,127,0,0.02792855173923548,0.07674524940658498,1.5515165831725326,-0.9994821750394781,-0.012295395283964049,0.015282274631772725,0.025507981402772217,0.07691670762142166,0.0031960941944908536,69739.22450118774
1681217537608412742,127,1681217537608412742,camera_1,128,0,0.02786831540671042,0.0778454945562056,1.5521365051127802,0.99954888505572,0.012448042701256634,0.0030419358664113033,0.027162828331366122,0.08162368048215285,0.0033938780982600268,69725.33457074013
1681217537618422508,128,1681217537618422508,camera_1,129,0,0.027888570832556563,0.07928496107044206,1.5513545011345673,0.9993670771756349,0.012252261553512582,-0.017281454106258205,-0.028577587165926028,0.10650688817258924,0.0044261552779314445,69707.35208266912
1681217537628454446,129,1681217537628454446,camera_1,130,0,0.027871485944787024,0.080522237625087,1.5511079163236567,0.999337019930127,0.012211602391400272,-0.015580695310197023,-0.03055551174269655,0.10046868032077327,0.0041753758412435005,69707.98081679211
1681217537638409614,130,1681217537638409614,camera_1,131,0,0.027801481927763348,0.08143117278052,1.5518542767605183,0.9994456952301161,0.012581956061284044,0.0022438249165510193,0.03074023287819482,0.0834516232716851,0.003470083264172899,69722.74921011971
1681217537648364543,131,1681217537648364543,camera_1,132,0,0.027843811740000605,0.08237910441584557,1.5512837704352422,0.9995139862716583,0.012254807208521535,-0.017133921821525372,-0.022979113791341307,0.0905731589300558,0.00376380743750175,69740.58289010124
1681217537658391237,132,1681217537658391237,camera_1,133,0,0.027810480854199546,0.08276030415178506,1.5511394680671864,0.9995374907346867,0.01221751309159069,-0.01458983433735799,-0.023720744585099724,0.09795778046827763,0.00407052175530393,69752.2965015264
1681217537668453693,133,1681217537668453693,camera_1,134,0,0.027818388450479608,0.08277017527874297,1.551130586746822,0.9995438196829423,0.012293017477046685,-0.015807087779500094,-0.022609074082633237,0.09101097256643698,0.003781464809075097,69758.36690593904
1681217537678576707,134,1681217537678576707,camera_1,135,0,0.027821531614961124,0.08240800637624553,1.5509903846139201,0.9994216434108589,0.012228573645246855,-0.01559157651934099,-0.027635907985486523,0.09975457296241075,0.004145223418542617,69732.09005809386
1681217537688409566,135,1681217537688409566,camera_1,136,0,0.027848510988413164,0.0816122808370979,1.5513021785526935,0.9994797147168042,0.012342773131532172,-0.015755816462637868,-0.025292490360476975,0.09756926220143214,0.004054831640552264,69729.99743760936
1681217537698385238,136,1681217537698385238,camera_1,137,0,0.027860689292052147,0.08050975621550693,1.5513114710105307,-0.9994616020991307,-0.012358790384096208,0.014890194095934046,0.026496194999780554,0.07517346268286929,0.0031246207093590995,69728.8872609418
1681217537708384990,137,1681217537708384990,camera_1,138,0,0.027864554009567603,0.07927640688283803,1.551430202133457,0.9994288565139637,0.01223829001378618,-0.014384590554561013,-0.02802264404561272,0.11577353609027341,0.004811619478555017,69714.09041680649
1681217537718548059,138,1681217537718548059,camera_1,139,0,0.02788973327948321,0.07798889873642242,1.550919149858256,-0.9993237136329886,-0.012392096090809027,0.014626876511917995,0.03137842903578795,0.08993323473259807,0.003736028134862478,69735.61421662965
1681217537728288173,139,1681217537728288173,camera_1,140,0,0.02793985464878789,0.07673019216108812,1.551538385538248,0.9994922282378134,0.012245397685215438,-0.01590048051041879,-0.024748952448128903,0.08247923321323469,0.003427200418674446,69741.58359062564
1681217537738440036,140,1681217537738440036,camera_1,141,0,0.027934968381069448,0.07561912968602327,1.5512797893274965,0.9994094823580314,0.012269585201285613,-0.015085481852909905,-0.02832970330069826,0.09583087713690475,0.003981045590936944,69742.77037559927
1681217537748458385,141,1681217537748458385,camera_1,142,0,0.027942439828786535,0.07481388911462333,1.5514714575641713,0.9995090536114504,0.01226269228820525,-0.014019918698184489,-0.025193650118316084,0.08443149471713696,0.003507872702374273,69757.59427091166
1681217537758471727,142,1681217537758471727,camera_1,143,0,0.027950574886137166,0.07442836984884325,1.5513972285057422,-0.9994907302695297,-0.012212791378905954,0.015199321406800078,0.02526080879129483,0.07691309635993093,0.003194773103554612,69762.09235279306
1681217537768430948,143,1681217537768430948,camera_1,144,0,0.027882076597636404,0.07424241339339699,1.55123518772221,0.999460050201458,0.012655187785992825,0.005250442706527003,0.029864479315494553,0.09233673178823665,0.003834204321831183,69780.65290734277
1681217537778415679,144,1681217537778415679,camera_1,145,0,0.027920805155024243,0.07482853036733156,1.551079977834471,-0.999499926785593,-0.012306946717700955,0.012743513857448801,0.02619233232545165,0.06849533809872808,0.00284438003347645,69787.37171485074
1681217537788452625,145,1681217537788452625,camera_1,146,0,0.027939389606028157,0.07563624153177921,1.5513962605290654,0.9995074387920987,0.012287001563887729,-0.014143771226242325,-0.025176638523201754,0.08801936375675723,0.003656416749025307,69760.66779695533
1681217537798512458,146,1681217537798512458,camera_1,147,0,0.02792706504060349,0.07673248984991204,1.5514459757486905,0.9995091338678311,0.01222935695509537,-0.014766690258843673,-0.024776581726348137,0.0804095144267194,0.0033407445109714224,69752.71696426731
1681217537808437585,147,1681217537808437585,camera_1,148,0,0.02783409597817734,0.07779722419938313,1.5514307819429949,0.9993244923153952,0.012711157690114994,0.004317547232176036,0.03421029544819399,0.09895419364329427,0.004112028959322749,69732.53444259612
1681217537818436622,148,1681217537818436622,camera_1,149,0,0.02788529975921823,0.07928432259819064,1.551997469564774,0.9996192351077087,0.012119030096581909,-0.014059405209092464,-0.020416832206890816,0.08459014794789255,0.003517220408579587,69723.97429823759
1681217537828505277,149,1681217537828505277,camera_1,150,0,0.027861491926935638,0.08052350597154563,1.5512706371052223,0.9994014054305201,0.012243482277811276,-0.015863403204273693,-0.028200716373752936,0.09663310804171488,0.004015998562059801,69714.64852831827
1681217537838478565,150,1681217537838478565,camera_1,151,0,0.027850960448243717,0.08159913598707026,1.5511888074933602,0.9994733056384123,0.012166059579567635,-0.01420237222918652,-0.026521518312401928,0.08961914817336947,0.0037244316988652715,69733.95830621677
1681217537848461866,151,1681217537848461866,camera_1,152,0,0.027840241291703795,0.08239625624700375,1.551404893365231,0.9995245293837042,0.012289174768679573,-0.015660813906991627,-0.023546342636599653,0.09793227567570284,0.0040705018956164254,69729.84053634343
1681217537858178138,152,1681217537858178138,camera_1,153,0,0.027758467741031075,0.08259529013607819,1.5515307837549335,0.9993575422007321,0.012615936594328086,0.004351374612167884,0.03326268974909679,0.09797696874011308,0.004072862131755196,69725.33724286545
1681217537868180274,153,1681217537868180274,camera_1,154,0,0.027823564249330402,0.08277779761607869,1.5511927856897836,0.9995022957864123,0.012161062582774922,-0.015557133293605896,-0.024601725106873435,0.09197538759326562,0.003822154601709579,69737.65160948166
1681217537878191947,154,1681217537878191947,camera_1,155,0,0.02782777926239816,0.08238323931568162,1.551009981408256,0.9994844031614353,0.012131919277726931,-0.016941355951372004,-0.024428156504274212,0.07915472780587152,0.0032886033593975644,69753.94075566248
1681217537889077663,155,1681217537889077663,camera_1,156,0,0.027864392288836207,0.08163632278871957,1.5516951473227445,0.9995475715699165,0.012145433655327791,-0.01563090779501294,-0.02264542628238004,0.09341316617792472,0.0038837670220986504,69716.3913129028
1681217537898599863,156,1681217537898599863,camera_1,157,0,0.02786267723287914,0.08054649592806187,1.5515628574363372,-0.9994510720872134,-0.012149972995294541,0.01521912766718765,0.026801321105189086,0.07378315622918308,0.0030675087669444546,69702.72060607772
1681217537908943176,157,1681217537908943176,camera_1,158,0,0.027823341437966647,0.07908167486752264,1.5514372190451329,0.9992783475962057,0.012649982010383969,0.0035042379509071884,0.03564382550901487,0.10582965827779844,0.0043987683383623,69721.29007936572
1681217537918400287,158,1681217537918400287,camera_1,159,0,0.027841758418543236,0.07778572604162923,1.5514212483034633,0.9993636121004955,0.012744504501375991,0.004290009828465498,0.03303852645225939,0.1029605275252834,0.004278013918882134,69743.19167366737
1681217537928062677,159,1681217537928062677,camera_1,160,0,0.027926046077272778,0.07671045689300102,1.5512447354923835,0.9994042424739245,0.012321773096307628,-0.015439750930852389,-0.02830102690853798,0.10098486609058455,0.004195025132540607,69739.84024129254
1681217537938243865,160,1681217537938243865,camera_1,161,0,0.02793504626890818,0.07564914964446809,1.5515895944721776,0.9995524018744502,0.012266592990608576,-0.012535536796020394,-0.024236066526071864,0.09171095007332042,0.0038106104151065133,69754.20361603342
1681217537948904275,161,1681217537948904275,camera_1,162,0,0.02794845946525214,0.07482395377950932,1.5513332730848657,-0.9994987869836444,-0.012277390355383113,0.01516522525637575,0.024929028204256302,0.07717520429287106,0.003205397958051271,69768.88452937806
1681217537958498001,162,1681217537958498001,camera_1,163,0,0.027887533586970235,0.07424341149729788,1.5512729686482423,0.9994673962099349,0.012630546194557815,0.003573324821112717,0.02987682322273891,0.08600783417932689,0.0035719564406269675,69781.60031304986
1681217537968626499,163,1681217537968626499,camera_1,164,0,0.027928508044310362,0.07442148021556289,1.551275219251453,0.99952918387704,0.01230057515256567,-0.012904861439438142,-0.02497140324938091,0.09404133896168787,0.0039053510381716946,69780.7543473802
1681217537978618144,164,1681217537978618144,camera_1,165,0,0.027947912329674814,0.07481360192139881,1.5511062100889088,0.9994762232071948,0.01224154342608469,-0.01426775252122354,-0.026341129361177735,0.08758256398141384,0.0036371725017901617,69780.52150607851
1681217537988711833,165,1681217537988711833,camera_1,166,0,0.027882848643899512,0.07545275014463772,1.5513547889733998,0.9994219435975548,0.012652525446006502,0.00436956815503593,0.0312505860691098,0.09599821816664189,0.003987444287856363,69762.79535302543
1681217537998656749,166,1681217537998656749,camera_1,167,0,0.02793335775271649,0.07676706583669562,1.5515482531200682,-0.9994208744204872,-0.012117744486343153,0.015236609488862227,0.027909170042056532,0.08211505989311264,0.003413084526310182,69716.57667005912
1681217538008652448,167,1681217538008652448,camera_1,168,0,0.027891974689870862,0.0780065270784113,1.5515446464727674,-0.9994753776021346,-0.01229228013785982,0.014209594363578307,0.02638099399389025,0.08303454500855878,0.0034510655158122776,69725.88004319044
1681217538018450260,168,1681217538018450260,camera_1,169,0,0.027810616753683896,0.07907124618584924,1.5511970151765369,0.999266028208935,0.012781273830278437,0.005832041359024817,0.03563749711191941,0.11044068291084841,0.004588341272261496,69736.45229795342
1681217538028558731,169,1681217538028558731,camera_1,170,0,0.02787833677775791,0.08052451200671043,1.551753933090809,0.9994875751998643,0.01215555986585972,-0.015486194395935397,-0.025239000942479696,0.10872769315028563,0.004520913779747287,69698.40168139964
1681217538038511514,170,1681217538038511514,camera_1,171,0,0.02784539256352193,0.08159883464969839,1.5513040548953045,0.9994892732643961,0.012201490970662872,-0.015949370848271426,-0.02485827461926262,0.07438841875409707,0.0030918961571915426,69732.93327043834
1681217538048551797,171,1681217538048551797,camera_1,172,0,0.027836167796381393,0.0823935993223763,1.5513362163663815,0.9995512481322322,0.012316039034907801,-0.015127885749789578,-0.02273245724792388,0.08892590401228517,0.0036958332755998744,69743.80328060896
1681217538058463811,172,1681217538058463811,camera_1,173,0,0.02783610071233684,0.08278119854861568,1.5515313843843919,0.9996493379850976,0.01225471804343344,-0.013925097498538732,-0.018897476320615447,0.08338711352553219,0.0034661821514009594,69754.402661107
1681217538068554639,173,1681217538068554639,camera_1,174,0,0.027838417474576986,0.08277822412052975,1.5511552304157343,0.9995328916026952,0.012171188188970504,-0.01536065293101902,-0.023450183878947303,0.08620291331317276,0.003582377634076417,69750.94860483239
1681217538078502178,174,1681217538078502178,camera_1,175,0,0.027833052066005157,0.08238623962393246,1.5511598287004353,0.999537480005848,0.012274081035835483,-0.015840852806807807,-0.022874448204012725,0.08374449174152687,0.003479602228069076,69756.37689627454
1681217538088505506,175,1681217538088505506,camera_1,176,0,0.02784060815483337,0.08160491028921843,1.551462644733356,0.9995314986502103,0.012167286961645592,-0.014029409704042699,-0.02432932381743809,0.09033646929310635,0.0037552876961508028,69728.29932272606
1681217538098415374,176,1681217538098415374,camera_1,177,0,0.027866394088188355,0.0805369283540184,1.5517533122073188,0.9995391475311668,0.012303242192296678,-0.014067520933994831,-0.023921280045133587,0.09521436865907162,0.0039588875616161125,69712.67602146241
1681217538108379364,177,1681217538108379364,camera_1,178,0,0.027892596877668183,0.07929375355625734,1.5516690330753282,0.9995066077735938,0.012214936020806241,-0.015463147190361397,-0.024458688311112746,0.10244158038403839,0.004258192948793307,69719.82135015912
1681217538118673563,178,1681217538118673563,camera_1,179,0,0.027846759272625293,0.07780258654276331,1.5516627464342343,0.9993594468176646,0.01280968865544188,0.0050277341905027055,0.033035281469236774,0.0864575287560001,0.003593728061327469,69719.64127014318
1681217538128176927,179,1681217538128176927,camera_1,180,0,0.02791484988593461,0.07672523908216286,1.5512960035615293,-0.9994215001964063,-0.012319995531082695,0.015459849692096277,0.02767445939447632,0.07915953744668514,0.0032885968565471383,69740.49899980474
1681217538138725280,180,1681217538138725280,camera_1,181,0,0.027931262081188245,0.07561248021502964,1.5510205197153624,-0.9994434013775995,-0.012178979082180422,0.015356239278641314,0.026995292673119342,0.07243527105310932,0.003008137537450422,69776.42115073964
1681217538148514270,181,1681217538148514270,camera_1,182,0,0.027927043410545072,0.07480536137830374,1.5508140113067905,-0.999436565428829,-0.012218699033957538,0.01565478302455103,0.02705887740092132,0.08763366739731282,0.0036376470688591982,69796.88493474736
1681217538158419609,182,1681217538158419609,camera_1,183,0,0.02793924770483752,0.07442006352789524,1.5508345314123437,-0.9993863348832518,-0.01230912161518426,0.014824503855612277,0.02925189325699124,0.07400537945795804,0.003072775353889398,69780.39599477385
1681217538168427705,183,1681217538168427705,camera_1,184,0,0.027946934457174003,0.07440714608244868,1.5512717044704476,0.9995117705182444,0.012344997183885776,-0.015241346286062454,-0.024321245926202082,0.07945995003683493,0.003300040866628634,69780.3627178128
1681217538178666591,184,1681217538178666591,camera_1,185,0,0.02794229863901901,0.07480995925139051,1.551081498735095,0.999476223046233,0.01221911572378225,-0.016188776211719023,-0.02521698437427765,0.07754189276602119,0.003219687010524277,69786.17447670977
1681217538188452959,185,1681217538188452959,camera_1,186,0,0.027879972155994644,0.07544410938011628,1.5513544824862515,0.9993816228196526,0.012602999462918367,0.004575075747247483,0.032505461953375815,0.10262590937782079,0.004263120735073538,69752.25072052146
1681217538198394060,186,1681217538198394060,camera_1,187,0,0.02790658387445435,0.07673187608901635,1.5510266978500034,-0.9993640359413508,-0.012305406021255287,0.015596612872842624,0.029611590915740466,0.08349550346611068,0.003468217523815737,69746.96083954946
1681217538208489179,187,1681217538208489179,camera_1,188,0,0.02791414723631819,0.07800167252530833,1.5516818437010675,0.9994951502878656,0.012432112143674975,-0.015556790260594231,-0.024756280323824813,0.09445774223422632,0.003925767859482831,69723.28624505027
1681217538218414545,188,1681217538218414545,camera_1,189,0,0.027836656817175686,0.07909168040312733,1.5516272689882855,0.9993734174220427,0.012686320788731276,0.0034963107467029563,0.03285735269609837,0.09784221200970933,0.004066518714918793,69727.6066046081
1681217538228521108,189,1681217538228521108,camera_1,190,0,0.02787819781910873,0.08053094270336245,1.5513577472273143,-0.9993928147753879,-0.01202277728734134,0.016601219148425866,0.028175417022862102,0.07275980582926422,0.0030243920682314156,69704.86353935607
1681217538238374471,190,1681217538238374471,camera_1,191,0,0.02779238221147076,0.08137586991779183,1.5511291239457388,0.999223278184215,0.01260954770053777,0.004311254283379246,0.03708440006367766,0.101400003710296,0.004213631685014844,69731.82167176832
1681217538248502731,191,1681217538248502731,camera_1,192,0,0.027783649150968124,0.08221830295549314,1.5515552209951722,0.9994006065466118,0.012600106270142651,0.0025688964126018843,0.03214133985177129,0.08870337007101625,0.003687441860332427,69736.83715572418
1681217538258422374,192,1681217538258422374,camera_1,193,0,0.02777228917131969,0.08263300123637361,1.5517863982214206,0.9994474451338938,0.012545415013004843,0.003890264858818353,0.03053330667995101,0.08379785768920556,0.003484314230981541,69723.78057966306
1681217538268458604,193,1681217538268458604,camera_1,194,0,0.02781866839468683,0.08276937275166689,1.5510853783685346,0.9995023655282271,0.012179032282716546,-0.0154548049446957,-0.02465444139006764,0.10789476480567828,0.004483242304969431,69747.14083945741
1681217538278426885,194,1681217538278426885,camera_1,195,0,0.027825076282176713,0.08237940677766441,1.5507526624406107,0.9994196919496144,0.012315470789248837,-0.015276662899750255,-0.02784299001946881,0.10717700363602489,0.004452375795750933,69752.49228464928
1681217538288488626,195,1681217538288488626,camera_1,196,0,0.027791200090940667,0.0814040220616913,1.551259329167912,0.9992918438466537,0.01266215518159435,0.003799559482310706,0.035228454343791626,0.09231076203286648,0.003836283742548578,69737.47716409658
1681217538298481702,196,1681217538298481702,camera_1,197,0,0.027861704767404086,0.0805285334951664,1.552070225071397,0.9996248997264895,0.012113850538632138,-0.013388678368945674,-0.02059266285516755,0.08708662411663681,0.0036214410173370337,69710.66063583658
1681217538308296203,197,1681217538308296203,camera_1,198,0,0.02789816340236338,0.0792653614679596,1.5515520979662742,0.9994759565183233,0.012298539426150617,-0.017364034823261678,-0.024393617288602315,0.10076258337358013,0.004187289187426727,69724.96928273073
1681217538318688869,198,1681217538318688869,camera_1,199,0,0.027914329642798504,0.07798330343188692,1.5514390784096808,0.9994425941266579,0.012285653483611905,-0.016461193164381816,-0.02631715948696115,0.10783720656763762,0.004480663030596579,69729.6720598204
1681217538328126907,199,1681217538328126907,camera_1,200,0,0.027927670560442378,0.07672839368813596,1.5515277852623528,0.9995211826840172,0.012295116892468134,-0.01495434832783367,-0.024137169109773073,0.08706458908272907,0.003618088270554124,69749.91855966623
1681217538338611364,200,1681217538338611364,camera_1,201,0,0.027947883701572893,0.07563667846973701,1.5516180557330026,0.9995547954345961,0.012242975130019861,-0.014858655123534716,-0.022793438783744083,0.08812543097883463,0.0036613469695487124,69756.82084913972
1681217538348536014,201,1681217538348536014,camera_1,202,0,0.027947339112281196,0.07481386326560777,1.5515999863409284,0.9995903680894697,0.012342852260231447,-0.014178878555223694,-0.021580301753148356,0.07925173513649497,0.0032925545912609842,69771.79578144918
1681217538358547925,202,1681217538358547925,camera_1,203,0,0.027958958470153443,0.07442660110939783,1.5514991350349423,0.9994883537757251,0.012164253603216687,-0.014943459041807269,-0.02552948555755753,0.08049586632114371,0.0033442737363060626,69751.70035436259
1681217538368470430,203,1681217538368470430,camera_1,204,0,0.02792823568611038,0.07440970839282235,1.5507967756003191,-0.9994673683051595,-0.012185717695564074,0.01358842781448545,0.027052589652998196,0.08172028443368617,0.003392373362792282,69805.52670586566
1681217538378646850,204,1681217538378646850,camera_1,205,0,0.027940462616803635,0.07481766138991097,1.5510920577512908,0.9995311477630491,0.012317129538582994,-0.013561868881435428,-0.024532604506135734,0.07836279786715748,0.0032540386465216196,69797.52189951309
1681217538388392686,205,1681217538388392686,camera_1,206,0,0.027885527389813463,0.07544371258610193,1.5513645974014285,0.9994271542076711,0.01257967341910034,0.00382913413918702,0.031184178372516698,0.09854579815873876,0.004093417436771178,69763.82278177366
1681217538398102998,206,1681217538398102998,camera_1,207,0,0.027948906167880153,0.0767540111197219,1.551406869790175,0.9993597803605623,0.012267579161132193,-0.01757265816743611,-0.0286485180095683,0.09657831123331562,0.0040128961654618414,69715.52529014986
1681217538407329320,207,1681217538407329320,camera_1,208,0,0.027910094008752426,0.07801093140337113,1.5516242367182047,0.9994542975686951,0.012315419901856655,-0.016573074313169272,-0.025783147827940233,0.07853993738535792,0.0032643601766211387,69717.06419619465
1681217538417898178,208,1681217538417898178,camera_1,209,0,0.02788889557340311,0.07929718495127241,1.5512117711623772,0.999357466050085,0.012292129049141244,-0.016558931784316104,-0.02931484933536356,0.09845962806139141,0.004091405206573593,69715.60131290472
1681217538428739786,209,1681217538428739786,camera_1,210,0,0.027871037115805578,0.08050142296133904,1.5511555929776186,0.9994090557028052,0.012212916326752173,-0.016171352402101154,-0.02776457122863532,0.09250855358550325,0.003843795183350088,69728.03332096804
1681217538438625812,210,1681217538438625812,camera_1,211,0,0.027848008325374263,0.08161818596846475,1.5513779711658306,0.9994677764363035,0.012181108212659136,-0.014591634474363053,-0.026511670478291553,0.09678053657989949,0.004023138194037709,69716.11128844882
1681217538448452234,211,1681217538448452234,camera_1,212,0,0.02784393073351126,0.08238795527226402,1.5510498365968697,0.9994706249529719,0.012362856434928156,-0.01574968263338461,-0.025643266832307065,0.09682266291929409,0.00402331340907801,69744.06197002318
1681217538458465814,212,1681217538458465814,camera_1,213,0,0.027811418548431492,0.0828025605409919,1.5515641949046515,0.9996023456503647,0.012219242173695525,-0.014271639420063154,-0.02102762466978457,0.08453872002428398,0.0035141999434785357,69735.5300921656
1681217538468512773,213,1681217538468512773,camera_1,214,0,0.027822339075957783,0.08279346894876172,1.5513192503775537,0.9996007486368504,0.01224932867960884,-0.013721345138269616,-0.021448122508594427,0.08911224274197593,0.003703468110311178,69755.72479531111
1681217538478597402,214,1681217538478597402,camera_1,215,0,0.027827551623997072,0.08239033476085546,1.5512350447660255,0.999501562628755,0.012219764095309504,-0.016047899132978802,-0.02428515187413674,0.1000159751274623,0.004155921142153828,69737.82842012413
1681217538488577127,215,1681217538488577127,camera_1,216,0,0.02786616889570165,0.08162593274899008,1.5515869824217672,0.9995435560165495,0.012088273680845012,-0.015982226133118383,-0.022608001084523266,0.09013269928982481,0.00374689842200235,69725.32887748873
1681217538498393297,216,1681217538498393297,camera_1,217,0,0.02787770164304511,0.08052282597313556,1.551537175968112,0.9994885958112573,0.012269819075187932,-0.01595771996266944,-0.024846520011796637,0.07681583357043564,0.0031928593533478277,69719.4382645312
1681217538508458137,217,1681217538508458137,camera_1,218,0,0.02783176403727508,0.07908130103892462,1.5514554106618534,0.9992836225140334,0.012603905001139068,0.0034893702868543514,0.03551348545207061,0.09160848218016326,0.003807749500096835,69720.8623568042
1681217538518415451,218,1681217538518415451,camera_1,219,0,0.027908713940867302,0.07798941759681677,1.5514804705912095,0.9994209943554202,0.012277595759155277,-0.015258647769121668,-0.02782283868076529,0.08879745431477204,0.0036906271189269435,69716.7271248191
1681217538528289556,219,1681217538528289556,camera_1,220,0,0.027907503315116197,0.07673318535915107,1.5509998362652864,-0.9994385010163601,-0.012242109722430117,0.012890917864151303,0.028401367437762757,0.08176055335206911,0.0033962410760374363,69766.99560929963
1681217538538567543,220,1681217538538567543,camera_1,221,0,0.027956074944206946,0.07562373758164426,1.5517100267264439,0.9995804882484467,0.012225535299360758,-0.01572190833926373,-0.021028680363087558,0.0769438510760665,0.003196967935131682,69758.40662371706
1681217538548438787,221,1681217538548438787,camera_1,222,0,0.027921954723066994,0.07481773721320384,1.5513613768590313,0.9995656308758385,0.01228637751334679,-0.0129931351906354,-0.023425903126765034,0.08725955076806713,0.003624248617372637,69782.84152126513
1681217538558438539,222,1681217538558438539,camera_1,223,0,0.027956950085795084,0.07442329839843702,1.5512578102119234,0.9994552550393994,0.01225712646488005,-0.016099433860462323,-0.026072289012007706,0.08269939216552302,0.003434594134017429,69765.62005746666
1681217538568476676,223,1681217538568476676,camera_1,224,0,0.027967605054138166,0.07441429082508717,1.551473936568489,0.9995482045643167,0.012300550008605629,-0.0137032673452241,-0.023755077053173874,0.08880287119245622,0.0036894114809365563,69770.5721276931
1681217538578414678,224,1681217538578414678,camera_1,225,0,0.027952960525351605,0.07483527161213764,1.5513845069528431,-0.9995037710431331,-0.012192033687538552,0.014334067795665855,0.02526065093277478,0.06777063850313425,0.002815369150196425,69763.98287328245
1681217538588845014,225,1681217538588845014,camera_1,226,0,0.02793547972969054,0.07563659300327938,1.5517822078690733,0.9996172941450477,0.012350175221922388,-0.013744849615454047,-0.020586828973143317,0.08159715967485681,0.003390434427471208,69759.97725079677
1681217538598502397,226,1681217538598502397,camera_1,227,0,0.027915946046278325,0.07675191358172898,1.551495552941639,0.9994806309544295,0.012173389365531957,-0.01545086399702054,-0.02552543319977465,0.08533848519437015,0.0035460806469783655,69740.41650044092
1681217538608443737,227,1681217538608443737,camera_1,228,0,0.0279051755360362,0.07799297381746781,1.5517602711109009,0.9995685409997422,0.01222359122239488,-0.013414879463259454,-0.023094516021354806,0.0864461284945719,0.0035932638459099933,69734.53551586601
1681217538618413209,228,1681217538618413209,camera_1,229,0,0.0278469063188818,0.07910036649429104,1.5518639319186853,0.999374102563304,0.01255041732855722,0.0026319888766868694,0.032969118660087185,0.10120042052585632,0.004207515177812703,69707.60831918822
