%time,field.header.seq,field.header.stamp,field.header.frame_id,field.image_seq,field.transforms0.fiducial_id,field.transforms0.transform.translation.x,field.transforms0.transform.translation.y,field.transforms0.transform.translation.z,field.transforms0.transform.rotation.x,field.transforms0.transform.rotation.y,field.transforms0.transform.rotation.z,field.transforms0.transform.rotation.w,field.transforms0.image_error,field.transforms0.object_error,field.transforms0.fiducial_area
1681066384549428939,0,1681066384549428939,camera_1,1,0,0.1343253535879829,0.19168213725431943,2.956349175428606,-0.9993400101927915,-0.011995060908736805,0.01704789061662211,0.029749486839116917,0.0002150567015632987,3.248187708928549e-05,19229.156997293234
1681066384569237470,1,1681066384569237470,camera_1,3,0,0.13434537255566698,0.193218157911117,2.957100460684624,-0.9993307533302814,-0.01177921176994957,0.013849418999881334,0.031740970555048965,0.00033805996645241976,5.108992006777301e-05,19218.34203061321
1681066384589065074,2,1681066384589065074,camera_1,5,0,0.13439843965737738,0.19397887809787556,2.958026264540788,-0.9994515737316559,-0.011971355808554657,0.01016986088354601,0.02915154086888993,0.0010071293218061328,0.0001523118572724949,19217.348447190467
1681066384609083175,3,1681066384609083175,camera_1,7,0,0.13438001420051746,0.19319587634688495,2.9580592151663585,-0.9995059071200914,-0.011910559533496113,0.011129830933630222,0.026873910527341144,0.001198217214550823,0.00018118757769554193,19221.772016303607
1681066384618939399,4,1681066384618939399,camera_1,8,0,0.13437205967685634,0.19246329019817696,2.95740012312022,-0.9993067180873471,-0.01188350043173871,0.01036650989907708,0.03372537732178576,0.0015694087487645447,0.00023730382018616325,19214.572640650447
1681066384628918409,5,1681066384628918409,camera_1,9,0,0.13434513042821633,0.19167323171307393,2.957413015592075,-0.9994866674657987,-0.011921132853034894,0.011080402192082,0.027595522043875012,0.0004474695888347923,6.764070452504614e-05,19229.782157187816
1681066384638981342,6,1681066384638981342,camera_1,10,0,0.13435131520297422,0.19102646751592484,2.9569570388445827,-0.9993127339565769,-0.012076516670056802,0.013319311184596316,0.032416252820419704,0.0006715479539707303,0.00010149009924354275,19221.071685873212
1681066384648975133,7,1681066384648975133,camera_1,11,0,0.13441068633232361,0.19081091685679882,2.9583587909170252,-0.9995501672522894,-0.011946925700083615,0.011935289217818399,0.02478473287175107,0.0004731548251584172,7.155224284409497e-05,19223.194382358924
1681066384658965826,8,1681066384658965826,camera_1,12,0,0.13431327616010835,0.1908426585332405,2.9564718561019743,-0.999404067010978,-0.012101115108230589,0.01728634161179695,0.02731769113110384,0.0032774360151961446,0.0004950000048065821,19233.623756705896
1681066384668947219,9,1681066384668947219,camera_1,13,0,0.13437717265152607,0.19140167425273663,2.9573997613330905,-0.9992743641778583,-0.012009514048964515,0.007880904899717222,0.035276167694443625,0.00043821230065077543,6.626541693304803e-05,19214.02580334759
1681066384678948402,10,1681066384678948402,camera_1,14,0,0.13436993280249349,0.19207862731615694,2.9574123576780673,-0.9993362962587504,-0.011950692241930938,0.00851139662674307,0.03334222641402452,0.0015623167855665088,0.0002362219040745225,19218.03880009859
1681066384688963174,11,1681066384688963174,camera_1,15,0,0.13432491208917668,0.19284159409224738,2.9569561022432693,-0.9993620145035138,-0.011789707357029803,0.014644752480134332,0.03036606646752125,0.00030623056227341294,4.6275762426750965e-05,19222.86563086103
1681066384708928346,12,1681066384708928346,camera_1,17,0,0.13432502392689674,0.193877261981279,2.9566632236210597,-0.999390877558289,-0.011859280921030176,0.013645864550777678,0.029849986431670875,0.00025851669488474727,3.9058193822839835e-05,19228.55209438666
1681066384728913068,13,1681066384728913068,camera_1,19,0,0.13438074790914953,0.19350605967326634,2.957411633065614,-0.999450849330789,-0.012061930446247256,0.011995837251644001,0.028436059757054107,0.00027822726406157017,4.205923912647917e-05,19225.009229831863
1681066384738973379,14,1681066384738973379,camera_1,20,0,0.13434718351669647,0.1928061277365961,2.957131374070949,-0.9993491483750085,-0.01173532753004385,0.009974201792864025,0.03262019356936612,0.0006253115716390312,9.452964197592204e-05,19221.27545437136
1681066384748940706,15,1681066384748940706,camera_1,21,0,0.13434928404389493,0.1920016836075784,2.9569872035599167,-0.9994525427443248,-0.011686969954759815,0.013260217938391555,0.027967769939816832,0.00010739988647401333,1.622863320488531e-05,19231.093058123253
1681066384758996725,16,1681066384758996725,camera_1,22,0,0.13438818025821736,0.19127295451213275,2.957391943357361,-0.9994375588202996,-0.011816118797889266,0.0155906926929939,0.027237394464726037,0.000295985781121999,4.473238689072393e-05,19224.438293789513
1681066384768973588,17,1681066384768973588,camera_1,23,0,0.1343330562647529,0.19084810684826875,2.9574448984018913,-0.9994374237545762,-0.012074558434718934,0.010940570602184212,0.029314585999480218,0.0017777230241335928,0.00026868929094521965,19226.200467483373
1681066384778947830,18,1681066384778947830,camera_1,24,0,0.13437909964349326,0.19079195220494166,2.9575900189649404,-0.9994188434508471,-0.011933064604050502,0.015374271225993937,0.02798587337919825,0.0011496770894154906,0.00017376601246164196,19220.93525578105
1681066384788977861,19,1681066384788977861,camera_1,25,0,0.13433982671299632,0.1910924469023331,2.9572562577167143,-0.9993298720972429,-0.012156620544701369,0.010081454205235364,0.03302101743054451,0.0008442820399068295,0.00012762146298140342,19219.982995859114
1681066384799065113,20,1681066384799065113,camera_1,26,0,0.13432251562765482,0.19173327845732843,2.957063474321942,-0.9994022678653304,-0.012265901611042783,0.009823453057059384,0.0307921160906264,0.0004933212185278535,7.456534780741534e-05,19228.09779496502
1681066384808940649,21,1681066384808940649,camera_1,27,0,0.13434261929977365,0.19247068056965005,2.957390068383689,-0.9994112721386755,-0.012171962714677654,0.013592767782390026,0.02905493262495914,0.002708541927859187,0.000409332699981596,19222.475911462447
1681066384818976402,22,1681066384818976402,camera_1,28,0,0.13431243067861723,0.19320837279550257,2.956443229449634,-0.9992459966582856,-0.0119561781898454,0.009984253290870455,0.03556406404934308,0.0003901022719219327,5.895214558342941e-05,19221.488908326144
1681066384829065561,23,1681066384829065561,camera_1,29,0,0.1343453448640609,0.19375681287454463,2.957201488608245,-0.9993426954140083,-0.011984601044589488,0.013220336693669637,0.03155581021258401,0.0016731879441067574,0.00025287655765615744,19217.98856646299
1681066384838963031,24,1681066384838963031,camera_1,30,0,0.1343020902877335,0.19388235067787313,2.956306993514694,-0.9993301371146183,-0.011988221753228197,0.011316007761792356,0.03267273422915505,7.339526200667024e-05,1.1087931011600944e-05,19229.09734357846
1681066384848969459,25,1681066384848969459,camera_1,31,0,0.13432163994285903,0.19365420247117388,2.9563743983127186,-0.9993264875101321,-0.011857028116132281,0.015944331296184847,0.03085061659728522,0.000811761652585119,0.00012261960711769588,19226.25598292973
1681066384859258651,26,1681066384859258651,camera_1,32,0,0.1343455090117235,0.19317440298625588,2.956945769466448,-0.9992838978594492,-0.012089178083928915,0.013201883860467434,0.03333546931747033,0.0010294493986293674,0.00015556663479071144,19217.03710508579
1681066384869383335,27,1681066384869383335,camera_1,33,0,0.13433488849737918,0.19241434415157296,2.957279511045668,-0.9994242861093658,-0.012129294979511408,0.012082452950104227,0.02929148116420806,0.0005399601650424303,8.160883870728499e-05,19225.547878092264
1681066384879153251,28,1681066384879153251,camera_1,34,0,0.13438528294120092,0.19166497775002686,2.957454697705309,-0.9993594695247886,-0.011709127685126849,0.01678482723745902,0.029356712598572823,1.8353108316659927e-05,2.773954534473173e-06,19216.30799463438
1681066384888967752,29,1681066384888967752,camera_1,35,0,0.1343738264779717,0.1910488299091673,2.957139541780929,-0.9993882329584711,-0.011966651430245783,0.013321571806041755,0.030041551263343635,0.0030569409718737006,0.0004620400825246349,19224.766214956064
1681066384898987531,30,1681066384898987531,camera_1,36,0,0.13437086416657956,0.1907854083004193,2.9576769776653182,-0.9995202682637083,-0.0118520880682792,0.014849319787265112,0.024459334421069748,0.001371860271319747,0.00020735374932488712,19228.378229131686
1681066384909015655,31,1681066384909015655,camera_1,37,0,0.13434230141860903,0.1908830762391853,2.9572240552861015,-0.9993770213840536,-0.012255424373286456,0.014879514920912697,0.029563046843752286,0.0011656450224108994,0.00017615894409956384,19222.659152664128
1681066384919039011,32,1681066384919039011,camera_1,38,0,0.13430714147465497,0.19132367259913857,2.9559017907493716,-0.9991873473089268,-0.011819661160794573,0.009684149991380023,0.03729822819838495,0.00014417740749195218,2.1780252588191514e-05,19225.405148571353
1681066384928898811,33,1681066384928898811,camera_1,39,0,0.13439928372046422,0.19210649347257167,2.9578948501995055,-0.9995540783143125,-0.01195011569938973,0.011139815285470955,0.02499487498272747,0.002425517188385129,0.00036671651847300786,19228.815878944584
1681066384938967466,34,1681066384938967466,camera_1,40,0,0.13437199182038664,0.19289813828151622,2.9577180412874857,-0.999385082193287,-0.01183255541142068,0.011213516475312744,0.031043601115376112,0.00023148470791056752,3.500166803191969e-05,19216.215859221986
1681066384948876619,35,1681066384948876619,camera_1,41,0,0.13433687019239693,0.19351174286722428,2.956620027944243,-0.999338501640836,-0.011930028774863075,0.013232237331766658,0.03170396579097682,0.0003614254528656602,5.4606189910262265e-05,19225.274677710135
1681066384958953380,36,1681066384958953380,camera_1,42,0,0.13436006210319154,0.19384780025557866,2.95647963046245,-0.9993202625704719,-0.011830712109518707,0.01170492011614879,0.03289440548390065,0.0015793097554706037,0.00023863905178759406,19225.679342298536
1681066384969051361,37,1681066384969051361,camera_1,43,0,0.13435895369708645,0.19392007933260308,2.9577049304186747,-0.999396222292554,-0.011960820725881447,0.014502339121711814,0.029220058092590397,0.0014573620283044875,0.00022034157351142467,19215.31769464525
1681066384978976249,38,1681066384978976249,camera_1,44,0,0.1343083991651225,0.19344910840877708,2.956456864141898,-0.9993550284226903,-0.011944851838037143,0.0078049562337255,0.03295345716371351,0.0008487572777085006,0.00012824528966493129,19231.0049911848
1681066384989015340,39,1681066384989015340,camera_1,45,0,0.13435207580721978,0.1928367337502289,2.9572844426286062,-0.9993416357084685,-0.011687267256132318,0.009461567598930154,0.03301789911816467,0.0007461324566975236,0.00011280561162486896,19218.817485634354
1681066384998939990,40,1681066384998939990,camera_1,46,0,0.13435230849329372,0.19200757114740705,2.9571459949466843,-0.9993791913846849,-0.011749933498035848,0.012257400492684338,0.030869516083785527,0.0008983322186395525,0.00013578280049603036,19223.380733894177
1681066385008984327,41,1681066385008984327,camera_1,47,0,0.13437339332476167,0.19134686195216294,2.958016292379914,-0.9994464696452414,-0.011984713982732799,0.010296255739085106,0.029276407945155496,0.00013074534945189953,1.9772153323179903e-05,19219.29101472511
1681066385018967628,42,1681066385018967628,camera_1,48,0,0.13437086665808892,0.19086330997103862,2.9573259797853537,-0.9993879557799434,-0.011991026719251648,0.008733476899720365,0.031680522430133334,1.528079155832529e-05,2.3100616215418937e-06,19224.37834181462
1681066385029024362,43,1681066385029024362,camera_1,49,0,0.13436665214377944,0.1907977276875383,2.9577612445446655,-0.999520848072547,-0.01199576530921398,0.01126259486329602,0.026216976178196585,0.002631425973959267,0.0003978070371590349,19228.813406281053
1681066385039012908,44,1681066385039012908,camera_1,50,0,0.13433526792482517,0.19106663811015814,2.957703745970898,-0.9994683653942853,-0.012153092577668799,0.01179233171797336,0.027860901448582415,0.0008983727311715484,0.00013580361173866205,19224.995539394193
1681066385048984527,45,1681066385048984527,camera_1,51,0,0.13436239349486728,0.19170235518552622,2.9571465545542317,-0.9994578837994561,-0.01205353512237872,0.010583946489989601,0.028751189173034968,0.0016958359628915787,0.0002563149966841923,19231.08615557081
1681066385059071540,46,1681066385059071540,camera_1,52,0,0.13432451154703648,0.19247245549070782,2.957328741584833,-0.9994336137959767,-0.012259628825943007,0.010265095656716045,0.029610486772814734,0.0006213559536263347,9.39214131430843e-05,19226.490048497217
1681066385068982839,47,1681066385068982839,camera_1,53,0,0.1343118376202742,0.1931784143365607,2.9562040891853356,-0.9992461822612413,-0.012100855066706075,0.010341671746717311,0.03540743380241135,0.00016250141197815537,2.455165307128994e-05,19224.609874793336
1681066385078974485,48,1681066385078974485,camera_1,54,0,0.1343156786965654,0.19368203171170917,2.9563251772935732,-0.9992626607689361,-0.011905764709283227,0.011160300937744094,0.03475392413314278,0.00042477640090510255,6.418006737914024e-05,19223.41099342646
1681066385089033842,49,1681066385089033842,camera_1,55,0,0.13434666669569675,0.19394657449953076,2.957184787957216,-0.9993678545405772,-0.011987349105274835,0.011145568835687122,0.03155900929562075,0.00019227294251322746,2.906498619183074e-05,19220.890046464512
1681066385099014759,50,1681066385099014759,camera_1,56,0,0.13432436986827384,0.19369942653748923,2.956780628766863,-0.9993355556530708,-0.011891842854730005,0.00904145235603201,0.03324580304911283,0.0014313264982774854,0.00021630504353996267,19224.420316013493
1681066385108968734,51,1681066385108968734,camera_1,57,0,0.1343431814481772,0.1931652054964607,2.956893547350026,-0.9993889241503162,-0.011730485442180746,0.014550524104671708,0.02953737031700192,0.0014553492073900998,0.00021991814411621925,19225.571992231307
1681066385118993043,52,1681066385118993043,camera_1,58,0,0.13438689549578556,0.19247088572587542,2.9578335430873564,-0.9993077850228852,-0.011981903738469605,0.012603778491974195,0.03288661647513331,1.537025673314929e-05,2.3242866317266783e-06,19208.29767117858
1681066385128936767,53,1681066385128936767,camera_1,59,0,0.13434690729156049,0.1917005478156633,2.95804356781068,-0.9995183296468533,-0.012052338850506687,0.013256017139497813,0.02534024147071959,0.004569961340166628,0.0006909265681194994,19223.635813433677
1681066385138887643,54,1681066385138887643,camera_1,60,0,0.13433298913073094,0.19104097737549172,2.957159354517013,-0.9993013639642194,-0.012164188381418228,0.009994549760336176,0.033895803211613854,0.00028116960311308503,4.2504339205316665e-05,19218.97754675161
1681066385149024009,55,1681066385149024009,camera_1,61,0,0.13434759615749797,0.19076652446539047,2.9570929468221707,-0.9993888550232709,-0.012239568456002319,0.010037587049842542,0.03116658892954551,0.0009609179105609655,0.00014522428869173992,19227.28212218499
1681066385158912658,56,1681066385158912658,camera_1,62,0,0.13432657122759073,0.1908312873992129,2.956865490070886,-0.9993758147065185,-0.012345091171164625,0.009277521627847727,0.031772744547852005,0.000633879448287189,9.579223344409958e-05,19229.525840591523
1681066385168905258,57,1681066385168905258,camera_1,63,0,0.1343436210733996,0.19132819392215675,2.9569232852827136,-0.9993962309259226,-0.011892598865695337,0.012413681948559345,0.030193380131414243,0.00011293339775875211,1.7064768535109458e-05,19228.32861317811
1681066385179117679,58,1681066385179117679,camera_1,64,0,0.1343574811555731,0.1920941257458567,2.957446012462635,-0.9993781009998213,-0.011989496654107035,0.009279179313437384,0.03183645776843288,0.0003942368784919381,5.9607231798394065e-05,19220.77224422816
1681066385189037322,59,1681066385189037322,camera_1,65,0,0.13433353131402595,0.1928343486828701,2.95687776337578,-0.9993742842433098,-0.011966189306915826,0.011672279080089389,0.03117063053131953,0.0002501151175238192,3.7797092727331257e-05,19226.178745990386
1681066385198933839,60,1681066385198933839,camera_1,66,0,0.13431087466345648,0.19345938098301915,2.95607094618139,-0.9993692392091199,-0.01175783870060635,0.01440802998580977,0.030253687768658732,0.000566726375836879,8.558966544388265e-05,19234.373204012634
1681066385208968877,61,1681066385208968877,camera_1,67,0,0.1343716004426322,0.1939274862689896,2.957846402606977,-0.9994017225224052,-0.011866549314256604,0.01414730024120455,0.02924441694592541,0.0007166952709667385,0.00010835714619104342,19213.987394013562
1681066385218959093,62,1681066385218959093,camera_1,68,0,0.1343607853774733,0.19386267409657043,2.9571560815558153,-0.999446245779382,-0.011578691846567325,0.012493183756504121,0.028584192349055532,0.0027792476466856897,0.0004201131802573398,19226.94596158306
1681066385229032516,63,1681066385229032516,camera_1,69,0,0.13436733335993706,0.19352350256141898,2.958003665009881,-0.9995735091884335,-0.011821999727849364,0.013036424285306377,0.023304327774235956,0.001216844073496759,0.00018397170770936694,19227.189902986167
1681066385238976478,64,1681066385238976478,camera_1,70,0,0.13436135359882312,0.19281788377972892,2.9569560154049235,-0.9993023778269106,-0.011874766767537175,0.010294563694751402,0.03387874764559505,0.0005560806603170931,8.405127882937593e-05,19219.648672905285
1681066385249070167,65,1681066385249070167,camera_1,71,0,0.13441535645995342,0.19209403471785122,2.958618991828696,-0.9995984758091352,-0.011824029640419174,0.010823532088895789,0.023365158596446327,0.0006457774434238672,9.769026486783088e-05,19223.22590755811
1681066385258989810,66,1681066385258989810,camera_1,72,0,0.13436844202450207,0.19129662147180246,2.957389580871298,-0.9994755154785279,-0.012118876843919987,0.011656071620716241,0.027676032543438853,3.264000406488776e-05,4.9334255797412e-06,19229.400951418673
1681066385268943309,67,1681066385268943309,camera_1,73,0,0.1343937648912461,0.19087328609835869,2.957948275632234,-0.9995444088463892,-0.011939194139640837,0.016460759260013422,0.022304120511740688,9.039969881996512e-05,1.36670728657747e-05,19226.328124309417
1681066385279037714,68,1681066385279037714,camera_1,74,0,0.1343207781791779,0.19075070199615243,2.956720319082823,-0.9992909998679987,-0.011909105318983681,0.014419424808358087,0.03267645913364773,0.0014102357672527432,0.00021305751710349084,19222.046102936154
1681066385288901805,69,1681066385288901805,camera_1,75,0,0.1343127298862406,0.19104324674854875,2.9563203803456504,-0.9992633930951265,-0.012065023260104026,0.010484062666911112,0.03488826254980626,0.00037148332921788096,5.6126971392880194e-05,19226.382310641686
1681066385298917293,70,1681066385298917293,camera_1,76,0,0.13436764259507147,0.19173384511290437,2.957217675798114,-0.9993217605077088,-0.01219236105607698,0.012639294397179628,0.03236685874151717,0.001060193870216608,0.0001602436174285082,19218.232275882387
1681066385308970451,71,1681066385308970451,camera_1,77,0,0.13430053237503634,0.1924556115656746,2.956347964655475,-0.99920624647692,-0.011837655913047468,0.0072952518408671944,0.037329963897212444,0.0011696971487253904,0.00017677262816084277,19221.19858759315
1681066385319004774,72,1681066385319004774,camera_1,78,0,0.1343222643321349,0.19320592340992457,2.9565523295209135,-0.999257617407497,-0.012290238326268448,0.012436483933366639,0.03432925810953485,0.00017249316442757845,2.6064415494277584e-05,19220.396619149484
1681066385328947544,73,1681066385328947544,camera_1,79,0,0.1342929657035289,0.19366076275082467,2.9559718363724783,-0.9993542903738645,-0.01182579747167563,0.010346422193124916,0.03231260393887566,0.00034484907519072294,5.2088409476737436e-05,19235.847138897756
1681066385339138031,74,1681066385339138031,camera_1,80,0,0.13436780629006104,0.19396056713939866,2.957526576693815,-0.9994801847683037,-0.011858638874056991,0.012143958003983359,0.027409071920984844,0.001166526519227773,0.00017635078269887083,19225.369533526708
1681066385349114179,75,1681066385349114179,camera_1,81,0,0.13432142635886168,0.19369893858656592,2.957032819977865,-0.9993360726771956,-0.011982158074288941,0.007337616794009289,0.03361548919450425,0.0017715250723995266,0.00026778655443487393,19222.01559530699
1681066385358946800,76,1681066385358946800,camera_1,82,0,0.13432458535937805,0.1931050038306668,2.9562169380922656,-0.999278942776773,-0.01171182211268746,0.01760298106670276,0.03153668979618643,0.0013568612048402429,0.00020492973919380593,19224.088550294415
1681066385369088411,77,1681066385369088411,camera_1,83,0,0.13438957568888546,0.19240326352885673,2.9572097611220145,-0.9993857209419867,-0.01172908602972358,0.013275033059019318,0.030238763457764488,0.0007102860836312175,0.00010735918141792045,19222.29654924245
1681066385378992557,78,1681066385378992557,camera_1,84,0,0.1343156239248056,0.19160346425965694,2.9561709689390274,-0.9992208456024666,-0.01181322342457479,0.01232464792574819,0.03558444209649754,0.0008796747424639761,0.00013289661308071873,19223.32647615136
1681066385388895273,79,1681066385388895273,camera_1,85,0,0.1343701945187143,0.19103975977941198,2.9571197644473273,-0.9993582339541895,-0.012352700719373819,0.012218029326881694,0.03132492254209922,0.0001556432107463479,2.3522173059548476e-05,19223.399888367625
1681066385398990631,80,1681066385398990631,camera_1,86,0,0.1343941119104106,0.19079786588130276,2.9583970588821993,-0.9995247196366941,-0.012168659531219827,0.010954637166919214,0.02612000162600652,0.0008987346081994474,0.00013592123562557358,19221.21571551321
1681066385409013748,81,1681066385409013748,camera_1,87,0,0.13436493542979638,0.19088829625117296,2.957290501024187,-0.9993375859798966,-0.012099591953292108,0.009223697941835755,0.03305922743674803,7.979432120919228e-05,1.2063318495886795e-05,19220.592807960227
1681066385419037580,82,1681066385419037580,camera_1,88,0,0.13442302715856094,0.19141261617809932,2.958216881553497,-0.9994439561852138,-0.011901286360704403,0.010671999258495957,0.029261685864556294,0.001841145975049585,0.00027847521792203245,19216.139814241556
1681066385428977251,83,1681066385428977251,camera_1,89,0,0.1344145544144565,0.19213456153782243,2.9584233042976953,-0.9995787897263039,-0.011872670313574652,0.014886939704801018,0.021901183875499563,0.00011210475349798799,1.6953964384696105e-05,19222.656895569642
1681066385438954353,84,1681066385438954353,camera_1,90,0,0.1343664508292141,0.19288246627740785,2.957690270363003,-0.9995212716776327,-0.011842430364171734,0.014432856694190546,0.024671379261057287,0.00015519169392064214,2.346004791542911e-05,19226.81441126368
1681066385448909521,85,1681066385448909521,camera_1,91,0,0.13438466147936828,0.1935489874160369,2.9577718784379625,-0.9995304457989997,-0.011764207635126544,0.011739949470644863,0.025742278958890644,0.0005764577072113752,8.714686742234816e-05,19226.86093425249
1681066385458961248,86,1681066385458961248,camera_1,92,0,0.13434793137452786,0.19393065134815643,2.9577834718604423,-0.9993872553190397,-0.011933831935608713,0.013768150194806142,0.029885374373137288,0.0013167468132451174,0.00019907128390512504,19213.825732386795
1681066385469007015,87,1681066385469007015,camera_1,93,0,0.1343338584078514,0.193840800429896,2.9563980651262125,-0.9992690309666279,-0.011918520904881318,0.010645524869513954,0.03472787656492994,0.0009394290973432362,0.00014195980285899564,19223.022202093045
1681066385478975296,88,1681066385478975296,camera_1,94,0,0.13436199423368317,0.19347804233749052,2.9574432652785863,-0.999429849012808,-0.012113941411684566,0.013643813834531783,0.02840907724229475,0.00010116613702848555,1.5292471228589958e-05,19222.344388584956
1681066385489006996,89,1681066385489006996,camera_1,95,0,0.13438708956875337,0.19286497070628494,2.958034947400654,-0.9995266739200537,-0.011861896010835043,0.011717714775462199,0.025853794804319236,0.00031322729773819447,4.7366628148062516e-05,19223.81250496022
1681066385498993158,90,1681066385498993158,camera_1,96,0,0.13438579556235586,0.1920455450991385,2.9578220842710072,-0.9994309132758328,-0.012012956690329066,0.011891972171701633,0.02919108524975556,0.0008122121798805892,0.000122804674196227,19219.31034046015
1681066385508975982,91,1681066385508975982,camera_1,97,0,0.13441344591333573,0.19135674881868542,2.9584215056877348,-0.9994295013495745,-0.011964736525542016,0.010910931810683124,0.02963896892669829,0.00030471041100099683,4.609410307552615e-05,19212.34685637465
1681066385518954038,92,1681066385518954038,camera_1,98,0,0.13429703500523238,0.19078138556170296,2.955770926490154,-0.9992613626178956,-0.012040788547603265,0.009723504210636964,0.03517388315276531,0.0009698317153379321,0.00014648814963445214,19233.813488154323
1681066385528949499,93,1681066385528949499,camera_1,99,0,0.1343871996807881,0.19079967181705823,2.957638155812898,-0.9994145282263155,-0.012057029749484466,0.014908145098474039,0.028336831395097604,0.000906227738596499,0.00013700032981922206,19220.206126101082
1681066385538971900,94,1681066385538971900,camera_1,100,0,0.13437758399719896,0.1911094554821879,2.9578941539427706,-0.9994375024550763,-0.01203027772581498,0.017895986168905097,0.025684329526806507,0.0007042161887511611,0.000106458623755499,19217.535276653707
1681066385548967361,95,1681066385548967361,camera_1,101,0,0.13435745297218338,0.1917319358864618,2.957405151238262,-0.9994684153374558,-0.012095526749026768,0.012372211496925701,0.027631745478235173,0.00017607799964025617,2.6614528569738647e-05,19227.980314004235
1681066385558937311,96,1681066385558937311,camera_1,102,0,0.1343571948126908,0.19250213692887855,2.957338491626142,-0.9994021374748171,-0.011959179878383797,0.011640738510495074,0.030279346662928783,0.0001739012659527361,2.628580613861544e-05,19222.837458301456
1681066385569017410,97,1681066385569017410,camera_1,103,0,0.13434608374375162,0.1932582534149004,2.957283092685663,-0.9994475487637845,-0.012058445134123899,0.014877530059760682,0.027163399461978502,5.558168049901724e-05,8.400210025723319e-06,19225.61232703552
1681066385578946113,98,1681066385578946113,camera_1,104,0,0.13437041180641235,0.19375237395501882,2.9573982299231223,-0.9994271007112752,-0.011972398185556413,0.012853045797849676,0.02892976424479912,0.0009611688437871635,0.00014527901311214578,19222.60020335554
1681066385589669466,99,1681066385589669466,camera_1,105,0,0.1343639047892843,0.19395628724913166,2.957819462875372,-0.9993837291187446,-0.011847600604581432,0.013221038102598118,0.03028201585290794,0.0004022587090730667,6.082811126802807e-05,19213.109582537552
1681066385600582599,100,1681066385600582599,camera_1,106,0,0.13430966600500627,0.19366875601755967,2.9562155297602835,-0.9992518494346633,-0.011964337480996418,0.011512286847440116,0.034929404254696886,0.0013473796425387263,0.00020357880426185866,19223.84897730721
1681066385610274076,101,1681066385610274076,camera_1,107,0,0.1343415541063649,0.19318345761807054,2.957277792901567,-0.9993600635522162,-0.011869337440416246,0.01160468177835839,0.03168459509697248,6.059010047465563e-06,9.158971201975691e-07,19219.467647381127
1681066385620303153,102,1681066385620303153,camera_1,108,0,0.13432963039535922,0.19237408759997512,2.9567400099586396,-0.9993330756687355,-0.011812262873476247,0.016258449324211558,0.03048831162667915,0.0002713102730922401,4.099148391441335e-05,19223.06964581774
1681066385630229711,103,1681066385630229711,camera_1,109,0,0.13432111799948193,0.19160664533340305,2.956146917513412,-0.999271690873042,-0.011901855030834206,0.013125677139227913,0.03379571372516786,0.0017498444067314267,0.0002643206172880589,19227.566034246585
1681066385640234231,104,1681066385640234231,camera_1,110,0,0.1343363827273964,0.19095314039231767,2.9558692368755524,-0.9993220395629479,-0.01195098105120986,0.013816871278583035,0.031964501618747566,0.002405346604064107,0.00036323720498118115,19235.587076122065
1681066385650192022,105,1681066385650192022,camera_1,111,0,0.13436016524799285,0.19070044723819618,2.9566227100087263,-0.9993884710960428,-0.011936108295718043,0.013261197776515889,0.030072475664617595,0.003200721053872257,0.00048361905759664026,19231.72109235963
1681066385660247802,106,1681066385660247802,camera_1,112,0,0.1343482956081165,0.190839662566152,2.956553955055296,-0.999307556041312,-0.012005978325089494,0.013568377208752643,0.032498677867241206,0.0011547097237780688,0.00017446071367752984,19225.82160130189
1681066385670304536,107,1681066385670304536,camera_1,113,0,0.13441462004434343,0.19139179412897883,2.9581428285181155,-0.9994099717160079,-0.011948104216248671,0.011735828374502514,0.02998702340363839,0.0017436847556382418,0.00026374019110604906,19213.927508189445
1681066385680264711,108,1681066385680264711,camera_1,114,0,0.1343011984222973,0.1919682135191634,2.9555732838539908,-0.9992424064538573,-0.012107433204289276,0.011503600105078947,0.035152388114187055,0.0010600994573906064,0.00016008061386972022,19233.095119665602
1681066385690159320,109,1681066385690159320,camera_1,115,0,0.13442439652510735,0.19299860880830677,2.9590897962789753,-0.9995512863884985,-0.011765922425704753,0.0108897761976096,0.025302207866821386,0.00048536562826484436,7.345190360276904e-05,19212.388611331233
1681066385700286149,110,1681066385700286149,camera_1,116,0,0.1343811951556803,0.19355298635584378,2.957865392818882,-0.9995571965834197,-0.011643306245919796,0.014608856549638099,0.02316086112973339,0.0002876291982829571,4.348551006326614e-05,19226.802747913753
1681066385710152149,111,1681066385710152149,camera_1,117,0,0.13430849255862587,0.19386728404083128,2.9565952648778193,-0.9992716001463581,-0.011732905939082541,0.014314784377653789,0.03337206927031714,0.0018853347282856703,0.0002848710718558736,19219.138132202672
1681066385720242500,112,1681066385720242500,camera_1,118,0,0.13436103284485557,0.19389351222092563,2.9572759001605173,-0.999361353065784,-0.011928604579378107,0.012572442764569024,0.031249449183084303,0.0004452043795026839,6.729827568947878e-05,19218.605256177252
1681066385730176210,113,1681066385730176210,camera_1,119,0,0.13435000188589924,0.19349842496599365,2.9571697549754172,-0.9994168108906198,-0.011746962843572678,0.011748541348596337,0.02983318201860234,0.0007464626105502248,0.000112830347825428,19225.101526545837
1681066385740091562,114,1681066385740091562,camera_1,120,0,0.13438580555617818,0.19282677350119257,2.9578722051179405,-0.9994229889622066,-0.011848687352738595,0.013430735363034978,0.028860233704428633,0.0004382584593258798,6.626103352690689e-05,19216.61475150811
1681066385750124454,115,1681066385750124454,camera_1,121,0,0.13434909824340524,0.19202190115460005,2.957424450380245,-0.9993742896397946,-0.01211328481020761,0.009977569122596636,0.03169772314325599,0.0004289463395252824,6.485255047618222e-05,19220.648783740817
1681066385760445117,116,1681066385760445117,camera_1,122,0,0.13436363934754264,0.19128298087146586,2.95738793251981,-0.9994011673855792,-0.011979528811394805,0.009125749882014303,0.031153141204209447,0.00036333862226456404,5.4930888051520074e-05,19224.153792196415
1681066385770246982,117,1681066385770246982,camera_1,123,0,0.13440205508955616,0.19087742573806848,2.9578802340704495,-0.9994977121815868,-0.011972705219070063,0.013518867342592548,0.026042616982253887,0.0010614233324304223,0.0001604616831638636,19224.368501762154
1681066385780187129,118,1681066385780187129,camera_1,124,0,0.13428189684724265,0.19070300267696896,2.955951076378425,-0.999312416066762,-0.012025798986133292,0.00732280627419538,0.03429944258769398,0.0016998195787891746,0.00025677116070334894,19236.760691455565
1681066385790312767,119,1681066385790312767,camera_1,125,0,0.1344017481779957,0.19108759243469894,2.957545898644522,-0.9993041970022963,-0.011924080205054281,0.016816048956716175,0.03108309286966845,0.000888235226739198,0.0001342680029931711,19211.21023313421
1681066385800356864,120,1681066385800356864,camera_1,126,0,0.13429655635446408,0.19173070072580764,2.9566251821937657,-0.99927817488329,-0.012277237933222721,0.011325944403798293,0.03411922645685657,0.0005973497172817588,9.02611113307216e-05,19222.974514890462
1681066385810229539,121,1681066385810229539,camera_1,127,0,0.13434209353414875,0.1924517043454113,2.95689585260614,-0.9993024636979727,-0.01209020359872098,0.009136227209540928,0.034131252196176715,0.0019976634648628533,0.0003019508380250989,19221.472981648873
1681066385820244789,122,1681066385820244789,camera_1,128,0,0.13434539874576004,0.1932379637668561,2.957204585142634,-0.9993455883328792,-0.011843025306576516,0.014254734924208154,0.031063489234788026,0.00040596339385956526,6.135474892401903e-05,19218.13102848432
1681066385830251932,123,1681066385830251932,camera_1,129,0,0.13431702622723432,0.19373092939380196,2.956586260666044,-0.9992660597759744,-0.011797826512268664,0.01103548073620443,0.03473285525703439,0.000870517804287374,0.00013154062128161283,19220.24642895022
1681066385840145826,124,1681066385840145826,camera_1,130,0,0.13437559508773173,0.1939510905061168,2.9576205119668146,-0.9994179960275356,-0.011867742442496965,0.01296580991220964,0.029235486637712985,3.0150869861245155e-05,4.558325881930906e-06,19218.64101329609
1681066385850212574,125,1681066385850212574,camera_1,131,0,0.13436507060769298,0.19366796419625543,2.957016922135952,-0.999431113968911,-0.01201572805459498,0.013374440447931561,0.028534103330654977,0.0012359853717498481,0.00018679901884384058,19227.74160262035
1681066385860175132,126,1681066385860175132,camera_1,132,0,0.13432853697775818,0.19317761173245443,2.956864234867878,-0.9993485616157711,-0.012041533019116896,0.011140482993602725,0.03214566094682394,0.0011077438248321414,0.00016740832784936945,19224.197266282514
1681066385870428085,127,1681066385870428085,camera_1,133,0,0.13430423091257454,0.19236555418215334,2.9561577482477905,-0.9992347836326914,-0.011945650681178317,0.013178583800725455,0.03483494706956076,0.0006131211994215846,9.2616502913446e-05,19223.765760505696
1681066385881332874,128,1681066385881332874,camera_1,134,0,0.13432433621478215,0.1916544831411566,2.956519603778847,-0.9992649035364116,-0.011895299306088158,0.008303986628429723,0.03548518311717584,0.0017603456508368254,0.00026605682650470883,19224.111927620484
1681066385890019655,129,1681066385890019655,camera_1,135,0,0.13433590475525975,0.19102217376783281,2.9568041220327816,-0.9992368856261851,-0.012025129031775203,0.01422312935774691,0.034332859873952494,0.0001588774612173438,2.4008240930515662e-05,19216.45635604276
1681066385900812387,130,1681066385900812387,camera_1,136,0,0.1343836583710626,0.19075746125453746,2.9576609660659887,-0.9995117675687867,-0.01184723535167281,0.014027286339733162,0.025280521038642544,0.0003603865625336766,5.44781144181271e-05,19228.1477602825
1681066385910373210,131,1681066385910373210,camera_1,137,0,0.13435958353591043,0.19089985172663468,2.9576526502623084,-0.9994810099133343,-0.012003630300238198,0.014115085516141799,0.02635124367289948,0.0007853622664697468,0.00011871761432739388,19225.755749569274
1681066385920581102,132,1681066385920581102,camera_1,138,0,0.13435627137156728,0.19136638876518158,2.9571173356197358,-0.9993331597857423,-0.012006138185947693,0.008377176729428346,0.03345013166712456,0.0016822583856992424,0.00025433469488004,19222.302529033856
1681066385930369138,133,1681066385930369138,camera_1,139,0,0.134332711356002,0.19210797665609508,2.9573116850380554,-0.9993277980362933,-0.012001050057015714,0.009991073768548431,0.033167835540080785,1.0780931916087866e-05,1.6298618736797998e-06,19218.106109066983
1681066385940423011,134,1681066385940423011,camera_1,140,0,0.13433224982115546,0.1928901225390838,2.957034513134123,-0.9992708585412731,-0.011869895358449758,0.009436055040650156,0.03504023001688835,0.00034260551910847425,5.1791777885618325e-05,19216.36045594804
1681066385950360774,135,1681066385950360774,camera_1,141,0,0.1343504609742075,0.19353501126345413,2.957364475376548,-0.9994276082013422,-0.011962137337723479,0.011119816002895567,0.029626220267181567,5.243212217465043e-05,7.926120994492652e-06,19223.927201349296
1681066385960202455,136,1681066385960202455,camera_1,142,0,0.13436236689359585,0.19389053034426107,2.957244537864747,-0.9994097960462713,-0.011647453147956779,0.010132648913199226,0.03068755167683129,6.274640327319503e-05,9.485324201890094e-06,19223.71465911589
1681066385970386266,137,1681066385970386266,camera_1,143,0,0.13433649522784025,0.19385347606006648,2.956645198420862,-0.999303693156138,-0.011786873193090035,0.01614711380818761,0.031503478863429246,0.0023056106292642653,0.0003483809194072113,19220.507751486737
1681066385980227947,138,1681066385980227947,camera_1,144,0,0.13433687749213852,0.1934615506661378,2.9568343244180433,-0.9992189945145706,-0.012075434523326592,0.013828646962925146,0.03499076171703124,5.6684366427361965e-06,8.566471628844753e-07,19212.57957387413
1681066385990205526,139,1681066385990205526,camera_1,145,0,0.13433379128147407,0.19282526461538005,2.957308494327903,-0.9992136739757627,-0.012015850525522051,0.008411161794879824,0.036836197323653404,0.00033166789216920733,5.015276543216385e-05,19208.774753515838
1681066386000207185,140,1681066386000207185,camera_1,146,0,0.13436835636438907,0.19205222294600535,2.958316007712838,-0.9995573295026041,-0.011788231623990375,0.008530055625893977,0.025950352287031374,0.0012869113706983626,0.00019464212115510328,19224.623320955434
1681066386010168552,141,1681066386010168552,camera_1,147,0,0.1343964089096366,0.19134839126409414,2.9582367705612764,-0.9994918344301326,-0.011847426824181625,0.009380906069074789,0.028066171567520445,0.0007119424408301711,0.00010768827325110878,19220.39920354786
1681066386020266532,142,1681066386020266532,camera_1,148,0,0.13440689686204002,0.19089934872969247,2.958462212483198,-0.9995063513362823,-0.012096637449618078,0.013226914544334407,0.02580259158460525,0.0008134260424412787,0.0001230182304163428,19217.819023040713
1681066386030291795,143,1681066386030291795,camera_1,149,0,0.1344122078913429,0.19077811438457865,2.957731644313755,-0.9995075007938052,-0.011938313748101077,0.014162511504123518,0.02533092555887213,0.0005209686933085322,7.875885628046249e-05,19226.858456849
1681066386040259361,144,1681066386040259361,camera_1,150,0,0.13434927224495324,0.19106969013202707,2.9573548809712813,-0.9994378947448537,-0.012368977149365691,0.008669009917287581,0.029929103215886932,8.735107257962227e-05,1.3205120375138525e-05,19228.378342137323
1681066386050250053,145,1681066386050250053,camera_1,151,0,0.1343635816756784,0.191727399866837,2.9570861350013264,-0.9993028386851571,-0.01207924370980958,0.013611013410793963,0.03259860090735284,0.00044900958891958,6.786256065611527e-05,19217.877530890983
1681066386060166597,146,1681066386060166597,camera_1,152,0,0.13438813921679482,0.19253348874965845,2.9578891371805986,-0.9993681335339739,-0.01172587495571737,0.01553763700309568,0.029739189123179306,0.0010825401404872537,0.00016369334968141996,19211.163697580923
1681066386070185184,147,1681066386070185184,camera_1,153,0,0.13436747356463474,0.19325445348235093,2.9577916356643503,-0.9994321301938233,-0.011892947090865491,0.01333545503440848,0.028568174333617944,0.001428016519639641,0.00021593345014396325,19218.126201543375
1681066386080164670,148,1681066386080164670,camera_1,154,0,0.13433682748167164,0.19374773724350242,2.9572344685891516,-0.9993866492587486,-0.011924680437296473,0.007708098807426725,0.03201113076125813,0.0011990981874987483,0.00018126758835451627,19223.344738206128
1681066386089923620,149,1681066386089923620,camera_1,155,0,0.13438310188739305,0.19397466034848712,2.9578894272447473,-0.9994542260826689,-0.011767323933202735,0.01207503802128724,0.02840727916800255,6.8062508944422e-05,1.029160877618673e-05,19218.431478055885
1681066386099785804,150,1681066386099785804,camera_1,156,0,0.13431285382489763,0.19364556782224757,2.9566326781299526,-0.9994092409517696,-0.011803746626631282,0.010690479605976222,0.030455776325293116,0.0002870699972845614,4.337644198368178e-05,19231.763563640772
1681066386108883142,151,1681066386108883142,camera_1,157,0,0.13432061195914247,0.19315611371046673,2.956771432643719,-0.9993152835344733,-0.011938135722253324,0.013214484119760936,0.032431811841785806,0.0014440466766245663,0.00021820671838723138,19221.7619313118
1681066386120115280,152,1681066386120115280,camera_1,158,0,0.13438271773862528,0.19243617302229174,2.957867943240397,-0.9995038942113998,-0.011794930935402096,0.008389542014469923,0.027972498016148727,0.0001613518106751144,2.4398415528698888e-05,19225.642774289816
1681066386130394458,153,1681066386130394458,camera_1,159,0,0.13436859901425166,0.19168667644736076,2.957755487614437,-0.9993890112379811,-0.011896962099084562,0.01566991631189006,0.028888063838926756,0.0008174396934919059,0.00012357011880590892,19215.49821362807
1681066386140278100,154,1681066386140278100,camera_1,160,0,0.13438900641403925,0.1910477937268623,2.957923265968609,-0.9995316434349885,-0.012065060284003759,0.014030022289100434,0.02437389109399536,0.0002542884321883321,3.84464129369022e-05,19226.43082808354
1681066386150281906,155,1681066386150281906,camera_1,161,0,0.13434428086894887,0.1907457671910647,2.9572150305448313,-0.9994353219928659,-0.012040675494317523,0.012621231415241588,0.028718701297587374,0.002997292031068355,0.0004529503433679962,19228.34637785214
1681066386160253286,156,1681066386160253286,camera_1,162,0,0.1343931256962107,0.19094047204579073,2.958245487989496,-0.9995292713047049,-0.012132377293045282,0.015083550648174026,0.02380184291496845,0.002027527545578778,0.00030656258570549015,19221.87770520325
1681066386170333385,157,1681066386170333385,camera_1,163,0,0.1343408171493733,0.1913342989400508,2.957102030936077,-0.9995465400649085,-0.011875941107401745,0.014998151096668692,0.02325363908650552,0.0009156680316664279,0.00013836167376781673,19237.58040584112
1681066386180164575,158,1681066386180164575,camera_1,164,0,0.13439501326202696,0.19206824677792056,2.957625953134208,-0.9994587244637803,-0.011987735298477534,0.015586392251405885,0.02637454591519044,0.0019327639020048082,0.0002921725742218858,19222.71268353425
1681066386190129756,159,1681066386190129756,camera_1,165,0,0.13436369829041078,0.1928771155795117,2.957418301362529,-0.999457311721117,-0.011847242545329694,0.01107221533189977,0.02867282579227898,0.0002377837081439793,3.594494762450105e-05,19226.17676283
1681066386200161218,160,1681066386200161218,camera_1,166,0,0.13439247597777554,0.19358942735499046,2.958366627584808,-0.9995267860374435,-0.011800377238727986,0.015562042135736488,0.023765057021771705,0.0002878792001865804,4.3535452277265934e-05,19217.57139414922
1681066386210129261,161,1681066386210129261,camera_1,167,0,0.13432522154793564,0.19382685545339884,2.9561430144903404,-0.9992849494573165,-0.011762811532760672,0.011028716668373819,0.03419931960700658,0.00014629482757300138,2.2101037684898192e-05,19227.352366067702
1681066386220155477,162,1681066386220155477,camera_1,168,0,0.13436062005395127,0.19389628482606053,2.95753551824521,-0.9993619470165428,-0.012050816358818647,0.013286858624603388,0.030885855472698943,0.0012399916304275393,0.00018746324457470098,19215.178531181533
1681066386230143070,163,1681066386230143070,camera_1,169,0,0.13430995078882782,0.19347056741716104,2.9566214384328715,-0.999359585201716,-0.011945254649992387,0.008370037359298775,0.03267526329511315,0.0006299919332377613,9.519971259321613e-05,19229.010802271772
1681066386240221977,164,1681066386240221977,camera_1,170,0,0.1343329067059803,0.19284412849073504,2.9573194730936976,-0.9993732329507945,-0.011956907356977959,0.006051356303724051,0.0327651448160864,9.249319555237889e-05,1.3985500146971497e-05,19222.680969812216
1681066386250275611,165,1681066386250275611,camera_1,171,0,0.13435351982246566,0.19201317257062495,2.9575325132119943,-0.99945162170121,-0.011886896298664632,0.011920411283612868,0.02851423100902216,0.0001428630785085261,2.159641927643168e-05,19224.69150214526
1681066386260216236,166,1681066386260216236,camera_1,172,0,0.13440751373453835,0.19131086858127228,2.9580108995152963,-0.9995770051159304,-0.012105971518643576,0.011809697249470176,0.02365982561079382,0.0005753954173997045,8.700635242584625e-05,19229.73719979846
1681066386270349979,167,1681066386270349979,camera_1,173,0,0.13435642797883143,0.19083290033865144,2.9566367409823155,-0.999366176103215,-0.012128333933087978,0.014880144016132933,0.029978840719825185,0.0004259062698110938,6.434288662244308e-05,19229.195313909433
1681066386280169010,168,1681066386280169010,camera_1,174,0,0.13432214373370854,0.19075857465646928,2.9567445584881664,-0.9993760241281009,-0.012106650567201544,0.013542774606244114,0.030291660005978643,0.0029343781643547118,0.0004433267067014276,19229.23365715135
1681066386290007591,169,1681066386290007591,camera_1,175,0,0.1343621192578353,0.19103552637316912,2.956867403567552,-0.9993227054616015,-0.012150862446820536,0.011948109534023971,0.03261486730414116,0.0008205246413126588,0.000124005000004955,19223.62672994867
1681066386300430774,170,1681066386300430774,camera_1,176,0,0.13434206451519642,0.1916970750095793,2.956893262921682,-0.9994140803610152,-0.011936513802227856,0.013294629816234095,0.0291936368485481,0.000262912770267576,3.972617146114036e-05,19229.591887376508
1681066386310106992,171,1681066386310106992,camera_1,177,0,0.13433045322292614,0.19246980021503718,2.956822393083121,-0.9992463629049089,-0.012033634924430565,0.00883771583393757,0.035830052060460416,0.00048333127051591873,7.305676263373547e-05,19217.87775506184
1681066386320415258,172,1681066386320415258,camera_1,178,0,0.13432378225315109,0.19316443870290498,2.9559595202135385,-0.999128558645589,-0.012034389560669424,0.011312951592340756,0.03833163045005178,0.001451652671676129,0.0002193218941384281,19217.607877126902
1681066386330229997,173,1681066386330229997,camera_1,179,0,0.13440147883504933,0.1937789973102997,2.9579940277986405,-0.9994118852944931,-0.011665803208869903,0.012422893141029893,0.029756752067478708,2.3547327145934105e-06,3.5609658497361256e-07,19213.452196316903
1681066386340223312,174,1681066386340223312,camera_1,180,0,0.1343460338195035,0.19394333545578263,2.9571273029280216,-0.9993632131534647,-0.012038340442382226,0.012087960559616494,0.031338917729960676,8.192699169740081e-05,1.2383337053084419e-05,19220.937742315706
1681066386350243330,175,1681066386350243330,camera_1,181,0,0.13429589726209057,0.19368198420715604,2.956567949079382,-0.9993681784211238,-0.011751239050862557,0.012527138531683968,0.031116284164765303,0.003228008165024221,0.00048765845927825754,19228.426325065084
1681066386360209941,176,1681066386360209941,camera_1,182,0,0.13435185551623285,0.19319412597083285,2.957617982586101,-0.9993964543963293,-0.011956739890270535,0.008710094340541654,0.03143083784789886,8.539756527170539e-05,1.2913331559409144e-05,19219.324124486535
1681066386370257139,177,1681066386370257139,camera_1,183,0,0.13440221672956626,0.192487066834904,2.9586014178590134,-0.9994956249282712,-0.012016711210842758,0.010347405138692872,0.027514098346408094,0.0002691449481062591,4.0715430795759856e-05,19214.90413088025
1681066386380307435,178,1681066386380307435,camera_1,184,0,0.13434360449072155,0.19162795916539466,2.9570243540209717,-0.9994112066379127,-0.012031327483603116,0.012501767423456399,0.029600557711360317,0.0020507375011220574,0.0003098816671370418,19228.12887933338
1681066386390221595,179,1681066386390221595,camera_1,185,0,0.1342869306386847,0.19095152279108116,2.9557067359462246,-0.9991539954953914,-0.012128819071197412,0.013313407135855458,0.03697212766353368,0.0010728755150921643,0.00016202974541361557,19224.38017723721
1681066386400463342,180,1681066386400463342,camera_1,186,0,0.1343824408824496,0.19079177898235092,2.957783993069266,-0.9994460505173713,-0.012157669785080082,0.013055237645219568,0.028095265449037603,0.0015650250716134906,0.00023662032348432924,19221.756792543907
1681066386410180330,181,1681066386410180330,camera_1,187,0,0.13439440136545655,0.19093638934265322,2.9579306245975916,-0.9994407214593004,-0.011980991380120569,0.014233162177556465,0.02778699747886056,0.002793596708215773,0.0004223941990690004,19218.6857218981
1681066386420251846,182,1681066386420251846,camera_1,188,0,0.13435204590635902,0.1913217856150588,2.9567061037744935,-0.9993467601638688,-0.011875583077203633,0.008971180966613847,0.032932375994144704,0.00022728252224624157,3.4347831293594665e-05,19228.391282614903
1681066386430193901,183,1681066386430193901,camera_1,189,0,0.1344360119399998,0.1921151727742567,2.9582707487751136,-0.9995778268015327,-0.011955076559561007,0.01470095630647635,0.022025580465795155,0.00022819190053269267,3.450719866370524e-05,19224.65409420849
1681066386440279006,184,1681066386440279006,camera_1,190,0,0.13430976901399053,0.19285558131711725,2.956767519283178,-0.9993767384584187,-0.011918117236824078,0.008643086868961326,0.03208411069545477,0.001297782000619918,0.00019611632780939893,19228.98204194475
1681066386450211763,185,1681066386450211763,camera_1,191,0,0.13438925742330668,0.19359259133291212,2.958119767634278,-0.9994517177885422,-0.011825178343140265,0.01181175859202529,0.028581660652398085,0.00021291017765179276,3.219890535605808e-05,19215.745061327943
1681066386460194587,186,1681066386460194587,camera_1,192,0,0.13432539137323043,0.1938735707120517,2.9568554871487067,-0.999412236267046,-0.011902637940570145,0.012829705471814537,0.02947724321005354,0.000643195933662355,9.718708865809073e-05,19228.223684826287
1681066386469962596,187,1681066386469962596,camera_1,193,0,0.13434381756463654,0.19385325831752373,2.9573515073510652,-0.9995066601096314,-0.011878672767038079,0.018696509963755232,0.02226598403301753,0.0023065354907885194,0.0003485661312755698,19227.87531740474
1681066386480204820,188,1681066386480204820,camera_1,194,0,0.13435362229755066,0.19348853668658483,2.957282641409384,-0.9994663678697515,-0.011744836972703237,0.010022682517385709,0.028785137430395357,0.00026235601399093866,3.9659241928236146e-05,19228.46547348692
1681066386489872694,189,1681066386489872694,camera_1,195,0,0.1344407992478655,0.1928677376477934,2.958669116571817,-0.9996523968042758,-0.011875722088849317,0.01272468071713343,0.019802406141235507,0.0005985616589896381,9.053323709603586e-05,19225.956669052248
1681066386500223636,190,1681066386500223636,camera_1,196,0,0.13437800268933692,0.19200207799064514,2.9574450097603466,-0.9994117717728347,-0.01185565534420427,0.014705294742227986,0.028623559960059292,0.0021434135851450264,0.0003240028926217836,19221.383781464654
1681066386510138511,191,1681066386510138511,camera_1,197,0,0.13446388445976795,0.19141219938143747,2.959347556673753,-0.9995948589428028,-0.011729551290346866,0.011085918442734675,0.02344435995984062,0.0003332993946969509,5.044269270807859e-05,19213.80487376649
1681066386520214796,192,1681066386520214796,camera_1,198,0,0.13442221087308176,0.19093902390816017,2.958456360489489,-0.9995515692286943,-0.012130160792152591,0.013084937768932176,0.02404795324335492,0.0008309716358780861,0.00012567488651201,19221.694862251166
1681066386530177354,193,1681066386530177354,camera_1,199,0,0.13442059281613344,0.19082784810857983,2.9584874505482577,-0.9995668820910726,-0.011943800107702742,0.01247397197331419,0.023828426069053124,0.0004253910155966879,6.433846676043584e-05,19222.69675248862
1681066386540165185,194,1681066386540165185,camera_1,200,0,0.1343819733179443,0.19105549730355983,2.957338995343715,-0.999335810155947,-0.012170766868856665,0.009900470727889299,0.03289060128893277,0.0018656071042641997,0.00028205114968640456,19219.446101630107
1681066386550208091,195,1681066386550208091,camera_1,201,0,0.1343806338833284,0.19177183972719017,2.957785956706119,-0.9993962533259929,-0.011884887670231565,0.012597680921991452,0.030119374469296172,1.876387977972627e-05,2.8370582693582124e-06,19216.738453876464
1681066386560182332,196,1681066386560182332,camera_1,202,0,0.13439692716279972,0.19248368061436955,2.9573787826177034,-0.9993689421364629,-0.011987274270630762,0.012481543532012961,0.031019893933832962,0.0027220917982049286,0.0004115360935255792,19219.19542371505
1681066386570211410,197,1681066386570211410,camera_1,203,0,0.13434776799204132,0.19321416765935223,2.9565597310684257,-0.9992577958772689,-0.012071654127642795,0.0110048789798141,0.0348858880317628,0.00032388261752203107,4.894212818545964e-05,19220.61810621014
1681066386580155849,198,1681066386580155849,camera_1,204,0,0.13436661284983603,0.19376112898102768,2.957732661193174,-0.9995041743437355,-0.011528978828351431,0.009848052783817274,0.027595361439748046,0.001266170118469745,0.00019145682867844688,19225.459438670896
1681066386590193510,199,1681066386590193510,camera_1,205,0,0.1343009675252928,0.1939157595775628,2.956657246237224,-0.9993526719637106,-0.011914374796803335,0.014488632667133919,0.03069795165203667,0.005642603267915547,0.0008525394114362862,19225.179507854158
1681066386600182056,200,1681066386600182056,camera_1,206,0,0.1343393219173746,0.19366440133846008,2.956814871227038,-0.9993485068894126,-0.011863107415052965,0.011917213215872063,0.0319344404918618,3.428454510867596e-05,5.180983873599586e-06,19223.890035126125
1681066386610138416,201,1681066386610138416,camera_1,207,0,0.13427912958361815,0.19306523148771182,2.9555199620305386,-0.9992732957174779,-0.012032543086322473,0.012642581799324423,0.03388603692161937,0.000642612052615732,9.703426206624619e-05,19234.816252573633
1681066386620130538,202,1681066386620130538,camera_1,208,0,0.1343591847680408,0.19241004066385914,2.9568058096793006,-0.9992843933443656,-0.011889590973457171,0.011866188966228396,0.033890004489300934,0.0017788326367735863,0.0002688542276816627,19219.840034573685
1681066386630207061,203,1681066386630207061,camera_1,209,0,0.13435093343940163,0.19166756421906483,2.9573618583071384,-0.9994165591455982,-0.011883465904634197,0.012290856269096378,0.029567877770290928,0.00011938426177948713,1.804461324290938e-05,19224.122286374222
1681066386640161275,204,1681066386640161275,camera_1,210,0,0.1343155989244189,0.19099063769756283,2.956122112123132,-0.9993327928729105,-0.01182038079338456,0.012899893469712997,0.03205995064247301,0.0030318411882035434,0.0004579475808235098,19233.449124018676
1681066386650255441,205,1681066386650255441,camera_1,211,0,0.1343780778531423,0.19074477596797595,2.957539329060555,-0.9995407850544976,-0.012033364964591207,0.014604727328863861,0.02366683502112961,0.0007986514247022569,0.00012070739137238209,19232.144149782252
1681066386660195589,206,1681066386660195589,camera_1,212,0,0.13435660494191293,0.1908764695661268,2.9571857169936884,-0.9993921472874958,-0.012174546704723196,0.015113780818412787,0.02896014471641266,0.0006055322592146695,9.15132177082269e-05,19224.203511975473
1681066386670144796,207,1681066386670144796,camera_1,213,0,0.13441676931908822,0.19142277299742014,2.958698356159388,-0.9995620830179439,-0.01188999497851585,0.013938132427449632,0.023237871603804264,0.0006084211054258049,9.202807406220028e-05,19218.574528845493
1681066386680305719,208,1681066386680305719,camera_1,214,0,0.13436295881355514,0.19206588625205928,2.9571286866697837,-0.9994640973895421,-0.0118039095766243,0.011051199438762321,0.028461495726327002,0.0005976618849672377,9.03282545455997e-05,19231.1096267579
1681066386689925670,209,1681066386689925670,camera_1,215,0,0.13433212009025186,0.19288430863547276,2.957127916856242,-0.9993283165150232,-0.01178820050942172,0.009400357890716898,0.03340041034966249,0.0015628853579983115,0.00023627424576055708,19219.83068498574
1681066386700258731,210,1681066386700258731,camera_1,216,0,0.13434722844125774,0.19354782311144808,2.9576580029382815,-0.9994411641853027,-0.012028061317305529,0.008447405082936888,0.030022098864651806,0.0005754615413025022,8.700961728739707e-05,19222.41213203268
1681066386710264205,211,1681066386710264205,camera_1,217,0,0.13434679384208698,0.19388934471082586,2.956866746434396,-0.9992999967354523,-0.01189786298890343,0.011025904765181373,0.03371033676680522,0.0005525309825316072,8.351479305908116e-05,19219.337279429208
1681066386720077991,212,1681066386720077991,camera_1,218,0,0.1343414587497918,0.19387736872637887,2.957267599079429,-0.9993612494490238,-0.011794116958763798,0.012728367392208959,0.031240687706545416,0.001483979052864015,0.00022432940663155698,19218.551940111567
1681066386730314731,213,1681066386730314731,camera_1,219,0,0.13431711104619135,0.19347727074476134,2.956668401059352,-0.9992915294484006,-0.011739178115053456,0.009648847006062273,0.03443153527383132,0.00016782496822997928,2.5364144438622676e-05,19222.02133138699
1681066386740167140,214,1681066386740167140,camera_1,220,0,0.13431065294694497,0.19277223199857255,2.9563193739417994,-0.9992328550676852,-0.011875949510687841,0.006972606714593859,0.03666123200474649,0.00019250792684033513,2.9093668722636176e-05,19223.592798612903
1681066386750283479,215,1681066386750283479,camera_1,221,0,0.13434714746010806,0.19197853216616,2.957110220741492,-0.9993856839227356,-0.011712347319957987,0.008223449749606083,0.03199141392246392,0.0011493013007566333,0.00017372805348022955,19226.002442500198
1681066386760239839,216,1681066386760239839,camera_1,222,0,0.1343052446428804,0.19125128877474504,2.9565090068524484,-0.9992376728957242,-0.012380180999777255,0.008376792491234764,0.03606429719139859,0.00020353874424472454,3.0761003346515636e-05,19222.865230821073
1681066386770267724,217,1681066386770267724,camera_1,223,0,0.13433727739191367,0.19078632111262286,2.95674131488649,-0.9994378658380975,-0.012134184322004086,0.013907171496602758,0.027987577258367535,0.0002088924520649016,3.155787116363338e-05,19234.221490058117
1681066386780200719,218,1681066386780200719,camera_1,224,0,0.1343494318919881,0.1907617577770061,2.9574895553908878,-0.9994614375410136,-0.01219286013444832,0.011231604672129782,0.028319959157481128,0.0005408615106716752,8.175140687902168e-05,19227.64577174931
1681066386790317058,219,1681066386790317058,camera_1,225,0,0.13437252943807299,0.19104645007656323,2.9567561922250656,-0.9993633285442086,-0.012027032389459055,0.016302743865576435,0.029368496648562024,0.00037722813431173563,5.699198617528768e-05,19226.596208171686
1681066386800219535,220,1681066386800219535,camera_1,226,0,0.13436794207385472,0.19172649725399854,2.9574608173184336,-0.9994145030250734,-0.011987390026896238,0.009675647505221183,0.030550539583505284,0.0013790089869871736,0.0002084977902711646,19223.717887459214
1681066386810239553,221,1681066386810239553,camera_1,227,0,0.13436242389959002,0.19251051468296995,2.957611784937738,-0.9992820326332192,-0.01203421167218482,0.008467352797801737,0.03491276188514359,0.0005616716807708144,8.494325183255386e-05,19210.736804299406
1681066386820226192,222,1681066386820226192,camera_1,228,0,0.13433864746080126,0.1932346710428441,2.9569433694944487,-0.9993048080383196,-0.011857612784235503,0.01589664280610851,0.031568883383033736,0.00010681041749194264,1.613996463484003e-05,19217.51932662912
1681066386830271005,223,1681066386830271005,camera_1,229,0,0.13433762205829683,0.1936807808016346,2.956925567213531,-0.9994344874210421,-0.012004671743947487,0.011758544114997731,0.02912610255517833,0.0002298668841831386,3.473741973522938e-05,19229.83208388137
1681066386840255498,224,1681066386840255498,camera_1,230,0,0.13431194526713894,0.19387675347111574,2.956531311538786,-0.9993822544782344,-0.011787762398076346,0.01258660827921002,0.03062246534284811,0.001350881124380976,0.00020409103190134414,19229.867324328632
1681066386850256919,225,1681066386850256919,camera_1,231,0,0.13430785790086844,0.193656305424518,2.955714437351669,-0.999231268525967,-0.01176496362445303,0.010796888939750103,0.035803419112214116,0.0006676908815279603,0.00010085090789280754,19228.699274345185
1681066386860311508,226,1681066386860311508,camera_1,232,0,0.13428426609132726,0.1930859832510421,2.9553855292556825,-0.9991987955574292,-0.011764298839886491,0.012190849137664925,0.03625950119198166,8.06346652098e-05,1.217562792825944e-05,19230.28961425251
