%time,field.header.seq,field.header.stamp,field.header.frame_id,field.image_seq,field.transforms0.fiducial_id,field.transforms0.transform.translation.x,field.transforms0.transform.translation.y,field.transforms0.transform.translation.z,field.transforms0.transform.rotation.x,field.transforms0.transform.rotation.y,field.transforms0.transform.rotation.z,field.transforms0.transform.rotation.w,field.transforms0.image_error,field.transforms0.object_error,field.transforms0.fiducial_area
1681066500169386148,5,1681066500169386148,camera_1,11,0,0.13671271854057193,0.15283044807343305,2.9593627332306283,-0.9994481994193726,-0.011654474069397494,0.01247971838189628,0.02849081502254162,3.4987227991223335e-05,5.287739042998444e-06,19228.36783891473
1681066500189201354,6,1681066500189201354,camera_1,13,0,0.13664671449576002,0.153180809856519,2.9591481282153076,-0.9993157569327209,-0.011921502925078379,0.011015890148417936,0.03323470893852611,0.0010725094471126795,0.00016209289937276796,19220.859686656266
1681066500209294557,7,1681066500209294557,camera_1,15,0,0.13663796990907706,0.15326735586514564,2.9589582351817105,-0.9993398041598613,-0.011997042716882608,0.01284758950243205,0.03179569517649176,0.0012066455674357712,0.00018231242174286577,19224.6049651571
1681066500229227304,8,1681066500229227304,camera_1,17,0,0.13673187075960364,0.15289290361654004,2.95997861592793,-0.9995036115166045,-0.011965863472038565,0.013592513329865932,0.02577968692615387,0.0006214442546479404,9.394278493595704e-05,19224.912995246006
1681066500249210119,9,1681066500249210119,camera_1,18,0,0.13667412035786744,0.15325091274544989,2.959339042198329,-0.9994113615705799,-0.011949320521539934,0.015258519861147346,0.02830762572806834,0.0009298814693465829,0.0001405302989879432,19224.64350716409
1681066500269215583,10,1681066500269215583,camera_1,20,0,0.13664779913976124,0.15334674885125335,2.9593706573243668,-0.9993301821387336,-0.011859410871655911,0.008407785315783154,0.033583486811624874,0.0016899226466193795,0.00025548686422727554,19220.054397182183
1681066500289248704,11,1681066500289248704,camera_1,22,0,0.13665355646833466,0.1529659366870236,2.9587810219467783,-0.999275472825628,-0.011982706336032541,0.009490942848731254,0.03485493023697174,0.0002992704976350069,4.5224134979441015e-05,19223.083231759025
1681066500309195041,12,1681066500309195041,camera_1,24,0,0.1366597441295449,0.152843295113356,2.958732918374248,-0.9994306331716182,-0.011870058463929651,0.009546463006952955,0.030106083011549527,4.464999074116349e-05,6.746120820738641e-06,19236.440478307544
1681066500329116106,13,1681066500329116106,camera_1,26,0,0.13662296296446103,0.1532718630002475,2.958540564263546,-0.9993333755832329,-0.011799066010410017,0.008522249466864864,0.03348070714199008,0.0004391621914692223,6.63531670067904e-05,19230.982861182656
1681066500339165925,14,1681066500339165925,camera_1,27,0,0.13669853089592884,0.1531909264108694,2.960250818366371,-0.9994740837584515,-0.012238266173451013,0.011723629815174311,0.027646649710743276,0.0016869090613909066,0.0002550622058965433,19219.781318181078
1681066500349021196,15,1681066500349021196,camera_1,28,0,0.1366958677986521,0.15290035931264623,2.959325319278436,-0.9994601758692623,-0.011743435294213728,0.012257479606965115,0.028128326870951032,0.0009830226772464812,0.00014854647462184706,19230.014393280377
1681066500369186639,16,1681066500369186639,camera_1,30,0,0.13669992516584528,0.15283091707328977,2.9592857451972683,-0.9994727434137557,-0.011647719394265878,0.012862447843600019,0.027443090958639792,0.001139820262324065,0.00017225075977522961,19231.27415199345
1681066500379148960,17,1681066500379148960,camera_1,31,0,0.13661990160519763,0.1531575156304193,2.958643382162901,-0.9992338752390749,-0.012128097109477832,0.014415949108522551,0.0343038226223335,0.00011921703116968274,1.8010982284872113e-05,19219.535226722954
1681066500389200687,18,1681066500389200687,camera_1,32,0,0.13658852617455253,0.15325388096932827,2.957648906528908,-0.9992539347779585,-0.011892247799404657,0.01414570612457041,0.03391234688549602,0.0008225744822993875,0.00012418174863657955,19233.836557732662
1681066500409162044,19,1681066500409162044,camera_1,34,0,0.13664019680721196,0.15327262124238591,2.9586879426109416,-0.9991920750048512,-0.011902627530382832,0.012864071911173829,0.03616684060347151,0.0005753323202952743,8.69309530452903e-05,19215.793815550867
1681066500419326782,20,1681066500419326782,camera_1,35,0,0.13672442752909994,0.15285406842194244,2.959632884398576,-0.9993899918587397,-0.012152426668598934,0.011908115378045253,0.030498516140885012,0.0006668454152531922,0.00010080137953167848,19220.745325904456
1681066500429077386,21,1681066500429077386,camera_1,36,0,0.13674599714062619,0.15284963367439602,2.959866339756437,-0.9994568361948016,-0.012115334149095238,0.009268388041554082,0.02921212496626338,0.002489754813723266,0.00037641869271676036,19224.26425619865
1681066500449232578,22,1681066500449232578,camera_1,38,0,0.13667896615509342,0.15303017898521007,2.9594212618774183,-0.9993482640926318,-0.012076337626923757,0.013347362263494884,0.031289887266839254,0.0015881754807196558,0.0002400178294713378,19219.34654154372
1681066500469984769,23,1681066500469984769,camera_1,40,0,0.13669501238328707,0.15337383915332012,2.9600608022680452,-0.9994171272621528,-0.011934169941343184,0.013015835228511624,0.029215909299235218,0.0008501924457959831,0.0001285545470831466,19216.545117037953
1681066500490054607,24,1681066500490054607,camera_1,42,0,0.1367086373137789,0.15297619238519838,2.959544541225334,-0.999433567002451,-0.011904222954269648,0.012645745783401267,0.028825678451582536,0.0006414909148588777,9.696685755457623e-05,19224.896637819482
1681066500509262561,25,1681066500509262561,camera_1,44,0,0.13673860269892277,0.15291102542444968,2.9601105870148086,-0.9995788843622763,-0.011700469300131872,0.009617428967833044,0.024751929526255774,0.00010798784205690026,1.6327954676731418e-05,19230.739273419713
1681066500539242267,26,1681066500539242267,camera_1,46,0,0.13672072945885377,0.15337256702938556,2.960235594893758,-0.9995171105481638,-0.01194531863002306,0.013898439892356923,0.02509359386049539,0.0005477886297740042,8.282822919074936e-05,19222.322079366895
1681066500549135446,27,1681066500549135446,camera_1,47,0,0.13664488128516913,0.15312560022725547,2.95858617671271,-0.9992683997726969,-0.012048278754655974,0.008681181167827276,0.035244024859474664,0.0016701353597454727,0.0002523795788389262,19225.292418171066
1681066500569258451,28,1681066500569258451,camera_1,49,0,0.13672675105904586,0.15281579767977896,2.9594097398437818,-0.9994708088710696,-0.011763484029920494,0.01401514982952965,0.026894204456415546,9.495776612311602e-05,1.4350924633923643e-05,19229.168069539708
1681066500579132318,29,1681066500579132318,camera_1,50,0,0.1366446243221908,0.15321335316273266,2.9591300955808375,-0.9992660859927653,-0.012132413658178364,0.00875215068654948,0.03526320719795834,0.0006864357856102288,0.00010375928370169948,19218.10552390013
1681066500599166393,30,1681066500599166393,camera_1,52,0,0.13666566796229573,0.1534142095192486,2.959725702126153,-0.9993944306991465,-0.011944752327954786,0.008770501752164124,0.03148290136515824,0.0004042598302476108,6.112427148914718e-05,19220.656348394805
1681066500619154930,31,1681066500619154930,camera_1,54,0,0.1366754739762205,0.1530164064253024,2.958550974984692,-0.9993628922535739,-0.011919527708684695,0.013116393428843947,0.03097893912311237,0.0012488769134506583,0.00018867052855624307,19231.6597076318
1681066500639095306,32,1681066500639095306,camera_1,56,0,0.13667537087526715,0.1528076213248253,2.959017401631841,-0.9993803526294817,-0.012142239359419797,0.010726792341878344,0.031247603549163634,0.0020951482583768666,0.00031656784752954824,19228.436004751013
1681066500659119129,33,1681066500659119129,camera_1,58,0,0.13670848218033088,0.15331303487132322,2.960190488679144,-0.9994133294127338,-0.012071651774545044,0.010753084774296191,0.030193432786380207,0.0012195135932415724,0.00018443566298522796,19215.58405901608
1681066500679146766,34,1681066500679146766,camera_1,60,0,0.1366772733572105,0.15324366578944973,2.959653418388703,-0.9994374542093816,-0.012036145112683536,0.011255542597748722,0.02920991432933655,0.00103608617791906,0.00015660834955148875,19224.376869421918
1681066500689167261,35,1681066500689167261,camera_1,61,0,0.13675779857175985,0.15286328000259375,2.9602411278522975,-0.9994566961768939,-0.012090348497129755,0.016483633279087903,0.025853931505794295,0.0019186761346645653,0.0002901452494838228,19216.65352857835
1681066500699194192,36,1681066500699194192,camera_1,62,0,0.13669428494371252,0.15287263534228415,2.9591613958777323,-0.9994010537370172,-0.01179375035950048,0.009895842010586822,0.030992153082657677,4.1219231206923716e-05,6.229564591906714e-06,19228.19334275648
1681066500719099998,37,1681066500719099998,camera_1,64,0,0.13665205750854223,0.15306387699790253,2.9584809001051307,-0.9992703718212554,-0.011973688188500024,0.012645213669902133,0.03399196026440651,0.0009122231276705861,0.00013780534554917747,19225.176772940322
1681066500729135274,38,1681066500729135274,camera_1,65,0,0.13664222353035965,0.15331271301578023,2.958545984683959,-0.9992766869821226,-0.012020326827615559,0.013381460655904698,0.03350449384343857,0.000531513593159616,8.029815791062431e-05,19224.44649636698
1681066500739215373,39,1681066500739215373,camera_1,66,0,0.13667101895653913,0.1531703838921224,2.9590421102697544,-0.9993703534697885,-0.011915097198279287,0.011131518493613525,0.03151216210373221,0.00012753356713801622,1.9272702293699616e-05,19226.642591576674
1681066500768961191,40,1681066500768961191,camera_1,68,0,0.13671274570081227,0.15284468192766043,2.9594379804256894,-0.9993953780064858,-0.011802802289679632,0.016319943699687495,0.028341342858502615,0.0020920667448081076,0.00031616533641195264,19221.735132642556
1681066500788946390,41,1681066500788946390,camera_1,70,0,0.13671663217376542,0.15325746281587602,2.960697678713914,-0.9995515510476757,-0.011955319931280455,0.011863083513484932,0.024759530954335997,0.00010716106044128537,1.6209384694503524e-05,19220.108388683882
1681066500808952808,42,1681066500808952808,camera_1,72,0,0.13666587853278853,0.15332190377520255,2.9592269786511376,-0.9993053261365777,-0.011674641900980158,0.010514308121283301,0.03379374522426774,0.0019189651939086616,0.00029009755176067584,19218.787640068334
1681066500819013118,43,1681066500819013118,camera_1,73,0,0.13671281833740373,0.15287267902790147,2.9592317580714727,-0.9994135484638877,-0.012007469451144547,0.011533970650261217,0.029922355275600502,0.0010778532596305013,0.00016287781920416123,19227.86784304621
1681066500828966856,44,1681066500828966856,camera_1,74,0,0.1366775443204402,0.15281721462930856,2.958626590218645,-0.9992864309204437,-0.011929774421024107,0.010039487358339542,0.034402298675040605,0.00022396247368305922,3.3839512377025464e-05,19225.76241854508
1681066500839331388,45,1681066500839331388,camera_1,75,0,0.13668828848250297,0.15302811847940892,2.959049223002786,-0.9993504021120656,-0.011749022529379129,0.011956607209848912,0.031902567484232675,0.0008083878783509136,0.0001221515280885309,19224.50183034723
1681066500859146833,46,1681066500859146833,camera_1,77,0,0.1366735758397133,0.1532746849584269,2.9593247030747043,-0.9993987424249055,-0.011658920550361768,0.011645126129408065,0.03050597070326027,0.000579679966904223,8.76137694128523e-05,19224.835484691546
1681066500879183292,47,1681066500879183292,camera_1,79,0,0.13668237430840846,0.15325725546722455,2.9595509266319606,-0.9993671225040197,-0.011804526118326266,0.011024938209303474,0.03169319104537377,0.0003079319722019136,4.655258674225595e-05,19219.684319410015
1681066500899147272,48,1681066500899147272,camera_1,81,0,0.13676562378542115,0.15287351507433386,2.960360958902895,-0.9995588420047447,-0.011853572157339065,0.008755810249349611,0.025786624131946788,0.0004471541615203023,6.762295381882023e-05,19226.308122336402
1681066500919130325,49,1681066500919130325,camera_1,83,0,0.13667497026334902,0.15310308390830082,2.9593345522925336,-0.9993398562261682,-0.01191225054825147,0.012250305663320188,0.03206056855223425,0.0005910074687562883,8.932929790619225e-05,19219.960265232017
1681066500938919305,50,1681066500938919305,camera_1,85,0,0.136681786842322,0.15336575812727596,2.959898942207128,-0.9993834792457138,-0.012013449856449844,0.01556531111580318,0.029087102350472967,0.000686406739987433,0.00010377330359409193,19214.99415275443
1681066500958962678,51,1681066500958962678,camera_1,87,0,0.13667454277095634,0.15289507023891943,2.9587984120304727,-0.999343857769638,-0.01214227721149881,0.013498405891482658,0.031340262931340734,0.00012959714513272047,1.9579553985342656e-05,19227.079650484025
1681066500978966236,52,1681066500978966236,camera_1,89,0,0.1367306890137311,0.15296138956111058,2.9598906053133347,-0.9993569165904508,-0.011870829743992095,0.009608040299967046,0.032442598934277825,0.0035104359267279506,0.0005307975100092047,19215.26015079837
1681066500988955497,53,1681066500988955497,camera_1,90,0,0.13667006081412966,0.15336074928758361,2.959496787265553,-0.9993371270375762,-0.011853601268774164,0.012338548432645806,0.03213345427773986,0.00010493997251614928,1.5863422265364206e-05,19217.381651853913
1681066501008881807,54,1681066501008881807,camera_1,92,0,0.13670634394258108,0.15334157703190116,2.960491227798339,-0.9994877649893465,-0.011875057700586882,0.010670347828440166,0.0277368765081518,0.0022392856189981103,0.0003386617464031964,19217.758661060587
1681066501028955698,55,1681066501028955698,camera_1,94,0,0.13673612058305748,0.15283397658135017,2.9591065237742122,-0.9993296728884022,-0.011780228907277222,0.01227831523158442,0.032414102898660424,0.0015498337452299893,0.00023421667485531552,19222.00625734194
1681066501038959264,56,1681066501038959264,camera_1,95,0,0.13669750337302128,0.15300993663490933,2.9596438359411996,-0.9994593548444679,-0.011800495825541466,0.011845848831811263,0.0283094008697723,0.00044587813317775726,6.739828738100098e-05,19225.976677773047
1681066501058903455,57,1681066501058903455,camera_1,97,0,0.13666667884936007,0.15327273814455547,2.959132416414497,-0.9993033846712438,-0.011857606498361137,0.016685076969037614,0.031204979719005186,0.0016087475814856589,0.00024307878554382357,19217.73585611943
1681066501069061994,58,1681066501069061994,camera_1,98,0,0.13678445705415915,0.15305732793841687,2.960881075262705,-0.999555536349397,-0.011686311081349314,0.014063474761450334,0.023545245044666055,0.00014577509136870503,2.205001647473439e-05,19217.053382080514
1681066501089092969,59,1681066501089092969,camera_1,99,0,0.13678445705415915,0.15305732793841687,2.960881075262705,-0.999555536349397,-0.011686311081349314,0.014063474761450334,0.023545245044666055,0.00014577509136870503,2.205001647473439e-05,19217.053382080514
1681066501099200248,60,1681066501099200248,camera_1,100,0,0.13674753481474533,0.15285252102786376,2.9596866143921017,-0.9994468868058212,-0.011736786511294525,0.011945363250402324,0.028731108460278924,0.00021964125335216522,3.3203935598067316e-05,19224.303410503206
1681066501109225034,61,1681066501109225034,camera_1,101,0,0.13671707550615741,0.1529158644357629,2.9599000393101274,-0.9994632874143159,-0.012090998688094559,0.011104071930375891,0.028348623392645392,0.0007495221798308194,0.00011332986353239966,19223.598323767066
1681066501119245052,62,1681066501119245052,camera_1,102,0,0.13666603901712893,0.15332746368325548,2.959541816567688,-0.9993515217436322,-0.011860651655045979,0.013318350758411018,0.03128070434117912,0.00033611798426136374,5.0806919914193805e-05,19217.66180369572
1681066501129194259,63,1681066501129194259,camera_1,103,0,0.13667653076330538,0.153371442329666,2.959182290404788,-0.9992681954345398,-0.01212516976379292,0.011926450183811376,0.0342609637519221,0.00018403754802420735,2.7817399359550896e-05,19216.13952813612
1681066501149055957,64,1681066501149055957,camera_1,105,0,0.13663832871094972,0.15309617912701623,2.958223681284856,-0.9993140316115039,-0.011696648574709576,0.01258828850997429,0.032805329275460544,0.0004669904592446983,7.052839718276663e-05,19231.844810355455
1681066501169144868,65,1681066501169144868,camera_1,107,0,0.1367481095007797,0.15283927295506594,2.960219349240802,-0.9995162693285989,-0.011950834875357266,0.011520850010834893,0.026299713083027556,0.00031863845651969314,4.817967826735398e-05,19223.63601641066
1681066501189109563,66,1681066501189109563,camera_1,109,0,0.13668203315257627,0.15317668651687655,2.9590268403382254,-0.9994114080190638,-0.011670821093447954,0.020175605301581568,0.02517090397804671,0.0006160625489428639,9.307551890805459e-05,19226.78079139371
1681066501209175348,67,1681066501209175348,camera_1,111,0,0.1367042019120927,0.1533561273927475,2.959684475715328,-0.9993199959382341,-0.011646130603992938,0.00941059545086304,0.03369501525779128,0.0014984137378633022,0.00022659743120453872,19214.453956878162
1681066501219162464,68,1681066501219162464,camera_1,112,0,0.13668934897631033,0.1528138117387614,2.958365937518425,-0.9993040452035001,-0.011757466069857728,0.012780499956600426,0.03301281648688011,0.0021225993405096233,0.00032061657741535204,19229.28735276963
1681066501239146709,69,1681066501239146709,camera_1,114,0,0.13673877777197257,0.15286960940783012,2.96002735825302,-0.9995210173357382,-0.01194710823842127,0.009676106741546318,0.02685843381876005,0.0007262519211508334,0.00010980327686692574,19227.207947167335
1681066501259119510,70,1681066501259119510,camera_1,116,0,0.13668598309436353,0.15327968647059353,2.9594940078434417,-0.9992711609595423,-0.011864930614992966,0.012240863510069155,0.03415452468704435,0.0008417986100539565,0.0001272602880528635,19212.060127606142
1681066501289174795,71,1681066501289174795,camera_1,118,0,0.13667246212231107,0.1529665178637517,2.9590679032294944,-0.999405803961212,-0.011887570724651996,0.011019587388719818,0.030418635154986905,0.0007049620035104455,0.00010652221188076243,19229.415224036195
1681066501309134244,72,1681066501309134244,camera_1,120,0,0.13674037312490117,0.15288995264792707,2.9597839994553365,-0.9994942277185653,-0.012101433699494183,0.016067788178291704,0.024630676863275854,0.00040620885556563735,6.139564110973343e-05,19225.878063463722
1681066501319107770,73,1681066501319107770,camera_1,121,0,0.13668909150100497,0.1534038246693751,2.9604773848882315,-0.9994383968916852,-0.011811222738139362,0.011485821598254833,0.029179817309599326,0.0003314564237371087,5.0132235845352464e-05,19213.420884951483
1681066501329094409,74,1681066501329094409,camera_1,122,0,0.1366579485804686,0.15335085213127542,2.9591763141659446,-0.9993114556209156,-0.011633857830420074,0.008075906933137852,0.03429355251349672,0.001627124089282006,0.0002459952969070221,19220.896119676065
1681066501339190483,75,1681066501339190483,camera_1,123,0,0.13671552528445358,0.15314871728958693,2.959679416544115,0.9994129796368779,0.012010221621492878,-0.015550794527907233,-0.02806463075636248,0.005162041983567178,0.0007801855543772438,19220.376665674274
1681066501359205722,76,1681066501359205722,camera_1,125,0,0.1366797094023796,0.15292442956472674,2.958800328893222,-0.9993752335144994,-0.01202493127670898,0.00779930511095488,0.03230657062296541,2.2113847080618143e-05,3.3417493941400988e-06,19231.770440099986
1681066501379189252,77,1681066501379189252,camera_1,127,0,0.13664151146053052,0.15288910659365812,2.957991827460318,-0.9992761995081447,-0.012144264315568217,0.010701369924215593,0.03442491281815376,8.608622010797262e-05,1.3002006195551271e-05,19233.023377148435
1681066501399150848,78,1681066501399150848,camera_1,129,0,0.13670076833041717,0.15338170035519857,2.960009222181479,-0.9995098281391417,-0.011920873376941662,0.015011758820349644,0.02475163284137927,0.000720332725904882,0.0001088914875589787,19224.24039833329
1681066501419195413,79,1681066501419195413,camera_1,131,0,0.13668474109585943,0.15306371024144702,2.959231270703299,-0.9992853873696529,-0.012109001414774848,0.009128367552266042,0.03462310760244147,1.92736042663455e-05,2.9135366670575164e-06,19218.255605231738
1681066501449103116,80,1681066501449103116,camera_1,133,0,0.13675017986168603,0.15305318057899486,2.9606906730393674,-0.9994941570105137,-0.01211078990124202,0.010513428482267974,0.027463187931461852,0.0036213076091371477,0.0005476994337626993,19216.152784565118
1681066501469148635,81,1681066501469148635,camera_1,135,0,0.13672313573426206,0.15342590884604762,2.96073313504048,-0.9994887131661844,-0.011748719619397913,0.014913278049764505,0.025726911562020678,0.0007715290994383395,0.00011668717360663523,19212.96498224524
1681066501479562282,82,1681066501479562282,camera_1,136,0,0.1366904826514348,0.1532406126946924,2.9588995173382995,-0.9992815276706155,-0.012193219748528186,0.01318861179743433,0.03337385754301818,0.0013563459506258368,0.00020497024414885422,19220.51036337774
1681066501499311923,83,1681066501499311923,camera_1,138,0,0.13670959680346556,0.15283902223027637,2.9591582477846603,-0.9993385912583629,-0.01217393002890314,0.010605817088210697,0.03258361694615244,0.00020975829102098942,3.1701478871072014e-05,19223.16613640404
1681066501519223451,84,1681066501519223451,camera_1,140,0,0.13671125760687877,0.15314526010783863,2.9605285208403753,-0.9994963994058093,-0.011850726324716168,0.012622659126313841,0.026592787311237202,0.0014756746822968125,0.0002231561487813804,19217.363979191163
1681066501539280414,85,1681066501539280414,camera_1,142,0,0.13668319439587212,0.15336591473029296,2.9589093634611037,-0.9992244985378818,-0.01203387225981385,0.01199466000076911,0.035520635856065526,0.0010796695132739842,0.000163172665587449,19215.927566355094
1681066501559226274,86,1681066501559226274,camera_1,144,0,0.13677434342553835,0.15297638757942192,2.9606532038274387,-0.9995306322079139,-0.011790837914978081,0.013163845187766055,0.02502408038636245,0.0003469536895863712,5.247319945485871e-05,19218.37182545138
1681066501579177618,87,1681066501579177618,camera_1,146,0,0.13668523028609217,0.1529300801729089,2.9593383314430266,-0.9994904870775678,-0.011713417555738527,0.015849373620411684,0.025106960119690633,0.001406126655638218,0.0002124659695433773,19231.0519574451
1681066501599175930,88,1681066501599175930,camera_1,148,0,0.13671080699620375,0.15341631633938932,2.9607578937200274,-0.9994387471616365,-0.012049997190727904,0.010799790289949138,0.029331770648475093,0.0005268711829558015,7.970212294495874e-05,19210.31010481156
1681066501609166622,89,1681066501609166622,camera_1,149,0,0.13663695459151082,0.1530404981791099,2.9584258466802154,-0.9992616761102467,-0.01201390231821408,0.012808450534867365,0.0341718071416302,0.00024729891447350383,3.7356078364415013e-05,19225.19151904888
1681066501629136323,90,1681066501629136323,camera_1,151,0,0.13669187241015213,0.1528699370126331,2.959247732265497,-0.9994533300086759,-0.01190100901537755,0.011055237023488065,0.028795639484811654,0.00015947595238685608,2.410118207606232e-05,19231.06887565019
1681066501639211177,91,1681066501639211177,camera_1,152,0,0.13670951845494858,0.1530320152327635,2.959841506411344,-0.9994599529966574,-0.012035144734723528,0.014598347357715015,0.026867190056969678,4.5464548747986555e-05,6.872831569579722e-06,19222.659837685525
1681066501649178028,92,1681066501649178028,camera_1,153,0,0.13662247870391392,0.1532759968802828,2.9586477384106358,-0.9992252093142489,-0.011886434315264267,0.011997843157732176,0.035549198440007854,0.00024390930775552988,3.68554631285391e-05,19219.36943838489
1681066501659108400,93,1681066501659108400,camera_1,154,0,0.13667290849450148,0.15340315656035294,2.959985603136928,-0.9993784989335365,-0.011878024577409765,0.010993787764512698,0.03131557171885722,0.0004900817875750363,7.410453090982093e-05,19215.049497676082
1681066501669202804,94,1681066501669202804,camera_1,155,0,0.13666328955224843,0.15323565546957338,2.95902076478796,-0.9993171821736825,-0.011880164889445906,0.010311271639784061,0.03343215176774237,0.00022910634288564324,3.462625207946622e-05,19222.778303912026
1681066501689175844,95,1681066501689175844,camera_1,157,0,0.13671117121540277,0.1530014937717056,2.959153626834689,-0.9992883109706608,-0.011951840976937292,0.008749003094289921,0.03469120925424712,0.0007739342981949449,0.00011699755909073617,19219.492244021487
1681066501709116220,96,1681066501709116220,camera_1,159,0,0.1367359635678859,0.15290885915961,2.960229227688509,-0.9995435662498989,-0.011972056484954786,0.015802651017460586,0.022794851453244332,0.0007918539340607822,0.00011973503951373716,19224.257625960287
1681066501729118347,97,1681066501729118347,camera_1,161,0,0.13671810161981995,0.153397447532652,2.9606973909102683,-0.9994285213429085,-0.011886137879387299,0.014627138656796447,0.0280605999108118,0.00010126788401976228,1.5317244701211282e-05,19208.63486546092
1681066501749130010,98,1681066501749130010,camera_1,163,0,0.1366779926653212,0.1531534421839045,2.9592483689947167,-0.9993348415593704,-0.011872642902811524,0.010667562960012304,0.03278899047705827,0.002361795515753329,0.0003569456850333845,19221.217486058835
1681066501769188642,99,1681066501769188642,camera_1,165,0,0.13673117901615484,0.15284970216831134,2.959501218447943,-0.9994583128560041,-0.011756828297541027,0.012614697944621537,0.028030826730193425,0.00036068016197532415,5.451716160023668e-05,19227.428962897626
1681066501789094448,100,1681066501789094448,camera_1,167,0,0.13671863442870336,0.1532127724735726,2.959918106327599,-0.9994930397264368,-0.0119921870561392,0.01421724012352782,0.025840299365291846,0.00018773612100630999,2.8379591178361436e-05,19224.42080160627
1681066501809116601,101,1681066501809116601,camera_1,169,0,0.13670243348679184,0.15338349430458195,2.9605219871387773,-0.999379132246151,-0.01167344711533574,0.011553689385678996,0.031170385383484128,0.0005645586643368006,8.539819812651366e-05,19207.758116285084
1681066501829171419,102,1681066501829171419,camera_1,171,0,0.136720625264592,0.15288070134920104,2.9594601396701745,-0.9994464987074726,-0.01169404977341984,0.006514599332992586,0.030454973597125526,6.567343370988965e-05,9.928740333316031e-06,19229.355579758645
1681066501849163293,103,1681066501849163293,camera_1,173,0,0.13670589246990444,0.15304822552795297,2.959987415063236,-0.9994141277861789,-0.01179594891425414,0.012234018230419362,0.029708341733279877,0.001956147258169949,0.00029573090489425633,19217.62558388349
1681066501869138717,104,1681066501869138717,camera_1,175,0,0.1366709254901089,0.1533778391215298,2.959459583943234,-0.9993198437578921,-0.011915666068304999,0.010876383247609894,0.03315978077885543,0.0013384252670221033,0.00020232242974354823,19217.06491884729
1681066501889147996,105,1681066501889147996,camera_1,177,0,0.1366513972764894,0.15298274407853896,2.9588187594050694,-0.999365497333482,-0.011803300359955084,0.012004714492337703,0.031387444463868604,0.001593841123394668,0.0002408175541600034,19228.82251249651
1681066501909158945,106,1681066501909158945,camera_1,179,0,0.13674599315699176,0.15291359756012785,2.959812239957594,-0.9994109474749077,-0.01181692130596845,0.010840204205770478,0.030341529475835988,0.0003378734108991921,5.1082557466964446e-05,19220.18501560833
1681066501929123640,107,1681066501929123640,camera_1,181,0,0.13669978300779012,0.15339721555842478,2.960309413191753,-0.9993462922566095,-0.011799657855378533,0.012377093525913254,0.03185221787119216,0.00034920190228149295,5.281712143619209e-05,19207.559046972077
1681066501939194202,108,1681066501939194202,camera_1,182,0,0.1366229687806062,0.15311167742600934,2.958194222141008,-0.9993121897063586,-0.012123064739327135,0.012480522169884059,0.03274775369359175,0.00421246571931988,0.0006361158615400572,19232.560389359598
1681066501959151029,109,1681066501959151029,camera_1,184,0,0.13669198211036332,0.1529190730334837,2.959327124029476,-0.9993887249715065,-0.012033651995221734,0.011712065543870604,0.030662601653814296,0.0008248277590610087,0.00012466249867485113,19224.53098474595
1681066501979185581,110,1681066501979185581,camera_1,186,0,0.13664406570071794,0.15292215864592387,2.958259118715404,-0.9993128023729312,-0.012164957893899408,0.008578159331154564,0.033946310484173604,0.00010165938874706626,1.5357719886386212e-05,19233.454793754383
1681066501999111890,111,1681066501999111890,camera_1,188,0,0.13667575659222886,0.15339463232159983,2.959781254810302,-0.9993476752963166,-0.011808640243039688,0.009695149740074524,0.0327228355582997,0.0004008945543318987,6.0615543115205914e-05,19215.57709597027
1681066502019182443,112,1681066502019182443,camera_1,190,0,0.13668307033720048,0.15307957351694562,2.9596268242981023,-0.9994128488197548,-0.011995242975393634,0.00802616156822588,0.03107494956430332,0.0007154862396419048,0.00010816735072688578,19224.024552732473
1681066502029165744,113,1681066502029165744,camera_1,191,0,0.13666952881036618,0.15281714955635994,2.9584938132214567,-0.999318509727857,-0.012011493751914888,0.010591665085257053,0.03325743170878864,7.914128946140409e-05,1.1956574841424289e-05,19229.969765172806
1681066502039132595,114,1681066502039132595,camera_1,192,0,0.1366609660091392,0.15299639824031278,2.9587250453179053,-0.9992866182014759,-0.011882101186282728,0.008640585253494709,0.034790956315310095,0.0005942592979408801,8.980699566003853e-05,19224.92867682909
1681066502049182653,115,1681066502049182653,camera_1,193,0,0.13670272978762932,0.15332514673721076,2.960246650214744,-0.9994228044235626,-0.01218910621877438,0.008887716838766203,0.030438334007021402,0.001475154422223568,0.00022311392692038598,19216.51493243104
1681066502059158086,116,1681066502059158086,camera_1,194,0,0.1366828570053662,0.15338662722729599,2.9597377472224915,-0.9994109041572731,-0.011756025161793623,0.016876146148305213,0.02747428279534185,0.0018728043651208282,0.0002830830008164265,19218.63452272315
1681066502069173097,117,1681066502069173097,camera_1,195,0,0.13671965371122458,0.15327278627971122,2.9601334191954844,-0.9994069706817869,-0.011980392547504217,0.010909200886908619,0.030383654866898313,2.005469286814332e-05,3.032742965012752e-06,19215.655373581685
1681066502079221963,118,1681066502079221963,camera_1,196,0,0.13674219823359246,0.15304567653726514,2.9608206441228835,-0.9996293051793271,-0.01185056672009412,0.009476834116272936,0.022605439837367423,0.00032805290538817644,4.96225092350039e-05,19225.989590933314
1681066502089181423,119,1681066502089181423,camera_1,197,0,0.13670435206414727,0.15280480798574853,2.958908424203691,-0.9993104831448786,-0.011969620748534809,0.00894188439961829,0.03399013326348711,0.0007032676367089152,0.00010628946705958552,19224.562985671204
1681066502099155902,120,1681066502099155902,camera_1,198,0,0.13671496128459296,0.15290224379584277,2.959673080408953,-0.9994442584221643,-0.011990742248675537,0.009294855157416203,0.029681679111845462,4.69774822704494e-05,7.102325319311512e-06,19225.569493357558
1681066502109171390,121,1681066502109171390,camera_1,199,0,0.1367487558983093,0.15314894877185356,2.9606298297720515,-0.9995743261283913,-0.01196143100995572,0.014908466882904797,0.02204151374946987,0.000579581712372601,8.765441277157899e-05,19221.858944984164
1681066502129216194,122,1681066502129216194,camera_1,201,0,0.13671354196993166,0.15339012931735796,2.960694906834113,-0.9995139332894477,-0.011929512525272162,0.01214936592034707,0.02611468550261386,0.0003409512573853135,5.1569636131845916e-05,19216.780467196946
1681066502149236917,123,1681066502149236917,camera_1,203,0,0.13674317993490706,0.15320941550190695,2.9605016900109815,-0.9994144593219083,-0.011911498288022928,0.014232609460257282,0.028745217598482774,1.2349046301096678e-05,1.8676805842154765e-06,19210.224884864874
1681066502169214248,124,1681066502169214248,camera_1,205,0,0.1366849897634752,0.15281552770195025,2.958538568686792,-0.9992962997970264,-0.011948964504623287,0.012705340840571752,0.03320695368991011,0.0017868312424980104,0.0002699369162907621,19226.644831721438
1681066502189160585,125,1681066502189160585,camera_1,207,0,0.13668753215787352,0.15322032615531658,2.9593711912941614,-0.9993642376308755,-0.011925077821602733,0.0108888169752449,0.03178595174424239,0.0011935915681533515,0.00018043672248500747,19221.93301178282
1681066502209148406,126,1681066502209148406,camera_1,209,0,0.13665714136756296,0.15332056399470936,2.9591689785865,-0.9993209003410983,-0.011948160021499813,0.011601529371288336,0.03286919727958988,0.0001001761993393302,1.514003149717013e-05,19220.68855604226
1681066502229465961,127,1681066502229465961,camera_1,211,0,0.1367811567579793,0.15291480531670323,2.960688099193079,-0.9995744858780423,-0.01187844254840778,0.010508902322343895,0.0244808651042203,0.0005819929065182805,8.803322683538472e-05,19222.701193323483
1681066502249363660,128,1681066502249363660,camera_1,213,0,0.1366982252733233,0.15301101453057275,2.959789991211632,-0.9994024032953539,-0.011919290987326515,0.01203426554810984,0.03013209655082142,0.001750787952914834,0.00026465613818019493,19219.422856000492
1681066502269241809,129,1681066502269241809,camera_1,215,0,0.13671056232770176,0.15338038452631791,2.959774123665153,-0.9993573056672752,-0.011815169600282895,0.012662650821669163,0.031385261683302634,0.002057595003861934,0.00031108922957899537,19215.246914835647
1681066502289131164,130,1681066502289131164,camera_1,217,0,0.1366913661991357,0.15299602676781804,2.959752337003731,-0.9993887340561541,-0.012065632889238441,0.013802348985700026,0.02976699358512264,0.0004521530936472118,6.834777873886994e-05,19218.258842523803
1681066502309149265,131,1681066502309149265,camera_1,219,0,0.13675160692620797,0.15292977628778945,2.960027668496962,-0.9994124028104608,-0.01207710466883998,0.012159015365144268,0.02968418765587605,0.0007236971869133413,0.00010943464071998413,19217.244680150645
1681066502329107761,132,1681066502329107761,camera_1,220,0,0.1367259964789136,0.1533831791115891,2.960728071280936,-0.9994759442804915,-0.011934441952316467,0.01429669002562477,0.026476603902654716,0.0013731151702813804,0.00020768917852837356,19212.368576461562
1681066502338981866,133,1681066502338981866,camera_1,221,0,0.1367259964789136,0.1533831791115891,2.960728071280936,-0.9994759442804915,-0.011934441952316467,0.01429669002562477,0.026476603902654716,0.0013731151702813804,0.00020768917852837356,19212.368576461562
1681066502349226951,134,1681066502349226951,camera_1,222,0,0.1366577260143457,0.15311368900947128,2.958469055323211,-0.9993164001622238,-0.011963950214014722,0.011735748439504248,0.03295251842660646,0.00022877741139382124,3.4560889788214085e-05,19229.421183117673
1681066502359192132,135,1681066502359192132,camera_1,223,0,0.13672321353562336,0.15297271779281046,2.95996533200077,-0.9994627918255614,-0.01210161011416171,0.010241782622251507,0.028684223496863375,0.0007390837417915463,0.00011174156115624707,19223.04121933249
1681066502369151115,136,1681066502369151115,camera_1,224,0,0.1367602854971964,0.15285913285726585,2.960449037533817,-0.9994207015608995,-0.011710968264332966,0.011160421333693653,0.029942603585626608,0.0005698201130144298,8.618121941817976e-05,19212.604341387043
1681066502379127502,137,1681066502379127502,camera_1,225,0,0.1366548913961079,0.1529564776660472,2.9589022394017856,-0.9992723096184699,-0.011718602994610902,0.007539428744098018,0.03550609226367127,0.0006122580962255597,9.254916148020013e-05,19221.808263651554
1681066502389167070,138,1681066502389167070,camera_1,226,0,0.13670506747442418,0.15323188250630762,2.960146745856688,-0.9993878271625054,-0.011822317648408456,0.011684010280529282,0.03078453554288418,0.0002906205481849611,4.394817875517019e-05,19213.493793181035
1681066502409114122,139,1681066502409114122,camera_1,228,0,0.13666623440357678,0.15330728986506018,2.95911505247384,-0.9992509004678436,-0.011927150096159146,0.011046334567404077,0.035119218348539566,0.0005816236371174455,8.79108298064948e-05,19215.8097956318
1681066502429099798,140,1681066502429099798,camera_1,230,0,0.1367381117183521,0.1528214689716738,2.9591517131090024,-0.9993274041103369,-0.011740796633574033,0.014552771895475408,0.03154536287099307,0.002191994048189372,0.00033122783536689883,19220.33884572296
1681066502449102163,141,1681066502449102163,camera_1,232,0,0.13668351006642135,0.15302194149809992,2.9594188392750507,-0.9993957323744878,-0.012064143305415585,0.010762961439041208,0.03076987518709597,0.0020089439931325614,0.00030362881432958045,19224.28985440103
1681066502459120035,142,1681066502459120035,camera_1,233,0,0.13664451545582484,0.15336399370793083,2.9591878692758113,-0.9993321261062492,-0.011917097556062727,0.01235133564016235,0.03226033207682185,0.0004191329935565591,6.33434136914214e-05,19221.04015973746
1681066502479552030,143,1681066502479552030,camera_1,235,0,0.13672657543953476,0.1532849568381719,2.9604925206345056,-0.9995204711872248,-0.011824369485300698,0.013240279444271513,0.025371380809509455,0.0011998330592177808,0.000181468826865834,19219.453512361044
1681066502499237060,144,1681066502499237060,camera_1,237,0,0.13673098000467723,0.15285894854456522,2.9598186439177963,-0.9993879055455114,-0.011835956204675528,0.011623989285273107,0.030799468553422908,0.00027939456049352884,4.223984540753142e-05,19217.971516885205
1681066502519193172,145,1681066502519193172,camera_1,239,0,0.1367238420523276,0.15315864725335043,2.960299649301744,-0.9994858988779649,-0.012132234548157447,0.01145098431310512,0.02737922181575192,5.632702959701419e-05,8.518212599994342e-06,19220.098317838623
1681066502539131402,146,1681066502539131402,camera_1,241,0,0.13670368407434003,0.15334089061656242,2.9594982529664215,-0.9993889898993186,-0.011825219246625275,0.01649917432539919,0.028453265267257586,0.000443530036136508,6.703584320761708e-05,19220.06069415388
1681066502559136152,147,1681066502559136152,camera_1,243,0,0.13671367392191264,0.1529798292144084,2.960354210565108,-0.9994736390287692,-0.012061103974153336,0.009064607481471323,0.028719462890540566,0.0011107850586995482,0.00016798725833283386,19219.383721835686
1681066502579184055,148,1681066502579184055,camera_1,245,0,0.13666403399141397,0.15294498262350117,2.958933905322714,-0.9993131162953374,-0.011858642944655119,0.012342781819248465,0.032868281436291225,0.001293918932788074,0.00019550909118644358,19222.95711450337
1681066502599145889,149,1681066502599145889,camera_1,247,0,0.13669738992483255,0.15341019690654326,2.9599083388401786,-0.9993777668511801,-0.011889856917392728,0.013689210563159752,0.030254188804031145,0.0012774743954651058,0.00019315881425109848,19214.895355248947
1681066502609142303,150,1681066502609142303,camera_1,248,0,0.13669375937306583,0.15306268859325073,2.9593870402825844,-0.9993681921645059,-0.011924799780006958,0.012382477926345187,0.0311077141631717,0.0005612235399894416,8.482246579609725e-05,19221.598134920227
1681066502619147777,151,1681066502619147777,camera_1,249,0,0.1366655643625337,0.15283174040322728,2.958401897766477,-0.9993293347276702,-0.011830431633175707,0.010687170635939922,0.032965224463411505,0.0001377383596263826,2.0807055106071083e-05,19231.830893183596
1681066502639126300,152,1681066502639126300,camera_1,251,0,0.13670340618375826,0.15282556551227322,2.958833662959074,-0.9993899360579964,-0.011898392995199838,0.010637029839514426,0.03106505345752215,0.0004799093585461378,7.251696740256064e-05,19231.302130158292
1681066502649109601,153,1681066502649109601,camera_1,252,0,0.13671683583176625,0.15330728157475176,2.9603044411951784,-0.9994571607875504,-0.011918161932472077,0.011330557605586121,0.02854749780605244,0.001356452761683613,0.00020511861503097324,19217.40052674338
1681066502669128656,154,1681066502669128656,camera_1,254,0,0.13671262412812257,0.15341350948852617,2.960606192169132,-0.9995115995547454,-0.011976958258068344,0.01325634746326115,0.025639502302735165,0.0006753458874300122,0.000102138083735253,19217.351642642516
1681066502679249048,155,1681066502679249048,camera_1,255,0,0.13667279474713073,0.15301116920800872,2.9589702938230307,-0.9992620034587298,-0.011899820387769515,0.012207068426150566,0.03442136253583784,1.5303376130759716e-06,2.3126676407620517e-07,19218.303069554848
1681066502689058780,156,1681066502689058780,camera_1,256,0,0.13672159138511875,0.15281107502171973,2.9595451285902,-0.9995105468782299,-0.011880840225856008,0.015108348102270585,0.024682992774988928,0.00017980218399316072,2.7173497739017044e-05,19230.504100480473
1681066502699127197,157,1681066502699127197,camera_1,257,0,0.13672006913348309,0.15289724661860757,2.9597803459195955,-0.9995304358279706,-0.011824948643407218,0.010977143356790094,0.026049582853709723,0.0005108616896905005,7.722234663353392e-05,19230.55895936245
1681066502709117412,158,1681066502709117412,camera_1,258,0,0.1366747690603372,0.15312353866001543,2.959719053692218,-0.9994442846041686,-0.011831085421399788,0.011368419674450661,0.029015623789932436,0.00018285372061654925,2.7642261575469547e-05,19223.929351772294
1681066502729094743,159,1681066502729094743,camera_1,260,0,0.13665461164381504,0.15330314958287283,2.9584397247058356,-0.9991798382145262,-0.011957987258967911,0.011713343383719148,0.036870788343656355,0.0012178747565485537,0.00018402204765079455,19218.41967033665
1681066502749269962,160,1681066502749269962,camera_1,262,0,0.13662283878137965,0.15311976059659002,2.958266922374077,-0.9992963743160838,-0.01201472403078902,0.009422823880068102,0.03425803665300665,0.00020841218065470457,3.148278382928229e-05,19231.405224093003
1681066502759129762,161,1681066502759129762,camera_1,263,0,0.1367301178793596,0.1528115594486723,2.9597477753115013,-0.9995009094388411,-0.011903972152165654,0.012723053936986578,0.026350547934468314,0.00040251121390610933,6.084263532238426e-05,19227.95629897295
1681066502779138565,162,1681066502779138565,camera_1,265,0,0.13668339765914544,0.15292543728417538,2.9589368110134524,-0.9994066063260444,-0.01184652441825086,0.009985903142544508,0.03076323828036279,0.00020431500161066649,3.087515258657996e-05,19231.530174780633
1681066502789135694,163,1681066502789135694,camera_1,266,0,0.13670144231369943,0.1533791486921497,2.9598151707094686,-0.9994539861972086,-0.011694414986507518,0.01769356234823292,0.025335903063881865,0.0003362919087521732,5.083484340850021e-05,19220.886068274267
1681066502799119949,164,1681066502799119949,camera_1,267,0,0.13665669641724426,0.15328174287226395,2.9587372666826686,-0.9992980279326484,-0.011863001296372312,0.011985261361160219,0.033452564629142006,0.0015223418013192713,0.00023004064804774927,19224.126173694145
1681066502809136390,165,1681066502809136390,camera_1,268,0,0.13667700937416047,0.1528246349959521,2.958761718675471,-0.9994173890977734,-0.012080327737425588,0.011193672919058126,0.029893974933540613,0.0012124433415010571,0.00018319742238678827,19234.495992582757
1681066502829169750,166,1681066502829169750,camera_1,269,0,0.13671841188967604,0.15285698252820715,2.9594435653367954,-0.9994507920662308,-0.011604610690862811,0.015829754574703887,0.026699552786553674,0.0018357160151936114,0.00027742143418469707,19226.251070533875
1681066502839096784,167,1681066502839096784,camera_1,270,0,0.13671841188967604,0.15285698252820715,2.9594435653367954,-0.9994507920662308,-0.011604610690862811,0.015829754574703887,0.026699552786553674,0.0018357160151936114,0.00027742143418469707,19226.251070533875
1681066502849112272,168,1681066502849112272,camera_1,271,0,0.13664907704465545,0.15325250916371294,2.9589766626503424,-0.9992482625973107,-0.012026944086804664,0.008207785461409494,0.03592902127818978,0.0002636321005411446,3.985124656400049e-05,19218.68963563127
1681066502859064579,169,1681066502859064579,camera_1,272,0,0.13664907704465545,0.15325250916371294,2.9589766626503424,-0.9992482625973107,-0.012026944086804664,0.008207785461409494,0.03592902127818978,0.0002636321005411446,3.985124656400049e-05,19218.68963563127
1681066502869088411,170,1681066502869088411,camera_1,273,0,0.13668805012109836,0.15336514917645466,2.9594908347458033,-0.9994807107159195,-0.011845109639153197,0.009969914331217205,0.028259566392028878,0.0011557526304386556,0.0001747084469439209,19230.264034580447
1681066502889145612,171,1681066502889145612,camera_1,275,0,0.1367016330727808,0.15300217269615277,2.959682075273555,-0.9994138417919358,-0.012002203496721778,0.009271909895708478,0.03069123055194411,0.0012914621038362384,0.00019526524842812746,19222.902888536446
1681066502909151792,172,1681066502909151792,camera_1,277,0,0.13667595114626935,0.15284459697398922,2.9586768825147605,-0.9993431892498377,-0.011950295368319592,0.01310578490220001,0.03160093262343116,9.66113293543458e-06,1.459511153746383e-06,19228.580970531224
1681066502929157018,173,1681066502929157018,camera_1,279,0,0.13659683471259887,0.1533005796243061,2.9581606813617567,-0.9991825300337919,-0.011932466312858388,0.010239090154573548,0.037243106150934235,0.0014944651047699153,0.0002257721284572108,19222.901033559698
1681066502949194669,174,1681066502949194669,camera_1,281,0,0.1366861608721428,0.15314365474094432,2.9591135428724655,-0.9993577134301954,-0.012060852481986253,0.012355986522608157,0.031401051607110514,0.0007878878386691213,0.00011907456310190001,19224.325722120815
1681066502969168424,175,1681066502969168424,camera_1,283,0,0.13669238162090272,0.15280529960095054,2.9589231250569745,-0.9994730165204994,-0.011710766694979986,0.01292716663706272,0.02737582060079548,0.00012479850556701422,1.8854131630667757e-05,19236.032541235207
1681066502989138841,176,1681066502989138841,camera_1,285,0,0.13670059078965618,0.1532193490117676,2.9599703485664204,-0.9993995950636055,-0.011974874576871887,0.011004024336925385,0.030593515881017413,0.00025843281764537096,3.9076550673755866e-05,19217.16520850466
1681066503009178161,177,1681066503009178161,camera_1,287,0,0.13665960166105678,0.15327821876411787,2.959091008934623,-0.9993769353840279,-0.011845836546116,0.012657867438598433,0.030744033093565843,0.00010563823161646724,1.596280647528394e-05,19225.848063412355
1681066503029111623,178,1681066503029111623,camera_1,289,0,0.13662949455067613,0.1528131537739809,2.9580602164111753,-0.9993594030039338,-0.011744077242217045,0.010499637414632853,0.0321343724306423,0.0023972404887899756,0.00036202411469960454,19238.775314401144
1681066503049105167,179,1681066503049105167,camera_1,291,0,0.13670414683406162,0.15301426927267578,2.9591802925848127,-0.9994697312118012,-0.012051802363207065,0.014032090414882797,0.026797591119291746,0.0003216505283489823,4.860468523527492e-05,19232.214033800064
1681066503059088468,180,1681066503059088468,camera_1,292,0,0.13671049155042334,0.1533986738082403,2.960108511885168,-0.999404006966342,-0.012001591730651594,0.011717691234290534,0.0301709855272972,0.00032431777799502015,4.904294269940098e-05,19215.361829043373
1681066503079161167,181,1681066503079161167,camera_1,294,0,0.13671805157485883,0.15323513564766084,2.959687027821683,-0.9994202918351109,-0.011711366379449225,0.014065986884729176,0.02870665739348056,0.001350766106043011,0.0002041972704898654,19221.050653577666
1681066503089081764,182,1681066503089081764,camera_1,295,0,0.1366774310188002,0.1527690674662101,2.958389842619244,-0.9993361878906822,-0.011946698091288822,0.011565645704180135,0.03241443839217496,0.0011607573251239955,0.00017534297600466052,19232.33472264313
1681066503099119663,183,1681066503099119663,camera_1,296,0,0.13676968481654467,0.1529485528726714,2.9603763176126106,-0.9995103770844644,-0.01198959978793715,0.011399657692948456,0.026557548868077607,0.00024001422571018338,3.629865593897167e-05,19221.09584199428
1681066503119179487,184,1681066503119179487,camera_1,298,0,0.1366413564142574,0.1530918267894275,2.958278294163034,-0.99922967007009,-0.011783267535984741,0.013844158227034165,0.03477873403071642,0.0009163393406197427,0.0001384175619327103,19223.767064365675
1681066503129127025,185,1681066503129127025,camera_1,299,0,0.13663415100834672,0.15330183193973163,2.95831129869976,-0.9992754546421724,-0.01194321936285671,0.009475998249578503,0.0348730657973262,0.0016972689190879464,0.0002564216712136794,19228.861076269877
1681066503139088392,186,1681066503139088392,camera_1,300,0,0.13668330105301077,0.1529214011956458,2.95913244481073,-0.999400429611422,-0.011705570279167082,0.008103506979119606,0.031560958343879245,0.000549251795746386,8.302260275569166e-05,19229.12951831497
1681066503159243822,187,1681066503159243822,camera_1,301,0,0.13668330105301077,0.1529214011956458,2.95913244481073,-0.999400429611422,-0.011705570279167082,0.008103506979119606,0.031560958343879245,0.000549251795746386,8.302260275569166e-05,19229.12951831497
1681066503169153451,188,1681066503169153451,camera_1,302,0,0.13668905070489915,0.15283176886564487,2.9594081405550203,-0.9994403494568831,-0.012078017854314105,0.007711805260365954,0.030226435811068406,0.0006465813494287431,9.774335553225262e-05,19229.46968495415
1681066503179152488,189,1681066503179152488,camera_1,303,0,0.13664738364735532,0.15320960698180808,2.9593220669519362,-0.999359890535868,-0.011775971357213694,0.01024921699572007,0.03218834008933222,6.509019294753671e-05,9.838884042040052e-06,19222.400147362736
1681066503199093818,190,1681066503199093818,camera_1,305,0,0.13665064299250498,0.1533327370331734,2.958438005119943,-0.9993381162325784,-0.011861545311196098,0.012800718180801704,0.03191825185701404,0.0007024250226095318,0.00010611028327503433,19230.946963478465
1681066503219131469,191,1681066503219131469,camera_1,307,0,0.13668863340898063,0.15308840395821866,2.959564164063334,-0.9994125021569158,-0.011866718620763493,0.009203281419826457,0.030807971902351232,0.001142240478657186,0.00017266363577918042,19224.185212887707
1681066503239153623,192,1681066503239153623,camera_1,309,0,0.13673324791405853,0.15281671220772627,2.959427224952277,-0.9994633430350615,-0.011812988162363248,0.012630516230418325,0.027819944277593187,0.0002809519646689296,4.2463740259578384e-05,19228.866712150153
1681066503259134054,193,1681066503259134054,camera_1,311,0,0.13670151740215575,0.15332472313151305,2.960472452358904,-0.9995014052501082,-0.01218931615759502,0.010598276771322862,0.027130020349190726,0.0006989386747591197,0.00010570585880013588,19219.49551887578
1681066503269185066,194,1681066503269185066,camera_1,312,0,0.13671798530450485,0.15325832262128897,2.959633840652059,-0.9993025077358365,-0.01179057051024724,0.014820823831518441,0.032184214467137116,0.0017129223560914397,0.0002589593064568481,19211.740381440493
1681066503289144515,195,1681066503289144515,camera_1,314,0,0.13671551567799045,0.15298719473608283,2.9592051364812835,-0.9993519086680522,-0.011756147002449048,0.013711065332608092,0.031137795949982488,0.0004998205695301294,7.553684327265212e-05,19221.920398240207
1681066503309152364,196,1681066503309152364,camera_1,316,0,0.13671934590298462,0.1528775768026548,2.959564447942375,-0.9994380138526563,-0.011843780685004418,0.011385679134826071,0.0292189602139105,0.00020354415755718946,3.0767702996954715e-05,19225.48998841271
1681066503319102764,197,1681066503319102764,camera_1,317,0,0.13669164231330933,0.15338510373920167,2.9603557986944598,-0.9994623982588596,-0.011862752560473274,0.009149078029499425,0.02916305778802833,0.0006504635675810277,9.839065906667074e-05,19217.939463568036
1681066503329102516,198,1681066503329102516,camera_1,318,0,0.13670651493272748,0.15336962437806542,2.959664402687536,-0.9993308309835457,-0.011627999833296992,0.015694319769487833,0.030925203193927997,0.0006590200355276465,9.96235119259595e-05,19213.160613652784
1681066503349332571,199,1681066503349332571,camera_1,320,0,0.13670199680695622,0.15316043733907994,2.958929996621232,-0.9993713479451467,-0.011721584518531612,0.014068236467438171,0.030357834003298976,0.00123979349154979,0.00018733866701075148,19226.793043454883
1681066503369153976,200,1681066503369153976,camera_1,322,0,0.13674757580493618,0.1528636299173549,2.960301441633234,-0.9995781955393279,-0.012032261251804966,0.007988155013695772,0.025196132063999403,0.00022162304958328605,3.351450332208256e-05,19229.216858770233
1681066503379084110,201,1681066503379084110,camera_1,323,0,0.13667068960535556,0.15318358428478218,2.959187195279768,-0.9992552027625584,-0.012047445673501609,0.008768257772419904,0.035595174677738574,0.001654120336752385,0.00025003181584647507,19216.378796234727
1681066503399134635,202,1681066503399134635,camera_1,325,0,0.13664772908513353,0.15332539093511874,2.9586411334591234,-0.9993515763667945,-0.011807920121369697,0.012974415243657616,0.03144303396136213,0.0001390152028761804,2.1000193494205127e-05,19229.35888116108
1681066503419074773,203,1681066503419074773,camera_1,327,0,0.1366928025942654,0.153078201250823,2.9596331760053496,-0.9993902149306557,-0.012007065644656853,0.012017569143663273,0.030505847100846358,0.002366846427321434,0.0003577430134143824,19220.485607746057
1681066503439083099,204,1681066503439083099,camera_1,329,0,0.13668385122045523,0.1527799189540587,2.9586218256781303,-0.9993485855460761,-0.012037946042617155,0.01508490810261389,0.03049488431963419,3.498711157590151e-05,5.285001545604781e-06,19229.103996214693
1681066503459092140,205,1681066503459092140,camera_1,330,0,0.13666463236979803,0.15326276461307636,2.959369587445638,-0.9993673266830916,-0.011926878863621147,0.012773494488036278,0.030976341898744653,0.0005947445170022547,8.989395798768647e-05,19221.497458546888
1681066503469436645,206,1681066503469436645,camera_1,331,0,0.13671399886506047,0.1533742589516425,2.9597756796028394,-0.9994420599494053,-0.011799447245653882,0.01677270038828661,0.02636320106647366,0.0012516146525740623,0.00018919816232037712,19220.7781217905
1681066503479372262,207,1681066503479372262,camera_1,332,0,0.13668528446250627,0.15298781485819588,2.959097378125818,-0.9993251286579272,-0.01193267275677475,0.013695193987962224,0.031927107844732634,0.00011966685997322202,1.8083631299775645e-05,19221.32106354274
1681066503499215602,208,1681066503499215602,camera_1,334,0,0.136706405601086,0.15284516371401383,2.959307980320775,-0.9994203289092235,-0.011833673391105571,0.013833154747435737,0.02876828404312384,0.0010408232337795198,0.00015728059735013855,19226.43181577685
1681066503519141674,209,1681066503519141674,camera_1,336,0,0.1366914121159063,0.15310893181209095,2.9594461231455322,-0.9993298657562188,-0.011773633197015571,0.01365522632961153,0.031854917405119046,0.0005413477192632854,8.182996231971986e-05,19216.988723718685
1681066503539116621,210,1681066503539116621,camera_1,338,0,0.13670563531958183,0.1534023014326178,2.9602731254206995,-0.9993293881961779,-0.011815551316467093,0.012637284530441977,0.03227174730685509,0.0009124864591285586,0.00013801305741116852,19206.528765039744
1681066503559096097,211,1681066503559096097,camera_1,340,0,0.13667606319636533,0.152907014543443,2.9588827397795123,-0.9992804511158647,-0.011939004190434251,0.009805010804448353,0.03463960103320356,0.00017720001051202416,2.6780701608709242e-05,19222.00967812795
1681066503569120168,212,1681066503569120168,camera_1,341,0,0.13670814606930662,0.1529414709098662,2.9594261165566937,-0.9994386551454535,-0.011728322329951415,0.011247279830023132,0.029297094613583125,0.0009250215953215957,0.0001398102174637622,19227.243041463902
1681066503579093217,213,1681066503579093217,camera_1,342,0,0.13660043197470373,0.15308985146333012,2.957586842066146,-0.9992110337189788,-0.011762419412187723,0.012605948553237647,0.035777725541111687,0.0013289842172525823,0.00020064622060857223,19231.68344584037
1681066503589322566,214,1681066503589322566,camera_1,343,0,0.136713272422933,0.1533517756696271,2.9593961552606434,-0.9993431979999752,-0.01177371635126577,0.013623761066617439,0.031447501472487975,0.002095811883918941,0.00031677677542799347,19218.54470231628
1681066503599163532,215,1681066503599163532,camera_1,344,0,0.1367024812190608,0.15333512596336674,2.9601368465052222,-0.9994121525051074,-0.011676168379985868,0.011736385425172625,0.030021222064102102,0.000907098175957799,0.00013718128375031255,19215.39716430101
1681066503619106531,216,1681066503619106531,camera_1,346,0,0.1366531807840782,0.1530219823832995,2.9582320216748057,-0.9992155117204519,-0.01213949927145106,0.009969247148474027,0.036353924216881536,0.0007543933461420238,0.00011397704683080834,19225.118378394276
1681066503639113187,217,1681066503639113187,camera_1,348,0,0.13666889181687047,0.1527887230854025,2.958472802130911,-0.9993189852540664,-0.012071497380101,0.011481244913777732,0.032924545205898235,4.2368017602711916e-05,6.400337832029228e-06,19230.009335910552
1681066503659105539,218,1681066503659105539,camera_1,350,0,0.13662995070275066,0.15323762005110514,2.9587685037558082,-0.999211422980143,-0.0121124160773664,0.009590651716791432,0.0365765083409257,0.0010673283832147717,0.00016132104518553502,19217.886850598614
1681066503679045677,219,1681066503679045677,camera_1,352,0,0.1367316376229032,0.1532845892996066,2.9607271503222052,-0.9995123193332152,-0.011870263800678302,0.014163870649882698,0.025171513793423174,0.0003978894674219191,6.018022348587986e-05,19215.47983330244
1681066503689033746,220,1681066503689033746,camera_1,353,0,0.13671393740716004,0.15283524999176953,2.959131580617383,-0.9994698614966374,-0.011838403307063922,0.011471360107270767,0.02807589828164249,4.927179543301463e-05,7.445524732470216e-06,19233.703966891168
1681066503709033489,221,1681066503709033489,camera_1,355,0,0.13666623405996278,0.15281676529971833,2.958107428942779,-0.9993011005809065,-0.011892599451373826,0.007784189131290042,0.03457286299464809,0.00023354991571977735,3.5279135254815945e-05,19234.560474053607
1681066503729099512,222,1681066503729099512,camera_1,357,0,0.13662955457328885,0.153302532167492,2.9582970381735647,-0.9991992721569859,-0.011680319032006796,0.010662942785590483,0.036751684579233425,0.00013948569539934397,2.107393449406367e-05,19222.054714815924
1681066503749229431,223,1681066503749229431,camera_1,359,0,0.1366727359768693,0.15312502947669082,2.958368272827123,-0.9992863306713542,-0.011824510328106268,0.014902984841108375,0.03263297920367145,0.0005626663914881647,8.498899469845923e-05,19226.843854288578
1681066503769101858,224,1681066503769101858,camera_1,361,0,0.13670330816577203,0.15283060891524813,2.9592106619336542,-0.9993975156349856,-0.011693721329793851,0.011111428503464261,0.030731071909265398,0.0008707508677616715,0.0001315996643940925,19226.698192385025
1681066503789140462,225,1681066503789140462,camera_1,363,0,0.13667669572583924,0.1531813132096369,2.959164586118971,-0.9993186989608731,-0.011724595547087303,0.010024433675870756,0.033528830815925025,0.0002828307915478945,4.2747761844655635e-05,19221.048884045795
1681066503809177398,226,1681066503809177398,camera_1,365,0,0.1367018984690947,0.15332757709385475,2.9599476769712822,-0.9993872759304959,-0.012086526357362539,0.012889229647700062,0.030213512671060785,0.0030419999384321272,0.00045987204040607546,19215.761031141155
1681066503829093456,227,1681066503829093456,camera_1,367,0,0.13669388279786132,0.1528662680774482,2.9593888690307537,-0.9993662451651381,-0.011839705356391448,0.013082635582721708,0.030915595543621492,0.003469307266641408,0.0005243264277854232,19221.19884791108
1681066503849179029,228,1681066503849179029,camera_1,369,0,0.13672158819165267,0.15302811831104213,2.9602866089852227,-0.99948352575755,-0.011998000056063584,0.01527964795819664,0.025598087666571345,0.0008732158457860351,0.00013203376152960626,19218.62330377591
1681066503859148740,229,1681066503859148740,camera_1,370,0,0.13664344209837856,0.15332445996181557,2.9586511233217085,-0.9992616694770627,-0.011807426216919657,0.014657076046426118,0.03349433865319423,0.0001385608920827508,2.0933206158027902e-05,19221.15740189807
1681066503879162788,230,1681066503879162788,camera_1,372,0,0.1367210917830191,0.1532583892771092,2.960026542892221,-0.9994733511429348,-0.011955896611252063,0.013447693244698342,0.02700437812150877,0.0007233410724438727,0.00010935733389230428,19221.583509545195
