%time,field.header.seq,field.header.stamp,field.header.frame_id,field.image_seq,field.transforms0.fiducial_id,field.transforms0.transform.translation.x,field.transforms0.transform.translation.y,field.transforms0.transform.translation.z,field.transforms0.transform.rotation.x,field.transforms0.transform.rotation.y,field.transforms0.transform.rotation.z,field.transforms0.transform.rotation.w,field.transforms0.image_error,field.transforms0.object_error,field.transforms0.fiducial_area
1681064349618971109,0,1681064349618971109,camera_1,1,0,0.11114471140540857,0.19164646229422966,2.9590093075731683,-0.9993671281456631,-0.012089034094405659,0.013165668195840932,0.03075489582995203,0.0020540006225928664,0.0003106566477783309,19210.801098205025
1681064349638929605,1,1681064349638929605,camera_1,3,0,0.11109865404704178,0.19645726790871063,2.9587073384662994,-0.9992417109890684,-0.011744401540664794,0.008675309905975717,0.03609447395552288,0.000958085001911968,0.00014495455396031795,19202.335725029927
1681064349658972978,2,1681064349658972978,camera_1,5,0,0.11107285632885036,0.20137529205313115,2.9595355705837885,-0.9993318613665938,-0.011809401795307728,0.011770120669871187,0.03252434697626683,0.0003301365068182349,4.996492111736856e-05,19193.318489220805
1681064349668984651,3,1681064349668984651,camera_1,6,0,0.11101593690607511,0.20356831690743965,2.958081299280273,-0.9992773088153833,-0.011666769421979209,0.01367217124714512,0.03349355626576929,0.0007539893267676234,0.00011401126020931837,19204.303935124768
1681064349678954124,4,1681064349678954124,camera_1,7,0,0.11098428532490504,0.2057676197639187,2.9582812253797806,-0.9993733302152182,-0.011973380324065376,0.012801179161528228,0.030752476814628196,0.0015090770320966838,0.00022823924628611784,19208.09322481439
1681064349688956975,5,1681064349688956975,camera_1,8,0,0.1109054035854312,0.20759098879348867,2.95734170242505,-0.9991201245624861,-0.012045015845360404,0.012986667935979983,0.03801632206629322,9.992916602641344e-05,1.5108146199212206e-05,19196.425317227608
1681064349698899745,6,1681064349698899745,camera_1,9,0,0.11087731345123372,0.2090442043817613,2.957159261974103,-0.9992151247589544,-0.011974291552352646,0.012642966283551924,0.03557957557812752,0.0010164011036977172,0.00015364938209717454,19205.065421245294
1681064349708956480,7,1681064349708956480,camera_1,10,0,0.11087493886483733,0.21011749663033175,2.957757750598455,-0.9993274389551967,-0.01189497831575063,0.009668354648915956,0.03331219237003544,0.0007705140742473304,0.00011653032109750007,19206.66417286021
1681064349718949317,8,1681064349718949317,camera_1,11,0,0.11086675271206778,0.21074777061546682,2.9576237700667782,-0.9993492846575949,-0.011753129151622993,0.013371052638749333,0.03137014760613243,0.0005362428491935134,8.107505833526455e-05,19208.104479279362
1681064349729076623,9,1681064349729076623,camera_1,12,0,0.11086149494164366,0.2109244054347994,2.9575724993468477,-0.9993489627898642,-0.011850514649731992,0.01106180153746558,0.032231233611282696,0.0004295242251828313,6.494624803137009e-05,19209.34718064335
1681064349738924741,10,1681064349738924741,camera_1,13,0,0.11089517749466218,0.2105993862004906,2.957883665317817,-0.9993992961404691,-0.01169268497274289,0.014606534048828999,0.02917151273320638,0.0002983767772093415,4.511631136938769e-05,19208.909966586274
1681064349748934507,11,1681064349748934507,camera_1,14,0,0.11091836044438272,0.2098538865462886,2.9582851667052967,-0.9993108689444451,-0.011793892170572218,0.013730689569782354,0.03240616424240055,0.00011627253843471408,1.75872074697795e-05,19197.290084123502
1681064349759027481,12,1681064349759027481,camera_1,15,0,0.11090351951072595,0.20868744718356785,2.957956025833844,-0.9993652048750566,-0.011930258303436385,0.013702008309318288,0.03064492111494039,0.0009067129576578736,0.00013710021721686748,19207.892671321988
1681064349768923997,13,1681064349768923997,camera_1,16,0,0.11096041479405755,0.207187760823233,2.9588592597507044,-0.9993561039898723,-0.01177090984217476,0.013249675656540002,0.031197262614975144,1.4775723684579136e-05,2.235461426941824e-06,19197.24772483226
1681064349778939723,14,1681064349778939723,camera_1,17,0,0.11093831297142295,0.2052002331388984,2.957682287518014,-0.9991157528210737,-0.012002045362905226,0.010715207255532494,0.03884388890619564,0.00024841807316988707,3.756898875232867e-05,19195.442109241958
1681064349788957595,15,1681064349788957595,camera_1,18,0,0.11101555036002786,0.20306820272862314,2.959616809935307,-0.9994458101091913,-0.011847261332553247,0.010995121323672776,0.02910021239060537,0.0011732090497389436,0.000177552504030206,19200.585302299114
1681064349798898220,16,1681064349798898220,camera_1,19,0,0.11107345452518394,0.20065150181875552,2.9592199115232227,-0.9994209574153323,-0.012079295016835547,0.015017739020853798,0.028041184454623874,0.00031344720628112555,4.741706286488303e-05,19204.67232254788
1681064349808987855,17,1681064349808987855,camera_1,20,0,0.11105737989900308,0.19827766911696376,2.9585366161457785,-0.9991791895435191,-0.011890121127714677,0.013935218101798498,0.03613006918316227,0.0020595475216396153,0.00031150212044732677,19195.81924023223
1681064349818954467,18,1681064349818954467,camera_1,21,0,0.11111560134306292,0.19579377036685353,2.9588548854920846,-0.999307221983891,-0.012125976848009166,0.008277338211413769,0.03419828136696299,0.0003658058703877032,5.534326561890709e-05,19206.866141118222
1681064349828976631,19,1681064349828976631,camera_1,22,0,0.11114978411413015,0.19325037746724172,2.9583157994266234,-0.9991671885017338,-0.012030738258816285,0.013039664539232661,0.03674449492363515,0.00015145534416660666,2.2901710183982067e-05,19202.485523110256
1681064349838975906,20,1681064349838975906,camera_1,23,0,0.11111519936269357,0.19087949189874126,2.9568799662709924,-0.9990161205173902,-0.012221235510696348,0.011095175691479792,0.041162232997627085,8.150242501869798e-05,1.231493492054511e-05,19211.85644473508
1681064349848940372,21,1681064349848940372,camera_1,24,0,0.11113960613906228,0.18885912452911455,2.95660452693856,-0.999149777632186,-0.012262509502408639,0.010545034313696983,0.0379230137196344,0.0010038077598437667,0.00015160881153344007,19227.69244898227
1681064349858886480,22,1681064349858886480,camera_1,25,0,0.11117659165000937,0.18723843930345255,2.957710623557603,-0.9994001708319462,-0.011985845255078589,0.010567935142215304,0.03072387998655395,0.0036049657501280308,0.00054472717544345,19233.761526113958
1681064349868999004,23,1681064349868999004,camera_1,26,0,0.11116950106493487,0.185913187511738,2.9575004030519985,-0.9993569025872595,-0.012225906762623839,0.010430913765625665,0.03205471093372189,0.0010189003660343587,0.00015394543727922938,19234.076759525004
1681064349878811836,24,1681064349878811836,camera_1,27,0,0.11119625621681808,0.18488828295509177,2.957306175127759,-0.9994037200325032,-0.012054064328070723,0.012473278228878702,0.029855003744666188,0.0007731213117949665,0.00011676827054448003,19239.605255179333
1681064349889002084,25,1681064349889002084,camera_1,28,0,0.11118881045775536,0.1844181717034926,2.9564374787691325,-0.9993007820279592,-0.011859878369446538,0.01304472950812184,0.03297158406008233,0.00019273447105661035,2.9096190372507066e-05,19242.633665221274
1681064349898932456,26,1681064349898932456,camera_1,29,0,0.11120017919920144,0.1844679969903348,2.9576164841095287,-0.9995267137934505,-0.012105782430017507,0.0096925604057812,0.026567888847312714,0.00010801537428051233,1.6318556982015206e-05,19246.583149020564
1681064349908987283,27,1681064349908987283,camera_1,30,0,0.11117898072460722,0.18485040175487277,2.957118501476415,-0.9994409000100928,-0.011899491456744238,0.012673421048783664,0.028560005059646634,0.0020445756963454187,0.0003087467760972032,19244.72767482431
1681064349918973445,28,1681064349918973445,camera_1,31,0,0.11120638983256974,0.18579633980112667,2.95766160109413,-0.9994021169004045,-0.012298485728671572,0.014164898322873641,0.029043271841760386,8.949922630563378e-05,1.3521683862546228e-05,19233.92910756217
1681064349928914785,29,1681064349928914785,camera_1,32,0,0.11117547723294018,0.18715506221601316,2.957642116259808,-0.9992803150706844,-0.012137646862782013,0.011375695456020784,0.03408992510639945,0.0005392828607000411,8.149444193753845e-05,19225.092281702782
1681064349938977718,30,1681064349938977718,camera_1,33,0,0.11120923398532596,0.1889860757606197,2.9589864996442907,-0.999461322081157,-0.012194659137951829,0.010189558385824983,0.028714610430874483,0.0008125670137815177,0.0001228960469556556,19221.4986044009
1681064349948958635,31,1681064349948958635,camera_1,34,0,0.11114267187126009,0.19091458505675044,2.95834171628534,-0.9994199458846592,-0.011836118241148592,0.009975521999093037,0.030334255120773226,0.00028867553919553757,4.364323279634982e-05,19225.196874934947
1681064349959041595,32,1681064349959041595,camera_1,35,0,0.11113280668032385,0.19312486923846195,2.958736607997186,-0.9994262374190707,-0.011903787880595526,0.013967447563287242,0.028467634271572985,0.0007127890130504966,0.00010776917764437168,19217.588896314155
1681064349968921661,33,1681064349968921661,camera_1,36,0,0.11110537655986075,0.19551311530902954,2.958671330854656,-0.9992353597049756,-0.012143504136308261,0.011543461052349024,0.03532675656626708,0.0025277528329752386,0.00038230089325867793,19202.33352596895
1681064349978959798,34,1681064349978959798,camera_1,37,0,0.11104605716221114,0.19806342020328344,2.9577400531058937,-0.9990618079638063,-0.012186691407019118,0.011035529575748047,0.0400650160067786,4.670850466936827e-05,7.062705549184358e-06,19198.11493647575
1681064349988957881,35,1681064349988957881,camera_1,38,0,0.11101420437800066,0.2005840381425894,2.957899906345185,-0.9991287196375638,-0.012055667906792534,0.01220529257137654,0.038045936707758236,0.003051920619327575,0.0004615167731865797,19198.376729295713
1681064349999035596,36,1681064349999035596,camera_1,39,0,0.11104327175588821,0.20298321890523885,2.9594422979845563,-0.9994090245876253,-0.012179659165370033,0.010703024599819642,0.030310109532014462,0.00026911695022135973,4.072605871113969e-05,19200.180864024784
1681064350009024620,37,1681064350009024620,camera_1,40,0,0.1110381746639234,0.20514686958872025,2.9592237165632485,-0.9992881391032431,-0.012117986755489045,0.01494059064010841,0.03245224485141114,0.0037848722422495484,0.0005727917884990046,19188.78262534423
1681064350018993139,38,1681064350018993139,camera_1,41,0,0.11097357047398629,0.20703316186384418,2.95895033200502,-0.9993941284138682,-0.011886992871226914,0.011358388017907096,0.0306767422324955,0.0004038907936774194,6.111495026300378e-05,19200.278701120973
1681064350028978586,39,1681064350028978586,camera_1,42,0,0.11092455984501756,0.2086568776269527,2.958576390536646,-0.9993738584300031,-0.011827189648024846,0.011542331559174224,0.03128551188546803,0.0005103317671455443,7.720719970499539e-05,19201.29306846112
1681064350038993835,40,1681064350038993835,camera_1,43,0,0.1109208427599247,0.20987363445978482,2.958816354848131,-0.9993669429602978,-0.012064337320823045,0.014224675904127381,0.030295604939012122,3.126490628346801e-05,4.730198304380066e-06,19195.50227624771
1681064350048997402,41,1681064350048997402,camera_1,44,0,0.11089927420609046,0.21064921182429128,2.958157253424621,-0.9992867198541653,-0.011812228880015424,0.013623424951736874,0.033180190845951245,0.00028343108715489507,4.287124963754811e-05,19195.853553130182
1681064350058996200,42,1681064350058996200,camera_1,45,0,0.11088302993703743,0.21090442015425856,2.9578017877679943,-0.9993801002709264,-0.011910794558496406,0.013703178691003204,0.030162411197068084,9.985576616600156e-05,1.50982023622487e-05,19208.379357261358
1681064350068939447,43,1681064350068939447,camera_1,46,0,0.11088629887863691,0.21075546964411063,2.9581950363904785,-0.999373269789543,-0.012024996394719881,0.01595133720358861,0.029223653660721733,0.0002521525020711124,3.8130378843063856e-05,19202.4233852299
1681064350078944206,44,1681064350078944206,camera_1,47,0,0.11088039933044665,0.21019029959386887,2.9579511444948428,-0.999284937133901,-0.012000712104662928,0.010672838298489536,0.034229926218601256,0.0011678411974571645,0.00017663062531827068,19200.15700228699
1681064350088894367,45,1681064350088894367,camera_1,48,0,0.11092012756336621,0.20913895475258204,2.958142191256601,-0.999340251684765,-0.011959671868537114,0.015486039840777224,0.030597551886995266,0.0005375692271627486,8.129315805939051e-05,19202.231672751022
1681064350098964452,46,1681064350098964452,camera_1,49,0,0.11096571783275133,0.20769360241628987,2.958724062109638,-0.9993332018908683,-0.011826356506056365,0.016659049365543886,0.0302616087571849,0.00011638866271823645,1.760573318024992e-05,19195.389927079093
1681064350108960866,47,1681064350108960866,camera_1,50,0,0.11093816998770556,0.2058410509575045,2.9572549222048545,-0.9992218184335759,-0.012125769035671929,0.014640357095006705,0.03455985005352708,0.002075951430015266,0.00031377915646822177,19207.810439438334
1681064350118961811,48,1681064350118961811,camera_1,51,0,0.11103978018768536,0.2038802169303503,2.95885914313615,-0.999226378084079,-0.012019297527783645,0.014725782905386066,0.03442866749868895,0.000231190409976989,3.497736563441186e-05,19189.632520820946
1681064350128915548,49,1681064350128915548,camera_1,52,0,0.11103822799133176,0.20150487206563777,2.9591155531109314,-0.9992563239318181,-0.011799297161846104,0.011075602459825432,0.03499866710187532,7.48745515011251e-05,1.1330497816122189e-05,19192.56031386624
1681064350139014244,50,1681064350139014244,camera_1,53,0,0.11110246201961088,0.19903615503114408,2.960067233850713,-0.9994266316002944,-0.01222557777953836,0.012249884298768667,0.02910126510502417,0.0015480570727959275,0.00023430642165517466,19196.859113495568
1681064350149044752,51,1681064350149044752,camera_1,54,0,0.11108832469531231,0.19644307776715808,2.958225973011547,-0.9993569586952029,-0.012070731207092988,0.013763382231674713,0.03083076166989171,0.0010199417592957616,0.00015418537155154288,19216.256104556145
1681064350159071922,52,1681064350159071922,camera_1,55,0,0.11114768653871429,0.1941001889290818,2.958611489110307,-0.9993518249272745,-0.012127934889708624,0.012885803770183833,0.03134962951987576,0.000987829640507698,0.00014937632118507853,19213.05699332174
1681064350168964385,53,1681064350168964385,camera_1,56,0,0.11110286355147841,0.19175627893399574,2.9576225003346406,-0.9992153780677812,-0.012243080319320115,0.01183315228964095,0.03575907890377145,0.00023749121464788914,3.5891058952555984e-05,19217.19917797111
1681064350178960561,54,1681064350178960561,camera_1,57,0,0.11118745438912345,0.18957356071824655,2.958151150114058,-0.9992748862104474,-0.012080245351164769,0.012831907606752357,0.033750727525861814,0.004024929192382842,0.0006084689946902586,19215.918703123698
1681064350188958168,55,1681064350188958168,camera_1,58,0,0.11118870286639733,0.18771641020722993,2.9576746616585377,-0.9993523539808215,-0.012003550799032373,0.008887010947077854,0.03273848496238859,0.001530004316009581,0.0002312344311536111,19230.943041993774
1681064350198974370,56,1681064350198974370,camera_1,59,0,0.11115904296172024,0.18623369910039173,2.95696571818155,-0.9993399889187112,-0.011838519794039784,0.010512930891296143,0.03269425455811986,0.0016830231761559844,0.0002541858479085362,19239.117925432038
1681064350208970785,57,1681064350208970785,camera_1,60,0,0.11118489704731248,0.18517322107723105,2.9571532638861546,-0.9993115724402759,-0.01204536124939234,0.011791700213900122,0.03304914923837417,0.0001726442133076489,2.607863588035522e-05,19234.602484637406
1681064350218932628,58,1681064350218932628,camera_1,61,0,0.11120817949350885,0.18458985857843765,2.957185873471742,-0.9993233146600548,-0.01192442064155087,0.008375551824541808,0.03377234224685613,0.0007589460001327097,0.00011466627424046165,19236.767956406347
1681064350228985309,59,1681064350228985309,camera_1,62,0,0.11120240987476929,0.1843706177666054,2.9569432812044285,-0.9993887086917068,-0.012088124518143973,0.012477134503333027,0.03033821517067906,0.00019500235794112086,2.944821299613112e-05,19243.36381367036
1681064350238952875,60,1681064350238952875,camera_1,63,0,0.11119840575186732,0.18470061070401358,2.9573705728388795,-0.9994879283764919,-0.012194570185717978,0.010030933469747495,0.027830807774474265,0.0012489831424318256,0.0001886506143827992,19246.598487499643
1681064350248953342,61,1681064350248953342,camera_1,64,0,0.11123173501657033,0.1855367628063639,2.9584738826404897,-0.9995059951196226,-0.01178310821359945,0.011678068467161599,0.02669357221572282,0.0009129698155447841,0.0001379937385738952,19232.25357001787
1681064350258982419,62,1681064350258982419,camera_1,65,0,0.11122133179273667,0.18668674705989732,2.958396074637991,-0.9994969492064893,-0.011944175881945981,0.011288595549202798,0.027124763592484804,8.281221380457282e-05,1.2518028821264072e-05,19232.364650027244
1681064350268883466,63,1681064350268883466,camera_1,66,0,0.11118123249450121,0.18822095680506337,2.958214982915153,-0.9993766992450293,-0.012410522578970335,0.012990488361394107,0.030388141561466568,0.0005148210329934955,7.780940755929625e-05,19224.23745237058
1681064350278927326,64,1681064350278927326,camera_1,67,0,0.11112174156162805,0.1901641531362685,2.9573433844043047,-0.9992199353096365,-0.01206340348487762,0.010919395556885519,0.03598280112552406,0.003081002563703805,0.0004655779385435247,19222.477289088296
1681064350288947343,65,1681064350288947343,camera_1,68,0,0.11112617769928951,0.1924210158171268,2.9585999724221623,-0.9994361036850761,-0.012245344351497834,0.010992615898456098,0.029269243041389646,4.5806809794157743e-05,6.926059811607934e-06,19222.162735529004
1681064350298984289,66,1681064350298984289,camera_1,69,0,0.11111989498629594,0.1947525902203225,2.9585552889175952,-0.9993770534723967,-0.012166696635132196,0.012379818555424409,0.030728107301849664,0.0002748431288637221,4.155892176127124e-05,19215.612179242547
1681064350308945178,67,1681064350308945178,camera_1,70,0,0.11109087996242696,0.19714571101123743,2.958423009906724,-0.9993130125643963,-0.012009811981396327,0.014319074188300494,0.03200361620242655,0.0016337423003278673,0.0002470490855452621,19209.215616525154
1681064350318973779,68,1681064350318973779,camera_1,71,0,0.11104210542250217,0.19963615142370922,2.9582744605062383,-0.9992704043449461,-0.012294512399915792,0.01363428516993604,0.03349044987815661,0.001143474888522178,0.00017288914240077739,19205.945021614545
1681064350328925848,69,1681064350328925848,camera_1,72,0,0.1110202180386532,0.2021808522081318,2.9585517648399318,-0.9991969571535948,-0.01200947303416507,0.011494260613824242,0.036456759940788966,0.0011387584963813424,0.0001722756053272551,19194.180939963553
1681064350338973999,70,1681064350338973999,camera_1,73,0,0.11102860221032021,0.2044982780961484,2.959053191920837,-0.9992163273132457,-0.012009492018469192,0.008792860062653837,0.03667681752831611,0.0014172428054735065,0.00021452316657695906,19187.795023215236
1681064350348927974,71,1681064350348927974,camera_1,74,0,0.11101220485829233,0.206503516522736,2.959447765187285,-0.9994727543532609,-0.01172112377467809,0.012642887661466217,0.027513377737830528,0.0003024385659955442,4.577097552624846e-05,19200.694958210224
1681064350358931303,72,1681064350358931303,camera_1,75,0,0.11092748714172182,0.20813068708167573,2.958188009478974,-0.9993242574652489,-0.011970664972345358,0.010251766704092323,0.03320591665793303,0.001935873820912093,0.0002928089620660989,19203.22443543584
1681064350368998289,73,1681064350368998289,camera_1,76,0,0.11084164926536019,0.20934888398884163,2.9568691285766557,-0.9992778212012181,-0.011896685377311408,0.012085066690617341,0.034003765901192404,0.0019774826942011714,0.00029886516719835287,19213.958908841705
1681064350378937959,74,1681064350378937959,camera_1,77,0,0.11090838415716459,0.21043875278466323,2.9583603950999553,-0.9992652771642686,-0.011778324656971484,0.012162901613136812,0.034383727931124486,0.00015624577645212412,2.3638031441586855e-05,19192.099602188446
1681064350388925790,75,1681064350388925790,camera_1,78,0,0.1109118209970672,0.2109223683772717,2.9589170450560784,-0.9994320346261358,-0.011935534867475108,0.01469585989361497,0.027877999793330423,0.0004348591319285333,6.579109636434124e-05,19198.396645724657
1681064350398981094,76,1681064350398981094,camera_1,79,0,0.11088125110103053,0.21087961135031782,2.9583578098210905,-0.9994176308364228,-0.012041820373084537,0.011676098113658537,0.029716367009690266,0.0003763897111639381,5.693182842105412e-05,19205.37792054867
1681064350409004449,77,1681064350409004449,camera_1,80,0,0.11089312551602205,0.21045868303990714,2.9581157656439854,-0.9992787418046221,-0.011890256645069125,0.010842079771549495,0.034395745093155766,0.0019211020553484561,0.0002905802129784375,19196.971272203136
1681064350418995380,78,1681064350418995380,camera_1,81,0,0.11097186451732347,0.20961675269860386,2.9591875720801286,-0.9993855589599554,-0.011879469823188143,0.013307197862340074,0.030171198585238288,0.002075548400171101,0.00031414786975562085,19192.69131326745
1681064350428972721,79,1681064350428972721,camera_1,82,0,0.1109664072279092,0.20829475992496857,2.959474124093149,-0.9993785029758654,-0.011872097261546786,0.012145713056094,0.030889201198629392,0.0016178198275156321,0.0002448810417204169,19190.43564151483
1681064350438958406,80,1681064350438958406,camera_1,83,0,0.11094318885962344,0.20643760754565088,2.9578801501617016,-0.9992013852837239,-0.012188150275467281,0.010217521232586025,0.03665573488298273,0.00022291962523013353,3.3716417825901204e-05,19198.972813562028
1681064350448901176,81,1681064350448901176,camera_1,84,0,0.11101363146199737,0.20454138489398027,2.959521243030995,-0.9994296303628012,-0.012078472078406153,0.013471144840216488,0.028514079361249483,0.002135072078090161,0.00032308175258995663,19198.268646678076
1681064350458982467,82,1681064350458982467,camera_1,85,0,0.11102847312787856,0.20233659637893206,2.959053544842856,-0.9993684352170066,-0.011930140330701625,0.011766105982807785,0.03133626004492391,0.0015440855640918016,0.00023364290636039713,19201.753316297196
1681064350468959093,83,1681064350468959093,camera_1,86,0,0.11107598077826006,0.20000166281745277,2.9596043797063287,-0.9994107509379826,-0.012073204922963585,0.01056261624095898,0.0303450122855816,0.0014343239599838853,0.00021709544472328846,19201.074698055396
1681064350478998422,84,1681064350478998422,camera_1,87,0,0.11110025721279414,0.19734103667178574,2.9588681185308228,-0.9992926476778827,-0.01217026766690952,0.010222987315930836,0.034081951413922715,0.0002512116334401071,3.8001534092505734e-05,19203.424433284436
1681064350488945007,85,1681064350488945007,camera_1,88,0,0.1110780073084558,0.19473953628793036,2.957583873607206,-0.9991058379091521,-0.012058836767408165,0.01135042953220195,0.03890085938771414,0.0024878388503566384,0.0003760620271060696,19206.543242019718
1681064350499142408,86,1681064350499142408,camera_1,89,0,0.11118440387284843,0.19249135131621894,2.958933104975369,-0.99933707232828,-0.012200211345240866,0.013393036143850023,0.03157843087177147,0.0024196869344450533,0.0003659648320598988,19208.726997534977
1681064350509531974,87,1681064350509531974,camera_1,90,0,0.11118479509294432,0.19034515115354128,2.9584418814992244,-0.9993265633867539,-0.012116799454676848,0.011941851187863494,0.03251146060703085,0.00106796610634774,0.00016146971299787623,19216.20402480824
1681064350519093751,88,1681064350519093751,camera_1,91,0,0.11118265969189087,0.1884052516658835,2.958148091031772,-0.9994973395670574,-0.012165995970675149,0.012500335883289292,0.026472596080120075,0.0010798302828334272,0.00016321323319358347,19234.476346333857
1681064350529000759,89,1681064350529000759,camera_1,92,0,0.11116397963595157,0.1866957869672513,2.957690272005421,-0.9993966396196156,-0.012218332735445887,0.010746303699978307,0.03068527364997885,0.0014435556367971003,0.00021810687795602155,19234.20089347847
1681064350539075613,90,1681064350539075613,camera_1,93,0,0.11120046270137524,0.18548584509078136,2.9572678868411457,-0.9992897602694719,-0.011881014632706615,0.013029669009840757,0.0333023157959493,0.00154154741903767,0.00023286437741407037,19230.54668553778
1681064350549001693,91,1681064350549001693,camera_1,94,0,0.11124021661444893,0.1847993246445821,2.9586037015077116,-0.9995749510091733,-0.011973002478006893,0.010395293088438036,0.024464308865691436,0.0003848824417218566,5.8185264037574315e-05,19236.94524298539
1681064350559011220,92,1681064350559011220,camera_1,95,0,0.11123759054580475,0.18443118785186954,2.957997326917437,-0.9994895634661561,-0.0120644492325477,0.013324572410592558,0.02641055389466299,8.012034231796861e-05,1.2106650337793253e-05,19237.074032443696
1681064350568883657,93,1681064350568883657,camera_1,96,0,0.11125902615522622,0.1846454079537802,2.959019693041501,-0.9995210089682595,-0.012001087769992605,0.009767266965445992,0.02680162344775121,0.00027931848308071494,4.224074492390702e-05,19227.749125633152
1681064350578938961,94,1681064350578938961,camera_1,97,0,0.11118765452801847,0.18506584281132327,2.956350288119932,-0.9993717644937679,-0.012003282924813776,0.014845091431259273,0.02986001996043435,0.0023910797899588943,0.0003609229410175959,19248.264278847033
1681064350588986635,95,1681064350588986635,camera_1,98,0,0.11116490208296952,0.18623023171586894,2.957403555921355,-0.9994404828026492,-0.012085308346094668,0.009722160533949743,0.029633532559238323,0.00043837999692186713,6.6223177983374e-05,19241.88477636419
1681064350599031925,96,1681064350599031925,camera_1,99,0,0.11115850022844284,0.18769704138809942,2.95741716421089,-0.9993607785196403,-0.012105992804643834,0.011428813692090598,0.03163639537658782,0.0001700120628811419,2.5684429030165425e-05,19233.970076842816
1681064350609043121,97,1681064350609043121,camera_1,100,0,0.1112113076408777,0.18951015798644721,2.9587950869430077,-0.9993607430917404,-0.01225745188855858,0.014375367211457627,0.030351422666160793,0.0023977005621418357,0.0003625614141119975,19213.95711346029
1681064350618997335,98,1681064350618997335,camera_1,101,0,0.11115993914900468,0.19159474731153636,2.9590898108244432,-0.9993906406071069,-0.012398287982575498,0.010746201023709422,0.030808263267764757,0.0016095467726700008,0.00024344348460075593,19212.975258881583
1681064350628939867,99,1681064350628939867,camera_1,102,0,0.11114154904979358,0.19399671082913067,2.9589501159374696,-0.999232185075433,-0.012076664047628128,0.0086941475751721,0.03624370694062134,0.002134178706910461,0.00032291198191922854,19200.82275780233
1681064350639023065,100,1681064350639023065,camera_1,103,0,0.11108139321489852,0.19649624168401147,2.9589750880948524,-0.9993670766399985,-0.012163875855080488,0.008688490616596316,0.03227996875789755,0.0009994561551138759,0.00015119941662448518,19209.529356415267
1681064350648980617,101,1681064350648980617,camera_1,104,0,0.11105903389279309,0.19891178793445186,2.958038323717464,-0.9991358483232217,-0.012029954896280224,0.009736332382625829,0.03857512945363263,8.82177846506238e-06,1.3342003083180979e-06,19199.8331801216
1681064350658998966,102,1681064350658998966,camera_1,105,0,0.11106733457522125,0.2013364327916646,2.959132903494364,-0.9992339970001427,-0.01216570978240201,0.009992713301556575,0.035826811545016705,0.0012057186686433852,0.00018247605920274537,19191.398916762788
1681064350668996572,103,1681064350668996572,camera_1,106,0,0.11100284014888248,0.20363868097675977,2.958551897511581,-0.9991599390729641,-0.011928692713143072,0.010966685679355593,0.0376411244130198,0.0004059920902363956,6.142419801106222e-05,19189.614770698354
1681064350678965568,104,1681064350678965568,camera_1,107,0,0.11097063403672164,0.20586126967467436,2.9586852678971947,-0.9992635253793116,-0.011818877024371491,0.010620892093625442,0.0349273194437847,0.0028522739303298295,0.0004315782964542119,19194.06624948478
1681064350688974380,105,1681064350688974380,camera_1,108,0,0.11094956113189466,0.20766094215861342,2.958494941917742,-0.9992965941007435,-0.01214170585949905,0.014473396300150971,0.03239470322466685,0.001306174322962761,0.0001975820451380266,19196.19197905192
1681064350698955297,106,1681064350698955297,camera_1,109,0,0.11088740434466202,0.20909243645173464,2.9581200685771774,-0.999331582336326,-0.01198274892702866,0.014267640222581646,0.031452133724211094,0.0025408902438357472,0.0003842429910905718,19202.256952328833
1681064350708985805,107,1681064350708985805,camera_1,110,0,0.11089786200149679,0.21014196370744545,2.9577991584370076,-0.99929368569924,-0.011961105902390325,0.011222567969795035,0.033809993129007065,0.00038931361632421613,5.887811540076607e-05,19202.659033008385
1681064350718945503,108,1681064350718945503,camera_1,111,0,0.11087524481196484,0.21074129345119003,2.9579467559614745,-0.9994433030297591,-0.011980693705131178,0.01115802415017437,0.02906966639596872,6.521481554955244e-05,9.86187786610173e-06,19213.20150314225
1681064350728957653,109,1681064350728957653,camera_1,112,0,0.11088141738335036,0.2108994827183348,2.9574911775050237,-0.9992795760886735,-0.012028393262932403,0.013026905718687374,0.03355512322954126,0.00036909303162246937,5.580130094053335e-05,19203.876352161165
1681064350738967180,110,1681064350738967180,camera_1,113,0,0.11092582516037316,0.21068111905004516,2.9585984182653484,-0.9992862567521242,-0.011753683931382344,0.01383447334534305,0.033127561450036085,0.0010246332385577261,0.0001550100267329677,19189.982018558312
1681064350749029159,111,1681064350749029159,camera_1,114,0,0.11090542648880239,0.20987779182359215,2.9582159242231976,-0.9992376910526262,-0.011980556821847272,0.011622631543560177,0.03529047285114729,0.0008968824404291809,0.00013568846843868196,19192.689595319098
1681064350759060382,112,1681064350759060382,camera_1,115,0,0.11090822511207206,0.20879026691411756,2.9588120205265414,-0.9993587914004538,-0.011943764168902063,0.007898559848391662,0.03281714948656235,0.0019486052333377302,0.00029488817074660266,19198.252488515813
1681064350769073009,113,1681064350769073009,camera_1,116,0,0.11095901403765601,0.20723622747355205,2.9593302851503607,-0.9993962229205489,-0.012128999806734793,0.011815515713625964,0.030339257806507827,0.00033703481312841177,5.100585659435283e-05,19195.481790374513
1681064350779034614,114,1681064350779034614,camera_1,117,0,0.11099150514409126,0.20522594832575808,2.958616783270043,-0.9993491353672952,-0.011926529610352203,0.012080657364718451,0.0318295656541075,0.0003246593405492604,4.911326770620689e-05,19202.53187856474
1681064350788988113,115,1681064350788988113,camera_1,118,0,0.11100654473273869,0.2030120085872828,2.958882978454447,-0.999324776115299,-0.012226727287526037,0.012248207524875135,0.03241111529046457,0.001278137438930571,0.00019335978180788825,19199.727425532183
1681064350798997879,116,1681064350798997879,camera_1,119,0,0.11105386508829818,0.20070205908432207,2.958892141924398,-0.9993005655690561,-0.012127947256482141,0.014766749527812057,0.0321439832175696,0.0011086655431427062,0.00016770213783933415,19198.87313098798
1681064350808988094,117,1681064350808988094,camera_1,120,0,0.11103578471600416,0.19820487322314428,2.9579154856352754,-0.9991689574969103,-0.012092244317855308,0.007221783325957942,0.03824941630257543,0.00033216975862160325,5.023887146534174e-05,19205.95867947326
1681064350818954467,118,1681064350818954467,camera_1,121,0,0.11115163899255494,0.19581779977097039,2.959372820075317,-0.9993487789247785,-0.011774328153755332,0.010557223351752042,0.03243344405367956,0.0005420557572506368,8.202576955091605e-05,19202.24535287195
1681064350828969240,119,1681064350828969240,camera_1,122,0,0.11121188870344162,0.19334396738070134,2.9601142030293013,-0.9994450176747319,-0.012091291636998274,0.014475437378116943,0.027457585917486062,0.0012558635789901018,0.00019007381444302932,19201.09525555314
1681064350838898897,120,1681064350838898897,camera_1,123,0,0.11116058420315122,0.19099284125624763,2.9580094430653476,-0.999178787170879,-0.011998172924011995,0.009592228021323835,0.03749378982983535,0.0031542853685095906,0.00047697269315466614,19210.49112251436
1681064350848873138,121,1681064350848873138,camera_1,124,0,0.11119714766499098,0.18899673418239205,2.9586155845838777,-0.9993044458394379,-0.012100665520093083,0.012082956536916696,0.03313910953589621,0.0009670688305050135,0.00014621779274031046,19212.998014823534
1681064350858955144,122,1681064350858955144,camera_1,125,0,0.11115992637397165,0.18722166000455573,2.95693442580525,-0.9992957438963553,-0.012168386555579308,0.013333837042389277,0.03289613030420078,0.00017862417735159397,2.6975562702135008e-05,19234.58444888983
1681064350889006137,123,1681064350889006137,camera_1,127,0,0.11120752406950446,0.1844802737901875,2.95755600203199,-0.9994662593038384,-0.012016856916133247,0.010852785132521876,0.028372675550907705,0.0001724942703731358,2.6059941050404183e-05,19242.063993494834
1681064350908997297,124,1681064350908997297,camera_1,129,0,0.11116600376288269,0.1848896861990947,2.9571496468280376,-0.9993487757090771,-0.012207563022919957,0.006579310369031666,0.03331234859444733,0.0010044705704785883,0.00015173954088265146,19240.218481995977
1681064350918932676,125,1681064350918932676,camera_1,130,0,0.11120976811500993,0.18583877664886314,2.9575353181410584,-0.9993546742344303,-0.011949947142325456,0.014087265032027655,0.03080556464356593,0.0005881096003577113,8.884408973907636e-05,19231.559614974067
1681064350928954601,126,1681064350928954601,camera_1,131,0,0.11113547451957434,0.1871540031781536,2.957144807629918,-0.9993552538013669,-0.012049376644736586,0.010463843200640147,0.032162046072214845,0.0004096244811080396,6.18724130612897e-05,19237.76077441965
1681064350938939332,127,1681064350938939332,camera_1,132,0,0.1111372603781479,0.18887653194135404,2.957650414736907,-0.9993253039263933,-0.012154341746112709,0.009589609399509676,0.0333053794559517,0.0007850024849176407,0.00011863484700684094,19228.348190777004
1681064350948936939,128,1681064350948936939,camera_1,133,0,0.11113866198976066,0.19092025953345032,2.9582696284371006,-0.9992570382853502,-0.012121291712787271,0.013083683465671849,0.03416523015250809,0.0003560496843419969,5.382769708508659e-05,19212.09627403063
1681064350958964824,129,1681064350958964824,camera_1,134,0,0.11117289305582824,0.1931748670702901,2.959667475799648,-0.9994186587160425,-0.01198907026560792,0.015348290383808715,0.027982794476015413,0.0015686103142797947,0.000237294284907081,19204.45747819518
1681064350968959569,130,1681064350968959569,camera_1,135,0,0.11115090387394684,0.19556817230936477,2.959382900402621,-0.9993797811332253,-0.01180205692973154,0.008003919648472394,0.03219785372652626,0.004230935592204332,0.0006403642257258746,19205.914720267054
1681064350979043722,131,1681064350979043722,camera_1,136,0,0.11114719488201796,0.19822167321546846,2.960831934778788,-0.9994760478433256,-0.011959705298080877,0.01069504882436465,0.028110694892054033,0.00021909555653110147,3.3180681868328115e-05,19192.12679224706
1681064350989051342,132,1681064350989051342,camera_1,137,0,0.11106241754217022,0.20060119728108383,2.9587190056614943,-0.9992553276836525,-0.012099193338391918,0.01045742150410009,0.035114697092267624,0.0018926140619441867,0.0002863589119462799,19198.980195387507
1681064350998951911,133,1681064350998951911,camera_1,138,0,0.11105007149061755,0.2029535523854195,2.959133592831617,-0.9993853768229451,-0.012089656769989023,0.012604952772455158,0.030394472478529447,0.001420992484781891,0.00021498010003796547,19201.380056383907
1681064351008897781,134,1681064351008897781,camera_1,139,0,0.11095269246550177,0.20501065854476352,2.9579014100882683,-0.9992633292963977,-0.012057840445774114,0.010740896960343273,0.03481436973076704,0.00029573298525065184,4.4719581176724154e-05,19205.336935017825
1681064351018952846,135,1681064351018952846,camera_1,140,0,0.11100374673758648,0.20706959027655114,2.9595970002611725,-0.9994665299814859,-0.012026898427923047,0.01499885851431985,0.02640157957849576,0.0001395779545418918,2.112349463514194e-05,19197.22595204133
1681064351028883934,136,1681064351028883934,camera_1,141,0,0.11090157977165685,0.20866170037327428,2.958183155437153,-0.9992536362029746,-0.012041749094270159,0.012444715030320101,0.03452963772903367,0.00013593817129731178,2.056214730405796e-05,19195.87089412124
1681064351038948059,137,1681064351038948059,camera_1,142,0,0.11099456962882093,0.20997485333795674,2.9600549268983327,-0.9994629182909119,-0.011834525006384582,0.016924451760056254,0.025443700829651354,0.00016395183047279716,2.4821281438468323e-05,19186.975685254674
1681064351048893928,138,1681064351048893928,camera_1,143,0,0.11084218457525945,0.2105469117325277,2.9572008837674297,-0.9992711478862516,-0.012040418844562105,0.013770637058851233,0.03350478877913142,0.0006273210165090859,9.481695331507851e-05,19207.17551257788
1681064351058948040,139,1681064351058948040,camera_1,144,0,0.11089152144935024,0.21093589194515489,2.9579429270369952,-0.9992743152714562,-0.011906058324509044,0.012903901983945334,0.03380204028641958,0.0013091590953990817,0.00019800286689166535,19197.46462720003
1681064351068839788,140,1681064351068839788,camera_1,145,0,0.11091275868402845,0.2108330369963336,2.9587276615613627,-0.9994546384234058,-0.011854770490570437,0.012501757274166142,0.028170839810220977,4.0323822759091854e-05,6.100518278796647e-06,19203.486381978022
1681064351078940868,141,1681064351078940868,camera_1,146,0,0.11087905206053991,0.21016176442707155,2.957705064553741,-0.9992754719995801,-0.011863337660086678,0.01069794918998187,0.03454484278018421,0.0014495974173769355,0.00021920960764839443,19202.379012438003
1681064351088921308,142,1681064351088921308,camera_1,147,0,0.11090669484586246,0.209143945721435,2.9584740836143353,-0.9993036270211082,-0.012162480364571295,0.011538508554632107,0.03333463535384635,0.0008690539398230612,0.0001314859955654326,19196.260035899933
1681064351098925352,143,1681064351098925352,camera_1,148,0,0.11094284336355091,0.2076516183678165,2.957772369750111,-0.9991804209011903,-0.011900675740342264,0.012425822602779711,0.03663958702397693,0.0018658178742043676,0.00028218186077401674,19195.94849120744
1681064351108916759,144,1681064351108916759,camera_1,149,0,0.11095935502768521,0.20590973683079733,2.957804127139791,-0.9992592515763226,-0.012042106178782269,0.012901067195693242,0.03419792805301186,0.0002161438460461795,3.268186858926623e-05,19204.36621242052
1681064351118908643,145,1681064351118908643,camera_1,150,0,0.11105305267122012,0.20388271249367387,2.9592897856034295,-0.9993170253874946,-0.012122247808841231,0.014164835098534617,0.031904409184034796,0.0017107478342950344,0.0002588965717104633,19192.043499843465
1681064351128855466,146,1681064351128855466,camera_1,151,0,0.11104009336360499,0.20143814918435893,2.9587690019465125,-0.9992848550224597,-0.011991021268086906,0.013065219201739807,0.0333960174107707,0.0002678869059309364,4.052455040389134e-05,19198.887866501573
1681064351138945817,147,1681064351138945817,camera_1,152,0,0.11108172476694275,0.19902314628645956,2.959328741983095,-0.9992631514952232,-0.011984857988178027,0.012042842154143777,0.03441637975860393,0.0002448178129270673,3.7045555743966595e-05,19192.646414180737
1681064351148897171,148,1681064351148897171,camera_1,153,0,0.11108763591199479,0.19653983151141555,2.9584790611102507,-0.9993441832059928,-0.01203202510681261,0.013273216376130008,0.03146832679391247,0.00014352344442158937,2.1701714069090923e-05,19212.021011135308
1681064351158960819,149,1681064351158960819,camera_1,154,0,0.1111604835893546,0.19420337544656946,2.9595766675623683,-0.9993089987301674,-0.012079766350210826,0.007876611075678306,0.03425731016581775,0.0004087875713594258,6.187315777637082e-05,19199.12183788371
1681064351168884754,150,1681064351168884754,camera_1,155,0,0.1111345942747275,0.1917601143437008,2.9578131686548845,-0.9992382990586073,-0.012082281457627088,0.011171846087402494,0.035384036290955274,0.0002254803548566997,3.408302942054836e-05,19216.639314915534
1681064351178956508,151,1681064351178956508,camera_1,156,0,0.11119467518362433,0.18959279007716942,2.9583058372497586,-0.9994064638751737,-0.01211415119336799,0.010847193817909556,0.030369486193579962,0.0032542803091928363,0.0004919590482218326,19225.221442297105
1681064351188957452,152,1681064351188957452,camera_1,157,0,0.11121085334538522,0.18774022712692623,2.957919910773198,-0.9993071016219987,-0.011872748614247511,0.008461969664429273,0.03424543119281269,0.0033134497352875778,0.0005008815603841234,19224.25899397931
1681064351198958396,153,1681064351198958396,camera_1,158,0,0.11114585261196402,0.18622567444273253,2.9569683006171275,-0.9993384788654737,-0.011805750912089788,0.007712992394423927,0.03352221133169181,0.0005187350907362998,7.836017394617336e-05,19240.20493504196
1681064351208822250,154,1681064351208822250,camera_1,159,0,0.11121268673081672,0.18518395074831717,2.9573484122660427,-0.999340398910714,-0.011979093625703513,0.012857953252754335,0.031779576130465656,0.0025560703361406922,0.00038616379126691985,19233.71841281827
1681064351218972682,155,1681064351218972682,camera_1,160,0,0.11119535354917959,0.1845798315353299,2.957559882235407,-0.9994144986371409,-0.011914791079429674,0.010956558583295901,0.03014384665925605,0.0014187925262376666,0.00021433680530523206,19237.855027783662
1681064351228894472,156,1681064351228894472,camera_1,161,0,0.1112152170479041,0.18439833496209426,2.957546667757933,-0.9994856515145949,-0.012122556949254069,0.013626342554135789,0.02637799875000599,0.000489664962515235,7.396268607014196e-05,19242.56327556783
1681064351238988876,157,1681064351238988876,camera_1,162,0,0.11123102679775569,0.18473093959849193,2.957851326529692,-0.9995811720156259,-0.01197051858283594,0.008767534284975675,0.024845876504712486,0.0009162717615254223,0.00013844882646556276,19247.90638561442
1681064351248876571,158,1681064351248876571,camera_1,163,0,0.11121640770656746,0.18549121772804752,2.9582963992074096,-0.9994710654498635,-0.01192976133498712,0.007274065058591099,0.029365934354766733,0.0005161201115697622,7.801927604920124e-05,19233.972601153884
1681064351258988857,159,1681064351258988857,camera_1,164,0,0.11118343270398542,0.18669065774962595,2.958231641685942,-0.999442229491555,-0.012300121666491587,0.012435213966046684,0.02844824018384847,0.0008510160841979085,0.00012861097462403732,19230.103414981157
1681064351268898010,160,1681064351268898010,camera_1,165,0,0.11115297792884235,0.18822036616065782,2.9572983255950303,-0.9993587485007884,-0.01212214179558697,0.012286036767093115,0.03137194246111513,0.0009081932948902249,0.00013720418657233948,19234.679988253054
1681064351278995513,161,1681064351278995513,camera_1,166,0,0.11114039136663442,0.19019854429601196,2.957564552008209,-0.9992844968999621,-0.012174652319949322,0.011068439571892033,0.03405527480026692,7.548858411610126e-05,1.1407686497606042e-05,19224.745088852942
1681064351288920164,162,1681064351288920164,camera_1,167,0,0.11110978336369218,0.19239496918925425,2.9575769417731346,-0.9991932219346674,-0.012356053405990329,0.01042410645497618,0.03676372109379117,0.0006897006533108652,0.00010424585784328399,19216.214820146793
1681064351298917055,163,1681064351298917055,camera_1,168,0,0.11108655593009589,0.1947506664165906,2.9581671483197307,-0.9991840523567825,-0.012190813619116047,0.012840732090782177,0.03630053964550753,0.0009523659246042371,0.00014398933428782083,19204.84998498135
1681064351308932304,164,1681064351308932304,camera_1,169,0,0.11110009931917086,0.19721101678302685,2.9591084148455424,-0.9994290810272075,-0.012104593626454893,0.011684992260769736,0.029299347537371106,0.0007836165023036301,0.00011854792549084924,19211.01800450997
1681064351318966627,165,1681064351318966627,camera_1,170,0,0.11113337138772175,0.19976865264595237,2.9601327894733678,-0.9994869984083928,-0.011901534935237226,0.01634450839655614,0.024838488763244185,0.0020382135990075767,0.0003085414525860763,19198.62259238376
1681064351328937530,166,1681064351328937530,camera_1,171,0,0.11104584054295645,0.20222564795614317,2.9591671541734645,-0.9993235179979768,-0.011858143873584439,0.010839070539961353,0.03308179786303488,0.0006897927960380911,0.00010438956797562383,19196.884947508224
1681064351338947534,167,1681064351338947534,camera_1,172,0,0.11098384233837391,0.20442231590560814,2.958068119292132,-0.9992716851273555,-0.011578099579949217,0.013164842747325316,0.033892976090778126,0.0003815254312939942,5.769236080882935e-05,19203.185761108994
1681064351348901033,168,1681064351348901033,camera_1,173,0,0.11095093054732613,0.20641136090586665,2.9580825184400346,-0.9991947248930907,-0.012304159844397594,0.013631666139508657,0.03567474000753574,0.0002898950478993356,4.3843398129833314e-05,19194.73092588643
1681064351359005212,169,1681064351359005212,camera_1,174,0,0.11095125946332046,0.20810737377897742,2.9583780142943286,-0.9993302968722606,-0.012126437359591806,0.01752501551317831,0.029745270236228916,0.0005348646664060652,8.088095919100769e-05,19199.17961784546
1681064351368920803,170,1681064351368920803,camera_1,175,0,0.11090784234785285,0.20946068277607516,2.9580068726388693,-0.9993331832208778,-0.01194853396226814,0.01220644057895562,0.03227110562364633,0.0004189700121060013,6.336349698813567e-05,19203.968421401107
1681064351378981351,171,1681064351378981351,camera_1,176,0,0.11084583903503653,0.2104605016007105,2.958278065860996,-0.9992817893954185,-0.011919778511817603,0.008034406201935206,0.03506098372696077,0.0008943207794800401,0.00013531357124431376,19196.26300600963
1681064351388910531,172,1681064351388910531,camera_1,177,0,0.11086158812569624,0.21093767151020085,2.958543414526902,-0.9994080807174304,-0.012074639967341535,0.0113602465995594,0.0301435907542336,0.00224876293214038,0.0003401848800306317,19202.245574161876
1681064351398958444,173,1681064351398958444,camera_1,178,0,0.11089611508325363,0.21086951402698384,2.9582960678770673,-0.9994379881117452,-0.012018016659712775,0.012411540149791041,0.028726796999039524,5.098484689369798e-05,7.711319233757738e-06,19207.70997513005
1681064351409033536,174,1681064351409033536,camera_1,179,0,0.11089160152949426,0.21049119777809047,2.958101896191025,-0.9992939755047908,-0.011964040130670175,0.011419665234614108,0.03373430760385664,0.002325700595974922,0.00035182293867117763,19198.274780557265
1681064351419018268,175,1681064351419018268,camera_1,180,0,0.11092869850759149,0.20957947759351175,2.9589843642740754,-0.999378875598485,-0.011907757411458239,0.010788023885482808,0.03136378264150837,0.0003867984632961452,5.853406738197809e-05,19195.69662335236
1681064351429015874,176,1681064351429015874,camera_1,181,0,0.1109180258458764,0.20823393553065575,2.9588203748406072,-0.9993283684601887,-0.012139052613721026,0.01580973288024506,0.030749109557743775,0.001930466794874519,0.00029201774502337925,19193.744626843945
1681064351438982963,177,1681064351438982963,camera_1,182,0,0.1109814371079309,0.2065684399447955,2.9594930419703496,-0.9994994427802899,-0.01187722462746948,0.010429363989351606,0.027404813150546707,0.0007474392186850309,0.00011312145489617946,19203.32106789481
1681064351448985576,178,1681064351448985576,camera_1,183,0,0.11097597277235238,0.20455075383384833,2.9591371165177036,-0.9994748459253463,-0.012167978058785266,0.011296098067008646,0.027827519489292105,0.003720220411196351,0.0005628134119740105,19207.96540429594
1681064351459020614,179,1681064351459020614,camera_1,184,0,0.11102166567153973,0.20235763283889302,2.9587105676864898,-0.9992096484629439,-0.012382588351611884,0.011780018221992875,0.035888453504772815,0.000202198454644531,3.058993187244718e-05,19193.29043947638
1681064351468943834,180,1681064351468943834,camera_1,185,0,0.11104086846395828,0.1999253671593798,2.9589311934621967,-0.9991949366968347,-0.012022690100831693,0.00850273012180596,0.037318051699194665,0.0004400472389534116,6.659056257979476e-05,19192.72605253767
1681064351478956699,181,1681064351478956699,camera_1,186,0,0.11108763986197527,0.1973157263217354,2.9587108948539123,-0.9993336668567812,-0.012161216381085544,0.012284473025065025,0.032146832273320845,0.0011424048570916057,0.0001727622500383513,19208.034283323446
1681064351488954305,182,1681064351488954305,camera_1,187,0,0.11112838302899034,0.1948448425112154,2.958941089526545,-0.9994734422860397,-0.012137594301449107,0.007318214521580783,0.029188365930354135,0.0031081640045158565,0.00047011684397378243,19220.485174994334
1681064351499190807,183,1681064351499190807,camera_1,188,0,0.11118886730407077,0.19253071080535103,2.9594105402859427,-0.9994091531864338,-0.011992919898350262,0.012981166209117895,0.02947886909870264,0.002771519939415157,0.0004192609509075417,19208.33725490782
1681064351509438514,184,1681064351509438514,camera_1,189,0,0.11117482872110448,0.19041007395595763,2.9587376151517804,-0.9993066216870774,-0.012144628666579919,0.00996554601211913,0.0337560622643072,0.0010462444042786954,0.00015824610072674746,19211.650525292738
1681064351519155740,185,1681064351519155740,camera_1,190,0,0.11117387855314487,0.18839466317724787,2.9579659294169667,-0.9993827886462653,-0.011953403179604338,0.009120159611755331,0.031748710189490256,0.00017370411660522223,2.6256017267904765e-05,19229.068999264855
1681064351529226064,186,1681064351529226064,camera_1,191,0,0.11116913875441087,0.18669936840535606,2.9576325930672187,-0.9994001959784596,-0.012177904679332463,0.010217749048209029,0.0307659636648252,0.000234195904340595,3.538531291682901e-05,19235.405694179244
1681064351539014339,187,1681064351539014339,camera_1,192,0,0.11121891286624667,0.18554774588664613,2.957974800940624,-0.9994941164189979,-0.012086735217145789,0.008859624029739454,0.02805225726477715,0.0014856105553917587,0.00022452094528025555,19239.302244665338
1681064351549001216,188,1681064351549001216,camera_1,193,0,0.11118409131539848,0.18471386630258688,2.9567640877523433,-0.9993867881842546,-0.012227598740367657,0.00949852185122829,0.03140559686498867,0.00012432492803782225,1.8774356399067702e-05,19246.88016569754
1681064351559017419,189,1681064351559017419,camera_1,194,0,0.11119444413445223,0.18444164114103292,2.957825417826599,-0.9993945228514399,-0.01223444546545523,0.009484266845518332,0.031160146358749682,0.0005677662556990981,8.580466116144334e-05,19233.898747712145
1681064351569141149,190,1681064351569141149,camera_1,195,0,0.11125214505351683,0.18459382725682028,2.9577986819561857,-0.9993829371485745,-0.011890483288711649,0.012721377152737757,0.030504555508764554,0.0028545386157929893,0.00043137652809753453,19231.398093017633
1681064351579023838,191,1681064351579023838,camera_1,196,0,0.11128184384616158,0.18525193371756263,2.959176095908399,-0.9995378706580667,-0.011899618959485514,0.012649849406445804,0.024948456845090367,0.001313486136496067,0.00019861759243037093,19225.388922148733
1681064351588990926,192,1681064351588990926,camera_1,197,0,0.11117936495514355,0.18620697677609704,2.9574177990486477,-0.9994629066368304,-0.0120638850046473,0.009823814946783737,0.028841872261431558,0.0028889261884614825,0.00043636550951488577,19243.380690898295
1681064351598987579,193,1681064351598987579,camera_1,198,0,0.11118657367554959,0.18767342325569145,2.958036827118344,-0.9994610661729042,-0.01199462051302765,0.007591529345640961,0.029598563570963392,0.0008285563671961426,0.000125239340310149,19235.41263862735
1681064351609049797,194,1681064351609049797,camera_1,199,0,0.1111821671879319,0.18946069562076606,2.958187886947171,-0.9992719897902013,-0.012000413230627838,0.01462419188980758,0.03313025074756053,0.00107935955747962,0.00016314447602051654,19214.481121391178
1681064351618987083,195,1681064351618987083,camera_1,200,0,0.11116449657068334,0.1916817513713336,2.959030318979471,-0.999341075328335,-0.01208541135149415,0.013280259144308753,0.03154350505464169,0.0014449734007939696,0.00021856635826251293,19208.327955284745
1681064351628978252,196,1681064351628978252,camera_1,201,0,0.11111303877047848,0.19402604166492565,2.9585453585627626,-0.9992172136517233,-0.012087128607185502,0.01181876172357189,0.03576559988929734,7.390306564047931e-05,1.1176499880295273e-05,19203.54480464908
1681064351639005661,197,1681064351639005661,camera_1,202,0,0.11110914026890675,0.19648913832838327,2.9592791582561793,-0.999451667307227,-0.012068677750234425,0.011349558758922344,0.02866878529242219,0.0011057056835852563,0.0001672865790044864,19211.368812727975
1681064351648984909,198,1681064351648984909,camera_1,203,0,0.11108862673104071,0.1989432678388423,2.959187808799287,-0.9993862070058809,-0.011820988081207101,0.01156937644246048,0.030880787164763408,0.0003354785148985684,5.075675091422106e-05,19204.716559404045
1681064351659006834,199,1681064351659006834,camera_1,204,0,0.11106967596111969,0.20137801038381778,2.9597841139432495,-0.9993369552112711,-0.011909073219066403,0.01067720351348195,0.03270812206869572,0.0005415071500465274,8.197550334632401e-05,19191.066067151834
1681064351669028759,200,1681064351669028759,camera_1,205,0,0.11098105568194744,0.20362565992363207,2.958358966162677,-0.9991989691902031,-0.012145647532614415,0.010331211717381371,0.036703804703319416,0.0011614486575126648,0.0001756881902971416,19195.865174926817
1681064351679017543,201,1681064351679017543,camera_1,206,0,0.11096041764274656,0.2058663948060408,2.958582445802716,-0.9992396342414754,-0.012095575609029265,0.011265318607349051,0.03531208020385673,0.0015925076440908015,0.00024091719225855995,19193.430016713224
1681064351688967227,202,1681064351688967227,camera_1,207,0,0.11093133433837617,0.20766487964649724,2.958658782562832,-0.9992854557082522,-0.012047967811578561,0.012991749273701834,0.03338620871514484,0.0007951433071866632,0.00012029290862811848,19193.55903201783
1681064351698997020,203,1681064351698997020,camera_1,208,0,0.11095616609805145,0.209124567740024,2.9587405308528014,-0.9993748887813351,-0.011928426196283384,0.01457615080381836,0.029917890124775887,0.0006912240642122924,0.00010457691645607406,19197.792158286436
1681064351708977222,204,1681064351708977222,camera_1,209,0,0.11089026668850128,0.21017328094393645,2.958745124546013,-0.9994002958565141,-0.011847032683186388,0.009987366804984243,0.030966901085163288,0.0003408620250411332,5.157565247201914e-05,19200.142383391616
1681064351718983173,205,1681064351718983173,camera_1,210,0,0.11092103526375627,0.21077496951676497,2.95860345661346,-0.9993627968806588,-0.01186507975676761,0.013145818383026201,0.030990442918314397,0.0003951264661736786,5.977495421120094e-05,19196.829414945325
1681064351728953838,206,1681064351728953838,camera_1,211,0,0.11087428309942801,0.21096568670717034,2.9586000496832616,-0.9993849322010326,-0.01184557809944574,0.011325810571003124,0.03100267059362624,0.0018110927776433527,0.00027398417686755246,19199.20936370385
1681064351738978624,207,1681064351738978624,camera_1,212,0,0.11084638220339646,0.2105911581302708,2.957354774550491,-0.999316743706882,-0.011816246584385083,0.009835551710669138,0.033610771878636696,0.0002352396259084344,3.556688300793934e-05,19210.17832146492
1681064351748932838,208,1681064351748932838,camera_1,213,0,0.11092199021542185,0.20987135584279196,2.958015735301771,-0.999265155840364,-0.01166512808101091,0.011615747874824577,0.03461426745570448,0.001048708043526858,0.00015862707512795328,19197.307246384204
1681064351759004354,209,1681064351759004354,camera_1,214,0,0.11096449245736383,0.20884274559804894,2.959474138942259,-0.9993729897784781,-0.011675887744148865,0.012104112242635702,0.031157525791207542,0.004494660242926329,0.0006803796377665838,19189.08907790656
1681064351768981933,210,1681064351768981933,camera_1,215,0,0.1109760679267719,0.20723563308959886,2.9592456619001393,-0.9993634995808218,-0.012145237235801706,0.01061841736430351,0.0318172615216351,0.0022962778457440436,0.0003475691054138243,19194.117117157082
1681064351778985500,211,1681064351778985500,camera_1,216,0,0.11102277231779213,0.20521501774834044,2.9589756005231505,-0.9992000783592306,-0.011808794518859897,0.016131384624001825,0.034634292385315145,0.0005366674740798771,8.12005575999842e-05,19183.73197533796
1681064351788998842,212,1681064351788998842,camera_1,217,0,0.11100629341357661,0.20305592223975977,2.959164819921093,-0.9992592918473577,-0.01211788358420157,0.012321301277850215,0.03438328211467538,0.00015796831576153636,2.390424716206867e-05,19190.413636538662
1681064351798985004,213,1681064351798985004,camera_1,218,0,0.11105270096724104,0.200708064582098,2.958612458300723,-0.999260722537344,-0.012106938892616048,0.012758654282833596,0.034185481796910736,0.00015302991960197687,2.3147305378551514e-05,19199.842018842464
1681064351809056758,214,1681064351809056758,camera_1,219,0,0.11110547103512662,0.19834387379066537,2.9596367049678696,-0.9993911065035176,-0.012152939726633902,0.010858054939910176,0.030851660256742137,0.00012631266145035625,1.9115501821035483e-05,19200.488931049833
1681064351818989515,215,1681064351818989515,camera_1,220,0,0.11113107757376764,0.1957921459309747,2.95930910896492,-0.9992593866969874,-0.012034749408925138,0.010227855019756326,0.035088942507857365,0.002973311289679259,0.0004500017831811671,19196.21003543237
1681064351828974962,216,1681064351828974962,camera_1,221,0,0.11115012746785363,0.19326405506853506,2.95889342317741,-0.9993535528844015,-0.012033633537228803,0.01178008654943464,0.03176314786200042,0.00039287132676690817,5.9419472318051784e-05,19210.562213664758
1681064351838943481,217,1681064351838943481,camera_1,222,0,0.11112261921961604,0.19092977053636062,2.9573172022748646,-0.9991592026012691,-0.01224187525967269,0.008796912693733281,0.038126613728229404,0.00014260993339121342,2.155293571052118e-05,19218.54116096383
1681064351849007606,218,1681064351849007606,camera_1,223,0,0.1112058742036405,0.18898932440421867,2.958526813620741,-0.9994615915583343,-0.012093522377214809,0.014972575157506381,0.026572461484520454,0.0007252994691953063,0.00010964698733232703,19225.310462516034
1681064351858964204,219,1681064351858964204,camera_1,224,0,0.11118209544425021,0.18727937030463462,2.9578239924972953,-0.9994036500253228,-0.012151291879163011,0.014205513713991367,0.02903263339504836,0.0005067364545539021,7.656351362301081e-05,19231.124058876296
1681064351868926286,220,1681064351868926286,camera_1,225,0,0.1111548987913003,0.1858750266821644,2.9572479364499706,-0.999296190881964,-0.012182221468174728,0.012390341127730308,0.03324448549212953,0.00027473224326968193,4.1498494797567436e-05,19231.747914780048
1681064351878989458,221,1681064351878989458,camera_1,226,0,0.11119793465211442,0.18490884132755236,2.9577159210122357,-0.9994167399865724,-0.01211192704995765,0.012484376279640181,0.029387436204216612,0.0008858043584041297,0.0001338223739403841,19235.365701196133
1681064351889118671,222,1681064351889118671,camera_1,227,0,0.11120165536867592,0.18446406438304422,2.9572174951853802,-0.9993902928345952,-0.012226403925964417,0.010956151944115583,0.030814288400007033,0.0005338288028724492,8.06391062955075e-05,19240.716806034667
1681064351898931503,223,1681064351898931503,camera_1,228,0,0.11124770974403528,0.18447377596003972,2.9577030725396227,-0.9994693487564219,-0.012149195909215484,0.016491446937913486,0.025326865441025352,0.00013944640522822738,2.1065782837834703e-05,19237.928679921897
1681064351908994674,224,1681064351908994674,camera_1,229,0,0.1112008918741895,0.18489194254209543,2.957908780106131,-0.9995510851000591,-0.012064192670092067,0.010253946385769543,0.02543501747652397,0.0002223553601652384,3.35965355439739e-05,19244.24320551939
1681064351918959379,225,1681064351918959379,camera_1,230,0,0.11118666790026063,0.18584169493115252,2.9577136167559464,-0.9993983889866508,-0.011857876325693689,0.007496552690739,0.031718331571609616,0.000981829478405416,0.0001483647542470407,19235.555167314364
1681064351928951740,226,1681064351928951740,camera_1,231,0,0.11121206075745593,0.1871655610028562,2.957808309135259,-0.9994884409696275,-0.012050240726482609,0.01620445854613509,0.02480047559552199,0.0006903822650201619,0.00010429595850347947,19237.05063848897
