%time,field.header.seq,field.header.stamp,field.header.frame_id,field.image_seq,field.transforms0.fiducial_id,field.transforms0.transform.translation.x,field.transforms0.transform.translation.y,field.transforms0.transform.translation.z,field.transforms0.transform.rotation.x,field.transforms0.transform.rotation.y,field.transforms0.transform.rotation.z,field.transforms0.transform.rotation.w,field.transforms0.image_error,field.transforms0.object_error,field.transforms0.fiducial_area
1681220475709219694,0,1681220475709219694,camera_1,1,0,-0.03519154220007764,-0.09244648533334938,1.5500866161773132,0.9993449832607915,0.012413717506437681,0.007056634563219024,0.033252187263398146,0.10194198938552289,0.004232912502459028,69779.58987917472
1681220475719032049,1,1681220475719032049,camera_1,2,0,-0.03510930026549862,-0.09149519307117239,1.5497844698870336,0.9994117122829548,0.011813816025374423,-0.016602565823834507,-0.0275865530763851,0.11119781580055133,0.004615484827140412,69795.3760258749
1681220475729052782,2,1681220475729052782,camera_1,3,0,-0.03518080891581673,-0.09120466853482989,1.5499521571007773,0.9993057814883952,0.012310861733552546,0.0053021494688598216,0.03476039381616735,0.1017819817061536,0.004225583781793902,69795.97285296918
1681220475739039659,3,1681220475739039659,camera_1,4,0,-0.035181480857720326,-0.09105486940059476,1.5495425388999968,0.9991293676985966,0.012392134257931228,0.007372966831474898,0.039148192433849885,0.09569517866475508,0.003971485799114506,69787.57699508921
1681220475749347925,4,1681220475749347925,camera_1,5,0,-0.03510675144799393,-0.09113988367081308,1.5495001261288477,0.9993716284237834,0.01200300509355123,-0.016915175357110825,-0.028742877603990868,0.1116561641683802,0.004633396427344674,69810.77831016888
1681220475759218692,5,1681220475759218692,camera_1,6,0,-0.03510565802958678,-0.0917643093577411,1.549482872426984,-0.999304242326655,-0.011989234567225632,0.017238143076967936,0.03082427526641882,0.09281337016727775,0.003851664227009074,69789.40708762148
1681220475769210577,6,1681220475769210577,camera_1,7,0,-0.035108695864960626,-0.09251940300963964,1.549826774450736,0.9994541747260666,0.01203406976430286,-0.014575544250409496,-0.027094045422371246,0.10406979348044842,0.0043201298305483166,69797.73098850937
1681220475779317855,7,1681220475779317855,camera_1,8,0,-0.035174426425318026,-0.09324719460087655,1.5498884550795884,0.999389435853425,0.012326531003918825,0.007194135720593734,0.031891324043010795,0.10348588286433369,0.004295464204720091,69799.97746176177
1681220475789053916,8,1681220475789053916,camera_1,9,0,-0.035076564500505975,-0.09314901229256416,1.5492849331679504,0.9993345325520187,0.012023296579211319,-0.018205878315128706,-0.029231462214223323,0.10708436428103596,0.004442331635074333,69812.75878147349
1681220475799248456,9,1681220475799248456,camera_1,10,0,-0.03516879740166552,-0.09308677682895004,1.5493681759538944,0.999118970831066,0.012535899834154495,0.00888426420197093,0.03905384987948065,0.12175376911181957,0.005052226188555319,69778.47246618487
1681220475809210538,10,1681220475809210538,camera_1,11,0,-0.0351030842207943,-0.09223826754775825,1.5497112331105662,0.9993529044222322,0.012035172639212343,-0.016357800130330297,-0.02968752965959736,0.12649717915337533,0.005250940617606488,69780.95376821645
1681220475819168329,11,1681220475819168329,camera_1,12,0,-0.03510934654540927,-0.09150138890012863,1.5497585460836325,0.9994159502013974,0.011994106419562016,-0.017637923986375165,-0.026698380694067367,0.09740910056279972,0.004042882644925327,69801.6887878673
1681220475829274654,12,1681220475829274654,camera_1,13,0,-0.03512549226252161,-0.09098185736052676,1.5497769142454436,0.9994128727016482,0.011974124049044124,-0.01559362557392765,-0.028060097522236937,0.10439401905750856,0.004332973081515331,69796.93039096973
1681220475839126348,13,1681220475839126348,camera_1,14,0,-0.03519432900543634,-0.09104899866780204,1.5496565771834387,0.9991740231610313,0.012275810637598215,0.006945766984620188,0.03810947696287932,0.106038216908928,0.004401846120797494,69788.6875891264
1681220475849121809,14,1681220475849121809,camera_1,15,0,-0.035115609122440695,-0.09114561824157422,1.5495942279580925,0.9994338139790302,0.011990009049428527,-0.016587203139006926,-0.026704978006910136,0.0892607614514418,0.003703961129556944,69821.26412430871
1681220475859248638,15,1681220475859248638,camera_1,16,0,-0.03519246529715869,-0.09201390150387093,1.550022259471156,0.9993969057829147,0.012442351817563178,0.005842206935251434,0.03188857492754477,0.09354780882131308,0.0038834579548767934,69803.92986862213
1681220475869529008,16,1681220475869529008,camera_1,17,0,-0.03517663729035015,-0.09272935398379104,1.550319505318209,0.9994448791059596,0.012187300664199563,0.005196811772063408,0.030567899482954908,0.08744817180559039,0.0036320137792246934,69782.81274307802
1681220475879490613,17,1681220475879490613,camera_1,18,0,-0.03516582274726485,-0.09324211981277983,1.549373636411609,0.9992395305416717,0.012337432489348134,0.007306989506775941,0.03625956793424655,0.10349954210687429,0.004294255446438053,69808.34003930938
1681220475889516592,18,1681220475889516592,camera_1,19,0,-0.03508918024671591,-0.09317569711484684,1.5493871486148874,0.9994167485845947,0.012049381762523459,-0.016158085774849975,-0.02756612616655907,0.10584577353438362,0.004391463051611662,69825.24735947965
1681220475899477720,19,1681220475899477720,camera_1,20,0,-0.035166835259721,-0.09310116374426831,1.5498415941389185,0.9993068031705946,0.012228922076101061,0.005612831231223864,0.03471113261466729,0.10580929857678711,0.004392963235286665,69787.1656964368
1681220475909435987,20,1681220475909435987,camera_1,21,0,-0.035114289617352856,-0.09226472687725731,1.5500747131738988,0.9993921795294525,0.011993015633504096,-0.0162891571552952,-0.028391943057062354,0.11934676428791136,0.004956166374890202,69760.37221964073
1681220475919474840,21,1681220475919474840,camera_1,22,0,-0.03512084029692393,-0.09148635053485192,1.5496406174667081,0.9993552967589062,0.012039005144924484,-0.015633879659562058,-0.029993916080250732,0.10985283862100914,0.004559728246506567,69789.48377457261
1681220475929488897,22,1681220475929488897,camera_1,23,0,-0.03518381753994242,-0.0911764504153342,1.5497666836785613,0.9991690832457181,0.012464653930146773,0.007412158022539333,0.03808983331234169,0.107218935911078,0.004451076905335367,69776.50449126445
1681220475939503431,23,1681220475939503431,camera_1,24,0,-0.035205689852173636,-0.09104327781153865,1.5499893523661799,0.9992347338087775,0.01219739268714528,0.007646047855150303,0.03636905709437394,0.11783112504053861,0.00489245097049773,69772.83717299602
1681220475949505805,24,1681220475949505805,camera_1,25,0,-0.03518205964162487,-0.09137858146549611,1.549977455651322,0.999308389455537,0.01236345411268771,0.005380871985879307,0.03465449441062267,0.10349692293675616,0.004296608106480328,69792.79936260357
1681220475959065437,25,1681220475959065437,camera_1,26,0,-0.03519428103140174,-0.09201321539585611,1.5498082961343835,0.9993268026249943,0.012375308159291457,0.007452322550790129,0.033723229262149136,0.10449503897689283,0.0043371718435156565,69803.21800464892
1681220475969047307,26,1681220475969047307,camera_1,27,0,-0.035169095589598624,-0.09272733756601093,1.5494130922475549,0.999268621334452,0.012403956957983289,0.006540711396771498,0.03557503847576587,0.11876478348858654,0.004927525501193253,69818.61171340803
1681220475979468822,27,1681220475979468822,camera_1,28,0,-0.035177806549184204,-0.09324801264423299,1.5496034852922342,0.9992928749815,0.012454702551893845,0.007020043658385731,0.03477570103659365,0.10695702576776966,0.0044389668246137505,69801.89227176283
1681220475989225149,28,1681220475989225149,camera_1,29,0,-0.03516011952447911,-0.09336979140112156,1.549347418743655,0.9992587920394864,0.012278021593947057,0.0068874419764479704,0.035828478345387854,0.11905375710921362,0.004939362865316186,69814.67530473386
1681220475999255895,29,1681220475999255895,camera_1,30,0,-0.035106843558341004,-0.09284989489352405,1.5496596988546296,-0.9993648519812085,-0.011890471680615638,0.014664664634795066,0.030223449818623897,0.10485698946285993,0.004352983243467674,69783.07824558823
1681220476009271383,30,1681220476009271383,camera_1,31,0,-0.03512725137976163,-0.09228193897641968,1.5501141570383383,0.9994238854423992,0.01201409099378244,-0.016885868030878274,-0.026877988869238315,0.10340339818503708,0.004293410613418235,69767.7534263681
1681220476019265890,31,1681220476019265890,camera_1,32,0,-0.03517727350643895,-0.09173369836488512,1.5498897112180612,0.9992516177381836,0.012332311685236625,0.005572413622378553,0.0362362628114737,0.11858506599674004,0.004923420254472897,69782.97970339935
1681220476029072046,32,1681220476029072046,camera_1,33,0,-0.0351428946623956,-0.0910047173346295,1.5501032528373833,0.9994555077985156,0.012026456121284466,-0.015391336216032009,-0.026592462350433978,0.1076416042051278,0.004469444066280272,69781.05509265812
1681220476039192914,33,1681220476039192914,camera_1,34,0,-0.03519196120879399,-0.09105015153795283,1.5500289925695117,0.9992992483937283,0.012284316223448536,0.006664241042436669,0.0347231281134127,0.10642205708427355,0.0044182064799735445,69786.85997190772
1681220476049150228,34,1681220476049150228,camera_1,35,0,-0.03518412964329136,-0.09136122514586754,1.5501286888009638,0.9993638717270089,0.012340806792959472,0.006257026365545519,0.0328695298956675,0.10580312844831496,0.004392492680619267,69791.70960269184
1681220476059075355,35,1681220476059075355,camera_1,36,0,-0.035186350739077596,-0.09203345391020942,1.5502631151814246,0.9994004134909428,0.012277708296723287,0.00513613825543457,0.03196390897456199,0.0914627789752558,0.0037986435052370167,69783.81854741265
1681220476069088935,36,1681220476069088935,camera_1,37,0,-0.0351775827307198,-0.09272050325990012,1.5497792280197038,0.9993489700323219,0.01241499927921215,0.007042298225160099,0.03313472383984376,0.09031233924906701,0.003748802207799818,69805.26635139564
1681220476079140663,37,1681220476079140663,camera_1,38,0,-0.03516907455720791,-0.0932428922100023,1.549735782478471,0.9993286574232405,0.012390324620003789,0.007391380223807964,0.033676131114807384,0.09178062656428665,0.003809459919466647,69798.4386826531
1681220476089080333,38,1681220476089080333,camera_1,39,0,-0.035160974959165786,-0.09336984328009446,1.5493176742284989,0.9992186912860148,0.012409128402939285,0.007680356783097808,0.03672917963455906,0.11435962264658883,0.004744519439128893,69806.50477232292
1681220476099341154,39,1681220476099341154,camera_1,40,0,-0.035172653786158324,-0.09307297408596354,1.5496862168410692,0.9993016464104357,0.012332278822986492,0.006401373659757267,0.03468655064564096,0.10960717662237585,0.004549201820895428,69799.08893191174
1681220476109124183,40,1681220476109124183,camera_1,41,0,-0.035138257574505144,-0.0922541752384724,1.5501228971650909,-0.999491421491238,-0.011989131167665538,0.014718597334305607,0.025622685100890916,0.0935042696655728,0.003882366907096043,69784.1123807543
1681220476119254827,41,1681220476119254827,camera_1,42,0,-0.035195785430858315,-0.09175519798634252,1.5502011277734429,0.9992718870971358,0.012439064047556712,0.005895149051039041,0.03558388062895898,0.09907386486884207,0.004114985082062818,69759.83876282594
1681220476129219532,42,1681220476129219532,camera_1,43,0,-0.035169138295757164,-0.09118527686675253,1.549646543362289,0.9991697986439689,0.012369762550589147,0.0037855123452147183,0.03863123539956936,0.11866859917063266,0.004926182597033907,69792.26629685138
1681220476139243841,43,1681220476139243841,camera_1,44,0,-0.035122481476671824,-0.09081693192291843,1.549676700287929,0.999408107390056,0.011947462371051426,-0.015612982031025431,-0.02822990998954142,0.11169538798276335,0.004635350835935337,69804.90380528755
1681220476149246931,44,1681220476149246931,camera_1,45,0,-0.03509699003343981,-0.09114773621851026,1.54979884961787,0.9993792084381243,0.011968387781393672,-0.017921629874683185,-0.0278706049115801,0.10641488357214257,0.004417024318715147,69788.41269972254
1681220476159108877,45,1681220476159108877,camera_1,46,0,-0.035098921287340365,-0.09178645215067756,1.5497373344106318,0.999421947987787,0.011927741090268519,-0.017542830122657987,-0.02656591771552383,0.0946854151552543,0.003929650019309838,69803.92138215224
1681220476169148683,46,1681220476169148683,camera_1,47,0,-0.03518397693621317,-0.09273510843492797,1.549793784936214,0.9992802595824456,0.01230982707677201,0.00742163825672801,0.03510484655666161,0.10198966576717794,0.0042340733972900104,69785.93451932445
1681220476179109096,47,1681220476179109096,camera_1,48,0,-0.035167277332478444,-0.09325801982279733,1.5498047871680096,0.9993156387945855,0.01233844621232937,0.0048823289047953316,0.03452795490758863,0.10382666083751246,0.004310141639293921,69792.39801517897
1681220476189161062,48,1681220476189161062,camera_1,49,0,-0.03507902708400282,-0.09315429633680217,1.5492542365528652,0.9993307000218811,0.011955348318922076,-0.016570176086076763,-0.030342229727343514,0.10430446593090892,0.004327451849051326,69811.07367878198
1681220476199135780,49,1681220476199135780,camera_1,50,0,-0.035182546736040994,-0.09307313765953884,1.5498037189593177,0.9993091825609985,0.01238054553206385,0.007131012752420707,0.03430784748016719,0.11476574587868527,0.004764157170479398,69789.54586390874
1681220476209393501,50,1681220476209393501,camera_1,51,0,-0.03519858390763364,-0.09244812824116981,1.5500381876593539,0.9993165895391639,0.012314289124235937,0.008433646345069226,0.0338169449315763,0.10336609749356285,0.004291633684940066,69774.47749895148
1681220476219105958,51,1681220476219105958,camera_1,52,0,-0.03517018580652179,-0.09170048875072306,1.5496300491417858,0.9993035538698933,0.012350664063579838,0.006096495991910905,0.03467998063452078,0.10030724533135071,0.004162599534481669,69818.4164178335
1681220476229090929,52,1681220476229090929,camera_1,53,0,-0.035121062611771156,-0.09099479464647993,1.5498985703880859,0.9994577855262986,0.011994465119848485,-0.015313758883469942,-0.026566078864129386,0.10650467948289588,0.004421075669037756,69799.9111907829
1681220476239224433,53,1681220476239224433,camera_1,54,0,-0.03518859879451461,-0.0910597843573165,1.550076545699437,0.9992483732829108,0.012207232593332593,0.005762299052987259,0.03633824257573274,0.1155849335482344,0.0047999137431266395,69771.24934135503
1681220476249136686,54,1681220476249136686,camera_1,55,0,-0.03511516000901795,-0.09118107581640103,1.5500028645929615,0.9994716030645431,0.012115955710752977,-0.017448569777286108,-0.024602148230081163,0.09550283203134313,0.003964339762833616,69799.03167806649
1681220476259108304,55,1681220476259108304,camera_1,56,0,-0.0351568948654907,-0.09200423050222302,1.5496286107100192,0.9992383774141553,0.012339635451152053,0.004759880925057487,0.03671160624704536,0.11207405372988433,0.00465165256054476,69801.56631881159
1681220476269128799,56,1681220476269128799,camera_1,57,0,-0.03511601723837875,-0.09251352281342301,1.5497990725738395,0.9994179163187293,0.012068655184836909,-0.01517164204147929,-0.028071291044846288,0.11718138249125332,0.004864126465712002,69790.0405714328
1681220476279163122,57,1681220476279163122,camera_1,58,0,-0.035183871448708604,-0.09326198994048208,1.5497861541311904,0.9993455946250747,0.012396903088301613,0.006590177188404941,0.03333569951119375,0.09097863006172702,0.0037764718927068767,69799.03322016682
1681220476289088726,58,1681220476289088726,camera_1,59,0,-0.03517405840733253,-0.09338314393413338,1.5494550518797738,0.9992938530407973,0.012358389715714898,0.00761039976325417,0.03465757195700849,0.10736878507304937,0.004455045127870613,69812.8011924527
1681220476299375772,59,1681220476299375772,camera_1,60,0,-0.035114241193246076,-0.09287596028388426,1.549790320453915,0.9994154016440112,0.011981969444507246,-0.016711817426576698,-0.02731304675922563,0.11147482949309051,0.00462668752425134,69790.88804991893
1681220476309133291,60,1681220476309133291,camera_1,61,0,-0.03517032266546323,-0.09241825058539285,1.549525759937088,0.9992029231881571,0.012415992416319604,0.007231083870820735,0.03724342694507445,0.104215772182215,0.004325262599307495,69794.35430156835
1681220476319496393,61,1681220476319496393,camera_1,62,0,-0.03510642545170748,-0.09150211740233055,1.5498445070993456,0.9993256152389388,0.011841640297072874,-0.016021992105618683,-0.0308445465416297,0.11438962433021516,0.004749753248255115,69762.12156945434
1681220476329140186,62,1681220476329140186,camera_1,63,0,-0.0351753883426485,-0.09117986242115662,1.5496325646867277,0.9992279188022843,0.012241303052498199,0.0045090308650387115,0.03705921513322616,0.11730280594201759,0.004869260087891737,69806.42718675545
1681220476339489459,63,1681220476339489459,camera_1,64,0,-0.03510884446015462,-0.0908274016877323,1.5497051524704617,0.9993592601284546,0.011873810622012194,-0.017543740592355275,-0.028849592420842018,0.12371816363884137,0.005134492842078494,69790.43861881073
1681220476349131584,64,1681220476349131584,camera_1,65,0,-0.03513048270905733,-0.09117911438611638,1.5501370129063554,0.9995350732180586,0.011994821735455175,-0.016240790993683252,-0.02284728356729582,0.08927806443534791,0.0037062477673121424,69804.53047290035
1681220476359099864,65,1681220476359099864,camera_1,66,0,-0.03511602502164298,-0.09178953261140244,1.5498397114698088,0.999437507140875,0.011945746361621374,-0.015196881208676185,-0.027404803692539975,0.10022681817645207,0.004160634693002584,69795.20874979242
1681220476369275808,66,1681220476369275808,camera_1,67,0,-0.03508854355280202,-0.09251758342774342,1.5496368176831046,0.9994190064438984,0.011919094638800809,-0.017303298415961812,-0.026836180905833267,0.10701067600166425,0.00444067124679823,69808.36619627569
1681220476379039764,67,1681220476379039764,camera_1,68,0,-0.03516393356556726,-0.09324811075963083,1.5494015018320046,0.999186619481345,0.012444027402119716,0.007960160299901244,0.037521746753811626,0.10784950328525156,0.004475283451851564,69791.94297267438
1681220476389073848,68,1681220476389073848,camera_1,69,0,-0.03511966523731042,-0.09321429819933517,1.5498203444237457,0.9994936503649693,0.011904748718985404,-0.01542855221298278,-0.025153123357895022,0.10100107075413689,0.004192139667810883,69808.37880519229
1681220476399228572,69,1681220476399228572,camera_1,70,0,-0.03512597761778694,-0.09288393391726435,1.550040442514731,0.9994367168144952,0.011941696349058036,-0.01461621741736055,-0.027749074935535953,0.10955964488675818,0.004549656823825165,69771.2719176365
1681220476409227371,70,1681220476409227371,camera_1,71,0,-0.035130036187129954,-0.09226292097819491,1.550177096681586,0.9994676837033933,0.011947864023197013,-0.015549124425348762,-0.026073406134642006,0.10908453713636845,0.004529819331215843,69773.25231046023
1681220476419178009,71,1681220476419178009,camera_1,72,0,-0.035122288752157074,-0.09156117677018345,1.5502935279952321,0.999516440750455,0.011970740404466374,-0.015398510783407121,-0.024217182110323882,0.09998280939180404,0.004152280631398539,69781.30878369672
1681220476429172039,72,1681220476429172039,camera_1,73,0,-0.035121525605175855,-0.09099269486228792,1.5499077669916366,0.9994895988040968,0.011932961619879954,-0.014369135612850104,-0.025916679014559053,0.10558320523705333,0.004383291289438036,69807.25956934618
1681220476439259290,73,1681220476439259290,camera_1,74,0,-0.03511376809052198,-0.09082153639240667,1.5497128928636732,0.9993736290653569,0.011919494921869292,-0.015025097742205487,-0.02974090797846029,0.12185866216896102,0.005058479852846097,69789.70373257248
1681220476449351787,74,1681220476449351787,camera_1,75,0,-0.0351868894477655,-0.09135127321634284,1.5497703486613457,0.9993012238944291,0.012362961615711711,0.005816453889738076,0.03479065919658614,0.10706699831644073,0.004443776153790887,69808.99284775511
1681220476459250926,75,1681220476459250926,camera_1,76,0,-0.03512141455361337,-0.09178892892423533,1.549744114750146,0.9993895745633531,0.01207844460717558,-0.014737542745505159,-0.029281295459320913,0.1157594047836028,0.004805564924933498,69788.35345294411
1681220476469102382,76,1681220476469102382,camera_1,77,0,-0.03521276055730759,-0.09271238770669522,1.5500402728320781,0.9993938414178352,0.01235585246591261,0.008748103891479793,0.03134889669904489,0.10503831034293398,0.00436071701254077,69790.19643231636
1681220476479504585,77,1681220476479504585,camera_1,78,0,-0.03509518127476582,-0.09302098016162241,1.5495414929440785,0.9993605196415988,0.011984255637750655,-0.016083040695397854,-0.029601776981674842,0.10184347070753574,0.004227011543492315,69794.43177897949
1681220476489569902,78,1681220476489569902,camera_1,79,0,-0.03509228115978047,-0.0931912493919681,1.549415867031885,0.9993934144572293,0.01192097857580387,-0.01737509436972552,-0.027727233994023274,0.10340668022399768,0.004290008969733795,69817.06564214651
1681220476499489307,79,1681220476499489307,camera_1,80,0,-0.03512312515751617,-0.09285931059758247,1.5496495027442228,-0.9993934380247897,-0.012043277480317964,0.014070017326107014,0.02949152612134144,0.11471917835297063,0.004761527453959781,69792.13817322394
1681220476509219884,80,1681220476509219884,camera_1,81,0,-0.03518115635540578,-0.0924452725508716,1.5499153784672977,0.9992661986568881,0.012427055056145782,0.00793937355628648,0.03534966579725997,0.11242864682571962,0.004667468802006222,69774.20656680736
1681220476519505977,81,1681220476519505977,camera_1,82,0,-0.03518740836007579,-0.09173298712588426,1.5500084353573598,0.9992854551442782,0.012300211004594054,0.003737104399245583,0.03554318495920815,0.11276369553525001,0.004682651492586954,69783.15714346943
1681220476529434204,82,1681220476529434204,camera_1,83,0,-0.035126278309534784,-0.09098209058060999,1.5497550088766763,0.999386396168051,0.012066921527112218,-0.015093050260599313,-0.029213359836293116,0.10776827589143068,0.004473489422592461,69789.9665407449
1681220476539113521,83,1681220476539113521,camera_1,84,0,-0.035202210620508156,-0.09104842991279724,1.5499884523768739,0.9992861093933066,0.012314908118177394,0.006711402863205802,0.03507950517377718,0.09879010933218524,0.004101667418013016,69787.16374003561
1681220476549140930,84,1681220476549140930,camera_1,85,0,-0.03519558227004671,-0.09135691671505566,1.5499060351839709,0.9992993984941538,0.012384123991377744,0.007133286016643831,0.03458990998533221,0.10191708162892608,0.004231118956606348,69794.48855784522
1681220476559447050,85,1681220476559447050,camera_1,86,0,-0.03519252492401076,-0.09202402166231217,1.5499614164504951,0.9993212799076651,0.012349289616395956,0.008107082772442653,0.033745366772303206,0.08757847279775888,0.003635560562697795,69787.13690582011
1681220476569478750,86,1681220476569478750,camera_1,87,0,-0.03510275840034948,-0.09251716641923496,1.5496572376248448,0.9994077458418825,0.012033789961451213,-0.016961054561272462,-0.02741656576926587,0.09904561861185357,0.00411041248081805,69802.70949194176
1681220476579092741,87,1681220476579092741,camera_1,88,0,-0.03517371762167073,-0.09326201779454293,1.5497614127792996,0.9992898431874523,0.012359302762605625,0.006834932764039287,0.0349333741818683,0.10920431284466758,0.004532863481071191,69787.03883326883
1681220476589513301,88,1681220476589513301,camera_1,89,0,-0.03510110699525452,-0.09319737246881961,1.5495553409809177,0.9994443190390148,0.011989578617471767,-0.016137051527153588,-0.026587566891795263,0.1084360919194296,0.004499782232908049,69818.41016161711
1681220476599543571,89,1681220476599543571,camera_1,90,0,-0.03518607013466307,-0.09307159784340725,1.5496786890328609,0.9993327837114168,0.01234202349799026,0.008075923420430864,0.03341319075564301,0.11125102743972093,0.004617212611339884,69804.93405988754
1681220476609080076,90,1681220476609080076,camera_1,91,0,-0.035122277393672116,-0.09218962346387077,1.5494981223003628,0.9993352787802892,0.012070521857595917,-0.01417789653599101,-0.03134151140296029,0.129202994692605,0.005362344566096229,69790.76175570607
1681220476619471549,91,1681220476619471549,camera_1,92,0,-0.03511750654852352,-0.09152192437871393,1.5499400212612664,0.9993899577882911,0.01206340746153681,-0.015665248244822506,-0.028788651753125345,0.10741179651813582,0.004459642221966314,69773.71531033597
1681220476629124164,92,1681220476629124164,camera_1,93,0,-0.035198617010511996,-0.09121172713249531,1.5501971023086694,0.9993877009983984,0.012331735806463979,0.006606372742229414,0.032070348054337505,0.09438724693609402,0.003919227466650637,69792.05066234665
1681220476639098167,93,1681220476639098167,camera_1,94,0,-0.035127205586382576,-0.09083919469815893,1.5499347535160293,0.9994013612866001,0.012038024317887119,-0.01442683173586985,-0.02904946738027593,0.10577779123559594,0.0043919672154333084,69777.85999940419
1681220476649112462,94,1681220476649112462,camera_1,95,0,-0.03511872100688332,-0.09116289856696337,1.549801801078739,0.9994195015500038,0.011912192678473736,-0.017045613082593218,-0.026985304552136553,0.10458267614012584,0.004340498118822815,69798.73182050511
1681220476659197092,95,1681220476659197092,camera_1,96,0,-0.035121520688082886,-0.09181008873001283,1.5499705646540105,-0.9994590623402653,-0.012036343537955727,0.014633775370535226,0.026880508896944284,0.09138970839558169,0.003794432684051627,69789.54052513008
1681220476669466018,96,1681220476669466018,camera_1,97,0,-0.035100498576946554,-0.09249441251619725,1.549499545307216,0.9993267906227836,0.011874336194487146,-0.016017367584182905,-0.030796259824544498,0.11172093206550926,0.004636766103273627,69789.44338294033
1681220476679397583,97,1681220476679397583,camera_1,98,0,-0.03518163687195075,-0.09326069807303757,1.5498639113508026,0.999313519509634,0.0123374075773799,0.007227354877714081,0.0341766505235594,0.100037447293289,0.0041530519374990945,69783.13034043342
1681220476689163446,98,1681220476689163446,camera_1,99,0,-0.03517163769812104,-0.09339335612892637,1.5495961360385746,0.9993052645201317,0.01227926402739443,0.005847297926915251,0.034698949324860846,0.11351312033366412,0.004711300565872108,69805.36237719211
1681220476699213266,99,1681220476699213266,camera_1,100,0,-0.03519428663611529,-0.09306781656561941,1.5497295948438612,0.9993129045312277,0.012387078481752753,0.00935564433205779,0.03365636705261674,0.11434024199843407,0.004745758934453888,69793.6636920727
1681220476709086418,100,1681220476709086418,camera_1,101,0,-0.03510978437730643,-0.09224302618656549,1.5498606375798083,0.9993989998037328,0.011977807123699774,-0.015633507215174067,-0.028526562708448035,0.12018440663814545,0.004989236636183145,69780.36611082648
1681220476719500780,101,1681220476719500780,camera_1,102,0,-0.03510603243251194,-0.09147685024774524,1.5494838753518996,-0.9992831114080426,-0.011945934194657183,0.015982812919608354,0.03217308816472703,0.10754893143894151,0.004463919124125053,69781.40764599261
1681220476729186534,102,1681220476729186534,camera_1,103,0,-0.03511423552152927,-0.09096525564246462,1.5497422299386934,0.9993862892495712,0.011861084836655962,-0.016284119517217716,-0.028656360166969895,0.10049363918369636,0.004171230678224072,69792.65456990656
1681220476739154338,103,1681220476739154338,camera_1,104,0,-0.03511961687205825,-0.0908194319674988,1.549672031270424,0.9994111479725903,0.011989624503128637,-0.015068433898819305,-0.028399797749636864,0.11009911831934005,0.004569694509471002,69805.47497184249
1681220476749140739,104,1681220476749140739,camera_1,105,0,-0.035177631975786,-0.09134735401274599,1.5496526519114808,0.9992784124339206,0.012363173125996992,0.006862624444320793,0.03525210319308791,0.1162685255985707,0.004824794086192165,69812.46428476027
1681220476759109735,105,1681220476759109735,camera_1,106,0,-0.035105958571295,-0.09180488956011232,1.549688690691985,-0.9994125809618283,-0.012068367305410952,0.01578029122120612,0.027925435265589847,0.08732358005363494,0.0036245410903642133,69802.37006244969
1681220476769172430,106,1681220476769172430,camera_1,107,0,-0.03510795647577044,-0.09250343769970015,1.5497046458090822,-0.9994106232268419,-0.011823466989762261,0.015252734363256148,0.02838953863875325,0.09843286377144977,0.004085798327072507,69795.50148075167
1681220476779095888,107,1681220476779095888,camera_1,108,0,-0.03517697170158104,-0.09324642730637,1.5496266187377152,0.9992430300887496,0.012369249902302731,0.007643613788067298,0.03608245618257682,0.10595001454930753,0.004397635906338807,69786.25723428593
1681220476789130210,108,1681220476789130210,camera_1,109,0,-0.03509562928738019,-0.09317418452672233,1.5494963534328046,0.9994031085454056,0.011977923073112065,-0.016821469112229478,-0.027694659513008826,0.10978785424958915,0.004555543720797212,69812.19608582676
1681220476799090623,109,1681220476799090623,camera_1,110,0,-0.035195571328785244,-0.09308540907041671,1.5498971370152674,0.9993070442908378,0.012361733632915173,0.008543505379241189,0.03405330069366938,0.11770824965788051,0.004887274439556567,69778.3145097697
1681220476809123754,110,1681220476809123754,camera_1,111,0,-0.035106226323927056,-0.0922183224710987,1.5496826453611139,0.9993299435802043,0.012001379513179972,-0.016534722405876747,-0.03036830105104448,0.10487893101526424,0.004353608463519478,69776.60660049855
1681220476819331645,111,1681220476819331645,camera_1,112,0,-0.03517345114005127,-0.09175062103486353,1.549975249469656,0.9992306936082044,0.012201949848348312,0.0048518613372240055,0.03695392824490848,0.12262030801502988,0.005091545037060743,69770.75554895657
1681220476829130172,112,1681220476829130172,camera_1,113,0,-0.035181965798289416,-0.09119653162136127,1.5494882739940508,0.9992303481345612,0.012379027753760105,0.00691244544715148,0.03657443282807711,0.11958427407080308,0.004961619321207481,69816.6132647623
1681220476839513301,113,1681220476839513301,camera_1,114,0,-0.03512381588529567,-0.09080844769440116,1.5497389950017477,0.999316058326004,0.011962639426691955,-0.015544441989643712,-0.031347745580125895,0.11459003307390958,0.004757023425057227,69770.38008349284
1681220476849519968,114,1681220476849519968,camera_1,115,0,-0.035100190505451906,-0.09115261212122416,1.5498136156360334,0.9994281505229952,0.011994065595594024,-0.0179402554571485,-0.026031933597147745,0.09656083496520296,0.004007654395190016,69802.71540806268
1681220476859528541,115,1681220476859528541,camera_1,116,0,-0.0351130375467853,-0.0918296434793069,1.5499655432658836,0.9994588123020851,0.012060370038192112,-0.015052606438353744,-0.026646745123173166,0.09734619688242674,0.00404178084209806,69790.77700749274
1681220476869543313,116,1681220476869543313,camera_1,117,0,-0.03510495572764772,-0.09252471773041507,1.549712414576128,0.9994200932377791,0.01203908954253049,-0.016105902576170065,-0.02747976451468498,0.10392514057457447,0.004313315724700568,69800.04652894505
1681220476879528522,117,1681220476879528522,camera_1,118,0,-0.03517210497885581,-0.09323659377094073,1.5498376969434615,0.9993861428655075,0.012304324188615186,0.006692678962002998,0.03211151044370867,0.10220664349617437,0.004242236975844229,69804.4495915242
1681220476889470100,118,1681220476889470100,camera_1,119,0,-0.03508884446903629,-0.0931732762032373,1.5492856043521686,0.999360415353577,0.011927209262940587,-0.01648755304071635,-0.02940514407810047,0.11921308207092807,0.004946067771150912,69817.04587630482
1681220476899550199,119,1681220476899550199,camera_1,120,0,-0.035113600911538,-0.0928745778403657,1.5498637201879994,0.9994337257023668,0.011979680237211963,-0.013652725316888019,-0.028325223415218304,0.1153420833288692,0.004788818351622978,69784.63749917047
1681220476909555435,120,1681220476909555435,camera_1,121,0,-0.03510871985743523,-0.09222699632250553,1.5497048509707896,0.9993635004934392,0.011930218496539047,-0.016114910765212917,-0.029505481171365252,0.1057324024150148,0.004389088774638059,69783.96854824325
1681220476919519186,121,1681220476919519186,camera_1,122,0,-0.03518579539895838,-0.0917326343554513,1.5500943735819528,0.9993143613119289,0.012358850139131598,0.006551988554531153,0.03428027924261431,0.10827312053879723,0.004496023958167674,69778.83032071209
1681220476929329633,122,1681220476929329633,camera_1,123,0,-0.03510334988667306,-0.09096072726135851,1.54960198644954,0.9993624871221979,0.011905400845995185,-0.01622834195498811,-0.029487653026698816,0.1170020880526863,0.004855463940209491,69797.7887883544
1681220476939300060,123,1681220476939300060,camera_1,124,0,-0.03512532751979522,-0.09085090523393892,1.5500231747825322,0.9994423286162084,0.01195920699721884,-0.014798766951866516,-0.02744094814165321,0.11035122198518366,0.004581949479277048,69783.32892940498
1681220476949201822,124,1681220476949201822,camera_1,125,0,-0.03512140152867803,-0.09117640324487719,1.5499178853456927,0.9994582496760862,0.011997519245218434,-0.017021183216734005,-0.025486192502549486,0.10244777967454866,0.00425225238654222,69800.95775345332
1681220476959571123,125,1681220476959571123,camera_1,126,0,-0.03518834879231735,-0.09200384918832966,1.5500479358702812,0.9993617464461134,0.012354306169010587,0.00710022750813386,0.032757558342907195,0.09777548088459298,0.004059823088863025,69791.09027800348
1681220476969339609,126,1681220476969339609,camera_1,127,0,-0.03517206338564844,-0.0927281967768206,1.5501113926157084,0.9993534222952903,0.01227135527144354,0.005252312175422758,0.033385092531023654,0.0978295529494062,0.004062673696126527,69779.07820474311
1681220476979247570,127,1681220476979247570,camera_1,128,0,-0.03517720263005613,-0.09326228739171678,1.549708892044339,0.9992852401350072,0.012343156111439267,0.006984944538151053,0.03504091744416388,0.10094233136624098,0.004189873383769513,69790.22196507198
1681220476989341735,128,1681220476989341735,camera_1,129,0,-0.0351763806033019,-0.09339389781016648,1.549547120808427,0.999368025914728,0.012470563466277704,0.008738618247920766,0.032119626044684685,0.08568478951929137,0.0035555229933654786,69821.53950061473
1681220476999594926,129,1681220476999594926,camera_1,130,0,-0.03517535239351806,-0.09309540598017448,1.5498098652542702,0.9992974817135853,0.012311224421506464,0.007704216768201885,0.03454883265927377,0.10298202879494056,0.004275129986592205,69784.86800724012
1681220477009526491,130,1681220477009526491,camera_1,131,0,-0.03510750992656161,-0.09221560365197418,1.5497638136472487,0.9993072738151024,0.011949520862078683,-0.016734265602171235,-0.0310184752389692,0.11358215927612035,0.0047153190146848505,69762.53520853758
1681220477019145250,131,1681220477019145250,camera_1,132,0,-0.03519309342879052,-0.09173117026961164,1.5501626627510263,0.9993440538679248,0.012265656838853863,0.006864155176910925,0.03337512598988943,0.10342281742487103,0.00429477613444393,69779.23604747836
1681220477029124259,132,1681220477029124259,camera_1,133,0,-0.035179563810376735,-0.09119958069040356,1.5498979395911852,0.9992181440205886,0.012412504400097805,0.00534361814861247,0.03715475931357632,0.12014600413385779,0.0049883960712905125,69779.64505981188
1681220477039134263,133,1681220477039134263,camera_1,134,0,-0.0351813941223529,-0.09105626763086702,1.5499910358538904,0.9992518961759238,0.012307535791184142,0.0063574353620563856,0.03610755554156342,0.11803396925097331,0.004900865767197132,69779.22362230907
1681220477049505472,134,1681220477049505472,camera_1,135,0,-0.03509378077441531,-0.0911661085279881,1.5498416519567204,0.9994203073026252,0.011914439761403576,-0.018253286161974473,-0.02615173073789096,0.11252647597575562,0.004670548241505696,69798.06331567945
1681220477059122323,135,1681220477059122323,camera_1,136,0,-0.03511433452684272,-0.09180874221591447,1.5497792821104588,0.9994011749732069,0.012060184428506926,-0.015687840227893303,-0.028385473092903412,0.10281898628454655,0.004268423241376688,69790.48374155072
1681220477069116592,136,1681220477069116592,camera_1,137,0,-0.035176915217548996,-0.09273857308140643,1.5500064206634314,0.9992479082605206,0.012426557872412494,0.006118090370474319,0.036218330533536576,0.11764236353337766,0.004885269005850759,69761.38541839947
1681220477079140901,137,1681220477079140901,camera_1,138,0,-0.03509404244694442,-0.0930600921781655,1.549807089498583,0.9994149453378827,0.01196387427077678,-0.016832572447638628,-0.02726347836401777,0.11118054972030222,0.0046150094519816125,69788.73933903992
1681220477089117527,138,1681220477089117527,camera_1,139,0,-0.035177719939307586,-0.09339191584896958,1.5495373677844302,0.9993218613299756,0.01234114315198047,0.007292787143452471,0.03391649907310242,0.09483109589200467,0.003935226003809075,69812.74747805578
1681220477099173545,139,1681220477099173545,camera_1,140,0,-0.03518218269555029,-0.09308520038965672,1.5497915195075318,0.9993083305806384,0.012375289409734987,0.008342803810099577,0.03406039149436234,0.10299410810694098,0.004275104090575826,69788.48537841206
1681220477109124183,140,1681220477109124183,camera_1,141,0,-0.03511041367153325,-0.09225763441212768,1.5501281832597296,0.9994865701092016,0.011994713753402175,-0.016270244026031683,-0.02485964948770507,0.0858337379177101,0.0035638746778519637,69785.2556706499
1681220477119101285,141,1681220477119101285,camera_1,142,0,-0.035195603183470134,-0.09173988187783237,1.5500464890988834,0.9992913622524658,0.012337914237569988,0.006587736586312334,0.034944969974905885,0.09953068231698126,0.0041328417332800816,69777.16043908335
1681220477129176855,142,1681220477129176855,camera_1,143,0,-0.03518220176558534,-0.09119035755851536,1.5496868191308046,0.9992145114789387,0.012449691572913134,0.006619398023261081,0.037034427219211456,0.10237812460400164,0.004249513886035031,69795.76456574701
1681220477139457702,143,1681220477139457702,camera_1,144,0,-0.03512595264973743,-0.09084914376099351,1.5501173338854024,0.9994177931540739,0.011986953618728001,-0.014403584015477642,-0.028511829781556898,0.1126044417032972,0.0046765195194319945,69766.56432524826
1681220477149117708,144,1681220477149117708,camera_1,145,0,-0.03512718425368534,-0.09117359035493192,1.5499824119399879,0.9994851172196346,0.011978799526265703,-0.014641398174066603,-0.025915984987477075,0.10417080001207069,0.004324995219483811,69799.11826190157
1681220477159479856,145,1681220477159479856,camera_1,146,0,-0.03518245335774377,-0.09202578074243567,1.5499888787510712,0.9993090841393204,0.012276391970459752,0.006215696194500447,0.034525493155609495,0.10743974515935406,0.004460416108719581,69784.39701378145
1681220477169169425,146,1681220477169169425,camera_1,147,0,-0.0351808034415996,-0.09273854332023149,1.5501265421962804,0.9993381131862188,0.012309812140404936,0.006017308510678809,0.03369860615460677,0.1037499156082049,0.004308616776895491,69772.8202814546
1681220477179128646,147,1681220477179128646,camera_1,148,0,-0.035164517169400986,-0.09325436869392553,1.5496774181535458,0.9993027740697005,0.012315632285723448,0.007147690821778025,0.034513786432673776,0.10244236805010587,0.00425179927788876,69797.25390497709
1681220477189271211,148,1681220477189271211,camera_1,149,0,-0.035096695428304056,-0.09318540830975013,1.5494775501793527,0.9993766170748118,0.011990652702605934,-0.016621954368044728,-0.028745645319891513,0.10039464430883527,0.00416619742840019,69805.31088667575
1681220477199221849,149,1681220477199221849,camera_1,150,0,-0.03518755087570869,-0.09308740450172302,1.5499137216339676,0.9994604507852946,0.012350723132948074,0.006159325148270569,0.029804859802842986,0.08784611680312084,0.003646905610145762,69818.11132683654
1681220477209204196,150,1681220477209204196,camera_1,151,0,-0.035191299313993174,-0.09243495543017889,1.5498056444763741,0.99930732265559,0.012343388663364947,0.007430271763138463,0.03431190325160599,0.10471831727772951,0.004347164292447449,69794.54753190372
1681220477219216108,151,1681220477219216108,camera_1,152,0,-0.03512070911332049,-0.09156039860922013,1.550199415018565,0.999523166754454,0.011972186809166502,-0.015082453253596563,-0.024137635924164926,0.09767056361306459,0.004056042080943009,69791.26211525909
1681220477229501008,152,1681220477229501008,camera_1,153,0,-0.035125090450642764,-0.09102661667786432,1.5501415124143056,0.9994442204173772,0.011951488924806295,-0.016948974545637065,-0.02609874419646826,0.10044748143991455,0.004171026531209233,69776.86133374847
1681220477239506483,153,1681220477239506483,camera_1,154,0,-0.03512976576642811,-0.09083433008193986,1.5499963234748322,0.9993781221603218,0.011909866601641103,-0.014430850771506427,-0.029887699323477446,0.1130527007044293,0.004694854898595726,69764.61034620134
1681220477249369621,154,1681220477249369621,camera_1,155,0,-0.03517829492530648,-0.09137207933143608,1.5498301990175236,0.9993137773737886,0.01232441283268643,0.006085304731603889,0.034395526825203006,0.10359698469983414,0.004300005297739114,69806.12477753687
1681220477259142160,155,1681220477259142160,camera_1,156,0,-0.035113475571048804,-0.0917846417368423,1.5497039364538323,0.9994059942539737,0.011992059177125064,-0.015578946103801086,-0.028304515615241835,0.10322623542742804,0.004284635360022687,69798.31785353788
1681220477269250631,156,1681220477269250631,camera_1,157,0,-0.03508440491817823,-0.09250164567220746,1.5495631454759053,0.9993236484360785,0.011944887725383714,-0.01703968406646486,-0.03031855043613157,0.10403250117087738,0.004318130942907114,69785.01593235509
1681220477279291629,157,1681220477279291629,camera_1,158,0,-0.03517814865336977,-0.09327106352213294,1.5500981122271489,0.9993905675680049,0.012324922515996052,0.004850340826619814,0.03229650035129949,0.08999561000382526,0.0037375335928352626,69784.72247894188
1681220477289169073,158,1681220477289169073,camera_1,159,0,-0.035160664454945936,-0.09340465236007597,1.5495663210267563,0.999256805109567,0.012395413205058197,0.006652405812685505,0.035887834576640514,0.11461613571736962,0.0047571130803777196,69795.09061697638
1681220477299209117,159,1681220477299209117,camera_1,160,0,-0.035109513485711306,-0.09286876417164103,1.549779337298024,-0.9994410966964425,-0.011857466560513195,0.014133616753528451,0.027877151906943887,0.0904539882321842,0.0037554000885464205,69794.88284511107
1681220477309276580,160,1681220477309276580,camera_1,161,0,-0.03512021632512029,-0.09225156825829345,1.5500569912858984,0.99948620209127,0.012050739443669474,-0.015165157379480529,-0.025536826539046025,0.10566094546811655,0.004387032975004912,69789.5819594364
1681220477319383859,161,1681220477319383859,camera_1,162,0,-0.035202310528972124,-0.09172538843251257,1.5499700697904337,0.9992324020905986,0.01228976094235706,0.00586682028132677,0.03673076105961718,0.11460129992337897,0.0047591404495397165,69770.40241632878
1681220477329173088,162,1681220477329173088,camera_1,163,0,-0.035099595731876314,-0.09100607492136363,1.549922769377017,0.9994007714659529,0.011987056655230392,-0.017375088278090915,-0.02743200272184439,0.09276195772690699,0.0038508791643124354,69783.70620751765
1681220477339150905,163,1681220477339150905,camera_1,164,0,-0.0351999566001898,-0.09107386593055555,1.5502275779126207,0.9993137411043624,0.012243661619985649,0.007047949522040306,0.03424129082954447,0.10545896081021056,0.0043795152770927095,69771.79382251366
1681220477349341630,164,1681220477349341630,camera_1,165,0,-0.035112497607222674,-0.09119307967925427,1.5500206531536027,0.9995084191726075,0.012146833023626341,-0.016838660472538933,-0.023491146503777118,0.09791957930428907,0.0040648561841743315,69808.18533765244
1681220477359168052,165,1681220477359168052,camera_1,166,0,-0.03512107637008215,-0.09183135156665684,1.5500819116934659,0.9994529827464382,0.011994370566818024,-0.015498844213463642,-0.02663937277791598,0.10077436157735065,0.004184782574475636,69779.11154029622
1681220477369139432,166,1681220477369139432,camera_1,167,0,-0.03509273674572701,-0.09247687904758975,1.549426688793813,0.9992875296114557,0.01189735628314449,-0.016175904585231403,-0.031956629787187635,0.11187755863647908,0.004643440021212132,69784.35196698786
1681220477379636287,167,1681220477379636287,camera_1,168,0,-0.03509873718501274,-0.09304889783982413,1.549747378303112,0.999432799337371,0.011996291451805547,-0.016266517684196683,-0.026936388074489996,0.11150292435195297,0.004628082346569284,69798.7125118305
1681220477389439344,168,1681220477389439344,camera_1,169,0,-0.03508712806721167,-0.09318981138131727,1.5495805233578681,0.9993865014044615,0.011886043163914535,-0.017639719194098836,-0.027824145902601693,0.10638419608585536,0.004414824697895972,69800.70980363467
1681220477399155855,169,1681220477399155855,camera_1,170,0,-0.035092094950634534,-0.09284783224369883,1.5494938818295523,0.9993810110402708,0.011886051248731834,-0.01481161976935331,-0.029613045734050415,0.11578706500586122,0.0048049925236612985,69803.13655948022
1681220477409262418,170,1681220477409262418,camera_1,171,0,-0.035118819347844506,-0.09225774260524419,1.5500345208078203,0.9994454897354027,0.01199712333919575,-0.015588598178880895,-0.0268659205307094,0.10512120253406465,0.004364891957151059,69779.33040769584
1681220477419334650,171,1681220477419334650,camera_1,172,0,-0.035187559888929756,-0.09173972807727584,1.5502051107241483,0.999363318657624,0.012320392273358268,0.0055609326877419304,0.03301880196938696,0.07420267624547705,0.0030819686371315927,69782.13427604805
1681220477429530382,172,1681220477429530382,camera_1,173,0,-0.03511633179669184,-0.0909738223926727,1.5497799611423948,0.9993951985434795,0.011976007101160356,-0.015127864526150758,-0.028930262650565756,0.09990429633762687,0.0041472389389785895,69790.3358289173
1681220477439222335,173,1681220477439222335,camera_1,174,0,-0.035133447577935566,-0.09086543279699962,1.5502375539019067,0.9995012810584804,0.011835471048531353,-0.014218377285714236,-0.025591962310016318,0.10701324109686539,0.004444168040903939,69781.38336081969
1681220477449234247,174,1681220477449234247,camera_1,175,0,-0.0351096618828113,-0.09116634989120546,1.5498413159070332,0.9994724714196269,0.012022559962483402,-0.01706068566915136,-0.02488312542246396,0.09534519881708549,0.003957279315368745,69812.64896001993
1681220477459363698,175,1681220477459363698,camera_1,176,0,-0.035125579000997734,-0.0918108355978513,1.5499516329399912,-0.9994025952845687,-0.011946235481435002,0.014718765330847549,0.028898061239917977,0.10051816905615851,0.004173582239014513,69773.25723254422
1681220477469369649,176,1681220477469369649,camera_1,177,0,-0.035110617812381166,-0.09249920882134956,1.5496996812697734,-0.999370368555819,-0.012118556383301681,0.016500261413028756,0.028978412949866965,0.10384769923985004,0.004310064957831667,69786.76105186026
1681220477479349613,177,1681220477479349613,camera_1,178,0,-0.035107782535435686,-0.09304047675090277,1.549705316082533,0.9994180422715726,0.011995743825821194,-0.014486707033369512,-0.028457235133651962,0.10090189392212778,0.004188739606474532,69794.6846003693
1681220477489503383,178,1681220477489503383,camera_1,179,0,-0.03510042608546619,-0.09316182459298455,1.549401436128899,0.9993456274804342,0.011941676775395546,-0.016629835777659925,-0.02981881542813824,0.12222392699914053,0.005071439122087862,69802.43697647298
1681220477499416828,179,1681220477499416828,camera_1,180,0,-0.03510826664171892,-0.0928779950378234,1.5495883183615553,-0.9993837786819596,-0.012017014761930529,0.015887718441753466,0.028900426749360268,0.10558702453272417,0.004381912250894057,69797.72056957241
1681220477509502649,180,1681220477509502649,camera_1,181,0,-0.035181102980625586,-0.092446655040331,1.5498930581919768,0.9992933746740618,0.012305777315492861,0.00602152405248416,0.03500086320752997,0.11466077627846971,0.0047603368958833055,69785.31580708708
1681220477519159078,181,1681220477519159078,camera_1,182,0,-0.035180512834873716,-0.09172637241576131,1.5499719590695311,0.9992826773016693,0.012339756342080423,0.005527183535435275,0.03537388161329886,0.10629948624409735,0.004413798394387078,69783.43472922721
1681220477529553174,182,1681220477529553174,camera_1,183,0,-0.03512428801198967,-0.09100600415299247,1.549931741658025,0.9995103310472728,0.011957706656512735,-0.014835894567413093,-0.024819500673311498,0.10391663160407916,0.004313640681889424,69812.66157138973
1681220477539358139,183,1681220477539358139,camera_1,184,0,-0.03513035603233646,-0.09082408939277034,1.549657350471335,0.9993646117128702,0.011847872672706181,-0.014582762813817126,-0.030287683929797426,0.11656909208977595,0.004838539718778417,69790.57825934303
1681220477549456834,184,1681220477549456834,camera_1,185,0,-0.03510559258966395,-0.09113835839110362,1.549757766252704,-0.9994037588812728,-0.012034181525725983,0.017811809294756797,0.027019338604713828,0.08440950309159234,0.0035031477800263394,69799.80829417905
1681220477559242963,185,1681220477559242963,camera_1,186,0,-0.0351137831756772,-0.09182095791602929,1.5498546684740755,0.9994461212922534,0.012033839572042012,-0.016140863079631803,-0.02649735605809026,0.09121582930674776,0.0037865355596454456,69798.59158062702
1681220477569322824,186,1681220477569322824,camera_1,187,0,-0.035179413946942725,-0.09272657996584759,1.5499059208877184,0.9993439877282042,0.012228350307755955,0.006107926881673376,0.03353736527292888,0.09028559084981679,0.003748311044173601,69793.54656950584
1681220477579552173,187,1681220477579552173,camera_1,188,0,-0.035099390248800794,-0.09303145881175694,1.5496329900077832,0.99941923761559,0.012115623524782106,-0.016005468295120232,-0.02753586997232118,0.11166393692838028,0.004634283709515568,69804.72625824626
1681220477589522838,188,1681220477589522838,camera_1,189,0,-0.03518734107981589,-0.09338968626842314,1.5497379493949375,0.999381902707173,0.012303822648732112,0.00779402754887983,0.03199502499118283,0.096559637284372,0.004007574631122377,69808.94449997053
1681220477599508047,189,1681220477599508047,camera_1,190,0,-0.03511053221305408,-0.09289325262807316,1.5499187301462038,0.9994376003042322,0.011963345076660975,-0.01563544745508376,-0.027145796278134862,0.10501308320090175,0.004360007798102914,69784.346159943
1681220477609141349,190,1681220477609141349,camera_1,191,0,-0.035112566955870735,-0.09225865951720169,1.550066310183233,0.999462134726221,0.012043073633904382,-0.0148126143902259,-0.02666443475643457,0.09842569450847805,0.004087120310635205,69780.51838370597
1681220477619166374,191,1681220477619166374,camera_1,192,0,-0.035189692176185984,-0.09173974108872071,1.5500087721879208,0.9992729755153771,0.012272711926289261,0.00571388460639926,0.03564060141641463,0.1057108620298095,0.004389940066213807,69777.09619935136
1681220477629219293,192,1681220477629219293,camera_1,193,0,-0.03517933244081506,-0.09119441271298374,1.5501535497787933,0.9993815112307717,0.012294609279356578,0.004845381034474259,0.0325877258396136,0.10279832896776497,0.004268142412097943,69797.21990605033
1681220477639172315,193,1681220477639172315,camera_1,194,0,-0.03518080057618317,-0.0910444151855421,1.5501140493580157,0.9993540864845163,0.012245532163584026,0.00539707740724054,0.033351586531816524,0.10447004862362519,0.004337920934157501,69794.48727291288
1681220477649488210,194,1681220477649488210,camera_1,195,0,-0.03510413615690449,-0.09115578337934348,1.5498955433076815,0.9994114890540374,0.01206795458893139,-0.01737758969734699,-0.027001099887636628,0.09253043186618015,0.0038410406485124716,69789.24327459093
1681220477659133434,195,1681220477659133434,camera_1,196,0,-0.035119971358113844,-0.09180118529120437,1.5499128847872492,0.9994955938814315,0.011909458180411047,-0.015243136413633602,-0.025186691123071536,0.0893434380996041,0.003709160847875749,69806.97627820482
1681220477669322729,196,1681220477669322729,camera_1,197,0,-0.03510414934572462,-0.09252366231754411,1.5498659396278145,0.9994166573474864,0.012053520241362779,-0.015610809958234339,-0.027881181442251688,0.11543207586510107,0.004791856250877416,69784.47902946302
1681220477679266214,197,1681220477679266214,camera_1,198,0,-0.03511424690817901,-0.09306993722711528,1.5500396473205678,0.9994632506225921,0.012006540588826222,-0.01665304007189685,-0.0255290010453655,0.10093816835433245,0.004190769284426568,69782.7631727373
1681220477689158916,198,1681220477689158916,camera_1,199,0,-0.0351689124725409,-0.09338895426597205,1.5493676272050534,0.9992233278174254,0.012305608487584788,0.00668714660289894,0.03683198630988993,0.12386462464928627,0.0051396030276287955,69804.09435409147
1681220477699219226,199,1681220477699219226,camera_1,200,0,-0.03509737654527123,-0.09284444416678403,1.5495671575053067,0.9993268258897886,0.011985648788561166,-0.01532196880187393,-0.031104285109804175,0.11300982569810003,0.004690765711675657,69781.18202857257
1681220477709649324,200,1681220477709649324,camera_1,201,0,-0.0351771529711208,-0.09244465950350518,1.550106331590679,0.9993714401280859,0.012280842279516256,0.0054404595645469725,0.03280711765681263,0.0962452520034276,0.003996481514886388,69786.41679304093
1681220477719534158,201,1681220477719534158,camera_1,202,0,-0.035181872889718996,-0.09175270121825947,1.5500503682474758,0.9992782928552869,0.012256321513015683,0.00563328521111165,0.03550974667501025,0.09637116390513256,0.00400219187615214,69774.72380080016
1681220477729324102,202,1681220477729324102,camera_1,203,0,-0.03512434626006907,-0.09098657833944944,1.5498388247119934,0.9994326301116133,0.011911075709911472,-0.01420495385054488,-0.028120516170934855,0.11387125053443015,0.0047274724949726505,69794.89964752833
1681220477739611625,203,1681220477739611625,camera_1,204,0,-0.03519850014770205,-0.09104938061667639,1.5498953166250269,0.9992327797144008,0.012316316689155175,0.00792443868931884,0.03632304446083011,0.094807259272784,0.00393606432545483,69780.5950537806
1681220477749357461,204,1681220477749357461,camera_1,205,0,-0.03511642795703421,-0.09120364879550852,1.5503003772278223,0.9995098545244177,0.011851827025651438,-0.01678523041182249,-0.023618656709340685,0.09553073835559191,0.003967030614745603,69782.41525366576
1681220477759539604,205,1681220477759539604,camera_1,206,0,-0.03511052117527484,-0.09183831665721702,1.5499359197635576,0.9994864827600844,0.011971217225504604,-0.016222071743109905,-0.024905925527405243,0.09655788459349424,0.004008397154846794,69804.03837092163
1681220477769241809,206,1681220477769241809,camera_1,207,0,-0.0351242099985255,-0.09252235402590027,1.549726825433994,0.9994667150430141,0.012036736699349957,-0.015556114488237044,-0.02606549045742495,0.09338688018033281,0.0038758024123861233,69812.21182418801
1681220477779276847,207,1681220477779276847,camera_1,208,0,-0.03511661128733615,-0.0930599393515834,1.5499101310711354,0.9994345444942229,0.012092119741129882,-0.016501922977125928,-0.02668442335612132,0.10078946815337986,0.004183967271490303,69785.36685248886
1681220477789597272,208,1681220477789597272,camera_1,209,0,-0.03517474281842148,-0.09337352308626132,1.5492422254067677,0.9992944830843571,0.012404810023295723,0.007853278640789507,0.03456852296589647,0.11295058816904202,0.004685388321880828,69831.69915922402
1681220477799499034,209,1681220477799499034,camera_1,210,0,-0.03511047750341513,-0.09283795894019381,1.5497187658556744,-0.9993570412057002,-0.011904820264544237,0.014580620947623753,0.030515323033500984,0.10476188763277605,0.0043492825373777615,69775.335206497
1681220477809165000,210,1681220477809165000,camera_1,211,0,-0.0351903381924052,-0.09245333846382023,1.5497292329054926,0.9992634957824378,0.012340037267988192,0.008401567245650518,0.03534972623236868,0.11956058855867015,0.004962224054368556,69788.92272414977
1681220477819227695,211,1681220477819227695,camera_1,212,0,-0.035118680246694386,-0.0915422801364851,1.5501652427424837,0.9994589093039683,0.011955811038857646,-0.015986215738131856,-0.02614169278564751,0.0911115434137173,0.0037836373313596874,69775.541983601
1681220477829142332,212,1681220477829142332,camera_1,213,0,-0.035175920196424834,-0.09119926759808154,1.5496124052211573,0.9991972562483513,0.012464303698208746,0.0069916827014521715,0.03742459902373976,0.12022574164438993,0.004989278553975873,69797.64128993067
1681220477839165687,213,1681220477839165687,camera_1,214,0,-0.03511660821371704,-0.090838346768774,1.5498911243005817,0.9994231177799766,0.011897076491625623,-0.015943626455067656,-0.027526205575138414,0.11157642921898514,0.004631827074541005,69791.01240911767
1681220477849210977,214,1681220477849210977,camera_1,215,0,-0.03512364693961249,-0.09119292329476104,1.5501618348852033,0.9995334016321418,0.011945305806836792,-0.01656741266558413,-0.022711440474551065,0.08917530672624707,0.0037021706162019418,69802.25824786865
1681220477859175443,215,1681220477859175443,camera_1,216,0,-0.035176312296280446,-0.0920001825410938,1.549697031533232,0.9993230033104821,0.012275412042404376,0.00635979655200598,0.0340940214924044,0.09047692135209218,0.003755485263420486,69813.69523250639
1681220477869239807,216,1681220477869239807,camera_1,217,0,-0.035183924040687965,-0.09270966156075118,1.5495920668812306,0.9992345033150603,0.012394044323546358,0.008812228168802038,0.0360435803536765,0.12770707689924166,0.0053001606568653,69790.9234807765
1681220477879158735,217,1681220477879158735,camera_1,218,0,-0.03510034285611752,-0.09304654960129785,1.5497722016802458,0.9993854356282983,0.011995845145204468,-0.0163041094469037,-0.028618643721043835,0.11150183394784106,0.0046285968740852725,69781.87361034285
1681220477889378786,218,1681220477889378786,camera_1,219,0,-0.035091392877597494,-0.09319869658957289,1.549554547597926,0.9994533325390843,0.011987667335406417,-0.017569710490556584,-0.025310811556570702,0.10144800442503765,0.004209055422575705,69823.98374258551
1681220477899308681,219,1681220477899308681,camera_1,220,0,-0.0351190735709552,-0.09286804900953063,1.549818319458274,-0.9993883124442022,-0.011783538845458427,0.014759519530047142,0.029433072307344106,0.08050449745496735,0.0033425634454943734,69775.77813694568
1681220477909208536,220,1681220477909208536,camera_1,221,0,-0.03511097022113767,-0.09226004636459509,1.5499153872549547,0.9994457062759831,0.011999237051397845,-0.014743927078764396,-0.027329748095838474,0.10339182277675718,0.00429272687988617,69788.50836077411
1681220477919185400,221,1681220477919185400,camera_1,222,0,-0.035116316941376284,-0.09151035999760225,1.5496588594600302,0.9993646512447999,0.011840200637537148,-0.014864596454980247,-0.030152068974663927,0.11232339742127806,0.004662906555245877,69788.61200092429
1681220477929197072,222,1681220477929197072,camera_1,223,0,-0.035095803081078264,-0.09096824638057847,1.5496552241919042,0.9993036615176966,0.0119307326137278,-0.018266854434589804,-0.030268328756149473,0.10931181925116107,0.00453717980233208,69778.62809607413
1681220477939430952,223,1681220477939430952,camera_1,224,0,-0.03520228857034831,-0.09104273672035716,1.549894788336002,0.9992308270453265,0.01223153239791352,0.007487811463740201,0.03649762426508123,0.10817855369532482,0.004491380994954802,69780.60623880831
1681220477949564456,224,1681220477949564456,camera_1,225,0,-0.035116034496512946,-0.09118409862735652,1.5501650972504335,0.9994364202989735,0.01203026713061922,-0.016334727762099165,-0.026744927026962132,0.10873092047404498,0.004515329419808645,69770.83996340886
1681220477959135532,225,1681220477959135532,camera_1,226,0,-0.03520294872893096,-0.09202670596779583,1.5503013773533318,0.9994429850363062,0.012310740252588976,0.006428132614848395,0.03034541888386081,0.08719864691374823,0.003621032623069525,69788.88392958816
1681220477969126701,226,1681220477969126701,camera_1,227,0,-0.035124965698200075,-0.09252991398276769,1.549872750190381,0.9994854496283568,0.011851194725916793,-0.013620750431578833,-0.026511513016993563,0.09379126888234168,0.003893861109980028,69800.88654936384
1681220477979502439,227,1681220477979502439,camera_1,228,0,-0.035167701929403994,-0.09324082067070413,1.5494795889245494,0.9992095629905162,0.012317074359142541,0.0064052934281256585,0.0372493103779432,0.12395723391091451,0.005144503587917478,69792.69644392979
1681220477989088296,228,1681220477989088296,camera_1,229,0,-0.035103737024950295,-0.09319421893262668,1.549695397320113,0.999458454202682,0.011936142955128643,-0.015413183484607653,-0.026509632004431145,0.106326695473399,0.0044128558302619575,69808.81000291152
