%time,field.header.seq,field.header.stamp,field.header.frame_id,field.image_seq,field.transforms0.fiducial_id,field.transforms0.transform.translation.x,field.transforms0.transform.translation.y,field.transforms0.transform.translation.z,field.transforms0.transform.rotation.x,field.transforms0.transform.rotation.y,field.transforms0.transform.rotation.z,field.transforms0.transform.rotation.w,field.transforms0.image_error,field.transforms0.object_error,field.transforms0.fiducial_area
1685667512220450162,0,1685667512220450162,camera_1,1,0,0.3936386998378356,0.45624953938545554,1.7369033504126232,-0.9830189462329026,-0.07413512222298653,0.11784908868161602,0.1195379742887135,0.004571585275698453,0.005298451043518785,1902.992672990542
1685667512260337591,1,1685667512260337591,camera_1,3,0,0.3963149170166591,0.46208239589183503,1.7492370722188317,-0.9855999905198459,-0.0758197498311466,0.10568237942326168,0.10805211197500927,0.08214650658192113,0.09663850412706983,1895.342944113072
1685667512290527343,2,1685667512290527343,camera_1,5,0,0.393824899924784,0.4607686741531029,1.7387113387885533,-0.9852675183915511,-0.07806294373116367,0.10671062665493966,0.10847550957469522,0.09899126726668328,0.11510951295849171,1916.0407590027903
1685667512310467004,3,1685667512310467004,camera_1,7,0,0.39424724420431345,0.4614896080146732,1.7407730669227048,-0.9864958260214475,-0.07836074350214134,0.09699379506107905,0.10619690597989688,0.11781900038477033,0.1373694781637602,1921.254172533983
1685667512330437660,4,1685667512330437660,camera_1,9,0,0.3942380577038033,0.4611650042658691,1.7405986947765941,-0.9856547047568016,-0.0772129890239745,0.10614497855395356,0.10609524421267243,0.13585795171093196,0.15830709546780605,1914.4835048690454
1685667512360383033,5,1685667512360383033,camera_1,11,0,0.3956869753541787,0.46111361566623194,1.7463501607144183,-0.9843310161739679,-0.07581509307201126,0.10966988191693047,0.11539947686507311,0.04851832491112873,0.05689428231760717,1891.8960283789786
1685667512380283832,6,1685667512380283832,camera_1,13,0,0.3950727092022913,0.45927647333139726,1.7433236985418312,-0.9830534287814656,-0.07407758776081536,0.11468728405806075,0.12233271855038819,0.013550489558838308,0.015830482345172845,1888.267514539883
1685667512410278558,7,1685667512410278558,camera_1,15,0,0.393612736352853,0.4556756363432428,1.7370320643096504,-0.9830489377792352,-0.07601201564270797,0.10573119763223729,0.12906538364837794,0.0365944774239324,0.04246383205635558,1904.7321272189747
1685667512430363416,8,1685667512430363416,camera_1,17,0,0.39368988230063107,0.4551317785696464,1.7377572674614647,-0.9851340849784752,-0.07662054811421179,0.0956741626443376,0.12036021278896536,0.14237575337756425,0.16532885356645327,1920.4507827477064
1685667512450245618,9,1685667512450245618,camera_1,19,0,0.3945373006131136,0.45556431560036625,1.7415046693045628,-0.9859290538079158,-0.07764302964581235,0.09341771455800171,0.11484159269013525,0.1510186751256697,0.1760570098421379,1919.4009841321968
1685667512470315694,10,1685667512470315694,camera_1,21,0,0.39389981657774886,0.45493299649477636,1.7385507243929927,-0.9842577321097243,-0.07745817028806545,0.10098208152012406,0.12263591582285506,0.1275386767811142,0.14819529422688976,1912.6218392315782
1685667512500273466,11,1685667512500273466,camera_1,23,0,0.39370027062590174,0.4558556246326093,1.7373397340415744,-0.9829690385773286,-0.07538431094898551,0.10847702625866146,0.1277568379194892,0.031432288815267384,0.03647701542319159,1902.9346582263242
1685667512520343780,12,1685667512520343780,camera_1,25,0,0.39391898820006405,0.45754447731688475,1.7383306385065886,-0.9835866560512013,-0.07252402110856138,-0.12023315255543819,-0.11332054282803866,0.004199547925963998,0.0048756858991088605,1898.764398423024
1685667512529571294,13,1685667512529571294,camera_1,26,0,0.39551291875538713,0.459936760974267,1.7453126441824993,-0.9835745404122074,-0.07373656196686205,0.11395894255304657,0.11898488262974281,0.022782649961300194,0.026674501748269786,1887.7032176835933
1685667512550369262,14,1685667512550369262,camera_1,28,0,0.39592034925255065,0.46151171880407205,1.747435268326219,-0.9848624021029262,-0.07588084662590586,0.10878457152187475,0.11159777344639064,0.06069914548425004,0.071260207125353,1893.622108764947
1685667512580376386,15,1685667512580376386,camera_1,30,0,0.39416974364613355,0.46113770991024083,1.7402568103672214,-0.9855630631222033,-0.07765331242676958,0.10637375108826562,0.1063956613670986,0.11158004944445565,0.12996972809092705,1914.733566124924
1685667512590373516,16,1685667512590373516,camera_1,31,0,0.3942057769462292,0.46143048346653776,1.7405713231178912,-0.9863895392926675,-0.07843814956413296,0.0976835378839923,0.10649441249859301,0.11305832688231021,0.1317846959268545,1920.9153626756738
1685667512620413541,17,1685667512620413541,camera_1,33,0,0.3942038795285228,0.4611900465643346,1.740472672411453,-0.9857726574476232,-0.07798109692867786,0.10307850521450797,0.10745249235450006,0.12445991148706526,0.14502992575101178,1916.1345177311453
1685667512640187501,18,1685667512640187501,camera_1,35,0,0.3949314789612921,0.46088425247840653,1.743234886928764,-0.9850607932076674,-0.07617138930323461,0.1135232821523403,0.10471684461468692,0.08675546373706311,0.10134956311793361,1904.0714443693873
1685667512670377492,19,1685667512670377492,camera_1,37,0,0.3950875514769006,0.4594031485297622,1.743468500286364,-0.9832583719437477,-0.07406929849745623,0.11292604220355812,0.122329154394469,0.020418576314114034,0.023860800934352864,1889.4961002320038
1685667512690358638,20,1685667512690358638,camera_1,39,0,0.3932669560086075,0.45577257309873354,1.735358945191571,-0.9835949774343828,-0.07418063202576658,0.11345461443866194,0.11902186631324757,0.011475119565147907,0.01327791927172719,1911.0235827011065
1685667512720255136,21,1685667512720255136,camera_1,41,0,0.393929806936841,0.4551768908749034,1.7387247087827906,-0.984266077097549,-0.07737619197781737,0.09967381985488152,0.12368647470742525,0.12369799800217152,0.14379513950211398,1912.1254339111033
1685667512730268239,22,1685667512730268239,camera_1,42,0,0.3940374774786225,0.4551096857859733,1.73920125810934,-0.9843287286306626,-0.07747127995249943,0.10196809630155038,0.1212339148567878,0.12126328871818258,0.1409845653413699,1911.7377617696766
1685667512750486612,23,1685667512750486612,camera_1,44,0,0.3944052087266838,0.4554161163530663,1.7408652035856793,-0.9853918161581514,-0.07758354673019968,0.09636837433772777,0.11703374877703658,0.15114467788953334,0.17606855519038084,1916.5560090132058
1685667512780446767,24,1685667512780446767,camera_1,46,0,0.39340081488746714,0.4551040959166927,1.736435633125773,-0.9854574587386168,-0.0775182896108035,0.0970688394418322,0.11594029584945396,0.08833491761470214,0.10238801629960495,1926.1679241592058
1685667512800440311,25,1685667512800440311,camera_1,48,0,0.3941731097073849,0.4571700487150648,1.7393576340909118,-0.9831046009936889,-0.07269268940368759,-0.11598318533485043,-0.12152784508860733,0.010014346044044942,0.011644139709385843,1892.8471642269285
1685667512820426940,26,1685667512820426940,camera_1,50,0,0.3950951871900429,0.4593580872150508,1.7434712922356692,-0.9832240279856481,-0.07388453337522526,0.11367283671283945,0.12202488563100132,0.016294803121127188,0.019040683197282988,1889.1395425249366
1685667512850451469,27,1685667512850451469,camera_1,52,0,0.39515168169954085,0.46153856473711263,1.7444475754752182,-0.9856798113220989,-0.07721244719139946,0.1022267122609439,0.10965056703485429,0.10189457010710612,0.11926256222043259,1906.7496615492264
1685667512870429039,28,1685667512870429039,camera_1,54,0,0.39424704128015226,0.46119993013712335,1.7406339488760112,-0.9855597611041591,-0.0777860015750953,0.10710692934367647,0.1055907237300744,0.12005044193938375,0.1398872096026313,1913.9911265252167
1685667512900390386,29,1685667512900390386,camera_1,56,0,0.394059864139572,0.4611721768316038,1.7398698530184133,-0.9860672906124948,-0.07849395789226979,0.10173518732674647,0.1056406579785094,0.11352602142142132,0.13219851186363724,1919.9927699114191
1685667512930455207,30,1685667512930455207,camera_1,58,0,0.39458868406284786,0.4605685502790469,1.7418056449539616,-0.9849531016572746,-0.07696843330651632,0.11311955210175946,0.10558037100878329,0.0824247362324968,0.09613634629538619,1906.8087364924138
1685667512950234413,31,1685667512950234413,camera_1,60,0,0.3943864704323855,0.4592561081166138,1.7405272208750955,-0.9839523268317355,-0.07520846031279023,0.11715108252121126,0.11161151322288221,0.02768958534579724,0.032239445230214284,1901.4182682489036
1685667512970276355,32,1685667512970276355,camera_1,62,0,0.394618251379877,0.4578854473728395,1.741398992404847,-0.983263135458826,-0.07319699460673766,-0.11264037201312335,-0.12307702068609216,0.013414605869911611,0.01563901787786585,1889.899072490632
1685667513000573873,33,1685667513000573873,camera_1,64,0,0.39319600618202477,0.4546753965520643,1.7355749003312557,-0.9852243689028995,-0.07656456977821552,0.09722691102271028,0.11839652590993477,0.12656559224706143,0.14657277594873108,1925.8365537005016
1685667513020388841,34,1685667513020388841,camera_1,66,0,0.39437704008259916,0.4555285772870047,1.7407062511031333,-0.9844102084483238,-0.07763166625987795,0.10142887144049928,0.12092166859065942,0.11701174802146852,0.1362789093479501,1909.1533826878306
1685667513050329446,35,1685667513050329446,camera_1,68,0,0.39391121731119,0.4550834714388953,1.7385703460073407,-0.9837297944010325,-0.07749794892319226,0.10070902374651895,0.1269939055877244,0.11106430069776252,0.12910849383765718,1908.3989721005785
1685667513070334434,36,1685667513070334434,camera_1,70,0,0.3931805116074908,0.45482135673042545,1.7354673405570595,-0.9854984993413289,-0.07753137598495136,0.0961252817154582,0.11636805295695588,0.10341426712693647,0.11974519917526875,1928.676085346844
1685667513090298891,37,1685667513090298891,camera_1,72,0,0.39423511999364014,0.45713891126592765,1.7396321184638663,-0.9832188105670442,-0.07302284838561966,-0.11868263696959098,-0.11774067199877049,0.005388443183619529,0.006265601088825129,1893.4257457680062
1685667513120276927,38,1685667513120276927,camera_1,74,0,0.3952192194581839,0.4604961195968895,1.74422886966412,-0.9836684469301371,-0.0751963624495319,0.11464074998219691,0.11661643122617935,0.04291656019631773,0.05019465902383074,1890.9862403937154
1685667513140355110,39,1685667513140355110,camera_1,76,0,0.39478908400314544,0.46103411240178993,1.742796000195735,-0.9855315596805919,-0.07718667865812108,0.1061324088302085,0.10726450161710313,0.10622745176078752,0.12406867407049983,1909.2041724286973
1685667513160614728,40,1685667513160614728,camera_1,78,0,0.39389201309628497,0.4609340132383683,1.7390539064823993,-0.9858548327652353,-0.07837451822513422,0.10204265738083972,0.10740102271889515,0.10700097313383593,0.12449155298406511,1920.058061293793
1685667513200627565,41,1685667513200627565,camera_1,80,0,0.3950545848439564,0.4619638832949765,1.744246096293925,-0.9868501279347864,-0.07697534564113952,0.09817698783279644,0.10277597101755837,0.1646153893088922,0.1926329224240322,1915.8420993085003
1685667513220400810,42,1685667513220400810,camera_1,82,0,0.39461056532636984,0.460669488605564,1.7419553597321131,-0.985352634375152,-0.07725782159836803,0.11080882278346256,0.10408083265023438,0.09250392561079934,0.10791490355188554,1909.7484746745326
1685667513250444650,43,1685667513250444650,camera_1,84,0,0.3943639003524238,0.45820768450944127,1.740286088274889,-0.9833493226067846,-0.07301454685579195,-0.11993535377240211,-0.11536245746216574,0.006746616854798049,0.007851277947840202,1892.8468080821908
1685667513270668506,44,1685667513270668506,camera_1,86,0,0.3940705681874487,0.4567962784350525,1.7389007187810894,-0.9835769944118409,-0.073475323528005,-0.11991065274092369,-0.1131331439299313,0.0026825342793017626,0.003115833769385223,1898.2355181190642
1685667513290609598,45,1685667513290609598,camera_1,88,0,0.392926770719457,0.4544173423943977,1.7343559470469456,-0.9853427862511098,-0.07704981116614477,0.09690652230484151,0.11735436130345801,0.12161418132018298,0.1406380139960185,1929.7132849870254
1685667513310557126,46,1685667513310557126,camera_1,90,0,0.39411046481134615,0.45523035546911217,1.7394354316281406,-0.9838966977787057,-0.07713784640927725,0.10284325675283483,0.12417852186254877,0.11314813687931746,0.1316078228398144,1907.6043496085326
1685667513340476512,47,1685667513340476512,camera_1,92,0,0.3941762821835301,0.4553574671471835,1.739784751504548,-0.9838852326054988,-0.07744808901923851,0.10205848364513322,0.12472252596924059,0.11339510220568627,0.1319633663550331,1906.9293470291886
1685667513370443105,48,1685667513370443105,camera_1,94,0,0.39373818301031654,0.4561337709545993,1.7376271038633377,-0.9843165218674401,-0.07450773722190834,0.1082357293959759,0.11770560205435174,0.03578002715948969,0.04151140975948939,1912.1324748303748
1685667513400645494,49,1685667513400645494,camera_1,96,0,0.39514041183543636,0.4598146625665005,1.7438278164736931,-0.9842489956709436,-0.07440171893483231,0.1128408067940235,0.11395284578436332,0.03136313450522721,0.03665647171389806,1896.349304168718
1685667513430497884,50,1685667513430497884,camera_1,98,0,0.3950688703548499,0.4612760870293992,1.7440124029603123,-0.9857887471283351,-0.07680028840075136,0.10780160458075293,0.10344600420762376,0.09168772667180747,0.10721943620977148,1908.3478385829364
1685667513450189828,51,1685667513450189828,camera_1,100,0,0.39391799090746643,0.46093255192455723,1.7391543457304255,-0.9854986839591549,-0.07819495790604267,0.10603982015705933,0.10692730714791569,0.09909007523674518,0.11528072061723765,1916.930269283708
1685667513470643997,52,1685667513470643997,camera_1,102,0,0.39434343911930625,0.461589611314591,1.7411301769414897,-0.9860905242767383,-0.07833304526825956,0.10019044600927617,0.10701068394833571,0.1008450387744233,0.11761337341379753,1917.2512624785309
1685667513490492582,53,1685667513490492582,camera_1,104,0,0.3947486107545491,0.4616764888911413,1.7429009119186831,-0.986477394028535,-0.07723055996323659,0.10048538515518014,0.10392535325246952,0.1516531150555238,0.17719111205744695,1915.9786072880963
1685667513530225515,54,1685667513530225515,camera_1,106,0,0.3954014756440473,0.46008408794319916,1.744960966137009,-0.9843235212784552,-0.07429349276547959,0.11268354138147535,0.11353458456530968,0.030097019218374044,0.03522205242884092,1894.420847791247
1685667513550273180,55,1685667513550273180,camera_1,108,0,0.3941634564741999,0.45752552313775285,1.7394088671246488,-0.9835867534195807,-0.07269065107140966,-0.11600816464473805,-0.117538391515722,0.01268142560729757,0.014744436345980641,1896.5274467123672
1685667513580370903,56,1685667513580370903,camera_1,110,0,0.39300811392586377,0.4545696155168168,1.7346865630980066,-0.985341344758829,-0.07721709333249617,0.09711810914135796,0.11708128664714347,0.11031956179067492,0.12762388771964103,1929.0116679756904
1685667513600432395,57,1685667513600432395,camera_1,112,0,0.39419928613884603,0.4552383192024544,1.739952178855704,-0.9848667542141053,-0.07752099048156316,0.0991196588198578,0.11917745472179504,0.13968113239388913,0.16254108942583145,1914.3804977652617
1685667513620401144,58,1685667513620401144,camera_1,114,0,0.39433021015373926,0.45537239159911996,1.7405390461007388,-0.9850739018092419,-0.07736020601116629,0.09865552374318973,0.117948692808285,0.13777413463685662,0.16042000080878205,1914.6174471245615
1685667513650490522,59,1685667513650490522,camera_1,116,0,0.3935538066279673,0.4554261640510607,1.7369914612148831,-0.9846874157512663,-0.07652500131412875,0.09893281069789943,0.12143688238084417,0.07800741057144478,0.09049865293349511,1918.1772536453786
1685667513670255899,60,1685667513670255899,camera_1,118,0,0.39407011504205014,0.4568087771431147,1.7389273018419296,-0.9836627904218977,-0.0734696831500428,-0.11798642212531212,-0.1144068380443488,0.0053675739909522235,0.00623524484773074,1898.8355249864971
1685667513700498580,61,1685667513700498580,camera_1,120,0,0.395218372549715,0.4603386747153421,1.7442238468389237,-0.9840146995563156,-0.07467578297262484,0.1139774958603873,0.1146635466567944,0.0296738751931116,0.03470242108592218,1893.502604669658
1685667513730428457,62,1685667513730428457,camera_1,122,0,0.3951154494059069,0.46206135571996054,1.7445377968725406,-0.9867504583185511,-0.07708334970192585,0.1000244043956099,0.1018666222673729,0.1428044798085466,0.16714817463275802,1914.4701073830954
1685667513750705718,63,1685667513750705718,camera_1,124,0,0.39445012550568587,0.4616533187383904,1.741585671106273,-0.9863844987284182,-0.07819512271177304,0.09930519718560417,0.1052122676511935,0.11135101434774697,0.12992985474495516,1918.5024906035992
1685667513780448198,64,1685667513780448198,camera_1,126,0,0.39436529888239463,0.4612971838208375,1.7412074107742155,-0.9860711114014076,-0.07753274918774127,0.10412345402394384,0.10397471993281394,0.1529333197977394,0.17832783995864337,1916.634804419707
1685667513800421714,65,1685667513800421714,camera_1,127,0,0.3956079380079782,0.46153631199685086,1.7462050534664222,-0.9855914275950858,-0.07587816046886225,0.11086820920023026,0.10276323663488042,0.09871024423046038,0.11570515801749678,1901.659693115391
1685667513810507535,66,1685667513810507535,camera_1,128,0,0.3954020474135291,0.4607026770769381,1.7450788269133357,-0.9840826388100905,-0.07560435812795471,0.11321163486442708,0.11422988556394702,0.04272854269947857,0.050022421331699464,1892.6233658569397
1685667513830467700,67,1685667513830467700,camera_1,130,0,0.39488402267442163,0.45896371655721196,1.7426284456630061,-0.9834361791566281,-0.07364306669363364,-0.11776942776272363,-0.11644888208226979,0.013271673524286598,0.015488531884582492,1888.7685448243278
1685667513850516796,68,1685667513850516796,camera_1,132,0,0.3936899490724233,0.4561356798463407,1.7375247800053235,-0.9848942921290208,-0.07480675378526307,0.104154525945672,0.11635728445103231,0.043112408253364265,0.05001998348557377,1917.0736121102236
1685667513870454072,69,1685667513870454072,camera_1,134,0,0.3930533002177602,0.4546537314772649,1.7349410518902324,-0.9855834249693332,-0.07739714764467805,0.09590176191166384,0.11592172369502328,0.12155332893598825,0.14066126032450274,1930.4535713486835
1685667513890367984,70,1685667513890367984,camera_1,136,0,0.3941548740544415,0.4551849741169103,1.7397718018979715,-0.9847983687655006,-0.07741152439847686,0.09978094386370252,0.11926186317839382,0.14038454229012132,0.1633184583202127,1914.179448042997
1685667513920563220,71,1685667513920563220,camera_1,138,0,0.39408075773034695,0.45537698723164766,1.739382302167401,-0.9845696048909723,-0.07727099555827346,0.09784656667486336,0.12279224633587205,0.11850080225849524,0.1378660562715873,1912.973230503732
1685667513940584182,72,1685667513940584182,camera_1,140,0,0.3935147992600296,0.4553025830967304,1.736794404197852,-0.9848982408882225,-0.07683873733586577,0.10040161845017555,0.11828262151516673,0.06927647173870355,0.08032507359784714,1920.4723606877965
1685667513960562229,73,1685667513960562229,camera_1,142,0,0.39447259552195946,0.457747978962509,1.7407873562832303,-0.9832748921803663,-0.0731172075414713,-0.1140361060612835,-0.121737943482737,0.012944186280947179,0.015077790612032158,1891.2883142589124
1685667513970399379,74,1685667513970399379,camera_1,143,0,0.39375684650995013,0.4574310095414243,1.7375997549192328,-0.9831856112518187,-0.07275848440392486,-0.12166532739618255,-0.11510779680026548,0.004921554180327803,0.005709274573151233,1897.2783350576642
1685667513990428686,75,1685667513990428686,camera_1,145,0,0.39480767239265196,0.4597925455364915,1.7424173778106031,-0.9841882418836589,-0.07523958640758163,0.11605857172039173,0.1106477162231168,0.029487553518265486,0.0344080814931858,1899.1322538445245
1685667514010477542,76,1685667514010477542,camera_1,147,0,0.39504880312951496,0.4615958733052169,1.7440102601771645,-0.9857015129085118,-0.07766289254125999,0.10015773364792713,0.11103797081407023,0.10636831657029688,0.12446724315898429,1908.0285525417426
1685667514030385255,77,1685667514030385255,camera_1,149,0,0.39380917479633964,0.4607844855111935,1.7386762984473139,-0.9853954652489911,-0.07820297218693498,0.10619573686397525,0.10771507638102985,0.10134225722867996,0.117837777776123,1917.1967684600968
1685667514049725294,78,1685667514049725294,camera_1,151,0,0.39424721055513373,0.46147506402222754,1.740760404867993,-0.9865301291293078,-0.07840063976047797,0.09656559694917666,0.1062390205673435,0.10668791271746159,0.12439152537833385,1921.585760180838
1685667514080179214,79,1685667514080179214,camera_1,153,0,0.39487253539412936,0.46118020872715487,1.7432283813127536,-0.9855522216978605,-0.0773672210637746,0.10423383760636633,0.10879539746299022,0.11192648974247277,0.130806896796843,1908.52865425963
1685667514099478960,80,1685667514099478960,camera_1,155,0,0.39565834848663417,0.4610716987118432,1.7462079004698543,-0.9843614430311519,-0.07583646853426629,0.1098233012100659,0.1149792243198859,0.04803511482896283,0.05631749385259464,1892.4502248251815
1685667514120322465,81,1685667514120322465,camera_1,157,0,0.39388996615114386,0.45738203537852834,1.7382078597289945,-0.9837344028817583,-0.07217972981829635,-0.118518715340382,-0.11406149790483157,0.009834139724262059,0.011416257325044936,1900.024334181799
1685667514140240430,82,1685667514140240430,camera_1,159,0,0.39347520486090015,0.45590102154608236,1.7363392173844376,-0.9835627557253144,-0.07423451776156363,0.11572520514748352,0.11705220551662635,0.015437849680893123,0.017879062279000348,1908.7324837970086
1685667514159462451,83,1685667514159462451,camera_1,161,0,0.3941044835929086,0.4555707481618339,1.7395583909960264,-0.9852696644214524,-0.07664169795386612,0.09713441613986097,0.1180450918367868,0.1269194995984435,0.14764502542831112,1917.5414073274005
1685667514180136919,84,1685667514180136919,camera_1,163,0,0.39399683716838807,0.4550026973484233,1.7390812791617887,-0.9849814225407854,-0.07755581366222372,0.09846720693364856,0.11874721965337692,0.15369796642335132,0.17867841796775485,1917.2216671209321
1685667514200135707,85,1685667514200135707,camera_1,165,0,0.3940777710784947,0.4551344771834896,1.7393532050634963,-0.9844769415165017,-0.07738381521783841,0.09919423471665213,0.12238219054921334,0.12469824199797586,0.14504282834049226,1912.5464886468833
1685667514220228672,86,1685667514220228672,camera_1,167,0,0.39359608803733015,0.4550776987260632,1.7373023932453182,-0.9853278729730353,-0.07650759364956473,0.09842075978274285,0.11657154412709397,0.11554289661580697,0.13404254162944532,1922.799183413851
1685667514240255594,87,1685667514240255594,camera_1,169,0,0.3934188469948601,0.4559602214375441,1.73596038864165,-0.98321487017867,-0.07403050456816704,0.11727744040665758,0.11854959057114693,0.005706136755179614,0.006606065937718005,1906.56712266896
1685667514270593166,88,1685667514270593166,camera_1,171,0,0.3955682963045832,0.4600585735042927,1.7456248540574941,-0.9840423721453312,-0.07443705409987073,0.10985470855090611,0.11853977310893508,0.028145893826149404,0.032972349954367874,1891.0677400231361
1685667514290371179,89,1685667514290371179,camera_1,173,0,0.39460037106485557,0.4605937368463346,1.741865611341328,-0.9851392564913158,-0.0770042139433221,0.11069939854151875,0.10637969504212047,0.08952180820051579,0.10442855623240499,1908.1642770092008
1685667514310608863,90,1685667514310608863,camera_1,175,0,0.3951749322100332,0.46209021338748757,1.7448004982022052,-0.9870923418911998,-0.07708572664915278,0.09735046903027125,0.10114042468916813,0.1616552037303336,0.18928284663350445,1916.6007732725702
1685667514330358266,91,1685667514330358266,camera_1,177,0,0.3941367928366659,0.46139151671969947,1.7402946949456681,-0.986335800850124,-0.07844732446401755,0.09763467415032145,0.10702885428398558,0.11191134189721197,0.1304083858789255,1921.0924501277045
1685667514350658893,92,1685667514350658893,camera_1,179,0,0.39421366988952383,0.46135515538014843,1.7405213550937526,-0.9862450576934035,-0.07844215330183019,0.09919908187325178,0.10642864706558758,0.10709322558250278,0.1248179191382765,1919.9189904872328
1685667514380505084,93,1685667514380505084,camera_1,181,0,0.3948558072163354,0.460783189030336,1.7429336361247876,-0.9850844591204747,-0.07646815544098112,0.11278238015432845,0.1050778964839914,0.08782786916708574,0.1025678558802352,1905.1205562218088
1685667514400446176,94,1685667514400446176,camera_1,183,0,0.39506119813099194,0.4593054802986885,1.7432831685986168,-0.9831871949153564,-0.07418792923714936,0.11343433513624468,0.12235907208774904,0.01500117068644613,0.01752590340899775,1889.436974604614
1685667514420509576,95,1685667514420509576,camera_1,185,0,0.39437417776829853,0.45742755306268756,1.7402624037291847,-0.9831481149839622,-0.07290333950878417,-0.11482504171762592,-0.12214784847263785,0.01029228896368295,0.01198096988371281,1891.332656026586
1685667514440607070,96,1685667514440607070,camera_1,187,0,0.3933436202835325,0.4550371232471674,1.736123793026333,-0.9854158771690801,-0.07731507064732514,0.09608416463362379,0.11724232248019695,0.09495715663069859,0.11004235926698008,1926.4043037882075
1685667514460479021,97,1685667514460479021,camera_1,189,0,0.3939402175261851,0.4551425748870634,1.7387513624285038,-0.9837272933952222,-0.07756828066037726,0.10167174269281935,0.12620075595062183,0.1013516872189939,0.11782527861690886,1908.0128463369333
1685667514480497598,98,1685667514480497598,camera_1,191,0,0.39441276207870185,0.45539118532846534,1.740835286845412,-0.9854556439320001,-0.07740406633015383,0.09796497479709872,0.11527639858673645,0.14311062049819157,0.16666700894502381,1916.9858010918829
1685667514500478744,99,1685667514500478744,camera_1,193,0,0.3941085713528809,0.4553293464397509,1.739478636465481,-0.9838801862532214,-0.07750943741973218,0.10057390374523265,0.1259244062707778,0.10461790690897033,0.12173226102605486,1907.5806711483751
1685667514520611286,100,1685667514520611286,camera_1,195,0,0.39359178452852067,0.45565114751751135,1.7367977345223098,-0.9825293143019985,-0.07523636103223223,0.10921121006972677,0.13057008888324337,0.0285536574665457,0.03312048161234985,1900.6439408706506
1685667514550575017,101,1685667514550575017,camera_1,197,0,0.3936807277292929,0.45721377668915303,1.7373014358059546,-0.9835784555578223,-0.07244011469313186,-0.11991000085235462,-0.1137868324601894,0.008878068707417697,0.010295308379565615,1900.9108476927504
1685667514570408105,102,1685667514570408105,camera_1,199,0,0.39568124387176046,0.4612080951918805,1.7464139836150425,-0.9847463243281618,-0.07595657876028344,0.1081814806905666,0.11314610952571193,0.06218129541957751,0.0729201847334061,1895.0211939432183
1685667514590480804,103,1685667514590480804,camera_1,201,0,0.3951155514364293,0.4615296198845004,1.7442480571135648,-0.9854790934132894,-0.07684021190622718,0.10441059830318479,0.10965840251206588,0.08722755580674857,0.10206341628412419,1905.345495369751
1685667514610417604,104,1685667514610417604,camera_1,203,0,0.39402785465921786,0.4611463434701957,1.7397620964320206,-0.9861474895950667,-0.07842862263079814,0.10064861598367358,0.10598082854061276,0.11136694921879098,0.12967540099863145,1920.8275026530027
1685667514640486478,105,1685667514640486478,camera_1,205,0,0.3940209190234532,0.4610076989801649,1.7396588701123106,-0.9856104087327676,-0.0782433538772435,0.10273496965079079,0.10906707011063631,0.1199459838680923,0.13965297392668274,1916.7949442996178
1685667514660488367,106,1685667514660488367,camera_1,207,0,0.39503649248807504,0.4615077265948148,1.7439572025648442,-0.985547765613723,-0.07737709005563942,0.10113525343873135,0.1117141358119154,0.11331254651304334,0.13257948606536737,1906.8248349018395
1685667514680611848,107,1685667514680611848,camera_1,209,0,0.3944538502551409,0.4592963324493709,1.7407604325950692,-0.9836666271832771,-0.07461587205636955,0.11762753242571158,0.1140008851657814,0.019166706537362188,0.02232264164224022,1898.3431988779926
1685667514710437059,108,1685667514710437059,camera_1,211,0,0.39449028799288244,0.4576681680100656,1.740758047627711,-0.9830573129907959,-0.07294100885123085,-0.11395157742659531,-0.1236647346864566,0.008436999458353966,0.009828471159503407,1889.5102828755048
1685667514730476617,109,1685667514730476617,camera_1,213,0,0.39307680369080306,0.45478785203922034,1.735001187550272,-0.9854362104800632,-0.07727516335751507,0.09576767214416307,0.11735662390700394,0.10863333730958402,0.12573268300307136,1929.009355909657
1685667514750455617,110,1685667514750455617,camera_1,215,0,0.39407055723155954,0.45533674585259987,1.739326183971499,-0.9841530758820313,-0.0774142382388885,0.100733286946859,0.12370353208664345,0.1014214355382137,0.11797054307930546,1909.9357281727714
1685667514770376682,111,1685667514770376682,camera_1,217,0,0.39449243750316076,0.4555078241987851,1.7412278980316487,-0.9853011451566229,-0.07756311874682162,0.09905130680304385,0.1155614753450444,0.14063093898585066,0.16384305307451955,1915.0067767770965
1685667514800438642,112,1685667514800438642,camera_1,219,0,0.3932240672646137,0.45487521049296603,1.735628488909386,-0.9851865727328972,-0.07728415464743835,0.09735544369937892,0.11813760590656895,0.10109019704395905,0.11708089602503165,1925.70806138916
1685667514820383310,113,1685667514820383310,camera_1,221,0,0.39359408547549496,0.4560508160150341,1.7369773585790773,-0.9842199427869098,-0.07444107965219673,0.11060780949972317,0.11634234980616485,0.0225176714011468,0.026101761527365302,1912.666933605447
1685667514840430021,114,1685667514840430021,camera_1,223,0,0.39495041646214835,0.45909033492392975,1.7429160265039911,-0.9834837779182694,-0.07369672406044285,-0.11622803039156279,-0.11755635408460484,0.012889736681245267,0.01504939325048644,1888.5241881189859
1685667514860403537,115,1685667514860403537,camera_1,225,0,0.39541473841532776,0.4607959402111224,1.7452067606811013,-0.9843221805911057,-0.07582392443095162,0.11076727288204105,0.11441673189938491,0.04968372022267431,0.05817932867976937,1894.3220013768869
1685667514880589008,116,1685667514880589008,camera_1,227,0,0.39533127323973527,0.4621230492661626,1.7453391399798017,-0.9864748325446951,-0.07737995969620813,0.09674341765232859,0.10733339524246951,0.15258446906227618,0.17882180730483316,1910.8605287736282
1685667514900466203,117,1685667514900466203,camera_1,229,0,0.39395936849848406,0.4610299374709719,1.7393887183736139,-0.985994494733564,-0.07832262325667882,0.10196335899233532,0.10622568646187386,0.10581005859421566,0.12314873140652767,1920.379936738871
1685667514920468568,118,1685667514920468568,camera_1,231,0,0.3941517971678366,0.46130122284564307,1.740304217406203,-0.9861990423903045,-0.0785980986742434,0.09945167452746187,0.10650423515956553,0.11136267968686298,0.12975964444754567,1920.1400625617234
1685667514940466880,119,1685667514940466880,camera_1,232,0,0.3952635147157682,0.46217880300236164,1.7451678002778306,-0.9869173557603497,-0.07701986215638952,0.09803904717084497,0.10222729069208136,0.1499429353279993,0.1756437379224805,1914.3935023446102
1685667514960541248,120,1685667514960541248,camera_1,234,0,0.3964349640771941,0.462248659394504,1.7498529656943693,-0.9857429956379574,-0.07618319890765995,0.10351824372465633,0.10858563427573836,0.09640281210886315,0.11350023734515374,1895.3584407335138
1685667514980548620,121,1685667514980548620,camera_1,236,0,0.39565892319477175,0.4602383189442236,1.7460351134839074,-0.9839035035163355,-0.07423771681419035,0.11025431175105078,0.11944305718960282,0.038716020819265395,0.04537799135543441,1888.9336928932462
1685667515000627756,122,1685667515000627756,camera_1,238,0,0.3938337819923257,0.4564852017635403,1.7377468008342927,-0.9828580019150067,-0.07414729582777183,0.11973194830830472,0.11898145715768889,0.005346179357729852,0.00620166888589159,1899.8646906430372
1685667515020574808,123,1685667515020574808,camera_1,240,0,0.39387015892622057,0.4557026670044663,1.7382737095332326,-0.9847321516326453,-0.07614725543045106,0.10595910641093435,0.11522522640440748,0.05180388665758073,0.06013903918565263,1915.3996721466533
1685667515040413141,124,1685667515040413141,camera_1,242,0,0.39408201142011207,0.4551933942558394,1.7394488289769954,-0.9842711033608207,-0.07768020335920643,0.10065788666443146,0.12265468171739496,0.12207310984376818,0.14199477879795866,1910.8869771361346
1685667515060398817,125,1685667515060398817,camera_1,244,0,0.39422091249677305,0.4552040463449294,1.7401040738627183,-0.9856426703040827,-0.07751787906538674,0.09620580334835764,0.11508235443863102,0.16376684891292825,0.19058250277444796,1920.1506842901003
1685667515080447673,126,1685667515080447673,camera_1,246,0,0.3938688873487784,0.45530143236839327,1.7385610445875022,-0.9850593625401954,-0.07638194482181274,0.0971881575191796,0.1199096026812217,0.14221814676420763,0.16527289988275856,1917.9648651594748
1685667515090453147,127,1685667515090453147,camera_1,247,0,0.3929964234394471,0.4545885117314665,1.7346348769184916,-0.9854630111959,-0.07746309786899487,0.09625163015669314,0.11660937237386704,0.10840136744081974,0.1253999389292752,1930.2150437915693
1685667515100489616,128,1685667515100489616,camera_1,248,0,0.3938386310794549,0.4558450643188668,1.7379727430030103,-0.9828187738730285,-0.0753060325737819,0.11127470193254664,0.12654722395428628,0.03455708344699815,0.04011978899496482,1900.4404344179197
1685667515110490083,129,1685667515110490083,camera_1,249,0,0.39353317620642364,0.45596130923571904,1.7368193411274682,-0.9844944617306289,-0.07478307213016613,0.10508311229751847,0.11889359299121616,0.042787378013599664,0.04960709473759512,1915.4834858251265
1685667515130434513,130,1685667515130434513,camera_1,251,0,0.3949380416968124,0.4589815352338595,1.7426558030675494,-0.9828883990717131,-0.07348573926381238,0.11826512889602465,0.1205968506317746,0.009796012076549232,0.011432701072121057,1888.1296246990096
1685667515150560855,131,1685667515150560855,camera_1,253,0,0.39517152425698143,0.4604023191343516,1.744074476948698,-0.9840034948985124,-0.07514957697665349,0.11319400130218535,0.11522491560831966,0.04007570387329906,0.04686289159458837,1893.9541373143443
1685667515170523166,132,1685667515170523166,camera_1,255,0,0.39533656032032455,0.4620361439752934,1.7453321030117974,-0.9861224297362473,-0.07771481414106467,0.09685885515742111,0.11018767359234688,0.12381276732776314,0.1451221135586496,1908.4007696833
1685667515190441131,133,1685667515190441131,camera_1,257,0,0.3936591775469785,0.4606269504438569,1.7380484793826756,-0.9856455793964508,-0.07848047238868784,0.10286812436827265,0.10845163096439182,0.1147679680143483,0.1333759446114062,1920.7311398102902
1685667515220450878,134,1685667515220450878,camera_1,259,0,0.3939550697196613,0.4609199374609077,1.7393252709033926,-0.9852982930279194,-0.07803544303888588,0.10645735549849587,0.1084646248611037,0.10991537739755586,0.12790126322514694,1914.9311531414291
1685667515230450630,135,1685667515230450630,camera_1,260,0,0.395082581689129,0.46199009591123025,1.7444377630741266,-0.9869871098796004,-0.07742181172963815,0.09682646106144441,0.10240578322697795,0.16867285827174783,0.1974294958173985,1916.7971766390842
1685667515250380277,136,1685667515250380277,camera_1,262,0,0.39633188232048655,0.462173848412494,1.7494473181571688,-0.9860207423931363,-0.07622737222365535,0.10105358404864619,0.10835430976794534,0.11851781827863306,0.13948814144460248,1898.4085058814385
1685667515270426988,137,1685667515270426988,camera_1,264,0,0.3955793191183106,0.4602143197593305,1.7456983512214928,-0.9841591828794524,-0.07424156994209727,0.11059356830391326,0.11699553280526939,0.03465486748609692,0.04059774873498303,1891.58908010507
1685667515290246248,138,1685667515290246248,camera_1,266,0,0.39407376475957334,0.45683109952251477,1.738943852237546,-0.9837431422111894,-0.07347661613396195,-0.11602005216609251,-0.11571501427790326,0.007779634208418429,0.00903843494125283,1899.4139203806408
1685667515310445547,139,1685667515310445547,camera_1,268,0,0.39369393192279045,0.4556138067821467,1.7375488474287848,-0.9841681159769575,-0.07649500734182284,0.10431478314793982,0.1211612948219805,0.05935820774175227,0.06888050369920778,1912.7871751389462
1685667515330296993,140,1685667515330296993,camera_1,270,0,0.39394386263107517,0.4550829733594128,1.7387475174121962,-0.9837414855797216,-0.0775467099677507,0.10171892034165221,0.12606529485591408,0.11772969062440097,0.13686113816184925,1908.157654403943
1685667515340265750,141,1685667515340265750,camera_1,271,0,0.3945276943081053,0.4556164397230687,1.7413809867053263,-0.9849060990057601,-0.07762871346322239,0.10037399030634707,0.11772349407523638,0.12618035596096888,0.1470447315313323,1911.5877772315866
1685667515360281705,142,1685667515360281705,camera_1,273,0,0.39434002651195693,0.45554036802363,1.740478309557399,-0.9838531498226929,-0.07746521129404223,0.10247603102763292,0.1246225649228851,0.10591287392890081,0.12334819971812408,1905.164108151105
1685667515380463838,143,1685667515380463838,camera_1,274,0,0.39302926570383684,0.4545924938044672,1.7348402629384536,-0.9856374576089341,-0.07706557976102645,0.09542379347203322,0.11607755258317767,0.12376748805399984,0.14321173555399092,1930.9299959931523
1685667515400445699,144,1685667515400445699,camera_1,276,0,0.39440021470671716,0.4572281550442054,1.7403447698264178,-0.9834463705448153,-0.07307603990266638,-0.11982776532429927,-0.11460556405235373,0.003267687337938696,0.003802060994131083,1893.7798873614522
1685667515420273065,145,1685667515420273065,camera_1,278,0,0.39470261027153847,0.4586390111736049,1.7417774942262467,-0.9832837692074924,-0.07282327750601897,-0.11942747830566162,-0.11656275945574984,0.0061074584955349565,0.007120205865729237,1888.9483998101198
1685667515440392732,146,1685667515440392732,camera_1,280,0,0.39593225961394923,0.4617916670655776,1.7477336759408395,-0.9860653503387957,-0.07632765230462134,0.10249912362754128,0.10650419714959215,0.13105502864345908,0.15392557151574834,1902.4760281387717
1685667515470605134,147,1685667515470605134,camera_1,282,0,0.39506754795246646,0.4619994391832664,1.7443505867209916,-0.9870256759343741,-0.0774001251005756,0.09698194748242998,0.10190209783523885,0.16924024955369532,0.19807032469984412,1917.2473596306527
1685667515490616083,148,1685667515490616083,camera_1,284,0,0.3942985801776882,0.4614947461270949,1.7409350169792182,-0.9862798293458616,-0.07838795110587415,0.09924539484506065,0.10610268115825133,0.11396298103500158,0.13288355043107475,1919.2308369511734
1685667515510648012,149,1685667515510648012,camera_1,286,0,0.3938255856142758,0.4608100117986529,1.738784358891609,-0.9854257446057392,-0.07841744190866376,0.10508341378381503,0.10837104235110781,0.10906249604886399,0.1268396732750924,1917.341943879844
1685667515540276288,150,1685667515540276288,camera_1,288,0,0.3962426018591511,0.4621833995582289,1.7490846219520724,-0.9864521635255034,-0.07605142642910388,0.10342206152425525,0.10213807715061761,0.11119379295269027,0.13077844701109262,1902.325668420643
1685667515560386657,151,1685667515560386657,camera_1,290,0,0.3945613384415938,0.4585150542159992,1.7411605923154252,-0.9831792266871838,-0.07302582311077,-0.11932874420699083,-0.11741587701741378,0.010079526517074555,0.011742968670542446,1889.563319108448
1685667515580525636,152,1685667515580525636,camera_1,292,0,0.39408479506091487,0.45687976906405897,1.7388959615135022,-0.9831254474539898,-0.07267138884612756,-0.12136559718807378,-0.11598972209100908,0.0036461936542764306,0.004235441706812107,1894.126515879529
1685667515600531101,153,1685667515600531101,camera_1,294,0,0.3930968623329774,0.45469022014878435,1.7351065499740728,-0.9854660698792291,-0.07736121237220613,0.09734333784422894,0.11574170602869488,0.11269304098095745,0.1304193121819947,1929.130742277485
1685667515620393753,154,1685667515620393753,camera_1,296,0,0.3939877938769195,0.45516412820985225,1.7389596766964202,-0.9838344556161001,-0.07746419043923283,0.1017016940002127,0.12540266575975773,0.1185911827487871,0.1378914745197676,1908.3431977704172
1685667515650303602,155,1685667515650303602,camera_1,298,0,0.39385328357347554,0.45496256294575727,1.7383565466601518,-0.9838013490768723,-0.07761739702170396,0.10099999384126888,0.1261326542897002,0.11825352523010224,0.1374168704361746,1909.5473383704666
1685667515670447587,156,1685667515670447587,camera_1,300,0,0.39285020383730584,0.45433457453748743,1.7340411151034956,-0.9852221282865536,-0.0770497057906629,0.09692829979952566,0.1183452807257616,0.11698943690862507,0.13524929153704968,1929.4772151997313
1685667515700443744,157,1685667515700443744,camera_1,302,0,0.3946015509779128,0.457934118751847,1.7413076087669792,-0.9833473057084382,-0.07265497238645305,-0.11438532133223583,-0.12110049383549334,0.011440936534199864,0.013334201362676391,1890.4520726955964
1685667515720548629,158,1685667515720548629,camera_1,304,0,0.3949252393807238,0.45995503133210314,1.7429394913700016,-0.9842974695974386,-0.07499706091146689,0.1145882266751715,0.11137086919908892,0.03617042215773836,0.04223396336068584,1898.6960836153025
1685667515740429878,159,1685667515740429878,camera_1,306,0,0.39463955015065527,0.4606930678023647,1.7420787620795197,-0.9853798366077869,-0.07716611343414798,0.10996884886697403,0.10477986840587276,0.09709711669711395,0.11329165115716094,1909.6491436078202
1685667515760524272,160,1685667515760524272,camera_1,308,0,0.39389787702782014,0.46084840617098605,1.7390530030530025,-0.9855279139254689,-0.0781617445994194,0.1033927835955519,0.10924927851135773,0.11830400780308992,0.13764324527315552,1917.4187966694585
1685667515790367126,161,1685667515790367126,camera_1,310,0,0.3943039277370363,0.46146472195544264,1.7409159504972438,-0.9860037640505431,-0.07837980283499525,0.10319218235914371,0.10490260857417041,0.09887189540313557,0.11526307319259325,1917.0955437698867
1685667515810543298,162,1685667515810543298,camera_1,312,0,0.39522825755898455,0.46190458640339654,1.7448545444108672,-0.9860658543302045,-0.07763284391949551,0.09792057998247848,0.1098127154973873,0.12052616156870499,0.1411809543309587,1908.9528514479748
1685667515830598592,163,1685667515830598592,camera_1,314,0,0.3960125553865316,0.4619835025313083,1.7480758442733746,-0.9862375002787208,-0.07614577621128842,0.10492312601240507,0.10260872982814774,0.10513578832615167,0.12351137895557511,1902.853397063678
1685667515850240945,164,1685667515850240945,camera_1,315,0,0.39480360356340827,0.45889158286159765,1.7422810410577092,-0.9833581964303525,-0.07326639175379815,-0.11766762003480771,-0.11744370799650165,0.01596140261972323,0.01862073896646923,1888.669426130597
1685667515870353221,165,1685667515870353221,camera_1,317,0,0.39403344992301065,0.45691113567954084,1.7386943903553738,-0.982941333829771,-0.07278616076992493,-0.11981094817863013,-0.1190539614874833,0.005224329128395766,0.0060683969967167805,1893.103576482275
1685667515890358209,166,1685667515890358209,camera_1,319,0,0.39326795359622774,0.454916570367509,1.7358142277929498,-0.9854713637039652,-0.07717345232384737,0.09756146844095748,0.11563826983966138,0.09208601422142237,0.10665423167281954,1927.4495197692884
1685667515900422811,167,1685667515900422811,camera_1,320,0,0.3937116871962951,0.4551579052503494,1.7378967963344676,-0.9850231418083815,-0.0767052123904101,0.09768029481053415,0.11960050376070576,0.13928288931492716,0.16173070071367412,1919.318775575609
1685667515910561561,168,1685667515910561561,camera_1,321,0,0.39393251420870923,0.45512153054177135,1.7386995940416854,-0.9838198599769096,-0.07743885102595466,0.10062114201242021,0.1264005270831986,0.11118646163959056,0.12926494770772406,1908.7793914536016
1685667515920417070,169,1685667515920417070,camera_1,322,0,0.39413099371444316,0.45512719679385394,1.7396510105232896,-0.9851910353462716,-0.0774550366907645,0.09791204643614972,0.11752690044095963,0.14751294621964917,0.17159191095589035,1917.550625341014
1685667515930228233,170,1685667515930228233,camera_1,323,0,0.39417843917089307,0.45521456133555754,1.739868821252648,-0.9849398763915898,-0.07748049200355797,0.09903149153229886,0.11867171919836139,0.14371557120466605,0.16721589156793498,1915.107575358124
1685667515940317869,171,1685667515940317869,camera_1,324,0,0.39410498361898205,0.4552243476181739,1.7394070186653297,-0.9839375934896798,-0.07720800265849269,0.10218728389090037,0.12435230377530006,0.12388951412867755,0.14410624391179663,1908.0320672488306
1685667515960402488,172,1685667515960402488,camera_1,326,0,0.39341185823700486,0.455232777972278,1.7364325179061524,-0.9851417230209365,-0.07672886176830214,0.09721789571180384,0.11898381439695986,0.08226015121908858,0.09536513966764501,1923.136540123728
1685667515980298757,173,1685667515980298757,camera_1,328,0,0.39361666514258725,0.4562451617146314,1.7368170324507064,-0.9831006681363226,-0.07420691849700148,0.1175560000666284,0.11910917851043476,0.005273233517073095,0.006111079454865159,1903.8499037316064
1685667516000529050,174,1685667516000529050,camera_1,330,0,0.3955550001331797,0.4601122715899557,1.7456919571365406,-0.9843302882928462,-0.07444042032556518,0.1054632954699262,0.12012493779269395,0.040475479676388204,0.047434201505747155,1893.1900262080594
1685667516020319938,175,1685667516020319938,camera_1,332,0,0.3960740859435687,0.46177042062405027,1.7482248469197448,-0.9855760394001173,-0.07616001685732646,0.10474742917225259,0.10893804879138522,0.08869858662365006,0.10423135419265124,1897.6049725613566
1685667516040359497,176,1685667516040359497,camera_1,334,0,0.395317966149674,0.4622095574344405,1.7453421724126075,-0.9866959397054197,-0.07733601818586201,0.09918320615625112,0.10301919469963602,0.13997585885226727,0.16399709655086758,1912.478110846364
1685667516060206890,177,1685667516060206890,camera_1,336,0,0.3940357630646975,0.4611339180290358,1.7397291789045073,-0.9861198075069106,-0.07845320858728184,0.10072462652191919,0.10614786345901674,0.11997385107679293,0.13969420477409758,1920.6887912945815
1685667516080314874,178,1685667516080314874,camera_1,338,0,0.3938504738636432,0.460869281110292,1.7388934153434508,-0.9857539706383744,-0.07848745705720968,0.10360638493906249,0.1067452362179712,0.10961664759088306,0.12750017495470742,1919.7020367935754
1685667516100281238,179,1685667516100281238,camera_1,340,0,0.39547689857099144,0.46223824605855324,1.74591384845741,-0.9861492743274356,-0.07771662687023716,0.09812972720857609,0.10881310256285874,0.10822191002080217,0.1269124645615239,1907.294434054289
1685667516130239486,180,1685667516130239486,camera_1,342,0,0.3946271805826233,0.4593488684923051,1.741567594605809,-0.9841645754203623,-0.07463329689215165,0.11540590553208352,0.11194389867690976,0.02986201224848628,0.03480924804994127,1900.6189289244348
1685667516150239706,181,1685667516150239706,camera_1,344,0,0.39372679759558626,0.45718902479281504,1.7375104109888002,-0.9838470798296658,-0.07259984826495769,-0.1185048636661081,-0.11283077075878464,0.012683423061389476,0.014711484055513637,1902.711829452774
1685667516170250415,182,1685667516170250415,camera_1,346,0,0.3936758706497566,0.4557299861761027,1.7372478326982945,-0.9826251100903738,-0.07553800282258308,0.1119056775677983,0.12735392603900486,0.025067154376301914,0.029079335805688084,1900.5902679872245
1685667516200362205,183,1685667516200362205,camera_1,348,0,0.39413919567514555,0.45521849666128733,1.739621594797031,-0.9843097421550614,-0.07763695889854115,0.10046641791318424,0.1225289067253771,0.12854885205160826,0.1495557264859026,1910.7879049149342
1685667516220343828,184,1685667516220343828,camera_1,350,0,0.3940354949958191,0.45503930698223777,1.7392498647827883,-0.9849326902498828,-0.0774932086199143,0.0985300552875324,0.11913952534719434,0.1487036146572791,0.17290714444051808,1916.441785351839
1685667516240355014,185,1685667516240355014,camera_1,352,0,0.3930254416581388,0.45447876837156115,1.7348672500596667,-0.9854717034840375,-0.07692185019441135,0.09373998949026788,0.1189174712365796,0.14747963746776804,0.1707030584356497,1929.6124674370508
1685667516260536909,186,1685667516260536909,camera_1,354,0,0.39380728132390086,0.4560070289487922,1.7378215133151496,-0.9831313218704317,-0.07524127141130556,0.10885084550067199,0.1262657850230884,0.027739145152736455,0.03220494080359182,1903.0335345736244
1685667516280410051,187,1685667516280410051,camera_1,356,0,0.39394885425338627,0.45762868309526256,1.7383534448681757,-0.9830739617931818,-0.07323066817935997,0.11946265289905003,0.11803190011426264,0.00391951366327703,0.004550993440098172,1898.9437305850452
1685667516310627937,188,1685667516310627937,camera_1,358,0,0.3959884586552183,0.4616180652316012,1.7477466114262181,-0.9850170954491283,-0.07569691835140054,0.10861903752905497,0.11051336078197051,0.0658748866408132,0.07735996343776247,1894.0229031939525
1685667516320407152,189,1685667516320407152,camera_1,359,0,0.39490307321879436,0.46127897382874744,1.7432777227551852,-0.985253761436669,-0.07695191865647649,0.10386928724861544,0.11209192190540307,0.10187928128289059,0.11909298913077142,1905.7714756261564
1685667516340426206,190,1685667516340426206,camera_1,361,0,0.39417712086598267,0.46112313428738205,1.7402991138126493,-0.985392805519381,-0.07757064877555561,0.10765814844535236,0.10674050942590305,0.1229917166638188,0.1432633150555901,1913.2716653449452
1685667516360347747,191,1685667516360347747,camera_1,363,0,0.39437054358292456,0.4615546718352361,1.7412317976436336,-0.9863177448671986,-0.07822296725886745,0.09993003864175713,0.10522576172382368,0.10557930986396968,0.12314225368405451,1918.7770308016336
1685667516380397319,192,1685667516380397319,camera_1,365,0,0.39396228240215236,0.46084535451605213,1.7394597717764444,-0.9858845027776745,-0.07761730311211072,0.10381312381702396,0.10597233961639083,0.1555685753119178,0.1810521117059735,1919.0754598376798
1685667516400378465,193,1685667516400378465,camera_1,366,0,0.39521401092143943,0.46115350552832524,1.744448408888748,-0.9852575766004317,-0.07609590426908655,0.11375263597344508,0.10265115154740025,0.08079141593771055,0.09451076807329026,1902.9351449792734
1685667516420449495,194,1685667516420449495,camera_1,368,0,0.3945006352109943,0.45924950942466075,1.7409968313632207,-0.9840496465520078,-0.07462979183882641,0.11691784363826663,0.11138628789011709,0.02783234452363104,0.03242149441718723,1900.907921340317
1685667516440395832,195,1685667516440395832,camera_1,370,0,0.3945246986313129,0.4575953927294917,1.7409257917967933,-0.9832190731975162,-0.07292371617311548,-0.11378408071720594,-0.12253802958861566,0.006756752845831215,0.00787186241111845,1890.4600794007995
1685667516500380754,196,1685667516500380754,camera_1,372,0,0.3942237886675562,0.45526427206448866,1.7400416586348426,-0.9848073405445598,-0.07742539925968689,0.0994723038733502,0.11943646981202016,0.12883862614398822,0.14993866937991746,1913.6569476092693
1685667516520251035,197,1685667516520251035,camera_1,374,0,0.39411178396201596,0.4554336498255768,1.7395847627329328,-0.9846146705406862,-0.07738238072869671,0.09833222011448825,0.12197004630716143,0.11778242111904547,0.13704781220427723,1912.9455666444264
1685667516540381431,198,1685667516540381431,camera_1,376,0,0.3933061360069915,0.4550622990261039,1.7360595611931566,-0.9856583123264421,-0.07744162860140645,0.09522382152494736,0.11581411535532583,0.09464667073916644,0.10966866237151658,1928.5087757355066
1685667516560418844,199,1685667516560418844,camera_1,378,0,0.3943678624419676,0.4574931516525754,1.7402496536561893,-0.9831856422125631,-0.07293227847462166,-0.11298084424069697,-0.1235402952005115,0.014826005208306015,0.01726136591718981,1891.6410114923506
1685667516580448150,200,1685667516580448150,camera_1,380,0,0.3954322472728688,0.45979833857039565,1.7449539251858637,-0.9834270620306653,-0.07407940439194613,0.11300870200537921,0.120882127635676,0.01855712803080678,0.02172085607474312,1887.5822487622497
1685667516600391864,201,1685667516600391864,camera_1,382,0,0.39488682415357673,0.46084850856640547,1.7431556626009266,-0.9855064245133132,-0.07667572994655784,0.10986849018934211,0.10405207611413783,0.10375907132402062,0.12121012990790113,1908.0716874848576
1685667516620424032,202,1685667516620424032,camera_1,384,0,0.39517013757838654,0.4619576976635041,1.744642002545939,-0.9865576935916376,-0.077526043599604,0.09789825503234513,0.1054019043497926,0.1478416282334365,0.17310240111387273,1913.0999193713074
1685667516650192975,203,1685667516650192975,camera_1,386,0,0.394076224043433,0.4612003107318344,1.739932819045556,-0.9860916354553543,-0.07838082909240472,0.10155358390408953,0.10567214255425651,0.10771622677566484,0.1254431123527739,1919.9658849139246
1685667516660385370,204,1685667516660385370,camera_1,387,0,0.39384060070060556,0.46084731541965057,1.7388533040002905,-0.985847899235849,-0.07861533102221518,0.10399456962962884,0.1053977171862794,0.11530977982329205,0.1341089644299829,1920.6103626275435
1685667516680362224,205,1685667516680362224,camera_1,389,0,0.3949231804899631,0.46125496127490423,1.74343291240426,-0.9854808394266082,-0.07724012861268419,0.10474356040408647,0.10904248808973098,0.10702606645645574,0.12510969459546653,1907.4243662825309
1685667516690390110,206,1685667516690390110,camera_1,390,0,0.3949018094880299,0.4608337249247855,1.7431782561923066,-0.9853622476120922,-0.07666878220643301,0.11121052948987567,0.1039969083502485,0.09873557084938511,0.11534008013500256,1906.8957886381543
1685667516700271368,207,1685667516700271368,camera_1,391,0,0.3958367735316065,0.46136002012352234,1.7470308048660812,-0.9843289594566788,-0.0757478442599253,0.11141577765722654,0.11377736222088182,0.04963092406978831,0.058237182177841934,1890.3028198615648
1685667516720340013,208,1685667516720340013,camera_1,393,0,0.39364316361310164,0.4572281014868324,1.7371613415576292,-0.98347442402587,-0.07249247728694982,-0.12086343163621088,-0.11364386880471376,0.003950407903175802,0.0045802085435295405,1900.4135384708643
1685667516740234136,209,1685667516740234136,camera_1,395,0,0.39338298685788936,0.4559279851736034,1.7358454658397198,-0.9832684736870725,-0.07418786319823742,0.11675797265014559,0.11851938841304475,0.003320631163660437,0.0038438699152680356,1907.3464663103218
1685667516769575834,210,1685667516769575834,camera_1,397,0,0.3942458116129647,0.4555895562050072,1.7401484444083264,-0.9847306299806245,-0.07726212517001735,0.09790398137371552,0.12145353359762699,0.10846873081754893,0.12629021408743635,1912.5296253608544
1685667516790426015,211,1685667516790426015,camera_1,399,0,0.39433651005151177,0.45539883390286007,1.7405076747035195,-0.9847135323439162,-0.07725548622184508,0.10040992086941142,0.11953533727894872,0.13345006422605366,0.1553821745166205,1911.7738086713944
1685667516800358295,212,1685667516800358295,camera_1,400,0,0.39413352176800903,0.4552592492386623,1.739648071910694,-0.9843412111353359,-0.07754699953887445,0.10044573468954698,0.12234989704047748,0.13169785734498873,0.15322516867407285,1910.8980016708376
1685667516820317029,213,1685667516820317029,camera_1,402,0,0.39347198725419724,0.45495903719684544,1.7367741026445687,-0.9850416619318096,-0.07643330555446187,0.09779241805429083,0.11953040212319063,0.12411125027574599,0.14393098399950974,1921.6955981124192
1685667516840292930,214,1685667516840292930,camera_1,404,0,0.39325999515985066,0.45577278828502127,1.7355832872330423,-0.9842910389750655,-0.0753043569000534,0.10904707273482832,0.1166582202556711,0.023486477381084114,0.02718497149556116,1916.7639864305963
1685667516860301494,215,1685667516860301494,camera_1,406,0,0.3937468576253093,0.45723941409747787,1.7376045632875152,-0.9837491021777302,-0.07242921357440571,-0.12042210196050208,-0.11175969910892468,0.007685922377277165,0.00891540184068572,1901.6353509542528
1685667516880361557,216,1685667516880361557,camera_1,408,0,0.3955577887031536,0.4609404502754551,1.7458126239593172,-0.9842039639284784,-0.07546718945214209,0.11019365321205919,0.11620937782918163,0.044247138197533786,0.05185363330327546,1891.8964079571883
1685667516900399446,217,1685667516900399446,camera_1,410,0,0.3951670530616269,0.46145652239120105,1.7444458418976645,-0.9857543280607625,-0.07698839713657714,0.10619133674666928,0.1052833862286496,0.09173340041888878,0.1073357787939905,1907.2137552828062
1685667516920408010,218,1685667516920408010,camera_1,412,0,0.3939028079698028,0.4609228561717475,1.7391463944117684,-0.9856647916453507,-0.07858043616729758,0.10402117305834033,0.10709635436396307,0.11415172810666263,0.13281294766407353,1918.514201032231
1685667516940393686,219,1685667516940393686,camera_1,414,0,0.3943255407207004,0.46151040290438156,1.7410274846420835,-0.9862429367538013,-0.07853200894644655,0.09872535140222713,0.10682180612861582,0.10979970975313336,0.12805251653745933,1918.830757140181
1685667516960403680,220,1685667516960403680,camera_1,416,0,0.39536325441746906,0.46223549869430436,1.7455282084129058,-0.9868913597251425,-0.07717485644749329,0.09813373865434181,0.10227049902043697,0.15028511849232018,0.17611793628373065,1913.5099639529362
1685667516980424880,221,1685667516980424880,camera_1,418,0,0.39470817116751833,0.46068773797591817,1.7423116046441962,-0.9849037237697618,-0.076739836287949,0.11368754230109292,0.10559732551770902,0.08397840225370601,0.09800511794520635,1905.179335543187
1685667517000254869,222,1685667517000254869,camera_1,420,0,0.39593920389869924,0.4605321600795143,1.7472517524049795,-0.9841234779703754,-0.07404183547720035,0.1093917724587303,0.1185420888334466,0.028151241422165185,0.033040297250032824,1887.9194399695834
1685667517020361900,223,1685667517020361900,camera_1,422,0,0.3947325222411711,0.45804374170366613,1.741838017589328,-0.9833116370033734,-0.07277044468523373,-0.11463091715544364,-0.12108856158267446,0.013467944227159023,0.015705857367567067,1889.0939936942887
1685667517040195941,224,1685667517040195941,camera_1,424,0,0.39358493470485456,0.4554574398064296,1.73715467080963,-0.9848974209217403,-0.07647836104055265,0.09864817776913751,0.11998611410110802,0.07977493450744078,0.09255802873614281,1919.4380272938863
1685667517060362815,225,1685667517060362815,camera_1,426,0,0.39437657542499877,0.4558192668076343,1.7408092269395636,-0.9855098206972954,-0.0767748195115041,0.09488673841350331,0.11778169327789483,0.1317331998143345,0.15348265735400626,1916.8237650142983
1685667517080370187,226,1685667517080370187,camera_1,428,0,0.3942605023499493,0.45530304449879305,1.7402489492589115,-0.9850419671539599,-0.07753206305365583,0.09823632335627613,0.11845136942029078,0.1414652651292272,0.1646724172229811,1915.1179420498675
1685667517090563774,227,1685667517090563774,camera_1,429,0,0.3940951410995416,0.4551690506873038,1.7394709364383565,-0.9845051289201563,-0.07758174781025383,0.10090431855072676,0.12061940985772662,0.11872774001676589,0.13808202497081398,1912.6058726378249
1685667517110361337,228,1685667517110361337,camera_1,431,0,0.39387741010820343,0.45534978087164596,1.7386733212601169,-0.9853572631309371,-0.07654078541265837,0.09774112364479941,0.1168727723303195,0.13842967693926767,0.16085177596999142,1920.111406679265
1685667517130332708,229,1685667517130332708,camera_1,433,0,0.39376565026650073,0.4562403078098129,1.7378652867731075,-0.9847377477794463,-0.07485911170988564,0.1047698515799539,0.11709380723242752,0.03482100518886,0.040415988730747615,1915.1206947872406
1685667517150373697,230,1685667517150373697,camera_1,435,0,0.3938850450032214,0.45730198287402346,1.7382216092534113,-0.98381433990854,-0.07202222583611156,-0.11687900087906425,-0.1151583376462493,0.009072967222891748,0.010533490865236807,1900.5421828750991
1685667517170333147,231,1685667517170333147,camera_1,437,0,0.39501269074040357,0.4602094030846651,1.7433420149608125,-0.983701169808935,-0.07523591468103459,0.11414112177416888,0.1168048371377458,0.037082456168718636,0.04332748429639901,1893.2373194331306
1685667517200289964,232,1685667517200289964,camera_1,439,0,0.39485525187425957,0.4617962488455743,1.743411748490345,-0.9866946748838417,-0.07744505029069249,0.0992490758145628,0.10288587702545537,0.1513418328249827,0.17692924943335545,1916.7083863057192
