%time,field.header.seq,field.header.stamp,field.header.frame_id,field.image_seq,field.transforms0.fiducial_id,field.transforms0.transform.translation.x,field.transforms0.transform.translation.y,field.transforms0.transform.translation.z,field.transforms0.transform.rotation.x,field.transforms0.transform.rotation.y,field.transforms0.transform.rotation.z,field.transforms0.transform.rotation.w,field.transforms0.image_error,field.transforms0.object_error,field.transforms0.fiducial_area
1687931637074705362,5,1687931637074705362,camera_1,6,0,-0.11018419280999475,0.1381667262409692,1.5665289280434072,-0.012841774028707273,0.9992008231442575,-0.016564450183644656,-0.03403561161118683,0.0028290259069763124,0.0018539420069111428,4662.353933930164
1687931637084446907,6,1687931637084446907,camera_1,7,0,-0.1101211227870342,0.13811626297305857,1.5660618500833257,-0.011306786590279637,0.997384640752351,0.05618111988738343,0.04404221539052058,0.010381777735346986,0.006802135136826573,4663.419808468841
1687931637094535350,7,1687931637094535350,camera_1,8,0,-0.11011769023517254,0.13809733638533664,1.565906466359795,-0.01106801622175876,0.9972600498324988,0.06016456437221998,0.04159467777129478,0.010618351801895187,0.006957222694785857,4663.414398425085
1687931637104689121,8,1687931637104689121,camera_1,9,0,-0.11016353732882048,0.13815773698448425,1.566324378687802,-0.012987704058742586,0.999226798439291,-0.01684221490984879,-0.03306757658156496,0.013989583204420342,0.009165085335909833,4664.019723734876
1687931637114692449,9,1687931637114692449,camera_1,10,0,-0.11016325247484426,0.13815008221007333,1.566329880850568,-0.012512425357501265,0.9992975445334373,-0.014972605009084814,-0.03199496523451559,0.006110504463322286,0.004001462469482961,4666.016609621614
1687931637124525308,10,1687931637124525308,camera_1,11,0,-0.11022520036955402,0.13822766293478456,1.5671666472449224,-0.012434299456662572,0.9993718235096722,-0.0207082914409593,-0.025932860188781503,0.004417872682097368,0.00289593572675537,4660.436248170006
1687931637134718179,11,1687931637134718179,camera_1,12,0,-0.11021334043728037,0.138207546352751,1.5670288055941324,-0.01289814736830775,0.999304952977117,-0.018469093518973263,-0.02970086420384082,0.005865719821485982,0.0038451950983945343,4660.825560779018
1687931637144540071,12,1687931637144540071,camera_1,13,0,-0.11017519596258969,0.13816042462053998,1.5664505149458987,-0.012920500368250034,0.9992431289628955,-0.018130016864236227,-0.0318987833495103,0.00479031961367582,0.00313877734618294,4663.126325722464
1687931637155220270,13,1687931637155220270,camera_1,14,0,-0.1102012342718062,0.13819157334508814,1.5668152408094416,-0.012943149614020717,0.9992404037049489,-0.015176317077582989,-0.03347790139182098,0.004494725170843594,0.0029458468683909427,4661.997589200532
1687931637164588212,14,1687931637164588212,camera_1,15,0,-0.11023202111947969,0.13824036087846253,1.5673371843079134,-0.012729831756018606,0.9992803452550436,-0.010665611167621557,-0.03410260560199909,0.00931321015013964,0.0061045016237288455,4661.336462084961
1687931637174497604,15,1687931637174497604,camera_1,16,0,-0.1101970676795597,0.13820509013294718,1.5668586295442206,-0.013164761694375892,0.9992047019414761,-0.015030142829226503,-0.03450720901651164,0.00859269788088568,0.005632675765910371,4661.108246830639
1687931637184454917,16,1687931637184454917,camera_1,17,0,-0.11019562154414353,0.1382062069501493,1.5669629750397176,-0.012925472832772985,0.9993433219372574,-0.01875440567327564,-0.02818030019887848,0.012044874250022986,0.00789440589492497,4661.911258705455
1687931637194543123,17,1687931637194543123,camera_1,18,0,-0.11020768904004197,0.13821218924543968,1.5669309376331941,-0.012865899854649296,0.9993700467922342,-0.015506499125540314,-0.029215178936424793,0.006664715780971164,0.0043663216655823655,4663.776243045548
1687931637204524993,18,1687931637204524993,camera_1,19,0,-0.11023447555306055,0.13824300893398198,1.5673663375025735,-0.012817918860329618,0.9993928722950417,-0.010494295753258132,-0.030650571260576707,0.008891465122360387,0.005825536311264116,4663.528581790655
1687931637215130329,19,1687931637215130329,camera_1,20,0,-0.11012220063570086,0.13810014576876356,1.5657623062771548,-0.012860025841484332,0.9991658012572038,-0.02136184059233058,-0.03234181658339732,0.009849513878180005,0.006451966082042865,4664.472106899397
1687931637223897933,20,1687931637223897933,camera_1,21,0,-0.11019179656901347,0.13819626645855948,1.566729730169314,-0.01264210252449614,0.999312571047451,-0.01617923892434906,-0.030867374655489437,0.006450617279369908,0.0042263360324646965,4663.495939045621
1687931637234240531,21,1687931637234240531,camera_1,22,0,-0.11018552389561972,0.1381856081529916,1.5666657200780578,-0.012447431093273401,0.9992614309444509,-0.013712433380196915,-0.03366932219128355,0.004789601179254532,0.0031378167558095437,4663.718456712932
1687931637244127750,22,1687931637244127750,camera_1,23,0,-0.11015730253822673,0.13814769751105166,1.5662717040310432,-0.012773749525719023,0.9992734620951875,-0.017469622453332046,-0.031371827595637024,0.005600017902906984,0.003667893990707679,4665.010515271685
1687931637254333734,23,1687931637254333734,camera_1,24,0,-0.11017367021365518,0.13816442577414884,1.566477999515218,-0.0127730865107628,0.999286659996329,-0.016061129568185988,-0.031702673883506345,0.008354875946679385,0.00547280941271881,4664.569197114497
1687931637264602184,24,1687931637264602184,camera_1,25,0,-0.11017386352375784,0.13817129666785744,1.566527109168273,-0.012870348564142193,0.9993281391727451,-0.016988351426050877,-0.029816443470025104,0.010659196093911305,0.0069818629055095885,4664.801621834746
1687931637274714469,25,1687931637274714469,camera_1,26,0,-0.11017510612497489,0.13818460537982089,1.5666191108020033,-0.01282510981629629,0.9991974166136633,-0.016149053902200085,-0.03434016961002866,0.01036981289871619,0.006796556680459155,4661.889783159246
1687931637284649372,26,1687931637284649372,camera_1,27,0,-0.11014966808735618,0.13813344298651256,1.5660972887949312,-0.012428145094084847,0.9992188365537169,-0.02062872246841145,-0.031332310720375296,0.007371217169747979,0.004829074382742147,4663.694626949815
1687931637294659852,27,1687931637294659852,camera_1,28,0,-0.11017340261222623,0.1381829205878495,1.5667987729966737,-0.011149714434043086,0.9974711526914046,0.05566047737414628,0.04276557815582944,0.009633847833356413,0.006316301951022815,4660.346335681564
1687931637304607152,28,1687931637304607152,camera_1,29,0,-0.11013416331158611,0.1381178094697422,1.565884414766311,-0.012603720058164214,0.9992014518980592,-0.020225974546351205,-0.032070464903965853,0.007228252972709015,0.00473447075505636,4664.792968880179
1687931637314749956,29,1687931637314749956,camera_1,30,0,-0.110158867144271,0.13816365674154335,1.5663257888654691,-0.012997594377149813,0.9991709304808668,-0.018250910724315363,-0.03399144716159176,0.013552493853239866,0.008881459859774034,4662.3470900997345
1687931637324513673,30,1687931637324513673,camera_1,31,0,-0.11020647849402479,0.1382181801816454,1.5670136623791258,-0.012857750174809647,0.9993853227208365,-0.019325392017867815,-0.026271357292067386,0.010421965977002401,0.006829785856647559,4662.223332769035
1687931637334500074,31,1687931637334500074,camera_1,32,0,-0.11014144183881933,0.1381201101134656,1.5660586935105028,-0.012603464235112584,0.999148836748259,-0.0193340700948961,-0.03418988808757377,0.009808695326682937,0.00642735239253294,4663.05544767229
1687931637344448566,32,1687931637344448566,camera_1,33,0,-0.11016541470282491,0.1381665780926729,1.5663726461824614,-0.012934259978079655,0.9992123831633118,-0.017585978422143905,-0.03313686187390437,0.008737629120332713,0.005725400740231808,4663.143805774951
1687931637354745864,33,1687931637354745864,camera_1,34,0,-0.1103247063174038,0.1383610607696556,1.5688648569654602,-0.011736826835186913,0.9980194634408049,0.05026262066047418,0.03595923321638018,0.008135010133628382,0.005339267529866201,4660.173182483037
1687931637364493370,34,1687931637364493370,camera_1,35,0,-0.11018813160288204,0.13817892017566252,1.5666113562461024,-0.012900561670054132,0.9992383683293972,-0.020445345977215076,-0.030630811201684233,0.00395335497250926,0.0025912733453592727,4661.211982078472
1687931637374489545,35,1687931637374489545,camera_1,36,0,-0.1101921469177133,0.13820270409732355,1.56688357072905,-0.012752948239193217,0.9992803635744394,-0.020957328987392172,-0.028929356153550797,0.007596451010613237,0.0049801787379637474,4660.243248957993
1687931637384621858,36,1687931637384621858,camera_1,37,0,-0.1101845831862545,0.13819828116259775,1.5667747179279126,-0.01289577208289694,0.9992168429860943,-0.019239922079081304,-0.03208153914137916,0.014009712272127217,0.009185441275062795,4660.240789589299
1687931637394673347,37,1687931637394673347,camera_1,38,0,-0.11019801260188158,0.13817893732867684,1.5667548499918402,-0.012741220211542436,0.9992686559867735,-0.018457637654364648,-0.030969825348693112,0.0029176883808759158,0.0019123633305447188,4661.69321797375
1687931637404464721,38,1687931637404464721,camera_1,39,0,-0.11019339143103861,0.13819303960221227,1.5668117058559705,-0.012503044292447972,0.9992695930751098,-0.01570394051195286,-0.03251677246165241,0.0077038937924953635,0.005048890388429461,4662.310070378475
1687931637414345264,39,1687931637414345264,camera_1,40,0,-0.11016376708609607,0.13815452888282034,1.5664153212811651,-0.012863729461338177,0.9992231610487319,-0.016276794285815285,-0.03350619130702552,0.01389342928177939,0.009103017907004381,4663.618316259673
1687931637424576520,40,1687931637424576520,camera_1,41,0,-0.11022173511038205,0.13820766343105045,1.567020850043106,-0.012799247658590989,0.9992791531700249,-0.016126322332687643,-0.031895062740087875,0.005146456624061102,0.0033735894245231286,4661.1730858355
1687931637434168815,41,1687931637434168815,camera_1,42,0,-0.11017683387856206,0.13816021202734693,1.5664464220971654,-0.01254285360094365,0.9991911146856891,-0.021042647563553143,-0.031890439636847685,0.0055924528369359905,0.0036660600694386255,4660.946348209225
1687931637443744182,42,1687931637443744182,camera_1,43,0,-0.11043461353499755,0.1385013034826776,1.5703911746504806,-0.01223558588719718,0.9983495038529515,0.050514655867420016,0.024430066253677524,0.01168469411732076,0.007671174895317994,4661.424793964834
1687931637454483270,43,1687931637454483270,camera_1,44,0,-0.11014119620364057,0.1381324048864595,1.5659630244226745,-0.012722895080873717,0.9992258938536123,-0.01611166019166075,-0.03355823891504351,0.007498045993997948,0.004909725782033725,4666.338152228681
1687931637464401483,44,1687931637464401483,camera_1,45,0,-0.11018412219627487,0.13817546774513323,1.5666351450741893,-0.012778611666838033,0.9992802980938108,-0.016643962007654868,-0.031600181235248555,0.005476649359479779,0.0035885249322392906,4663.303947416862
1687931637474375247,45,1687931637474375247,camera_1,46,0,-0.11015774152616176,0.1381580716067342,1.566597387468774,-0.011581883962336092,0.997661513120748,0.053010212643950984,0.04156058898699091,0.00911333609110443,0.005970264314390676,4664.114248049038
1687931637484455108,46,1687931637484455108,camera_1,47,0,-0.11017920608833172,0.13817861546267074,1.5665848660586459,-0.013001906624226246,0.9992030645391338,-0.01519108709260237,-0.034545869690654464,0.00854576150959474,0.005600272863988015,4662.61245875858
1687931637494693517,47,1687931637494693517,camera_1,48,0,-0.11018605921197534,0.13816853823005465,1.5665782031556161,-0.012788196323640217,0.9993267293102203,-0.018814416226988262,-0.028784854749738565,0.007097047733623185,0.004649473719443095,4663.797126928956
1687931637504619598,48,1687931637504619598,camera_1,49,0,-0.11011197019508982,0.13810966642174632,1.5660416296237376,-0.011245930464421393,0.9975286287672841,0.05508294744719997,0.042143003430942585,0.011503766226269363,0.00753361002810793,4665.702683596752
1687931637514781951,49,1687931637514781951,camera_1,50,0,-0.11017630558840176,0.13817530238568204,1.5665958051502105,-0.012659768956673017,0.9992649154248393,-0.01853459597498155,-0.031077770238492883,0.007558960166534234,0.004953407550446833,4662.490529582457
1687931637524190664,50,1687931637524190664,camera_1,51,0,-0.11017321067252389,0.13817393229271507,1.5664926219171655,-0.01302537073431087,0.9992226859969804,-0.015208349207810438,-0.03395687884048229,0.00425331840688159,0.0027866161693044763,4663.540229071861
1687931637534234285,51,1687931637534234285,camera_1,52,0,-0.11018964264482847,0.13820767908215337,1.567065178674127,-0.011418608504756685,0.9976673691451845,0.050907206179855904,0.0440214979493297,0.008662561982418993,0.005678565579351036,4660.683801766978
1687931637544113874,52,1687931637544113874,camera_1,53,0,-0.11025093659423249,0.13826232263804944,1.5678079734109116,-0.0113399683946247,0.9978053227104126,0.05485063252817361,0.03531785948833586,0.006158332468658045,0.004038025063047958,4659.966045812092
1687931637553980827,53,1687931637553980827,camera_1,54,0,-0.1101918925444089,0.1381883169676412,1.5667614624348387,-0.012654164975411279,0.9992904670687742,-0.01818597713353168,-0.03045824633731737,0.007364395170043281,0.004826316857462727,4662.153621301843
1687931637565052509,54,1687931637565052509,camera_1,55,0,-0.11026768089160366,0.1382720973750638,1.567776174772446,-0.012984469352005014,0.999422074053848,-0.013876693485108784,-0.028184372043245587,0.007479783178496291,0.004903834141003601,4660.481442605729
1687931637574280977,55,1687931637574280977,camera_1,56,0,-0.11015463908649502,0.1381489311488416,1.5664565932716976,-0.011367655538089357,0.9974376737828531,0.05784157434249036,0.04053659585855988,0.007537320879237086,0.004939541925517028,4662.561753301737
1687931637584250450,56,1687931637584250450,camera_1,57,0,-0.11016514631329577,0.1381632434983469,1.5663409829702477,-0.012974483453955868,0.9992253461457816,-0.018969808489917854,-0.03194552808769723,0.010331480368222401,0.0067692549048415694,4663.0867859472055
1687931637594216585,57,1687931637594216585,camera_1,58,0,-0.1101423843875698,0.13811846807586797,1.5662594290688703,-0.01135778664753054,0.9973686885190428,0.060079603829723854,0.03895049483558701,0.00555635663204157,0.0036405958828544093,4663.276431357778
1687931637604683160,58,1687931637604683160,camera_1,59,0,-0.11022540151916331,0.13823716142900883,1.5672560095412118,-0.013111075412930386,0.9993071709324253,-0.013979730981666896,-0.03190368233024849,0.006921084053828963,0.004536904296943753,4661.204234496572
1687931637614297151,59,1687931637614297151,camera_1,60,0,-0.1101541801768404,0.1381352270587929,1.5661470996642146,-0.01333247564888871,0.9991503512355934,-0.015371165043807278,-0.03584059156959269,0.004492196962019079,0.002942770226871352,4664.174632779935
1687931637624806165,60,1687931637624806165,camera_1,61,0,-0.11023703222149783,0.13824952191736123,1.5675014431489527,-0.012893652611821611,0.999332507433438,-0.018430203619071713,-0.028785776065324155,0.0072327938869420905,0.004743750216258567,4658.602719312447
1687931637634574413,61,1687931637634574413,camera_1,62,0,-0.1101753066455831,0.13817414455241978,1.566596426992508,-0.012614095511655208,0.9992008665211278,-0.023820743191493896,-0.0295141513795513,0.011621929753346192,0.007620700848310405,4659.282675277325
1687931637644485950,62,1687931637644485950,camera_1,63,0,-0.11012329160140737,0.13811296360029068,1.5660977788823764,-0.01150704581223091,0.9974595322331695,0.05836006886399164,0.039194027811036834,0.008689963216966134,0.005691513038302871,4665.283448149041
1687931637654639005,63,1687931637654639005,camera_1,64,0,-0.11019357082314944,0.13819994944920166,1.5668371953063385,-0.012959831991184565,0.9992635827468715,-0.018468022816902196,-0.031036544328920137,0.010137276768546144,0.006645243372661849,4661.122865866637
1687931637664417505,64,1687931637664417505,camera_1,65,0,-0.11016922772627563,0.13816442228638817,1.5666484417596822,-0.011576354406152536,0.9976189282000893,0.058595248722437196,0.034482733979834285,0.0068593383075494785,0.004492666750352954,4664.853450002032
1687931637674745082,65,1687931637674745082,camera_1,66,0,-0.11017909266500689,0.13817694291107205,1.5666304733184357,-0.012661556832433321,0.9992806763067427,-0.017908710106251596,-0.03093692035171474,0.0050621238187886775,0.003317064708143569,4662.840669800409
1687931637684610843,66,1687931637684610843,camera_1,67,0,-0.11014489805342136,0.13814607725211686,1.5663679131160069,-0.011468166964001807,0.9975062210058313,0.0558325377640596,0.04162388650734282,0.007341694576098234,0.004810217959404968,4663.649531155764
1687931637694644927,67,1687931637694644927,camera_1,68,0,-0.11017929584324221,0.1381892515156733,1.5667805883601897,-0.01288507720881853,0.9993212782982801,-0.019250780738032408,-0.028642014010721095,0.010237491901534668,0.006709016462219234,4662.357998972031
1687931637704574346,68,1687931637704574346,camera_1,69,0,-0.11019498046938013,0.1382143874388046,1.5669191111686585,-0.013016783540075062,0.9992734200035299,-0.016933582476525988,-0.03156658368006357,0.006141480281257827,0.0040254574414445455,4661.3878762413515
1687931637714617252,69,1687931637714617252,camera_1,70,0,-0.11018261362493689,0.13819720720840611,1.5667548374586187,-0.012673719542190947,0.9993180460996504,-0.0167409310010977,-0.03037368600876991,0.008754037911785417,0.005735672960821433,4663.268720456924
1687931637724783658,70,1687931637724783658,camera_1,71,0,-0.1101202418458054,0.13812085923709883,1.566091813756743,-0.011234840403842547,0.997447490351029,0.05116006381661869,0.048527623306872214,0.011571659809305856,0.007581486000542421,4662.644303032432
1687931637734498262,71,1687931637734498262,camera_1,72,0,-0.11014657107082637,0.1381520762879242,1.5662675828210526,-0.012859443641645665,0.9991916282841308,-0.015892298981530956,-0.034614440761282166,0.010388094437075777,0.006805587195245629,4663.9777716414255
1687931637744534969,72,1687931637744534969,camera_1,73,0,-0.11024558948896315,0.13825165991812854,1.5674716900643244,-0.012837458341670119,0.9993021518366982,-0.015081431349963472,-0.031669534671459346,0.006541769814248255,0.004289867270044873,4659.347930850723
1687931637754663944,73,1687931637754663944,camera_1,74,0,-0.11021390063681522,0.13822108879792838,1.5671074832904013,-0.012961477956007647,0.9993156032340315,-0.014132321941197035,-0.03163230467022672,0.005665499953465769,0.003713115099443839,4662.174102704532
1687931637764583587,74,1687931637764583587,camera_1,75,0,-0.11017337167182302,0.13818331015057222,1.5666469694508496,-0.0128939677942874,0.9992398479775247,-0.01596269108304888,-0.03314610537846448,0.009310524206739501,0.006101537468818132,4663.395363484013
1687931637774573326,75,1687931637774573326,camera_1,76,0,-0.11014010095759247,0.1381432352378858,1.5663594202580033,-0.011362280077903339,0.9974824772917833,0.05376323187410421,0.04482321927003578,0.007406578530208208,0.0048534996302716646,4662.584378781206
1687931637784624099,76,1687931637784624099,camera_1,77,0,-0.1101842847557123,0.13817838554746176,1.5666893293180024,-0.012955697727354177,0.9993265563672334,-0.015279451450054741,-0.03074283654755179,0.008628270371445979,0.0056520141134964895,4664.470985841035
1687931637794635295,77,1687931637794635295,camera_1,78,0,-0.11020279193290533,0.13820048014656,1.5668562648900075,-0.012885380853963334,0.9992993473544404,-0.01837752601018043,-0.02995075750265875,0.00382683919815463,0.002508191994989952,4661.748897911983
1687931637804623603,78,1687931637804623603,camera_1,79,0,-0.11019481492557825,0.1381957891887956,1.5667798064641023,-0.012981552920955012,0.9992417858490817,-0.01644878961463976,-0.0328141740275687,0.012016178401609068,0.007875811954847671,4661.758345394659
1687931637814821004,79,1687931637814821004,camera_1,80,0,-0.11017466075348957,0.13816665515651086,1.5665609654637886,-0.012741401693175372,0.999273995860987,-0.016328566968674862,-0.03197680064764195,0.01065597730121226,0.006981656192647838,4663.733496971634
1687931637824574708,80,1687931637824574708,camera_1,81,0,-0.11025387650966681,0.13827360274876976,1.5676684047844263,-0.012855487440997812,0.9994120533924743,-0.013906528550547538,-0.028581330272845495,0.0071036106601241045,0.004656946444081977,4660.853036932181
1687931637834650039,81,1687931637834650039,camera_1,82,0,-0.11022029362543825,0.1382275563964052,1.5672260107301776,-0.012797206833180006,0.9993342689262682,-0.016994788036529276,-0.029638279748717775,0.007154867580538848,0.004690525558745632,4660.76379290968
1687931637844417333,82,1687931637844417333,camera_1,83,0,-0.11017078850633036,0.13816103895199755,1.566545386818904,-0.01287800813444662,0.9992736417052338,-0.019986340109420263,-0.029780733850590876,0.006719721584886429,0.0044034977885642115,4662.529816018943
1687931637854721307,83,1687931637854721307,camera_1,84,0,-0.11020963486106018,0.13822740737273997,1.567132256420445,-0.01266839386419755,0.999402781105044,-0.02221216151820349,-0.023242478290711813,0.005949348647845909,0.0038992498663855493,4660.822974087468
1687931637864638566,84,1687931637864638566,camera_1,85,0,-0.11019569726665107,0.1382071716064343,1.5669631870222378,-0.012701263570754915,0.9992849293215924,-0.01708236973334165,-0.0312490092441321,0.007050620683912712,0.004621666454672125,4661.262099231708
1687931637874610185,85,1687931637874610185,camera_1,86,0,-0.1101962188768045,0.1381997711725355,1.5668450175308564,-0.012705105656103131,0.999236322745094,-0.01895519992760532,-0.03171832266741257,0.008845607453622506,0.005799546472051633,4660.282678509802
1687931637884511947,86,1687931637884511947,camera_1,87,0,-0.11014989479887381,0.13813310054201766,1.5663931119783108,-0.011487497258086196,0.9974670622192474,0.05557980658075724,0.04287636056028051,0.009343950584479899,0.0061229937481765955,4662.762520206511
1687931637894653797,87,1687931637894653797,camera_1,88,0,-0.11020976521307412,0.13821451659303813,1.5670213717167834,-0.01286106099297632,0.9993664082864168,-0.01898015148625858,-0.027223683593529585,0.006322230568912346,0.004143310260142991,4661.917577605782
1687931637904686689,88,1687931637904686689,camera_1,89,0,-0.11014410995027059,0.13813897568067474,1.5661876147487022,-0.013106925439149996,0.9991636226646776,-0.018836410664443994,-0.033844545829582955,0.01538610735678958,0.010082712314082988,4662.881095905934
1687931637914377689,89,1687931637914377689,camera_1,90,0,-0.11027719279283801,0.13829064094850724,1.5679214461377318,-0.012834468351061421,0.9994006374254358,-0.01680232375323265,-0.027410294640332383,0.00804722197153751,0.0052785018941405295,4658.058299746741
1687931637924616098,90,1687931637924616098,camera_1,91,0,-0.11016078843148125,0.1381552808915647,1.566286689173999,-0.012683626099665536,0.9992143716601072,-0.02190534294149805,-0.030494606858862947,0.006061612400117156,0.003972445459784129,4662.070772421428
1687931637934759140,91,1687931637934759140,camera_1,92,0,-0.11017624468804395,0.13816389370794888,1.56642588934247,-0.012771750943249128,0.9992316974223658,-0.021599977883714788,-0.030105451328361062,0.005950579151431157,0.003899979320444349,4661.732518840232
1687931637944534063,92,1687931637944534063,camera_1,93,0,-0.11013170196618052,0.1381279793564247,1.5661102625927752,-0.011313974177428155,0.997319708147692,0.05938076011664008,0.04122279777605003,0.009327722976195219,0.0061121349593509875,4663.020902588148
1687931637954637289,93,1687931637954637289,camera_1,94,0,-0.11022086897189673,0.13823431259132143,1.5671867434143496,-0.012859896285624136,0.9993712802264841,-0.01540441513023989,-0.029229630864866317,0.011364362050699128,0.007447804785880475,4662.323440150649
1687931637964405298,94,1687931637964405298,camera_1,95,0,-0.11023241644164321,0.13823989352179855,1.5672569510325571,-0.012827976887804883,0.9993549444388978,-0.01558460171391772,-0.029702831917375914,0.009466666779189836,0.006205071388785323,4661.49180313776
1687931637974731922,95,1687931637974731922,camera_1,96,0,-0.11019552273853811,0.13819673069107608,1.5668282405863008,-0.012594521485490486,0.9992589601037717,-0.017756744713993106,-0.0317428212048405,0.008413090299654868,0.005514936311776102,4661.25794552569
1687931637984741687,96,1687931637984741687,camera_1,97,0,-0.1101903709882227,0.13819072444899969,1.5666962518307668,-0.01278294462087363,0.9992464967848557,-0.018698909694171414,-0.03151802287997548,0.0076108051116534625,0.004988592592495253,4661.470123381704
1687931637994010686,97,1687931637994010686,camera_1,98,0,-0.1102138285700358,0.13822077304916056,1.5670672930499103,-0.012873683844017766,0.99931045258909,-0.019086448996280887,-0.029130655248121144,0.005780173562015989,0.003789332942670567,4660.455523674811
1687931638001814365,98,1687931638001814365,camera_1,99,0,-0.11017549140337703,0.13817550437133494,1.5667587234191098,-0.011532572373588259,0.9975541720002216,0.055131752790198836,0.041390379723806485,0.0069093816800887,0.004528530992075133,4661.95867344938
1687931638013132572,99,1687931638013132572,camera_1,100,0,-0.11015896394327959,0.13815131698934627,1.5662002097721783,-0.01286687494207665,0.9992220080422033,-0.017064510537430258,-0.03314550728907514,0.010650317164618173,0.006976066194173215,4664.523915246187
1687931638024499416,100,1687931638024499416,camera_1,101,0,-0.110216406090735,0.1382290781315902,1.5671811593969163,-0.012977380797444179,0.9992941996663779,-0.01295047081360468,-0.032786817571664156,0.008974010439487756,0.005881925221266191,4661.743891047983
1687931638034732580,101,1687931638034732580,camera_1,102,0,-0.1102644351037764,0.13828926996184768,1.5677934407287941,-0.01270832808766054,0.9993615710986764,-0.01472982930898422,-0.02996632671732935,0.011123020580271259,0.007295315892732348,4658.725987353799
1687931638044381380,102,1687931638044381380,camera_1,103,0,-0.11021376983447659,0.13822310774630556,1.5670570290264243,-0.01282299498603351,0.9993253404294513,-0.017671607849703865,-0.02953216976714833,0.007811770393345797,0.005120347730335355,4661.310878233577
1687931638054429769,103,1687931638054429769,camera_1,104,0,-0.11014962981431595,0.13814886497395013,1.566202637328716,-0.013055065404014002,0.9992096713878382,-0.019524163959588756,-0.032068752610356174,0.007643725362868281,0.005008039599643905,4663.426796665327
1687931638064463853,104,1687931638064463853,camera_1,105,0,-0.11016150026732656,0.138147779665705,1.5662516344788426,-0.012762784579197304,0.9992264456704403,-0.01979859843786182,-0.03149026996549639,0.00577430143039237,0.003783318642800182,4663.312784532435
1687931638074886083,105,1687931638074886083,camera_1,106,0,-0.11018635390335667,0.1382008979383757,1.5667367402159642,-0.012859766774278237,0.9992832909609324,-0.018842323763006208,-0.03020757587112472,0.013388635736191645,0.008774953146381869,4661.9348039175375
1687931638084664106,106,1687931638084664106,camera_1,107,0,-0.11020626542492772,0.13821780095235697,1.5670043208026518,-0.012786578934112922,0.9993688600234533,-0.0213155659250178,-0.02537777893909352,0.00664654272441112,0.004356249971787097,4661.21419110673
1687931638094653606,107,1687931638094653606,camera_1,108,0,-0.11014146271953978,0.13814917174191288,1.5663544416314004,-0.011494058607560153,0.9975253540919207,0.05389009714257029,0.04366820342627806,0.010071497440549138,0.00659880967196617,4663.417582326976
1687931638104463100,108,1687931638104463100,camera_1,109,0,-0.11018551201953278,0.1381898268380287,1.5667147585348997,-0.012961608249483643,0.9992828503566692,-0.019544892564705093,-0.029728418546426775,0.005060750670963898,0.003316929936442665,4661.857083683077
1687931638115013837,109,1687931638115013837,camera_1,110,0,-0.11020499659486321,0.13822159084056784,1.56724733328104,-0.011583923705937707,0.9976574781178839,0.05526439937300177,0.038616256019717965,0.007011435111962783,0.00459641933408504,4660.903119768829
1687931638124419212,110,1687931638124419212,camera_1,111,0,-0.11019953961502349,0.13820153029135046,1.566837963288618,-0.012628218412677444,0.999276439042536,-0.017628895722361308,-0.031246575969229275,0.0035897899006158696,0.0023528025492254006,4661.587144023011
1687931638134202718,111,1687931638134202718,camera_1,112,0,-0.11016899455611784,0.13817123121092068,1.566425584590185,-0.01291689313507809,0.9992231266193354,-0.018128977547711284,-0.03252133567200593,0.008425671667282586,0.005521137979685329,4662.838007195009
1687931638143816232,112,1687931638143816232,camera_1,113,0,-0.11024614228367513,0.13826649046020606,1.5675849730363163,-0.01303448476729026,0.9994912167636327,-0.012494326457019209,-0.026292615419346486,0.010660293295586598,0.006984723986356276,4663.54492844487
1687931638154019832,113,1687931638154019832,camera_1,114,0,-0.11017878599148796,0.13818053165954403,1.566611826384459,-0.012991883736645431,0.9991840623840718,-0.01588124617384953,-0.0347880217115395,0.011595836208471155,0.007600271694737388,4661.810243428685
1687931638164525270,114,1687931638164525270,camera_1,115,0,-0.11012004516601263,0.13809987572746252,1.565716394269166,-0.012996319529035323,0.9991686424244615,-0.01715258808740557,-0.034625256623770945,0.006209015107742744,0.00406565841797953,4666.363043629853
1687931638174015998,115,1687931638174015998,camera_1,116,0,-0.11015855866352363,0.13815680304362749,1.566313711957568,-0.012876535602769777,0.9992260173120402,-0.018225894664474735,-0.032394103186668195,0.0067679551257242565,0.004434208911869709,4663.530713471642
1687931638183680534,116,1687931638183680534,camera_1,117,0,-0.11017561266842413,0.13819715182864178,1.5669208185947614,-0.011501363933854918,0.9975820888730977,0.05382406198612229,0.04243424252372149,0.012514478877164947,0.008203593028257423,4661.0236374051
1687931638193843364,117,1687931638193843364,camera_1,118,0,-0.11015785568389155,0.13814447141753639,1.5662826278664514,-0.012749781568964613,0.9992555804884726,-0.018032425316667777,-0.03163162293951836,0.0073826983316394035,0.0048361033480547036,4664.378939565214
1687931638204592943,118,1687931638204592943,camera_1,119,0,-0.11019088473087772,0.1381900637089783,1.5666798125436354,-0.013001604143691687,0.9993649929653303,-0.015253830423077335,-0.029459969153411494,0.006594426276933518,0.004318824934613267,4665.292364800116
1687931638214697837,119,1687931638214697837,camera_1,120,0,-0.11015005737404847,0.13813503955013676,1.5661078742846926,-0.012942330157497014,0.9992231383623472,-0.017728574119721584,-0.03273092591231537,0.010560240761151363,0.006916834442273242,4664.900407134845
1687931638224628686,120,1687931638224628686,camera_1,121,0,-0.11027573162692088,0.13828178406388092,1.5678705943857965,-0.013192761042973204,0.9995127810277574,-0.012709761853704449,-0.02527080473280237,0.0022008311871104524,0.0014423598982146054,4662.27046276498
1687931638234747648,121,1687931638234747648,camera_1,122,0,-0.1101988694872627,0.13820545819802554,1.5669346293287283,-0.013049965001327065,0.9992119988888777,-0.012873778854682038,-0.035204339334214456,0.00771125796927663,0.005054234137631831,4661.599936500279
1687931638244602918,122,1687931638244602918,camera_1,123,0,-0.11020113161120752,0.13820155009920854,1.5669170744987988,-0.012685579490357615,0.9993063130564624,-0.01720881624666767,-0.030493038580666168,0.011057727734623768,0.00724764069372992,4661.925006423785
1687931638254556417,123,1687931638254556417,camera_1,124,0,-0.11018035053065822,0.13818758401620285,1.566658565481107,-0.012822077812726275,0.9992710793345614,-0.021462246893611196,-0.028849199024980905,0.008076029102085158,0.005293637555945917,4661.219068656617
1687931638264458894,124,1687931638264458894,camera_1,125,0,-0.11018832245562218,0.13818233175337535,1.5666072311457797,-0.0127388681181565,0.9992517450067777,-0.01976545876470949,-0.030708272172144953,0.0065035505140258465,0.004262501361996003,4661.7058920149575
1687931638274832963,125,1687931638274832963,camera_1,126,0,-0.11011799076855565,0.13811190626408512,1.5659763346443436,-0.011637058125125074,0.9975879106826372,0.05441096904680497,0.04150163593680152,0.009074789945771045,0.0059413832720867955,4666.977714029199
1687931638284198284,126,1687931638284198284,camera_1,127,0,-0.11016212533521315,0.13816295011313823,1.5664028154401985,-0.012864655582137636,0.999306257562809,-0.017158971925022887,-0.030447888515330448,0.008576314614401781,0.00561735038877091,4665.028912188427
1687931638294737100,127,1687931638294737100,camera_1,128,0,-0.11010817621245164,0.1380972358956749,1.5658883888529325,-0.01174382811224503,0.9975837325741873,0.05445735463004085,0.0415111494820408,0.013850598308636108,0.00906704621494881,4667.474397470154
1687931638304082632,128,1687931638304082632,camera_1,129,0,-0.11012596966879043,0.13810474175826487,1.5660669597825552,-0.011376609975271105,0.9976019849351919,0.050376059296938176,0.04607716406797675,0.006614750909648137,0.004331526457504648,4665.321610485353
1687931638314208507,129,1687931638314208507,camera_1,130,0,-0.11017403405517866,0.1381736049917276,1.5665304881847477,-0.013011381288120044,0.9992390376462117,-0.013706006314934169,-0.03412030175339864,0.006913965939929767,0.0045291806137396536,4664.215562511119
1687931638324453830,130,1687931638324453830,camera_1,131,0,-0.11019330774810511,0.13819923784980143,1.5668399685894376,-0.012566888890057241,0.9993140981274826,-0.020570115317742974,-0.028111864810001046,0.005661577474711521,0.0037109390584377892,4661.286604979776
1687931638334547758,131,1687931638334547758,camera_1,132,0,-0.1102018894865658,0.13820665763289863,1.5668633381587735,-0.013033321865907888,0.9993204623033031,-0.021525525914482493,-0.026933211415598606,0.0036929290772604872,0.002420510382019795,4661.0337891051895
1687931638343868494,132,1687931638343868494,camera_1,133,0,-0.11021254869927702,0.13822832820230388,1.5671069136820037,-0.012824899143434243,0.9994243695512599,-0.01305050725988645,-0.028568090053188017,0.007895344288044726,0.005171673098690764,4664.7441644956125
1687931638354131698,133,1687931638354131698,camera_1,134,0,-0.11018765663408044,0.13819413974258044,1.5667611128192729,-0.01302267816755321,0.9993371179933179,-0.015119955428385535,-0.030448668312383593,0.007674647149542579,0.005027642809267084,4664.3159674555345
1687931638364601135,134,1687931638364601135,camera_1,135,0,-0.11014351558725534,0.13812816353841464,1.5660583981198521,-0.013060217933753039,0.9991983045791243,-0.02020822928852232,-0.03199697333731812,0.006891405291753472,0.0045149190101024935,4663.832099222345
1687931638374802827,135,1687931638374802827,camera_1,136,0,-0.11019383888393743,0.13819473171677538,1.5667635853027881,-0.013129071806570846,0.9992576741476562,-0.018721282750956685,-0.03100389818512015,0.005653869499838038,0.0037060149044398118,4661.384083567769
1687931638384559631,136,1687931638384559631,camera_1,137,0,-0.11019092371046663,0.1381967866926923,1.5668306296259544,-0.012409453323411142,0.999425941924598,-0.022657794102402224,-0.021918404201889646,0.00711705940648244,0.0046623589151894755,4662.894356902572
1687931638394471883,137,1687931638394471883,camera_1,138,0,-0.11024671384448229,0.13826549396521257,1.5675278947469846,-0.012796429578947508,0.9993929834128428,-0.019694960614779166,-0.025729839128741123,0.009006905901514983,0.0059058657973893635,4659.1621946585365
1687931638404431343,138,1687931638404431343,camera_1,139,0,-0.11014855555684169,0.13813653731686826,1.5661609567532295,-0.012618799643762597,0.9992832986565638,-0.019432199425482844,-0.02993400319194331,0.004239064570356277,0.0027763384680013483,4665.1227397818875
1687931638414597749,139,1687931638414597749,camera_1,140,0,-0.11043553492909106,0.1384894488064715,1.5703301709865922,-0.011840633753372364,0.9980241303403784,0.05700403119044139,0.023625729167352442,0.014987473930887063,0.009845453764644737,4661.290706069121
1687931638424528837,140,1687931638424528837,camera_1,141,0,-0.11019051226557638,0.13818041788739854,1.566691154934946,-0.012867585434885014,0.9992719185431399,-0.013805452796036876,-0.0331582196338201,0.006173793522066262,0.004044709608528601,4663.868161622871
1687931638434708595,141,1687931638434708595,camera_1,142,0,-0.11011546403734318,0.13810151369176538,1.5659334957991304,-0.01136835981299857,0.9974765122751519,0.05300680569898508,0.04584371717205251,0.011443055803283642,0.007494796510124247,4664.762040949222
1687931638444560050,142,1687931638444560050,camera_1,143,0,-0.1101347907396456,0.13811510790347709,1.5659486098690267,-0.013052964135418772,0.9992088856559828,-0.016540377268099236,-0.03372890263910036,0.005649328967592737,0.003699500829928779,4666.050653516547
1687931638454807758,143,1687931638454807758,camera_1,144,0,-0.11015253028282193,0.1381486806962134,1.566242778561364,-0.01285568504382641,0.9991448944212707,-0.013800190733769875,-0.03679355989399909,0.008526793030796398,0.0055858122862366775,4663.9567460374665
1687931638464733362,144,1687931638464733362,camera_1,145,0,-0.11021623274662999,0.13823070730620765,1.5671326494104196,-0.012692914293280618,0.9993971932159447,-0.014886820271245901,-0.028679656571282675,0.008928640848353098,0.005850410660625969,4663.325054722313
1687931638474643230,145,1687931638474643230,camera_1,146,0,-0.11018777809122965,0.13817058001729482,1.5666667652775017,-0.012940201969318282,0.9992895982041912,-0.021039276563759566,-0.028463993668724628,0.008568710676627234,0.005615903567280945,4661.769011681436
1687931638484405279,146,1687931638484405279,camera_1,147,0,-0.11021691724555761,0.13822130507275718,1.5670776206275145,-0.012934442586538966,0.99926761459057,-0.016371225699906646,-0.032076745385562745,0.011518085110765242,0.007551758483593108,4660.536657571327
1687931638493882417,147,1687931638493882417,camera_1,148,0,-0.11019089086337003,0.13820894232983177,1.5668578023855115,-0.012966065613681344,0.999323995208684,-0.017735441030645067,-0.02947690407937264,0.009817044728151814,0.006433324138615138,4662.482794690237
1687931638503786087,148,1687931638503786087,camera_1,149,0,-0.11023897041963857,0.1382524216150836,1.5674315111243924,-0.012765391125868558,0.9993947214802331,-0.017130531341041408,-0.02745506078712375,0.006006905743561219,0.0039380414641414134,4660.706490884242
1687931638514466524,149,1687931638514466524,camera_1,150,0,-0.1101674623306826,0.13816404141917246,1.5664334550107162,-0.012762904564000891,0.9992423855764996,-0.01875882168560585,-0.03162071699762961,0.006013717485075176,0.003940478682415057,4662.9344274841715
1687931638523788690,150,1687931638523788690,camera_1,151,0,-0.1102073466276739,0.13820973434474332,1.5669778875726112,-0.013063725212919661,0.9991823893274445,-0.01819335511176958,-0.033658487358131726,0.006124287385318894,0.004016563894276592,4658.766268763346
1687931638533848524,151,1687931638533848524,camera_1,152,0,-0.11016640925430198,0.1381627690168158,1.5664478873932177,-0.012694286060841418,0.999163054122368,-0.014999963345070543,-0.03587544394030808,0.009534412201901432,0.006247886628293806,4662.625090137733
1687931638543606758,152,1687931638543606758,camera_1,153,0,-0.11022140823259394,0.13823641486053062,1.567263698679028,-0.012953634365299565,0.9992703827191843,-0.017136486083759516,-0.03157920869316163,0.004989765792743128,0.0032722042573216114,4659.211871793843
1687931638553855895,153,1687931638553855895,camera_1,154,0,-0.11013971772378008,0.13812824103008928,1.566050233513173,-0.012884762701570875,0.9991593430364417,-0.014278025449121242,-0.03620397909601474,0.006826932893090998,0.0044711165880737804,4665.230631972776
1687931638564384460,154,1687931638564384460,camera_1,155,0,-0.11014982553424382,0.1381585958383178,1.5664522986272074,-0.01154876829591704,0.9974286441694354,0.058846976875995716,0.03923976368080419,0.009366452971335093,0.006137810375999189,4662.767000164487
1687931638574607849,155,1687931638574607849,camera_1,156,0,-0.110215222727234,0.13821737771855558,1.5671225164735696,-0.01310841930717323,0.9992786103966083,-0.017726770807785938,-0.03092231789208751,0.00988835424232093,0.006483752923859008,4660.061674846858
1687931638584375619,156,1687931638584375619,camera_1,157,0,-0.1101834247622261,0.1381781993947956,1.5666980609574837,-0.013099407888593527,0.999234668213695,-0.01987929776069888,-0.03103702423520682,0.010560035986600269,0.006922673221846876,4660.91107480545
1687931638594306468,157,1687931638594306468,camera_1,158,0,-0.1102059840601434,0.13821620218919706,1.5671018858123669,-0.012958921708520052,0.9993621412168658,-0.015143472684682368,-0.029631947044392485,0.01167217625061312,0.0076491259829785906,4662.801541329041
1687931638603852748,158,1687931638603852748,camera_1,159,0,-0.11019720917313772,0.13819567368569577,1.5668377188249767,-0.012930795462457597,0.9992611845749916,-0.012626371660743629,-0.03391834708793297,0.006876528004795546,0.004505502728548931,4663.228117634076
1687931638614357471,159,1687931638614357471,camera_1,160,0,-0.11019768961147675,0.13819445309018558,1.5668599915065533,-0.012683225121628523,0.9992976006504255,-0.020350949801841968,-0.028797221688553972,0.006685525136163051,0.00438233187162454,4660.945695018367
1687931638624449253,160,1687931638624449253,camera_1,161,0,-0.1102207598442039,0.13822603670058473,1.5671969514494595,-0.013003635840490703,0.9993921476251733,-0.015429304109319574,-0.0284284592402386,0.010096486268594163,0.006616227480489409,4662.739751984948
1687931638634191036,161,1687931638634191036,camera_1,162,0,-0.11018751839130542,0.13817328395012002,1.566569084178951,-0.01277813267764547,0.9992862709238487,-0.012102412122834237,-0.03342453723225251,0.004628785202839936,0.0030314038806150793,4665.487179232297
1687931638643709421,162,1687931638643709421,camera_1,163,0,-0.11022766423670544,0.13823244357355877,1.5672610565901026,-0.01316607939775749,0.9992849310691034,-0.014645357522060944,-0.032276839909759394,0.012330212711276545,0.008084110300069032,4660.504429246532
1687931638653915643,163,1687931638653915643,camera_1,164,0,-0.11020619819481466,0.13821850559605914,1.5669995664127443,-0.01283371323155409,0.9992860541535931,-0.01642424602783917,-0.031510663611696556,0.006733021776199166,0.0044132789626726955,4661.311106856332
1687931638664338827,164,1687931638664338827,camera_1,165,0,-0.11021117438285677,0.1382087942846395,1.5670060663402108,-0.012947421028611518,0.9993265335822339,-0.021593852442999453,-0.026693615414447057,0.005876251686459,0.0038523793485122516,4660.298327153607
1687931638674865245,165,1687931638674865245,camera_1,166,0,-0.11022821232748754,0.13824815931774045,1.5675162155138211,-0.011278283462920034,0.9976430495238002,0.053659332857269225,0.041253146016941356,0.010996356665600615,0.007211305773146116,4661.544788775822
1687931638683840036,166,1687931638683840036,camera_1,167,0,-0.11011905457694061,0.13810244096712337,1.5657413220538154,-0.013110004839345279,0.9990633557356778,-0.01590373846765601,-0.03804747169039448,0.0068665353255710215,0.004497694507724151,4664.5858919488965
1687931638693958997,167,1687931638693958997,camera_1,168,0,-0.1101685378492235,0.13816485855713634,1.5667024517204864,-0.011633662630280046,0.9976627870464603,0.054683779245553954,0.03928492743938453,0.008181133491234505,0.005359722889065781,4664.074656262557
1687931638703857421,168,1687931638703857421,camera_1,169,0,-0.11020366282683942,0.1381920427029803,1.5669041767746523,-0.012919897099357635,0.9992976130642598,-0.01688473784866942,-0.0308587493394766,0.007409816787003364,0.004856438586700069,4662.016136036198
1687931638714628458,169,1687931638714628458,camera_1,170,0,-0.1101426755539012,0.1381421316882415,1.5663476468527455,-0.01154347519279456,0.9974042076494077,0.057539958145237255,0.04172227175472364,0.007990041965967976,0.005236247401350683,4662.559791731008
1687931638724409103,170,1687931638724409103,camera_1,171,0,-0.11015833351355715,0.1381566393175896,1.5665921403830232,-0.011356981368113424,0.9977677852306588,0.04936135167936407,0.043519222080553005,0.006287267017796694,0.004117810269228568,4664.753008770813
1687931638734008312,171,1687931638734008312,camera_1,172,0,-0.11017791040672872,0.13816984240561409,1.5665426359942947,-0.012773490021384292,0.9993522788963886,-0.018157862004498714,-0.028322299777635212,0.008468318895211267,0.005546734801718248,4664.759072350164
1687931638743593931,172,1687931638743593931,camera_1,173,0,-0.11021602369098846,0.13822101750442692,1.5673415725302928,-0.011318168944253472,0.9976535083421355,0.05539792753127246,0.0386062944300251,0.0069554931487800795,0.004560446506344839,4660.27729692709
1687931638753820657,173,1687931638753820657,camera_1,174,0,-0.11019248806682172,0.13819891918755728,1.5668750854943476,-0.013254319593597385,0.9991933376316937,-0.019427139732434217,-0.03255124093430811,0.009917288090946386,0.006503867842470869,4659.305218575813
1687931638764379024,174,1687931638764379024,camera_1,175,0,-0.11068400476517129,0.1388112700040413,1.573849597596068,-0.011962452102258141,0.9997172956300145,0.020148273103796403,0.004034308967587322,0.033003992314661446,0.02172060041953449,4664.386818413621
1687931638774593353,175,1687931638774593353,camera_1,176,0,-0.11017070424711509,0.13816788296947063,1.566495536162512,-0.012828133495179877,0.9991994244243869,-0.018837093846905937,-0.03288028461566127,0.006894224688039685,0.004518770675819313,4661.689130360495
1687931638783914566,176,1687931638783914566,camera_1,177,0,-0.11024506764237338,0.1382574815111246,1.5675018666608471,-0.012926601660032571,0.9993938608928155,-0.016168929994082887,-0.027988917130201192,0.008011966798221692,0.005252538717694057,4660.658835692651
1687931638793854236,177,1687931638793854236,camera_1,178,0,-0.11019103898025391,0.13818545241640234,1.566714510238099,-0.012897657523159137,0.9992820015795266,-0.017798292728830763,-0.030860209421992288,0.013027106619119877,0.008537033923761159,4662.457455721162
1687931638803748607,178,1687931638803748607,camera_1,179,0,-0.11019786771394857,0.13821014672694615,1.5669225169260552,-0.012971649509691817,0.999345387458722,-0.019891120908959385,-0.027292419880981866,0.015044939647850697,0.009860373123130097,4661.770042386953
1687931638813988208,179,1687931638813988208,camera_1,180,0,-0.11019744210323833,0.1381842772223089,1.566775007740379,-0.012967205722590105,0.9992253992605812,-0.020452711775462977,-0.031018375671687345,0.0037056593882880406,0.002429591223267086,4660.015641151229
1687931638824427604,180,1687931638824427604,camera_1,181,0,-0.11021064959082758,0.13821665908151287,1.567046786449288,-0.012961934388026081,0.999340011635897,-0.01673882932368001,-0.029518485621025336,0.003684133925162314,0.002414487114528554,4662.06496110675
1687931638834600448,181,1687931638834600448,camera_1,182,0,-0.11020903682685204,0.1382024796167682,1.566892610932118,-0.013006483937544534,0.9993563202644202,-0.013403196731133792,-0.030628921635057385,0.011346630261868995,0.007432809724978985,4664.555884684785
1687931638843918085,182,1687931638843918085,camera_1,183,0,-0.11022184632871705,0.13822914675159725,1.5672330040663633,-0.0129710707948562,0.9992989743091606,-0.013212225739845597,-0.03253841357678445,0.009250618664736976,0.006063630991358124,4661.442578150191
1687931638853999137,183,1687931638853999137,camera_1,184,0,-0.11019875684105343,0.1381848084790337,1.5666967199412847,-0.013163037778458661,0.9992781934808966,-0.018516553577720144,-0.03044607878861044,0.0030655984928671387,0.002009005395917474,4662.283234722565
1687931638864192008,184,1687931638864192008,camera_1,185,0,-0.11022136957192757,0.13823673843342657,1.5671965997967685,-0.012465345268578147,0.9993134518607127,-0.01748913277437197,-0.030188910751509885,0.008605284407167346,0.00564198795262834,4660.2193674488535
1687931638874415636,185,1687931638874415636,camera_1,186,0,-0.11020903079515365,0.13820805801796127,1.566992772182429,-0.012643770155619268,0.9993003860302329,-0.019583753734916796,-0.02924636978720032,0.0075143674221180845,0.00492652054614566,4660.480945576655
1687931638884439706,186,1687931638884439706,camera_1,187,0,-0.11015738678383385,0.13812641290463584,1.566124655594335,-0.012855457572176723,0.9991406911630957,-0.01594964877185802,-0.03603089197890915,0.006604509344469989,0.004326859022798852,4663.79270274352
1687931638894551515,187,1687931638894551515,camera_1,188,0,-0.11023703200023978,0.13824443283161914,1.5673899244704086,-0.012982971249149612,0.9992637676509426,-0.013299308867674492,-0.033563276080099194,0.00965212973915186,0.006329052000016826,4659.761137705063
1687931638904349803,188,1687931638904349803,camera_1,189,0,-0.11020161871486531,0.13821254449197726,1.5669388777510829,-0.012877854235231507,0.9993132298509718,-0.01468215888289997,-0.03149069268295389,0.016371278395126865,0.010727884202547652,4662.88693983166
1687931638913982152,189,1687931638913982152,camera_1,190,0,-0.11015752084891131,0.13815343167216548,1.566279012432113,-0.012616688814731238,0.9992392718054105,-0.020149781901144005,-0.030914125161190444,0.008722308609321772,0.005714965570096657,4663.2453215318965
1687931638923766613,190,1687931638923766613,camera_1,191,0,-0.11018540525058093,0.13817699607349487,1.566684423633593,-0.013053416960833805,0.9992827507894374,-0.01970350819429921,-0.029586551762227437,0.008026949830309604,0.005260800281970711,4662.0233591701835
1687931638933786153,191,1687931638933786153,camera_1,192,0,-0.11010754358610923,0.13808030711655644,1.5655097739846904,-0.012793323493909648,0.9991912380918241,-0.02284315867556204,-0.030518694209141595,0.010122893149855372,0.006628772772414345,4665.940048699469
1687931638943664073,192,1687931638943664073,camera_1,193,0,-0.11022178929835859,0.13822079714020002,1.567135099548752,-0.0130884762641347,0.9993429412358089,-0.015338404497947733,-0.030118282466023744,0.0060375755001587095,0.003956779300623565,4662.147579883165
1687931638954256057,193,1687931638954256057,camera_1,194,0,-0.11017733467713248,0.138172621204059,1.5665133765533799,-0.012661706873198817,0.9992629393957786,-0.016534812443008542,-0.032246846460394794,0.005504434493559529,0.003606245955782974,4663.658311011794
1687931638964326620,194,1687931638964326620,camera_1,195,0,-0.11019709116836948,0.13819301962855157,1.5667846072738878,-0.012874888468861699,0.9992917893318838,-0.019830476310013532,-0.029273011975440636,0.006274231494899141,0.004112383591892779,4661.495698309094
1687931638974560022,195,1687931638974560022,camera_1,196,0,-0.11020242224858058,0.13819660393975586,1.5668390056300878,-0.012943775227430123,0.99922363095085,-0.01913032354135818,-0.031915901263544544,0.005209983007262054,0.003416019188797935,4660.057583917718
1687931638984951496,196,1687931638984951496,camera_1,197,0,-0.11020845303416948,0.1382156968533833,1.5669915661321405,-0.013227223807161835,0.9993120936231908,-0.017093864839769365,-0.030136022856875392,0.005544401658880815,0.0036339799169506325,4661.752441693363
1687931638994503498,197,1687931638994503498,camera_1,198,0,-0.11025724109977483,0.1382660046339845,1.56767497226369,-0.012736533890912723,0.9994926439964887,-0.013072369920757153,-0.0261026520876537,0.008358793778825202,0.005477731990942027,4662.769472266258
1687931639004341602,198,1687931639004341602,camera_1,199,0,-0.11020781258779197,0.13820517144311034,1.5669523158091385,-0.013048452934040304,0.9992531198837291,-0.020538089825723926,-0.030018779871483842,0.006264941454901418,0.004107987757183137,4659.503711262719
1687931639014388322,199,1687931639014388322,camera_1,200,0,-0.11021304340651224,0.138218929966141,1.567259657891265,-0.011465172892517885,0.9975156622072325,0.05857387282237402,0.037418643540343084,0.007321308834434603,0.00480107150953785,4659.3987743661
1687931639024315595,200,1687931639024315595,camera_1,201,0,-0.11017554796538018,0.13816172274564745,1.5664697707829358,-0.012741638002860614,0.9992078762399712,-0.014949713920478008,-0.03460891178159576,0.004612171303051583,0.0030218565990345033,4663.429808253538
1687931639033456087,201,1687931639033456087,camera_1,202,0,-0.11016724228125563,0.1381647874031368,1.566379133569533,-0.013074091660159394,0.9992596199820873,-0.014511616696817857,-0.03314653799963039,0.010308215034456225,0.006751338371479797,4665.234914593018
1687931639044135093,202,1687931639044135093,camera_1,203,0,-0.11018276447821103,0.1381898820399167,1.5666315339404442,-0.013108272762605684,0.999308727039147,-0.014135285191961847,-0.03178733963581817,0.010705255493121513,0.007011948402634691,4664.871081912597
1687931639054486989,203,1687931639054486989,camera_1,204,0,-0.11021342658188922,0.13821578502638965,1.5670065245514557,-0.012515978665140485,0.999305997782612,-0.017145461717547897,-0.030608923800812787,0.007706011315349315,0.00505133997416365,4661.346245917348
1687931639064067840,204,1687931639064067840,camera_1,205,0,-0.11014614660418513,0.13813231877883958,1.566322543348681,-0.01137675921821488,0.997530300620293,0.05413574893797041,0.0432803579121488,0.009930741758580552,0.006505971932838909,4663.77872936902
1687931639074031829,205,1687931639074031829,camera_1,206,0,-0.11017279996921739,0.13816800587035022,1.566502225336857,-0.012545787413516044,0.9992251438562811,-0.012557233268919148,-0.03512877732285858,0.008238045834332297,0.005396134851958912,4664.427055454317
1687931639084130048,206,1687931639084130048,camera_1,207,0,-0.11020444548525617,0.1382057497413428,1.5668986872740311,-0.013073541825047254,0.9992215762038813,-0.016033849472772845,-0.03358928138356283,0.005684296379513398,0.0037263794907392562,4660.817832146947
1687931639094054937,207,1687931639094054937,camera_1,208,0,-0.1101970073529615,0.1381959009015557,1.5667741544784088,-0.012703989307762764,0.9991543473113652,-0.019126790669427043,-0.0341081336803413,0.007776332640787587,0.005099908782929658,4658.969891464221
1687931639104301214,208,1687931639104301214,camera_1,209,0,-0.11018527881432594,0.138180168787712,1.5665944655661832,-0.012902861460094249,0.9992106872610371,-0.016980626339315658,-0.03351383234713919,0.006541387505421881,0.004287201255711434,4662.0119124482735
1687931639114257097,209,1687931639114257097,camera_1,210,0,-0.11023321237207566,0.13826030320943739,1.5674272787058399,-0.012962676997521991,0.9994285987280211,-0.014086250024957123,-0.027857182374328587,0.009418462880603329,0.006172033572365771,4662.56532333637
1687931639123798370,210,1687931639123798370,camera_1,211,0,-0.1101896215954362,0.1381972744353665,1.5667633786309096,-0.012464746327543057,0.9992945222705916,-0.019468715065199604,-0.029598259960513115,0.01018098473741702,0.006673082356396195,4661.700944647282
1687931639133779287,211,1687931639133779287,camera_1,212,0,-0.11019600985773483,0.1381825813392064,1.566668676963414,-0.013013820085242022,0.9992446157006714,-0.01993194768961896,-0.030717355701703513,0.006163775179629738,0.004040314697324505,4661.2172851701325
1687931639144037008,212,1687931639144037008,camera_1,213,0,-0.11018455761390376,0.13817041353935677,1.566574230915178,-0.012978466477917304,0.9991743241030068,-0.016359843632791103,-0.03485089636568497,0.00758418352870649,0.00497110418840927,4661.668637646129
1687931639153974771,213,1687931639153974771,camera_1,214,0,-0.11013934058226497,0.13813359366830072,1.5660244340044627,-0.013135911210311367,0.9990577196910466,-0.014370810226420373,-0.03878917859193907,0.009806847921026929,0.006425233918328058,4663.354195978842
1687931639164156436,214,1687931639164156436,camera_1,215,0,-0.110234231042603,0.13825150378425172,1.5674225124872112,-0.013083278807463563,0.9993663347787898,-0.01697616465459138,-0.028417715602671943,0.006846294939350628,0.004488629946682713,4660.313429828817
1687931639174511432,215,1687931639174511432,camera_1,216,0,-0.11016988055571368,0.13816612302266595,1.566663758640268,-0.011594542942436985,0.9975035383291628,0.056724730514312635,0.04042972350678543,0.00908459931906691,0.0059539271336913595,4662.16678321699
1687931639183981657,216,1687931639183981657,camera_1,217,0,-0.11021492778269626,0.13822950813675228,1.567092288944451,-0.012811063629687149,0.9992939939643251,-0.016285078371303472,-0.03133985478498932,0.005577400530455634,0.003656204478534248,4660.962673993491
1687931639194266796,217,1687931639194266796,camera_1,218,0,-0.11016261227417057,0.13815551362604173,1.5662907235836838,-0.01284253074448766,0.9992406819177845,-0.016225935145843116,-0.03301284648740316,0.00976257731235819,0.006394863548194343,4664.689533237481
1687931639204334735,218,1687931639204334735,camera_1,219,0,-0.11024153742141232,0.13826346387676058,1.5674521326733464,-0.012885539196704543,0.9993692770591165,-0.013296808196014788,-0.03030191151969618,0.009443252373785072,0.006190078510694169,4661.477325107846
1687931639214623212,219,1687931639214623212,camera_1,220,0,-0.11019980499906974,0.13821408676499986,1.5671784990262845,-0.01169857686671012,0.9975850462883148,0.05687229855890393,0.03811509383251689,0.008930569213589479,0.00585505770453338,4660.59049716004
1687931639224596738,220,1687931639224596738,camera_1,221,0,-0.1102711742190486,0.13828510667443125,1.567851050968154,-0.01287773230378662,0.9994043243933921,-0.01351297602034147,-0.029026881912694282,0.0032975582298604422,0.0021623143459982893,4659.769949614858
1687931639234595537,221,1687931639234595537,camera_1,222,0,-0.11021203142616808,0.13822046800223697,1.567120996599152,-0.012736253296575515,0.9993833460852354,-0.017276563967816665,-0.027789130193477524,0.00852020070396975,0.0055838180033774614,4662.272650522849
1687931639244657039,222,1687931639244657039,camera_1,223,0,-0.11016191074154486,0.13815302480637032,1.5663201569716796,-0.012978346233918756,0.999315182417015,-0.01654438789722487,-0.030446870922753128,0.0073985675062431255,0.004845062955942037,4665.961176464625
1687931639254317045,223,1687931639254317045,camera_1,224,0,-0.11019048217016388,0.13820117751528477,1.5667558568205644,-0.012703759023427042,0.9993032654361511,-0.01917784348290224,-0.0293906195012152,0.009375395658025809,0.006144420777159322,4662.071475402887
1687931639263936281,224,1687931639263936281,camera_1,225,0,-0.11017628701305421,0.13817437247824402,1.5665085527592655,-0.012750938961736546,0.9993120194114194,-0.01833852741013834,-0.029607428593053774,0.013196154690376716,0.008645325192972442,4664.053593160875
1687931639274468660,225,1687931639274468660,camera_1,226,0,-0.11016907443634047,0.1381599181793293,1.5663916656862695,-0.01257891021380146,0.9992792022310248,-0.01729579837824584,-0.031364029792403755,0.006399299772056111,0.004191942066974641,4664.422346987122
1687931639284385204,226,1687931639284385204,camera_1,227,0,-0.11019746719091224,0.13819657917424102,1.566773231033424,-0.012866632158478693,0.9992858922029136,-0.018306215948009335,-0.030447296740270437,0.008156051609148562,0.005345510211168351,4661.981826361297
1687931639294536352,227,1687931639294536352,camera_1,228,0,-0.11019703786587572,0.138203956358897,1.566861288201289,-0.01258370843853772,0.9992640399835736,-0.014580839487357042,-0.03317269656637613,0.012864680717939336,0.008431235587303283,4662.324945105473
1687931639304125070,228,1687931639304125070,camera_1,229,0,-0.1101646824367463,0.13817172066321776,1.5664012360394468,-0.01257316183945615,0.9992322560569661,-0.017821841914021308,-0.03254529163268255,0.007865340424359601,0.005153487454391759,4663.1893407629395
1687931639314165830,229,1687931639314165830,camera_1,230,0,-0.11019604317847026,0.1381975359163825,1.5667702888913917,-0.013011341327918374,0.9992919613370324,-0.018311817779054967,-0.03018208630400301,0.006969694066356169,0.004567720292995726,4662.153356824186
1687931639324400424,230,1687931639324400424,camera_1,231,0,-0.11018456010110238,0.13818410052232494,1.566681307330804,-0.013084205245245787,0.9992622713135499,-0.016069845497408617,-0.03233383317942956,0.007915190527455707,0.005186745038926994,4662.940213896074
1687931639334454298,231,1687931639334454298,camera_1,232,0,-0.11017857427324972,0.13818893615389224,1.5666667277609783,-0.013009166453204686,0.9991944567942997,-0.017335284041943143,-0.03377405849054026,0.010932668375062349,0.007166641165668368,4661.153857120138
1687931639344402074,232,1687931639344402074,camera_1,233,0,-0.11019897495658441,0.13819871787602156,1.5668867626360214,-0.012614493376901353,0.9993025819060019,-0.016175847274344304,-0.031202024258046624,0.007290014295904257,0.004777531861044447,4662.387081976747
