%time,field.header.seq,field.header.stamp,field.header.frame_id,field.image_seq,field.transforms0.fiducial_id,field.transforms0.transform.translation.x,field.transforms0.transform.translation.y,field.transforms0.transform.translation.z,field.transforms0.transform.rotation.x,field.transforms0.transform.rotation.y,field.transforms0.transform.rotation.z,field.transforms0.transform.rotation.w,field.transforms0.image_error,field.transforms0.object_error,field.transforms0.fiducial_area
1685667512084761142,0,1685667512084761142,camera_2,1,0,-0.7108680469368012,0.6216386462849559,2.5300334355383303,-0.9840901091395908,-0.0036046506814451915,-0.13236726793766185,0.11845914893249998,0.01124267146224156,0.006109123212657204,21087.605096692212
1685667512104727029,1,1685667512104727029,camera_2,3,0,-0.7111716366765296,0.6208164481217952,2.5311142833970854,-0.9841026080244274,-0.004277728864693563,0.13347538567785183,-0.11708150722222987,0.01486727298470214,0.008083627473557349,21077.949626948917
1685667512124567270,2,1685667512124567270,camera_2,5,0,-0.7114222156085658,0.6196102708129224,2.5317197985113014,-0.9840159433939459,-0.003550971490352892,-0.13235985607947748,0.11908350954946473,0.013665241247508675,0.007431721156726651,21074.637471537564
1685667512144752740,3,1685667512144752740,camera_2,7,0,-0.7112788874957549,0.6188410116749024,2.531134147207387,-0.9839255479145127,-0.00344154919953699,-0.13317756659178898,0.11892185525345161,0.007715645086136647,0.004194711198664623,21081.687718552774
1685667512164549827,4,1685667512164549827,camera_2,9,0,-0.7113361138247561,0.6185277881894135,2.531277587439077,-0.9839296591375034,-0.0034538185713596198,-0.13305126841994322,0.11902880734795583,0.0026133854989893734,0.001420778862669856,21082.658742805717
1685667512174574613,5,1685667512174574613,camera_2,10,0,-0.711530463312731,0.6187652699507971,2.531993474917752,-0.9839935807486663,-0.0032391008234658363,-0.13271545648464217,0.1188812385591034,0.007512683470849879,0.004085659377977966,21075.837818455882
1685667512184563398,6,1685667512184563398,camera_2,11,0,-0.7114655473950813,0.6188577979137498,2.531771555314623,-0.9839937869187111,-0.0035778272694070145,-0.1326253585800018,0.11897033545775428,0.0023472024622606114,0.0012763229272234492,21078.389963578906
1685667512194606542,7,1685667512194606542,camera_2,12,0,-0.7112948199622104,0.6192501196987122,2.531242406829467,-0.9839468488120144,-0.0033957301781973597,-0.13221186481679406,0.11982107715727401,0.012353788144537248,0.006717573719529867,21078.666136281903
1685667512204572677,8,1685667512204572677,camera_2,13,0,-0.7112849050190473,0.6196244166505092,2.5312517556984586,-0.9839799012172347,-0.0035117066230433893,-0.13292672153638274,0.11875061523505481,0.010582144212094136,0.005753805833677178,21077.99065744097
1685667512214590549,9,1685667512214590549,camera_2,14,0,-0.711099116880271,0.6199035679423641,2.530762441464783,-0.9841658123329808,-0.00402214611569995,0.13383335968976126,-0.11614692423710138,0.010979302722262219,0.0059653371120731895,21093.890844751382
1685667512224725484,10,1685667512224725484,camera_2,15,0,-0.7112435170493349,0.6205344360303731,2.5312365453130137,-0.98410854440333,-0.003543859611566078,-0.132266437681523,0.11842045158861977,0.017193846826558,0.009346619587308196,21081.68722498091
1685667512234577417,11,1685667512234577417,camera_2,16,0,-0.7109319974385676,0.6213161949782099,2.530321833016419,-0.9841774490974575,-0.004088700311667577,0.13354624732538745,-0.11637624776168566,0.00928639096673578,0.005044877153428427,21093.997199442463
1685667512244564771,12,1685667512244564771,camera_2,17,0,-0.710926442198234,0.6218507581787772,2.530224363743119,-0.9841673797673075,-0.003749883501769621,-0.13280060723988585,0.11732223017140862,0.01168728998163715,0.006349633923568691,21089.639753040618
1685667512254539012,13,1685667512254539012,camera_2,18,0,-0.7105129471026359,0.6220020802194632,2.528897210400633,-0.9841024902034615,-0.004064999805203246,0.13377763909678247,-0.1167446265556608,0.01954265881795436,0.010609983864723824,21105.32561608986
1685667512264549493,14,1685667512264549493,camera_2,19,0,-0.7108467707164228,0.6227902441223332,2.5300353944324523,-0.9842691790886251,-0.0036340753825599035,-0.132508821996779,0.11680063649374452,0.015013615600764751,0.008154846322596852,21092.8267133485
1685667512274598121,15,1685667512274598121,camera_2,20,0,-0.7102055497328923,0.6230252580246536,2.5277616315000846,-0.9841676679558063,-0.0035984070502707447,-0.132494777119045,0.11766982133625019,0.009818574646487832,0.005327464758218699,21114.435528268106
1685667512284557819,16,1685667512284557819,camera_2,21,0,-0.7101633693489818,0.6233009906355794,2.5276451926704264,-0.9842722028863428,-0.0036602982766376067,-0.13281819382765972,0.11642233561542327,0.011340906494297087,0.006150473026240886,21122.768117240626
1685667512294540405,17,1685667512294540405,camera_2,22,0,-0.7098689444961214,0.6232466955288725,2.5265918706387236,-0.9841102242498677,-0.0036126778388276717,-0.1330248017022042,0.1175517639927087,0.011084575555287302,0.0060112069704892235,21124.096356968854
1685667512304590940,18,1685667512304590940,camera_2,23,0,-0.7099966629328259,0.6234799110431014,2.527052699295948,-0.9841859227535641,-0.0037034354114924505,-0.13307174043222103,0.11686002703323428,0.006772600871045142,0.003673016761454581,21121.97990632523
1685667512314649343,19,1685667512314649343,camera_2,24,0,-0.7100743109381895,0.6235205164485166,2.5273292125365483,-0.9842645833993561,-0.003696738970600362,-0.1322842557238286,0.11709158669293013,0.013575003074947745,0.007361577885399625,21124.662266404368
1685667512324583768,20,1685667512324583768,camera_2,25,0,-0.7100818056331417,0.6233804927035141,2.5273625789957177,-0.984266747818943,-0.003718315945456587,-0.1331834772505773,0.11604871671800689,0.011969276936724782,0.006490067277107925,21125.564585928114
1685667512334579467,21,1685667512334579467,camera_2,26,0,-0.7102562786575574,0.6232924522891282,2.527981904668711,-0.9842627050642321,-0.0036054649940925163,-0.13245003380512618,0.11692269491778669,0.011773256643209606,0.006386925863106632,21117.226104503487
1685667512344555377,22,1685667512344555377,camera_2,27,0,-0.7101680889681992,0.6229050150765632,2.5276510995245642,-0.9841656856071345,-0.0037345785626045134,-0.13262399206370196,0.11753651741261438,0.01341665891231969,0.007278825375760073,21117.045131925486
1685667512354558944,23,1685667512354558944,camera_2,28,0,-0.7104063638812171,0.6222983932240588,2.5284701967857455,-0.9841266478770992,-0.003437226863282476,-0.1321027131297749,0.11845589725052358,0.01839157415088266,0.009983620734588642,21107.373934304807
1685667512364537715,24,1685667512364537715,camera_2,29,0,-0.7105083630711664,0.6219067165996502,2.528790967104052,-0.9840238747319231,-0.0034976674989700553,-0.13353438468127232,0.11770024803471496,0.014650641067419201,0.007956429794947255,21097.03664037352
1685667512374509572,25,1685667512374509572,camera_2,30,0,-0.7107603343778207,0.6216097921078734,2.529651835362466,-0.9841219421971775,-0.0036702631797102957,-0.13292351080640064,0.11756645920137114,0.01644715399015695,0.008933034037702054,21096.097782013472
1685667512384491682,26,1685667512384491682,camera_2,31,0,-0.710920503149649,0.6212231170649116,2.530312157592203,-0.9841202823193897,-0.004196116319597987,0.13363948234033837,-0.11674823893850969,0.008215168549213557,0.004463918331883802,21089.616757207084
1685667512394522666,27,1685667512394522666,camera_2,32,0,-0.7112746728038253,0.6204859594526658,2.531451511123019,-0.9841239114735568,-0.004275065229112043,0.13384515103534514,-0.11647886601267811,0.01163128629559651,0.006324595800893817,21076.55568197392
1685667512404534578,28,1685667512404534578,camera_2,33,0,-0.7114584433206621,0.6201584568552134,2.5320453773355687,-0.9842634418756715,-0.003922045910902439,0.13316523614918094,-0.11609097477522719,0.011965981582761742,0.006505466669964623,21081.409598951814
1685667512414523601,29,1685667512414523601,camera_2,34,0,-0.7113465617855336,0.6196237508279436,2.531458909584047,-0.9840134261947399,-0.003649567310209412,-0.13226461734267161,0.11920708337231603,0.010885838797548786,0.005919168809960514,21078.115856619435
1685667512424518346,30,1685667512424518346,camera_2,35,0,-0.7115099685536864,0.6193814636190018,2.531982513517117,-0.9840376649646798,-0.0036223608727443605,-0.1325065791343271,0.11873819486031638,0.008015500206965953,0.00435915502335898,21074.67654965818
1685667512434518575,31,1685667512434518575,camera_2,36,0,-0.7116349682952297,0.6189609913505034,2.532378763151957,-0.9840987084628853,-0.0034744290244574727,-0.13121219159677125,0.1196704688760237,0.008738246760913171,0.004751989117049291,21078.182631910895
1685667512444544553,32,1685667512444544553,camera_2,37,0,-0.7115525886442375,0.6187456498220724,2.5320492687246015,-0.9840590081854154,-0.003187009290858671,-0.13196878963428427,0.119171934377934,0.010889556622714736,0.0059209171098073,21081.053384336068
1685667512454530954,33,1685667512454530954,camera_2,38,0,-0.711571235049266,0.6187197333981169,2.532113586940622,-0.9840181674536365,-0.0033998448359811367,-0.13242976918967952,0.11899177874393838,0.007536358854849823,0.004098417445010778,21076.695063103456
1685667512464670658,34,1685667512464670658,camera_2,39,0,-0.7115264441845109,0.6187310620166593,2.53195745869116,-0.98395672115091,-0.0033524055033123086,-0.13231178983261438,0.11963077593404449,0.001717193765216507,0.0009340091638935696,21073.522999339148
1685667512474694728,35,1685667512474694728,camera_2,40,0,-0.7113099600851309,0.618922825868717,2.5312361641962267,-0.9839125006760902,-0.0035743696507913696,-0.1325821436998546,0.11968872155250761,0.008186479622963816,0.004451559817146942,21078.51273788605
1685667512483665704,36,1685667512483665704,camera_2,41,0,-0.7114473628020122,0.6193490714575755,2.531869538699363,-0.984075874567202,-0.0041009986297890575,0.1339682523698666,-0.11674914244652401,0.01347647496731952,0.0073304775732086006,21071.811006845906
1685667512494539499,37,1685667512494539499,camera_2,42,0,-0.7115235351715973,0.619796665701825,2.5320799383545953,-0.9841154783764813,-0.003659983346593996,-0.1312049619050795,0.11953488073871406,0.010742842641775496,0.005842071827182555,21076.746003985165
1685667512503408193,38,1685667512503408193,camera_2,43,0,-0.711527795270285,0.6202436935745952,2.532277333027286,-0.984185520107831,-0.004052157601990368,0.13351553127925125,-0.11634450969455416,0.01186816611152608,0.006455574192964745,21070.53931297479
1685667512514532089,39,1685667512514532089,camera_2,44,0,-0.711160087226435,0.6209135278811423,2.5310588126655755,-0.984087842281586,-0.0037746765875245115,0.13475418041051923,-0.11575051339895345,0.011272978270426393,0.006128976564305333,21077.023362044463
1685667512524923563,40,1685667512524923563,camera_2,45,0,-0.7108476267806184,0.6211715625353925,2.5299894758106185,-0.9840673963375415,-0.0038778495955441605,0.1341217442995156,-0.11665195863774401,0.011978843016549945,0.006508766703962391,21090.06567878415
1685667512533298254,41,1685667512533298254,camera_2,46,0,-0.7107276634870251,0.6215986517445575,2.5296169503782475,-0.9839371303147142,-0.003906694584063043,0.13476480094256654,-0.11700816105034054,0.011771197488997132,0.00639799923145302,21081.898657567574
1685667512544718265,42,1685667512544718265,camera_2,47,0,-0.7106948457372703,0.6220796169077927,2.529429671451203,-0.9841499719902886,-0.0034293258100629104,-0.13298831043720888,0.11726543243027437,0.013555421843193471,0.00736159213947421,21097.37962432207
1685667512554753303,43,1685667512554753303,camera_2,48,0,-0.7103916702360895,0.6227411074890533,2.5284077207908022,-0.9841764114619258,-0.003571693209934579,-0.13264861572848916,0.11742392803366726,0.012666234513744712,0.006874663979329365,21108.492174841223
1685667512564630508,44,1685667512564630508,camera_2,49,0,-0.7101244927590922,0.6228829637550435,2.5274669734370168,-0.9841027655231017,-0.003576672154769095,-0.13419518764107904,0.11627814033624662,0.007009234977886081,0.0038027354112423668,21113.988494937068
1685667512574703454,45,1685667512574703454,camera_2,50,0,-0.7100915228419599,0.6231819629833298,2.5273805841596375,-0.9841824350460231,-0.0037628932988633666,-0.13278984852677148,0.1172076418546988,0.011380973795894533,0.006173288396946546,21119.78999617788
1685667512584753751,46,1685667512584753751,camera_2,51,0,-0.7100671527903875,0.6233891229278551,2.5273080980499616,-0.9842066425831297,-0.0037643871336092796,-0.1331806559657289,0.11655911359173148,0.00592342164600268,0.0032126094016988074,21120.997297436228
1685667512595061063,47,1685667512595061063,camera_2,52,0,-0.709917873401386,0.6234492665406065,2.526760580428521,-0.9840994633806228,-0.0038422745884975776,-0.13349518486461232,0.11710046420881398,0.007329409942030906,0.003975535541422833,21118.801810321398
1685667512604736566,48,1685667512604736566,camera_2,53,0,-0.7098940275783067,0.6233950647818299,2.5266862049196956,-0.9840875112015485,-0.0038646947821825567,-0.13340568431495262,0.11730199411707337,0.00863020244287327,0.004681045119952042,21119.371324328473
1685667512614666223,49,1685667512614666223,camera_2,54,0,-0.7099799682136498,0.6233381932204817,2.526986972901348,-0.984115674471298,-0.0037385931624890796,-0.1332879901476837,0.11720355738397524,0.011509544507134706,0.006243279785814414,21118.015071542934
1685667512624685287,50,1685667512624685287,camera_2,55,0,-0.7102779646078486,0.6233768102708515,2.5280396252015533,-0.9842283865190861,-0.0037461336730028275,-0.13246220985321575,0.11719305701850816,0.014477415999863297,0.00785566831273066,21112.593717018608
1685667512634826421,51,1685667512634826421,camera_2,56,0,-0.7103286725076722,0.6227460886067072,2.528190062180144,-0.9840256766683431,-0.003672775399839334,-0.13401582571964665,0.11713128034369395,0.01073468109825626,0.005828714218061236,21098.123186953133
1685667512654566764,52,1685667512654566764,camera_2,58,0,-0.7107833033508291,0.6222207335617242,2.5297562617968907,-0.9842218714221268,-0.0035329067193912655,-0.13194417972498,0.11783700531302012,0.0168070828076452,0.009127751005383834,21097.91395165957
1685667512664649724,53,1685667512664649724,camera_2,59,0,-0.7106459187430596,0.6215818723998581,2.5293385051654105,-0.9839863236648877,-0.004021288542396914,0.13563291998037647,-0.11557878307247615,0.014973393990658224,0.008134261203001902,21090.85284942575
1685667512674780845,54,1685667512674780845,camera_2,60,0,-0.7110575675688597,0.6208739944945764,2.530588628270291,-0.984012485159253,-0.003626848091709786,-0.13300090533162065,0.11839355643192706,0.010902399255428461,0.005926801650492485,21079.461888190242
1685667512684674501,55,1685667512684674501,camera_2,61,0,-0.7111221822171441,0.6204280286827767,2.530800511261331,-0.9839976854582574,-0.0035139572198857067,-0.13302739252661167,0.1184901681787136,0.015169342106673867,0.008246917049769008,21079.06677066721
1685667512694598197,56,1685667512694598197,camera_2,62,0,-0.7110683582056951,0.6198939814363071,2.5305431294511442,-0.9839912740654788,-0.0032858509437380832,-0.13201466413186316,0.11967666523062395,0.009830249502556399,0.005342862266320545,21087.0280454054
1685667512704647064,57,1685667512704647064,camera_2,63,0,-0.7114607457414143,0.6197885928599999,2.5318772069712527,-0.9840279162961031,-0.0035418165051141976,-0.13251354897228348,0.11881361380146635,0.011051471010432579,0.006010876989096106,21071.796268950908
1685667512714610576,58,1685667512714610576,camera_2,64,0,-0.7114143404263764,0.6190491319774586,2.531613590964227,-0.9839707250563589,-0.003650316308033683,-0.1327615711921292,0.11900694365251141,0.009387690355652012,0.0051049308842102195,21077.017603032997
1685667512724526882,59,1685667512724526882,camera_2,65,0,-0.7113166482751753,0.6187266091334969,2.5312249476296205,-0.9839178023250162,-0.0036488238832786566,-0.1323641958450484,0.11988396060554928,0.0036936678952770308,0.0020083227457638676,21080.86706273886
1685667512734625101,60,1685667512734625101,camera_2,66,0,-0.7115956490879866,0.6188244090978476,2.5322139239208226,-0.9839842325066389,-0.0034055682900170827,-0.13213627077878104,0.11959698251887287,0.007265948021085933,0.003952471583278934,21071.478025936525
1685667512754950284,61,1685667512754950284,camera_2,68,0,-0.7116556189765239,0.618953600139767,2.5324392861630223,-0.9841383817268222,-0.003411513507491756,-0.13148631665658936,0.11904350347575833,0.0033284827368333936,0.0018098016402246866,21080.707123329164
1685667512764629364,62,1685667512764629364,camera_2,69,0,-0.7113457532180725,0.6189002177703884,2.531382530091086,-0.984005638272751,-0.003622032715189343,-0.1320129999621982,0.11955062763292702,0.009169744516839273,0.004984810137143825,21084.923306711953
1685667512774627685,63,1685667512774627685,camera_2,70,0,-0.7114796787391143,0.6193109597979496,2.531881155367386,-0.983982155861516,-0.0035169595338595144,-0.13212498346220797,0.11962331163645147,0.0061804418510291725,0.0033617599300419594,21071.952088813185
1685667512784605979,64,1685667512784605979,camera_2,71,0,-0.7114801038937906,0.6196780278524228,2.5319428032900344,-0.9840953230238602,-0.003591436230160705,-0.13198866828699787,0.11883807568365518,0.00949650899565313,0.005163798997473569,21077.85945339023
1685667512794631481,65,1685667512794631481,camera_2,72,0,-0.7111544112239544,0.620313543750885,2.530906111343746,-0.9840342350837034,-0.00343853887494486,-0.13227006938572178,0.11903541228698644,0.013537060425733216,0.007358947556672771,21081.870388924843
1685667512804606914,66,1685667512804606914,camera_2,73,0,-0.711073865330725,0.6207540857576911,2.5306624545599785,-0.9840728958683795,-0.0036093020243517493,-0.13202592963206916,0.11898177365002838,0.012471388341509737,0.006778428492653813,21084.993698273902
1685667512814622879,67,1685667512814622879,camera_2,74,0,-0.7109186456812908,0.6211438285696804,2.530248494316372,-0.9841124187033257,-0.0040327470413127784,0.13429609070963008,-0.11606482811472911,0.01002239459194243,0.00544552385741412,21090.375784696298
1685667512834618330,68,1685667512834618330,camera_2,76,0,-0.7108359832205464,0.622628680847553,2.529989381020621,-0.9842473191756513,-0.0038170574096130193,-0.13246541491667546,0.1170280249309043,0.012424509099218994,0.006748590237112538,21093.121956975443
1685667512844456434,69,1685667512844456434,camera_2,77,0,-0.7105956046625272,0.6228805010784261,2.529144355608732,-0.9841921481590715,-0.0035411421729305555,-0.13253136231268664,0.1174253542370077,0.009147738805040717,0.004967455956357945,21097.959294945464
1685667512854629516,70,1685667512854629516,camera_2,78,0,-0.7102194277643665,0.6229368763405482,2.5278453795546096,-0.984136750174801,-0.003907029986120713,-0.13332747032832393,0.1169759707286888,0.010513909975998104,0.005705237500697858,21111.355581986016
1685667512864605188,71,1685667512864605188,camera_2,79,0,-0.7100090606494638,0.623062820216758,2.5270925567919535,-0.9841386070558559,-0.00380130971702724,-0.13334937621724927,0.11693885585666405,0.016455893928650767,0.008925225710775005,21121.148751670265
1685667512884623289,72,1685667512884623289,camera_2,81,0,-0.7101153846229387,0.6236202383923959,2.527495604986818,-0.9841533868192126,-0.003642277949933777,-0.13275990899097842,0.11748894240870561,0.0083403077442199,0.004525626816121214,21111.438335643146
1685667512894503116,73,1685667512894503116,camera_2,82,0,-0.7099179429923225,0.6234091360513102,2.5267787193317175,-0.9841800508301556,-0.0035447173564954765,-0.13296119725458594,0.1170400895054437,0.009540297382045537,0.005173118059751792,21126.049666190047
1685667512904433250,74,1685667512904433250,camera_2,83,0,-0.7101772797375837,0.6235191668232506,2.5277026598771606,-0.9843346962433319,-0.003674742790148047,-0.13180383224656156,0.11704465746925057,0.005589567241258919,0.003031107586491023,21125.560001799837
1685667512914475679,75,1685667512914475679,camera_2,84,0,-0.7103572421388538,0.6231802130554592,2.5283175066798718,-0.9842410632691875,-0.003690982938328009,-0.13316097265018317,0.11629299799448571,0.012030113313812762,0.00652779716396497,21111.413725948893
1685667512924455881,76,1685667512924455881,camera_2,85,0,-0.7103811950654813,0.622849390741506,2.528401233747922,-0.9841592883036125,-0.0036395651246121973,-0.13298654871493243,0.11718287704405204,0.010938991152215749,0.00593765766567169,21106.08182627568
1685667512934463739,77,1685667512934463739,camera_2,86,0,-0.71053098968203,0.6225590460444264,2.5289146731243184,-0.9842364229698997,-0.0036099264782596062,-0.13208220117439984,0.1175581739529993,0.014268739672843367,0.007744908431201893,21108.285645726606
1685667512944424629,78,1685667512944424629,camera_2,87,0,-0.7106039991706068,0.6221429566281451,2.5291351748586486,-0.984078444801862,-0.003648106587847544,-0.13322535743532277,0.11758958257814685,0.010167728934902698,0.005522416382743753,21094.81298860325
1685667512954404354,79,1685667512954404354,camera_2,88,0,-0.7108519391880602,0.6213300664730681,2.5300559958117996,-0.9839984553207336,-0.003995848735631461,0.13476552174662587,-0.11648745540894966,0.012641253473702818,0.006870949459364894,21082.209756769236
1685667512974554777,80,1685667512974554777,camera_2,90,0,-0.7111485326380461,0.6205223911517767,2.530893524006846,-0.9840532182120167,-0.0034612948557217397,-0.131878063847662,0.11931244461616973,0.010066595452371985,0.005472394145319202,21081.95661263703
1685667512994532346,81,1685667512994532346,camera_2,92,0,-0.7110249979282073,0.6190839185714315,2.5304221429224545,-0.984032193004984,-0.004091631936237016,0.13432295806470163,-0.11671008788724563,0.021216045279288664,0.011529288861275105,21091.624546503073
1685667513004509449,82,1685667513004509449,camera_2,93,0,-0.7112492452476807,0.618948396217406,2.5310435721575195,-0.9839555866367877,-0.0034506643940984466,-0.13269451973328794,0.11921267077893323,0.006440372031647712,0.0035009418145827875,21084.812849104175
1685667513014570236,83,1685667513014570236,camera_2,94,0,-0.7112446622718132,0.6186998067348296,2.531014791776447,-0.9839577703538539,-0.0033988099097764877,-0.13245623054109934,0.11946087745497629,0.005178065097425132,0.0028144817240356146,21087.645481948166
1685667513024667978,84,1685667513024667978,camera_2,95,0,-0.7113969293856972,0.6186526779723022,2.5315030521548847,-0.9840053967492658,-0.0033689901511834413,-0.13237578988801213,0.11915821132094191,0.007590172535856254,0.004126089144888846,21085.079576651795
1685667513034617185,85,1685667513034617185,camera_2,96,0,-0.7114776965623328,0.6186910280130182,2.5318181426196276,-0.9840659494128606,-0.0034995818788721533,-0.13183776659616753,0.11925084247825088,0.009748164520715363,0.005299172786460819,21085.692670383723
1685667513044501066,86,1685667513044501066,camera_2,97,0,-0.7112570358826178,0.6186028423639307,2.5310459123628033,-0.9839709126683266,-0.00351367263944251,-0.1326357409576,0.11914972659587567,0.01118256343761459,0.006077655862044023,21089.18006361335
1685667513054469585,87,1685667513054469585,camera_2,98,0,-0.7114461792884613,0.618964117687974,2.5317429417102133,-0.9840258107843789,-0.0036820534203486255,-0.13250529889809232,0.11883598763288274,0.0045905495644547045,0.0024958674583801885,21080.805327987648
1685667513064504146,88,1685667513064504146,camera_2,99,0,-0.711366779516616,0.6191688667902289,2.53150306358783,-0.9839781706091153,-0.0033520362814222033,-0.13225794328254004,0.11951384880497841,0.0075137581006856635,0.004085769018899833,21078.317912227463
1685667513074484825,89,1685667513074484825,camera_2,100,0,-0.7111397994492183,0.6197505274493847,2.5307930745757434,-0.9839618011041376,-0.0034628401649237635,-0.13291940372708325,0.11891011234849032,0.013939582771854475,0.00757782867928444,21082.005660635066
1685667513094641685,90,1685667513094641685,camera_2,102,0,-0.710780923575705,0.620402336001231,2.529748590541789,0.9839763035373665,0.0038815228589157897,-0.13494087886272452,0.11647543547457348,0.0064613301801728085,0.0035108960016927435,21090.011951753637
1685667513114486455,91,1685667513114486455,camera_2,104,0,-0.7108465215842888,0.6220490940151941,2.5299622858273487,-0.9842074032146373,-0.0034783476310613877,-0.13181051127356225,0.11810875358355089,0.003597958304453641,0.0019543205696979965,21095.210190659855
1685667513124587535,92,1685667513124587535,camera_2,105,0,-0.7106165134797222,0.622365772870569,2.529223764573144,-0.9840664074144784,-0.0034895124878049125,-0.13279759022810025,0.11817753225790877,0.018585515208542347,0.010096710781957495,21090.52178649045
1685667513134487867,93,1685667513134487867,camera_2,106,0,-0.7103709046867397,0.6226053379029953,2.528362890429801,-0.984189254593102,-0.003513505116118335,-0.13265745009985244,0.1173080021067554,0.009601144178304821,0.005210336037122554,21111.555156518476
1685667513154474496,94,1685667513154474496,camera_2,108,0,-0.7100317197224727,0.6232921275506563,2.5271874336166036,-0.9842207610591512,-0.0038226315277856524,-0.1322952900735692,0.11744291044034147,0.014975232363212854,0.008120979524711237,21125.034146207385
1685667513164477586,95,1685667513164477586,camera_2,109,0,-0.7100237627809433,0.623450205194096,2.527166415267712,-0.9842161012386961,-0.0038609987312143695,-0.133244170968123,0.11640339193647233,0.015761162736453116,0.008547105561563212,21123.370422917178
1685667513174510002,96,1685667513174510002,camera_2,110,0,-0.7098761337851116,0.6234000039966984,2.526638823424798,-0.9841284662826909,-0.003848147814407664,-0.13344603415082718,0.11691240130924241,0.009879191929940134,0.005357316534214178,21123.642104459457
1685667513184467554,97,1685667513184467554,camera_2,111,0,-0.7097813619030829,0.623309543154951,2.526305983153804,-0.9841070649767789,-0.003762566447348877,-0.1339311843561926,0.11653997431554002,0.006023036141414195,0.0032654994035186957,21127.291763870053
1685667513194483757,98,1685667513194483757,camera_2,112,0,-0.7100368854321564,0.6232370995091107,2.527216479939251,-0.9841412690363373,-0.0036935434803094564,-0.13308938483328758,0.11721576669033933,0.01392324233893305,0.007552793319916767,21118.011555098703
1685667513214545249,99,1685667513214545249,camera_2,114,0,-0.7102626201780614,0.6228095363786108,2.528097577646143,-0.9841196016182284,-0.003954242919898878,0.13441693319063922,-0.11586656871303769,0.01856605598004535,0.010073787566803688,21114.59734994941
1685667513224524974,100,1685667513224524974,camera_2,115,0,-0.7104480401284121,0.6225623430051358,2.5286178552667864,-0.9841489368461754,-0.0033461776910781327,-0.13310704994167963,0.11714173660666749,0.013686962716747075,0.007429977011066452,21104.570269185122
1685667513234578609,101,1685667513234578609,camera_2,116,0,-0.7106498104554357,0.6217820752537649,2.529282837914377,-0.9841213513508567,-0.0035756888827774952,-0.13313007583500872,0.11734037315665131,0.011089122912380844,0.006021598877242628,21099.734661653856
1685667513244527578,102,1685667513244527578,camera_2,117,0,-0.7108235153773093,0.6214062845563243,2.529990591239347,-0.9840927851416444,-0.0039441280664989494,0.13477799433924345,-0.11567508948709457,0.01241120306076482,0.0067427479783978336,21091.215527564054
1685667513254525423,103,1685667513254525423,camera_2,118,0,-0.7111959858868365,0.6211855592045247,2.531241548057641,0.9841388530706844,0.004092255696109072,-0.13337386272730736,0.11689903361975722,0.008166767715010792,0.004440435087892788,21077.154540372547
1685667513274561643,104,1685667513274561643,camera_2,120,0,-0.7112968507361503,0.6197878780997716,2.531297748820569,-0.9841024247074696,-0.0034370918085189755,-0.1316383953255658,0.11917187990834545,0.005320418000337668,0.00289179248224794,21086.847219720712
1685667513294559240,105,1685667513294559240,camera_2,122,0,-0.7114486596331296,0.6191741704319447,2.531897891761049,-0.9841338297520226,-0.004037956499525726,0.13447763070178423,-0.11567223904532968,0.009182187961414456,0.004993016490124456,21077.610891950666
1685667513314534425,106,1685667513314534425,camera_2,124,0,-0.7115319274205343,0.6187177528677801,2.531990782170233,-0.9840584096470386,-0.003247202000548674,-0.13213845670976376,0.11898710157185333,0.006533856925670989,0.0035523885306616024,21082.08923474652
1685667513334517478,107,1685667513334517478,camera_2,126,0,-0.7116564061866776,0.6189369883226241,2.5324680859095325,-0.9841503944935602,-0.00335985688966953,-0.13165219119024288,0.11876200122370162,0.009250566188711673,0.005029583930819733,21081.48450401367
1685667513344468832,108,1685667513344468832,camera_2,127,0,-0.7114040756722451,0.618902815204551,2.5315785715564845,-0.9839219021067731,-0.003701106048024308,-0.13260992940071367,0.11957674938276544,0.004085165346623398,0.0022217965730510626,21074.59267867193
1685667513364296674,109,1685667513364296674,camera_2,129,0,-0.71130382559385,0.6198267476757737,2.531353440697331,-0.9840927007808972,-0.0032235631863227645,-0.13208219350951314,0.11876640546829322,0.010750197994639166,0.005843455120817028,21084.746911111626
1685667513384469032,110,1685667513384469032,camera_2,131,0,-0.7111245498798944,0.6206256961856753,2.5308208475969156,-0.984026279472102,-0.003576660435882596,-0.1329536768330581,0.11833346367359453,0.015161844668909907,0.008242500230285983,21079.551250149958
1685667513404518365,111,1685667513404518365,camera_2,133,0,-0.7105676542152658,0.6217222462726085,2.52898386717661,-0.9840802256677503,-0.003561348705849444,-0.13275314988822393,0.11811023427230882,0.012348570686299354,0.006705387111752682,21101.026498387797
1685667513424520254,112,1685667513424520254,camera_2,135,0,-0.7103131966506819,0.622462697626619,2.528130234188545,-0.9840932626727613,-0.0034442491784052055,-0.13273318214428387,0.11802749623511088,0.013333638955373317,0.00723743091236338,21107.681611456905
1685667513444492816,113,1685667513444492816,camera_2,137,0,-0.7097398986003737,0.6229949628563665,2.526148092978524,-0.9840856945497172,-0.0038109763081695517,-0.1340366907370979,0.1165975461938503,0.01716365577885881,0.009304372931021994,21130.6538266344
1685667513464476346,114,1685667513464476346,camera_2,139,0,-0.7097877305594174,0.623324598612456,2.5263281708125094,-0.9840954607245782,-0.0036639123431794793,-0.13367138431655487,0.11693870592116952,0.008476178452838212,0.004595982170148903,21125.82078296413
1685667513484509229,115,1685667513484509229,camera_2,141,0,-0.7100134151462207,0.6232587657792954,2.5271218419160872,-0.9841921600053383,-0.003604774320968767,-0.13347342244878446,0.11635137853042314,0.010609711869619787,0.005753506230199748,21123.55424489965
1685667513514529705,116,1685667513514529705,camera_2,143,0,-0.7106591837579902,0.6223528641842417,2.5293795014029308,-0.9841808359995274,-0.0036497690590854637,-0.13284106042205607,0.11716660745720242,0.013363944890443236,0.007257019881453899,21098.518048122045
1685667513544491529,117,1685667513544491529,camera_2,145,0,-0.7109866748212684,0.6210867511559272,2.5305208425414905,-0.9840865347630506,-0.0037953151823410533,0.13366384624315153,-0.1170182203257479,0.018356006185058504,0.009977211303167992,21084.014588266145
1685667513564477920,118,1685667513564477920,camera_2,147,0,-0.7114188657694805,0.6199727455009437,2.5318887973959896,-0.9842572319473714,-0.00398755364660697,0.13309030514333747,-0.1162272405766699,0.010364385685534216,0.005634083353862453,21084.248479825448
1685667513574498653,119,1685667513574498653,camera_2,148,0,-0.7114747747942409,0.6196198593740576,2.531917518655378,-0.9840146495550363,-0.003486573559050764,-0.1318115101077502,0.1197027112015898,0.010715248325141147,0.0058284609089091916,21071.696251206216
1685667513584385871,120,1685667513584385871,camera_2,149,0,-0.7114831034390399,0.6192833970463492,2.5318912809552865,-0.9839840765086637,-0.0036364464511244657,-0.1325909756786862,0.11908713869757094,0.007031501067103818,0.0038245092355105653,21072.14783485339
1685667513604396104,121,1685667513604396104,camera_2,151,0,-0.7113466216129745,0.618575126761449,2.5313545102959174,-0.9840211841467651,-0.0034197384402803407,-0.13257437924470022,0.11880508620122587,0.013992845328175463,0.0076049923109470325,21089.335088427404
1685667513614394187,122,1685667513614394187,camera_2,152,0,-0.7115239480248398,0.6187080700271284,2.5319569208341597,-0.9839836689797696,-0.0033419464552924675,-0.1329167886242105,0.1187354112168236,0.006850534118711948,0.0037254993370290763,21075.97521398636
1685667513624543190,123,1685667513624543190,camera_2,153,0,-0.7113299493564935,0.6186059257043571,2.531262420905085,-0.9839436805868923,-0.0033926005939287035,-0.13274024552389055,0.11926169088432066,0.007367044221609831,0.004005050384777285,21083.50219991989
1685667513644359350,124,1685667513644359350,camera_2,155,0,-0.7113430413389952,0.6193694496811165,2.5314450240072692,-0.9840000957107964,-0.00367186864996363,-0.13242339549442314,0.11914014162946299,0.014734650394530036,0.008011558897157227,21079.396983546092
1685667513654544830,125,1685667513654544830,camera_2,156,0,-0.7112834963698018,0.619712512071107,2.5312577594221994,-0.9841085921668279,-0.0035862806042735035,-0.13182139637666282,0.11891398938795408,0.007369738959823735,0.004005273248156611,21088.68521835166
1685667513674536466,126,1685667513674536466,camera_2,158,0,-0.7110950927488077,0.6210510252467595,2.530773895073953,-0.9840885899837786,-0.003562530487183735,-0.1325605479793905,0.11825674001793895,0.007563249397207983,0.004111058551967762,21081.99013025174
1685667513694382429,127,1685667513694382429,camera_2,160,0,-0.7105385463527899,0.6216275753981153,2.529001619378831,-0.9840681305085602,-0.004112133213594894,0.1359426788343266,-0.11451023076200689,0.015382000361569226,0.008350764086747755,21103.18512563943
1685667513704325199,128,1685667513704325199,camera_2,161,0,-0.7107167667798026,0.6222875844664081,2.5296786844389763,-0.9841582554140429,-0.0038986574120207246,0.13486071285158718,-0.11502137583915863,0.015513380523771048,0.00842479441158112,21096.90315498785
1685667513714340209,129,1685667513714340209,camera_2,162,0,-0.7105085566069455,0.6229956005423776,2.528843860140885,-0.9842826173181058,-0.003615230615546405,-0.131875170307625,0.11740357238751524,0.009526498382911088,0.0051704093951880446,21109.346782871293
1685667513724378824,130,1685667513724378824,camera_2,163,0,-0.7102711766255071,0.6231314497186236,2.5280262158342452,-0.9842370428290305,-0.0035629105737819983,-0.1322991416442578,0.11731021401225523,0.012593524588737637,0.006832609167146284,21115.815853734734
1685667513734594583,131,1685667513734594583,camera_2,164,0,-0.7099917001975198,0.6231648358924592,2.5270416086200953,-0.9841936225630759,-0.0036756790033702193,-0.13302934626533008,0.11684432259315386,0.010979553102515638,0.0059537038020658845,21125.80420759949
1685667513744596958,132,1685667513744596958,camera_2,165,0,-0.7099906128208956,0.6233668719795186,2.527052513089741,-0.9841660103052303,-0.0036245140150198093,-0.13336351737569652,0.1166974690866201,0.013497445732355118,0.007320330119854301,21121.26308007002
1685667513754589557,133,1685667513754589557,camera_2,166,0,-0.7097208586449567,0.6232753468042995,2.5260861678836286,-0.984106323545306,-0.0038420506352499382,-0.13326491965926232,0.11730491802677352,0.009411138773430139,0.005101856059781192,21130.81229942501
1685667513764531135,134,1685667513764531135,camera_2,167,0,-0.7099600041304406,0.6234262833562014,2.5269194797390617,-0.9842455094353356,-0.0037925094973232255,-0.13254940908784535,0.11694891268649063,0.0033000955008901656,0.001789136818279792,21129.73857780733
1685667513774554967,135,1685667513774554967,camera_2,168,0,-0.7098527580344963,0.6231703235727032,2.5265384107529956,-0.9841390067245513,-0.003949651948359502,-0.1331974394628254,0.1171036199835315,0.010321090812794864,0.0055959350342310405,21128.22264197515
1685667513784518241,136,1685667513784518241,camera_2,169,0,-0.7101159375245225,0.6231650229598759,2.5274965858964453,-0.984156395553416,-0.003941097035041155,-0.13356083533383611,0.11654252490141312,0.014502371952403337,0.00786737378543723,21115.99698699685
1685667513794516324,137,1685667513794516324,camera_2,170,0,-0.7103452649768427,0.62264253142543,2.528274070879351,-0.9841587385845801,-0.0034151907710675768,-0.13270007781448895,0.11751852231726559,0.014002271753270179,0.007599395099164647,21109.76065901271
1685667513814528703,138,1685667513814528703,camera_2,172,0,-0.7108938230910594,0.6221788149614784,2.530279999477915,-0.984213267677956,-0.003988058536167705,0.13390397020435638,-0.1156635892548005,0.013874090509489179,0.007536578538064025,21093.089110421475
1685667513834354162,139,1685667513834354162,camera_2,174,0,-0.7110334211992935,0.6206898404026684,2.5305270861579134,-0.9840487254909744,-0.0036599229538174776,-0.13318361792930744,0.11788483676377255,0.016212033689953387,0.0088107000037423,21085.206717817582
1685667513854527235,140,1685667513854527235,camera_2,176,0,-0.7111239156151979,0.6197788935963318,2.5308578125642636,-0.9840990144217847,-0.0040793292123107346,0.1343540724839577,-0.11610974159916687,0.01564909530861769,0.00850517111891058,21087.251737719293
1685667513874524116,141,1685667513874524116,camera_2,178,0,-0.7112788760800468,0.6188390812395684,2.5311453504700485,-0.9840031264038559,-0.0034283356883056493,-0.1320193443940167,0.1195700064716052,0.006049784671631642,0.0032881784655247534,21088.602442977484
1685667513884518384,142,1685667513884518384,camera_2,179,0,-0.7115224977031166,0.6188337988917579,2.531979247119086,-0.9840622817067032,-0.003440571344755569,-0.132297741916259,0.11877245335041985,0.006143555816379376,0.003340168903503692,21081.61738010052
1685667513894530773,143,1685667513894530773,camera_2,180,0,-0.7114537383538133,0.6186497457668575,2.5317306322497264,-0.9840480965461329,-0.003482199683857127,-0.13255122900839042,0.11860602707139223,0.0034857007121900097,0.0018947628316142086,21085.564713838976
1685667513904508829,144,1685667513904508829,camera_2,181,0,-0.7114985156477606,0.618655510080773,2.5318831938320403,-0.9840359084806559,-0.0033285380386439798,-0.13230253496938543,0.11898861666499902,0.008590602810727432,0.004670582383423187,21082.261566475954
1685667513924365997,145,1685667513924365997,camera_2,183,0,-0.7112395633645228,0.6188895394180302,2.5310264953224397,-0.9840418759667793,-0.0036249165866287995,-0.13292535953300127,0.11823406918711844,0.011652901797788218,0.006331666411645515,21093.18490889122
1685667513944335699,146,1685667513944335699,camera_2,185,0,-0.7112433516339447,0.619599440254421,2.531242346916,-0.9840558071930844,-0.0038346095377372893,0.13426504635070213,-0.11658628318847765,0.01634775935963262,0.008889101154376536,21078.328870497644
1685667513954410076,147,1685667513954410076,camera_2,186,0,-0.7112003649919051,0.6205053186285209,2.5311756568076733,-0.9841480904294093,-0.003814215133697716,0.13441677359694756,-0.11562923005385846,0.012043655646266416,0.006546521366775582,21082.79189746116
1685667513974543094,148,1685667513974543094,camera_2,188,0,-0.7106860946850697,0.6211271968421621,2.5294602741890935,-0.983930625720911,-0.0040982916507976445,0.13551171028002024,-0.11619080923629692,0.011973691929597408,0.006506508171325701,21086.551807787975
1685667513994540691,149,1685667513994540691,camera_2,190,0,-0.710675722439662,0.6226486180447081,2.5294023659121367,-0.9842605640986469,-0.0036052823949819825,-0.13187590021903572,0.11758780055977193,0.007939656381495297,0.004310775696824503,21102.538367698893
1685667514013452768,150,1685667514013452768,camera_2,192,0,-0.7102468191766645,0.6230973179163791,2.527909745265636,-0.9842157494057795,-0.0036406739238360065,-0.13233427033397874,0.11744677522253869,0.0023431042209267616,0.0012712410114922184,21115.867399207775
1685667514034620046,151,1685667514034620046,camera_2,194,0,-0.7100747892754271,0.6235845595921445,2.527358644956476,-0.9842263474604397,-0.0037194832789001274,-0.13260077070291787,0.11705425245505562,0.010551476385444403,0.005723051708854424,21120.303227929857
1685667514054609775,152,1685667514054609775,camera_2,196,0,-0.710027963053785,0.6235117635330143,2.5271822050555484,-0.984189823497406,-0.003611286855396353,-0.13351862389792707,0.11631907411855,0.009372246568091214,0.005083128647130879,21120.084983896224
1685667514084505796,153,1685667514084505796,camera_2,198,0,-0.7105161897991034,0.6228360321756681,2.528893249022453,-0.9841750513098703,-0.003647916937951775,-0.1331985581448089,0.116808840373373,0.014529129606671631,0.007888367860977387,21100.5090795951
1685667514093448400,154,1685667514093448400,camera_2,199,0,-0.7106393287218121,0.6225031633103663,2.529336033971513,-0.984256210009541,-0.003526644360316504,-0.1323273929499677,0.11711847383002831,0.013738301116973162,0.007458249213143752,21104.473919331795
1685667514104341506,155,1685667514104341506,camera_2,200,0,-0.7105670678258051,0.6219533251164052,2.5290433493425826,-0.984141405010014,-0.003532773275022723,-0.13279474316273254,0.11755326727167936,0.019786349846981466,0.010742479404816237,21103.51890349528
1685667514114422082,156,1685667514114422082,camera_2,201,0,-0.7108949931076037,0.6211844484129877,2.5301006294608683,-0.9841017313106547,-0.00367833923605562,-0.1316751804879696,0.11912975738789,0.013494227605406195,0.007331723542267655,21091.919420539634
1685667514124359607,157,1685667514124359607,camera_2,202,0,-0.7108838502266587,0.6206358498139889,2.530124064731748,-0.9840525337162592,-0.004124988688460374,0.13457102070676197,-0.11625074511963698,0.009843431253102608,0.005348641340755403,21089.81292768056
1685667514133745193,158,1685667514133745193,camera_2,203,0,-0.7109381156613923,0.6201623946582429,2.5301462664069136,-0.983979239431641,-0.003317471939194208,-0.13350477627139312,0.11811149588497877,0.011143723328132182,0.006055308185720324,21089.122367662843
1685667514144556999,159,1685667514144556999,camera_2,204,0,-0.7110758620013002,0.6197866544628273,2.530578139012497,-0.9840195273902663,-0.003535029125911087,-0.13287129802840808,0.11848329605459985,0.011711365848896094,0.006364014085872327,21089.914379770868
1685667514153458356,160,1685667514153458356,camera_2,205,0,-0.7114852600170468,0.6193294412746627,2.5319112466035993,-0.9840468251244857,-0.0035463934124248596,-0.1321294059822893,0.11908437819861835,0.010326878938940354,0.0056157154785344355,21077.06615316274
1685667514164510726,161,1685667514164510726,camera_2,206,0,-0.7113571583691817,0.6189134645893745,2.531396355167026,-0.9840218494218671,-0.003491575591932812,-0.13140504828281083,0.12008964171004294,0.00568505768023897,0.003090437821940384,21086.07891670533
1685667514174606800,162,1685667514174606800,camera_2,207,0,-0.7114623433523402,0.6187773364676175,2.5317557313597585,-0.9840391797670608,-0.0033711470682288042,-0.13310338406066965,0.11806361506583032,0.009713147606817074,0.005280245118583979,21083.11983853788
1685667514184464931,163,1685667514184464931,camera_2,208,0,-0.7114781909533914,0.618669633288014,2.5318059452352193,-0.9839285654390446,-0.003279085635477531,-0.13264074638723178,0.11950003392592347,0.007256233715452254,0.003946692739322596,21073.739766715567
1685667514193680047,164,1685667514193680047,camera_2,209,0,-0.7113199777903748,0.6185374216871293,2.5312173056174063,-0.9839688255322743,-0.0032454882517064217,-0.13217898378092333,0.11968096520870707,0.0036064925516257063,0.0019603935388489728,21087.008386439866
1685667514204455614,165,1685667514204455614,camera_2,210,0,-0.7115317435222565,0.6188773809625125,2.5320221606010267,-0.9840611431376309,-0.003518009888167477,-0.13200980208667107,0.11909954796775563,0.006324661910184659,0.0034388644523216825,21080.626522479113
1685667514214494228,166,1685667514214494228,camera_2,211,0,-0.7113571988545193,0.6189489305866374,2.5314066200495797,-0.9839114699812309,-0.003392487005651443,-0.1322272035064149,0.12009445001399063,0.006349559422233142,0.003453255080862671,21075.753007956897
1685667514224477767,167,1685667514224477767,camera_2,212,0,-0.7112493977290085,0.6191754535230315,2.531062547183194,-0.9840439291915157,-0.003411538458051657,-0.13143032628280918,0.11988317713451956,0.013029990077484399,0.007081468483414178,21090.561820550705
1685667514234470605,168,1685667514234470605,camera_2,213,0,-0.7110935014456545,0.6198849518749838,2.5306621619483405,-0.9840324152896853,-0.003542972161531329,-0.13248914715667043,0.11880353064243983,0.012303120995056815,0.006685980322627826,21089.063621071877
1685667514244451761,169,1685667514244451761,camera_2,214,0,-0.7114758339804275,0.620709433112828,2.5320502463568433,-0.9841140504750051,-0.00349494357788599,-0.13076556421963226,0.12003203006442874,0.008457637915853411,0.004600818702255746,21069.09444382925
1685667514264531612,170,1685667514264531612,camera_2,216,0,-0.7105836297958414,0.6209641751896419,2.529086713602614,0.9839711471238767,0.004037592827874703,-0.1356112775818618,0.11573271302658433,0.0054243498598225415,0.0029461039077227063,21096.791746223113
1685667514284512281,171,1685667514284512281,camera_2,218,0,-0.7103654317872693,0.6223510710998261,2.5284738219997536,-0.9839550381757525,-0.004026230874757003,0.13574337295496766,-0.11571520648689747,0.02208175149280578,0.01199122643072388,21097.022753784906
1685667514304509162,172,1685667514304509162,camera_2,220,0,-0.7100155012513514,0.6228649857708325,2.5272516419879376,-0.9840087377443874,-0.003922599794983994,0.13501975298870042,-0.11610806843805596,0.011979377421084791,0.00649875655820406,21117.422168208286
1685667514324371814,173,1685667514324371814,camera_2,222,0,-0.7099571518621374,0.6234782781545759,2.526926808887201,-0.9842173153869902,-0.0036140549896089497,-0.1325098082637462,0.11723636557341476,0.0124749336973764,0.0067643431750046,21126.651297370205
1685667514344480037,174,1685667514344480037,camera_2,224,0,-0.7098733381731752,0.6234008902463447,2.5266462446431652,-0.9841587528489765,-0.003563328323739527,-0.1334114706426602,0.11670574700059526,0.012260497082024813,0.006647860624119272,21126.1518276888
1685667514364513635,175,1685667514364513635,camera_2,226,0,-0.7101058806916394,0.6229102111310387,2.527433141004617,-0.9841123433622829,-0.003560439306852996,-0.1331346899251933,0.11741112916781282,0.00792131491471082,0.004297687213801655,21115.26112412778
1685667514374569654,176,1685667514374569654,camera_2,227,0,-0.7102400359078521,0.6226445376929006,2.527889289451404,-0.9841169521083087,-0.0035718724761528288,-0.13322533517532664,0.11726924732208684,0.008183819591067731,0.0044410032878988825,21111.545896042837
1685667514394627332,177,1685667514394627332,camera_2,229,0,-0.7108109374120257,0.6216935138512595,2.5298257123487047,-0.9841282988965855,-0.0034553078675629476,-0.13168952676357915,0.11890088603218203,0.01235749019542709,0.006713245489645615,21093.514503742095
1685667514404534339,178,1685667514404534339,camera_2,230,0,-0.7108912236726609,0.6212405698897216,2.530093292371672,-0.9840529137778142,-0.0035204092422421564,-0.1326091553223934,0.11850013303301521,0.014657690655440092,0.007965245089723481,21087.01054143138
1685667514424550056,179,1685667514424550056,camera_2,232,0,-0.7112101584681297,0.6204548844517643,2.5311134158041684,-0.984011115659039,-0.0033771021487683348,-0.13263968184743513,0.11881680958493016,0.010639256870490499,0.00578525350016396,21075.50402847724
1685667514434571743,180,1685667514434571743,camera_2,233,0,-0.711373306523167,0.6196783256222751,2.5315873595744587,-0.9840875026192415,-0.0035113398556256056,-0.1313362607102992,0.1196254333479265,0.014664747286587954,0.007972668355418345,21082.46438114764
1685667514444537639,181,1685667514444537639,camera_2,234,0,-0.7115664096280843,0.6194630873681977,2.5322185189497888,-0.9840388387108572,-0.003642963194655003,-0.13131919305610062,0.12003983614969098,0.008574543593567796,0.004664398692853815,21070.97601179208
1685667514454571485,182,1685667514454571485,camera_2,235,0,-0.7111569851462993,0.6187838607364927,2.5307128981000186,-0.983877363895698,-0.003487382260210609,-0.13310999761503475,0.11939388390344284,0.007719308254308999,0.004196294063124273,21084.150690170936
1685667514464563369,183,1685667514464563369,camera_2,236,0,-0.7113311966454958,0.6187083621156412,2.531295298763037,-0.9840401456286351,-0.003598363533800342,-0.13231241252153988,0.11893472606343053,0.007485719237593003,0.004068146185957664,21090.778257907725
1685667514474596977,184,1685667514474596977,camera_2,237,0,-0.7114647194778871,0.6186260760643741,2.5317656962693773,-0.984058266462443,-0.0034043364944559154,-0.1323143756966287,0.11878823461932407,0.008928114199079573,0.004853119860930978,21086.187361140852
1685667514484561681,185,1685667514484561681,camera_2,238,0,-0.7114556291670817,0.6186515633865913,2.5317188468793903,-0.9840394378980165,-0.0033108885081164887,-0.13239705797151552,0.11885470844324908,0.0070362024125643075,0.003824941286725829,21084.919943771434
1685667514494569540,186,1685667514494569540,camera_2,239,0,-0.7113997917515608,0.6187438035049626,2.5315593996382004,-0.984022627994652,-0.003621358505741794,-0.13219621631267925,0.11920785942916183,0.005736516090109944,0.003118404720759279,21085.163348014466
1685667514504544496,187,1685667514504544496,camera_2,240,0,-0.7114414251250414,0.6190070128898473,2.531742547267281,-0.983903259081168,-0.003453810144977052,-0.13287908578251606,0.11943867265898925,0.010973945332807489,0.005969725268583021,21069.578374603763
1685667514514580011,188,1685667514514580011,camera_2,241,0,-0.7112896075294668,0.6195481332678232,2.5312963767603893,-0.983987662300707,-0.0033593463995103177,-0.13219332503544784,0.11950698744353964,0.012358119784039445,0.006719595161464944,21078.868421105435
1685667514524421691,189,1685667514524421691,camera_2,242,0,-0.7112255943597597,0.6199238830810226,2.5311307161952157,-0.9840262843032519,-0.003312190541192441,-0.13256607543454696,0.11877515244375221,0.019738610630156472,0.010730681843532321,21081.29426810878
1685667514534434556,190,1685667514534434556,camera_2,243,0,-0.7110235253492894,0.6202394468357121,2.530580792867605,-0.9840086077390092,-0.0037199945565974057,0.13488700740807102,-0.11627001663597859,0.02000907334149815,0.01087741608462194,21080.954582492235
1685667514544554948,191,1685667514544554948,camera_2,244,0,-0.7109638014856653,0.6207067943279557,2.530297630076059,-0.9839928047807481,-0.003489504955580963,-0.13200385518281882,0.1196702373681738,0.012308377903536893,0.006690374082673546,21083.652997856254
1685667514554550409,192,1685667514554550409,camera_2,245,0,-0.7108749275984461,0.6216991868082877,2.5300650555205784,-0.9840932243075158,-0.0034617747860369312,-0.1335536647324828,0.11709808121353621,0.01079331070650369,0.005864604919908231,21086.612174474867
1685667514564539194,193,1685667514564539194,camera_2,246,0,-0.7107689790651428,0.6221304499804906,2.529741896563025,-0.984134609370064,-0.003356449335330978,-0.13254520102221173,0.11789645700305168,0.017334221920464188,0.009416928769449226,21091.189793970432
1685667514574587345,194,1685667514574587345,camera_2,247,0,-0.7108282603976144,0.6226632275036588,2.5300946386458247,-0.9842488591894514,-0.0040696407219543845,0.13403616019061107,-0.11520385831218775,0.013415686145890504,0.00728586406930688,21096.43028215482
1685667514584537267,195,1685667514584537267,camera_2,248,0,-0.7104720755943149,0.6227911599810245,2.5287070284150475,-0.9842015469922079,-0.0036841435542699936,-0.13273160473590973,0.11711559711945697,0.010853686253540218,0.005891493916178018,21105.96511408734
1685667514604552745,196,1685667514604552745,camera_2,250,0,-0.7099723748730756,0.6233053222657218,2.5269886515256372,-0.9841953213358787,-0.0036656934563434776,-0.132844493265039,0.11704047488456984,0.010272538347635418,0.005570410046901585,21125.42417087174
1685667514614578247,197,1685667514614578247,camera_2,251,0,-0.7100198777849802,0.6234886162878694,2.5271244330197917,-0.9841805577201982,-0.0037512336535890124,-0.13261178719453187,0.11742517595774826,0.004503118805587292,0.0024424595065206155,21120.410676489126
1685667514624675273,198,1685667514624675273,camera_2,252,0,-0.7098274063153286,0.623382864454708,2.5264684754572246,-0.9841440919669409,-0.0038411482693280702,-0.13349211016172516,0.11672835281587789,0.01182572531979531,0.006411602389074359,21127.632096491056
1685667514634670257,199,1685667514634670257,camera_2,253,0,-0.7101044560501341,0.6234636464653543,2.527442016526921,-0.9842499555104888,-0.0038361040045047506,-0.13310168168517583,0.11628091724890134,0.008163291728124022,0.00442710540477643,21122.23172180634
1685667514644547224,200,1685667514644547224,camera_2,254,0,-0.7099797459678998,0.6231446898715636,2.5269841371927346,-0.984148925668278,-0.003576647319414974,-0.133023295205267,0.11723012681328546,0.007666478224564344,0.004157822816471336,21122.79444373049
1685667514654598474,201,1685667514654598474,camera_2,255,0,-0.7103136158118728,0.623145326775169,2.52817542394626,-0.9842157461657707,-0.003657598875917362,-0.13290494980339065,0.11680009112828717,0.013123232405632734,0.007121124040294838,21111.612531063845
1685667514664799928,202,1685667514664799928,camera_2,256,0,-0.7102526064246176,0.6227273244341801,2.527938037446451,-0.984105287551723,-0.003579486467047979,-0.13271102242026486,0.11794810222102269,0.010171326459385455,0.005520415307392165,21109.15601340866
1685667514674666166,203,1685667514674666166,camera_2,257,0,-0.7107286360542341,0.6222320860056059,2.5295941328753506,-0.9841814815749338,-0.003739073577534866,-0.13226183780888418,0.11781187084995487,0.008627983334008604,0.004685945054463782,21096.66295585548
1685667514684541463,204,1685667514684541463,camera_2,258,0,-0.7107137146899413,0.6217026693130073,2.5295959549610436,-0.984127937238255,-0.0041041048144030805,0.13450599892280987,-0.11568705945189829,0.014355906110722572,0.007796268532673673,21098.730104473427
1685667514694552659,205,1685667514694552659,camera_2,259,0,-0.7108373989499187,0.6212826062917449,2.529896806203818,-0.9839909723690001,-0.0035965450933815087,-0.13239211574222937,0.11925250038886935,0.012468708504457027,0.006776842807423484,21084.08180533326
1685667514704501867,206,1685667514704501867,camera_2,260,0,-0.711276983523207,0.6211284373809718,2.53141053442629,-0.9841448470390706,-0.003627852138642853,-0.13160429975276006,0.11885313215010446,0.012710786308161914,0.006911059262966277,21077.25106368261
1685667514714504480,207,1685667514714504480,camera_2,261,0,-0.7109516346545635,0.6198267270167712,2.5302686796005345,-0.9839167192634207,-0.004092462959384886,0.13562576624319597,-0.11617569811186443,0.014601031201891601,0.007937777446011391,21080.007305330837
1685667514724546909,208,1685667514724546909,camera_2,262,0,-0.7112931098465716,0.619666072596032,2.5314196879067423,-0.984016006240856,-0.003977116011634598,0.1351738536403924,-0.11586505643217708,0.01854622751125135,0.010086919725330757,21071.939413377208
1685667514734588146,209,1685667514734588146,camera_2,263,0,-0.7112807940595333,0.6192664271972838,2.531214832768812,-0.9839682080721186,-0.0034638248273537115,-0.13226860389622572,0.1195808673837614,0.014758497592993082,0.008024213839205577,21080.810815737466
1685667514744501829,210,1685667514744501829,camera_2,264,0,-0.7113379737922665,0.6189981364348871,2.5313867402549306,-0.9839547861842717,-0.003556699466370931,-0.13271908410576036,0.11918881385473411,0.007221267936984077,0.0039264366935198225,21079.41422753991
1685667514754532098,211,1685667514754532098,camera_2,265,0,-0.7114614178082037,0.6187145444885908,2.531758128794831,-0.9840256571370496,-0.0032342199623018797,-0.13198818926188902,0.11942430159980509,0.007555326097644866,0.004107705366568964,21082.691914562834
1685667514764482975,212,1685667514764482975,camera_2,266,0,-0.7114077083654357,0.6185985695945937,2.5315551431952765,-0.9839730956221501,-0.0034071189888343107,-0.1323123595027477,0.11949384149308608,0.005416700209025294,0.0029450461723698764,21082.02802933099
1685667514774551153,213,1685667514774551153,camera_2,267,0,-0.711322478955419,0.6185553496502345,2.5312706707128885,-0.9839330600751477,-0.0032861904581517865,-0.13313598936144422,0.11891064956587484,0.008933483069995418,0.004856673011887987,21082.831433998184
1685667514784568548,214,1685667514784568548,camera_2,268,0,-0.7115249667836707,0.6188302235204749,2.5319884676382687,-0.9840445713466028,-0.0036121254665304517,-0.1323323055105033,0.1188755444621377,0.005870388777111657,0.0031919045490538867,21080.03473215876
1685667514794565439,215,1685667514794565439,camera_2,269,0,-0.7114043880309264,0.6192232321678928,2.531633541619195,-0.984001913638224,-0.003481410116222296,-0.13310682119655953,0.11836675162757199,0.013050321271293797,0.00709600317778535,21077.86819794774
1685667514804512977,216,1685667514804512977,camera_2,270,0,-0.7113434674986016,0.619532723406299,2.5315867372609517,-0.9841091142556211,-0.004252105596249608,0.13418692343818286,-0.11621118885550781,0.016858498245710507,0.009166812442303501,21078.295591287308
1685667514814496517,217,1685667514814496517,camera_2,271,0,-0.7109987391784274,0.6196613670346586,2.530291955361873,-0.9839752561431832,-0.0032853600930508537,-0.13313740006312988,0.11855941300228444,0.009455732084461488,0.005137966902857587,21091.111663157593
1685667514824557542,218,1685667514824557542,camera_2,272,0,-0.7112368710938083,0.6203304387293455,2.531196145221985,-0.9840412340189721,-0.0035185811320100975,-0.13323005642152258,0.1178992001802981,0.01435115491040051,0.007802358265731887,21077.973376244197
1685667514834540843,219,1685667514834540843,camera_2,273,0,-0.7108035516846006,0.6209833326940121,2.529852448061267,-0.9840176835777843,-0.003884384581712423,0.13417514540211123,-0.11700914630470274,0.013846340181771666,0.007524131596723445,21088.783718209714
1685667514844525814,220,1685667514844525814,camera_2,274,0,-0.7110782151803755,0.621757728420496,2.530759422999928,-0.9842201528201994,-0.003567671778258304,-0.1316921975967996,0.11813182294704407,0.011400705552659929,0.006195125556532752,21087.5356513944
1685667514854564189,221,1685667514854564189,camera_2,275,0,-0.7105150691427,0.6218011442125861,2.5287910687548854,-0.9840262887326463,-0.003531206942066196,-0.1334869500606018,0.11773286637173777,0.010033713653683662,0.005448853467981096,21098.210329583842
1685667514864567041,222,1685667514864567041,camera_2,276,0,-0.7105556312502469,0.6223507145987845,2.528995331152263,-0.9841806904865794,-0.003939233473332091,-0.1327294625580907,0.11728486979164411,0.010300889203790575,0.005592179342247126,21104.146067377187
1685667514874552488,223,1685667514874552488,camera_2,277,0,-0.7100724464354453,0.6227763705990735,2.5272976905159856,-0.9841228674622536,-0.00346937570715263,-0.13383436792744355,0.11652685154734134,0.011251479445490986,0.0061029896461511765,21119.25207383092
1685667514884550094,224,1685667514884550094,camera_2,278,0,-0.7101597105437928,0.6231869653834052,2.52764919439587,-0.9842001332601706,-0.0036751438825584214,-0.13307339453330008,0.11673929362254015,0.013902059174142778,0.007541476313653776,21117.440383587033
1685667514894578218,225,1685667514894578218,camera_2,279,0,-0.7101703772187049,0.6234448373672068,2.527686940307068,-0.9842469589102082,-0.003781465815018901,-0.13205878563243612,0.11749085721699057,0.013111989537719637,0.00711273216265916,21118.752160004344
1685667514904555559,226,1685667514904555559,camera_2,280,0,-0.7098988024934144,0.6233641148357149,2.526717805350956,-0.9841706558377022,-0.003883176551111918,-0.13339435298020044,0.11661469770510828,0.009843614767305551,0.005337245713447991,21126.582064808812
1685667514914576053,227,1685667514914576053,camera_2,281,0,-0.7102216155562843,0.6236975261487075,2.5278689930113574,-0.9842588443451333,-0.0035450311249625396,-0.13239639735779246,0.11701775100122003,0.011115569213870913,0.006030661587413281,21114.70735222986
1685667514934577226,228,1685667514934577226,camera_2,283,0,-0.7101438082574736,0.623310725646299,2.527596813694544,-0.9842112637462355,-0.003578798836695789,-0.13296594107563614,0.1167708826197486,0.012942053377628326,0.007020467605968666,21117.996346659264
