%time,field.header.seq,field.header.stamp,field.header.frame_id,field.image_seq,field.transforms0.fiducial_id,field.transforms0.transform.translation.x,field.transforms0.transform.translation.y,field.transforms0.transform.translation.z,field.transforms0.transform.rotation.x,field.transforms0.transform.rotation.y,field.transforms0.transform.rotation.z,field.transforms0.transform.rotation.w,field.transforms0.image_error,field.transforms0.object_error,field.transforms0.fiducial_area
1685679150814791679,19,1685679150814791679,camera_1,33,0,0.3274614849948663,0.4728588083643457,1.7252337793604986,-0.9830112075668609,-0.0765236984234833,0.09326465764344988,0.1383285690383005,0.24050006119068712,0.2736726214698692,1946.582840810763
1685679150824782371,20,1685679150824782371,camera_1,34,0,0.3276615304348813,0.4727261730406403,1.7261552659076997,-0.9823458105539985,-0.07769396181712976,0.09836501356544769,0.1388692942677947,0.2088574623921886,0.23778991478162007,1940.202657347545
1685679150834764003,21,1685679150834764003,camera_1,35,0,0.3271170230292452,0.4716058907707699,1.7232157603991411,-0.9829863652925308,-0.07720732582225392,0.09430593284530611,0.13741624910661926,0.2429316773195751,0.2756944830981045,1951.9269832526338
1685679150844756841,22,1685679150844756841,camera_1,36,0,0.32754310717988366,0.4717990716650123,1.7254681227940876,-0.9823466276612074,-0.07661810285956118,0.09305008850150286,0.1430610026062921,0.2722132003400475,0.30994741064020237,1941.7659761589025
1685679150864743947,23,1685679150864743947,camera_1,38,0,0.32711991521285266,0.4710683516689419,1.7232462134554887,-0.9818699180334619,-0.07716678822806163,0.09460453032237087,0.14500597814577149,0.26792129449313506,0.3042985511037029,1943.4052198210263
1685679150874755620,24,1685679150874755620,camera_1,39,0,0.3277430450600676,0.47205846740104596,1.7265930299696597,-0.9825486539340625,-0.07731415677973687,0.0920959389843372,0.14191195099917853,0.24305488180834803,0.27709071263328866,1941.3397598066374
1685679150894766330,25,1685679150894766330,camera_1,41,0,0.32709388882785223,0.47176343867792586,1.7231047664592771,-0.982243517642032,-0.07706899724285175,0.09731389807758485,0.1406699930871331,0.23760154284536839,0.26963467722166934,1945.9819535424465
1685679150914617776,26,1685679150914617776,camera_1,43,0,0.32729753190470284,0.47288956812992244,1.7244283875491389,-0.9829343530659661,-0.07695499698509199,0.09854128328551298,0.13493554568852326,0.21949012263212353,0.24932723414054248,1947.7860364548396
1685679150934595346,27,1685679150934595346,camera_1,45,0,0.3278665474243152,0.4750957201533523,1.7275224954023105,-0.9821182795563149,-0.0758451353054137,0.10091980037212031,0.13966529384460213,0.19919846742413938,0.22724096559378323,1932.4692038311612
1685679150954603672,28,1685679150954603672,camera_1,47,0,0.32859967556914543,0.47713592490484513,1.7315024812508995,-0.98292551852568,-0.07675963932344082,0.10244078592391483,0.1321789248755226,0.205236371839419,0.23506135657108848,1929.7486638552505
1685679150974746704,29,1685679150974746704,camera_1,49,0,0.32848961114928477,0.47817530909613953,1.7309359740840238,-0.9833950025187161,-0.07731172464465305,0.1005342336539523,0.1298076812723195,0.20163289533229545,0.23086355078265386,1934.0693570170547
1685679150994615793,30,1685679150994615793,camera_1,51,0,0.3281997672147052,0.4783040561456663,1.7296466871595964,-0.9838058473061974,-0.07788708137736089,0.10305402811398452,0.12425588376464745,0.23311932280194014,0.2663873741846895,1940.1777862301096
1685679151014605522,31,1685679151014605522,camera_1,53,0,0.3277339273950032,0.4776844684043148,1.7271230708066183,-0.9833438883237173,-0.07730415857694231,0.1016943210284442,0.12929473861556495,0.23870059865294024,0.27212609314981734,1941.7134319765028
1685679151034733295,32,1685679151034733295,camera_1,55,0,0.3284351883428811,0.4782489179975796,1.7307144328761879,-0.9835307610916086,-0.07724391480033072,0.09504624819457752,0.1329166291967076,0.2619821991538629,0.300152545978043,1935.514845520724
1685679151054769515,33,1685679151054769515,camera_1,57,0,0.32894036339096233,0.4778199389685444,1.733165781419665,-0.9831480904831567,-0.07672225637294916,0.0985627008494214,0.13348753334163438,0.23726019385503605,0.2724147017708371,1927.6032712566662
1685679151074760437,34,1685679151074760437,camera_1,59,0,0.32846973390566114,0.4762125293106874,1.7306836365299219,-0.9825287696415183,-0.0755791431955361,0.10116423708598923,0.13671432651833795,0.23001296358415857,0.26327211179912674,1928.2983828580473
1685679151094745159,35,1685679151094745159,camera_1,61,0,0.32725165247944465,0.4729993035628286,1.7241425562726207,-0.9821129065707974,-0.07628383786845253,0.09875966496026459,0.1410019269515715,0.20475395122775808,0.23267343613277913,1941.2999341022223
1685679151124744176,36,1685679151124744176,camera_1,63,0,0.32787424947966914,0.47247643452150073,1.7271826178577243,-0.9831536570233467,-0.07696212425365266,0.09617152685994311,0.13504353199399222,0.2204163161222823,0.2511540805531776,1944.3127496908417
1685679151144762277,37,1685679151144762277,camera_1,65,0,0.32745642303886563,0.47153356083745196,1.7249727789279345,-0.9821815073673367,-0.07759364669578067,0.0936800947408307,0.1432576435218237,0.23943834361853078,0.2724648043705088,1942.2730877976871
1685679151164755821,38,1685679151164755821,camera_1,67,0,0.3275512334042785,0.47184830039009734,1.7254746335275855,-0.9824319080432332,-0.07636413876597023,0.09390919952779747,0.14204621294885705,0.2613332225009799,0.29749033486409143,1942.220735928044
1685679151184761285,39,1685679151184761285,camera_1,69,0,0.32737829681301717,0.4720825631191566,1.724568576468425,-0.9829092397464992,-0.07680445427108594,0.09634038907163675,0.13678096233981285,0.22588108689524233,0.25666966548751446,1947.8932449016722
1685679151194750070,40,1685679151194750070,camera_1,70,0,0.327359933248165,0.4724441360221877,1.7245103583859953,-0.9818355909577839,-0.07696930563431709,0.09595294006232631,0.1444563311597865,0.238311838300433,0.27108248277018293,1939.2583282871642
1685679151204765081,41,1685679151204765081,camera_1,71,0,0.3277819204847324,0.4739439048129662,1.7269031943081192,-0.9818335033181005,-0.07615546946681064,0.10114537401456834,0.14132561532803767,0.18798892211634666,0.21426681772787426,1932.6181586752655
1685679151224757909,42,1685679151224757909,camera_1,73,0,0.327604133675902,0.47468449942611285,1.7261467906676897,-0.9820152348143022,-0.07571338532031102,0.10003047724659377,0.14109381807069996,0.21974752034293488,0.25034676856450316,1934.681584133069
1685679151234760046,43,1685679151234760046,camera_1,74,0,0.32941046569044896,0.47875209930633084,1.7357586361788284,-0.9838749930422046,-0.0763674698700733,0.09671680781214381,0.12962972922317675,0.2520814865711145,0.2902456751395095,1927.2190487671178
1685679151254784584,44,1685679151254784584,camera_1,76,0,0.3284655605732103,0.47779350806420456,1.7308425848814903,-0.9840215744040706,-0.07695228351449263,0.09941473100277806,0.12608171330087733,0.20790140476310626,0.2379291596712591,1939.3533563981766
1685679151284605503,45,1685679151284605503,camera_1,78,0,0.3279367595058767,0.47800744147258845,1.728159362342738,-0.9835672006840699,-0.07706861112149735,0.1003313330864732,0.12880067748035118,0.25658108823699877,0.29288752525014444,1940.9908682480468
1685679151304748535,46,1685679151304748535,camera_1,80,0,0.3280603791568316,0.4781593607028228,1.7287858549425255,-0.983554080570401,-0.07703639358952732,0.10245518060392685,0.12723875440858962,0.22576009458862245,0.25780721250369326,1939.4690875350507
1685679151314738035,47,1685679151314738035,camera_1,81,0,0.328604723586024,0.4788338394640023,1.731772434202694,-0.9839543337258739,-0.07704105348567013,0.09918432525118547,0.1267320592603019,0.24785742146195844,0.28405573607011975,1936.1414742143825
1685679151324754953,48,1685679151324754953,camera_1,82,0,0.3283160927457479,0.47782264715745637,1.7300370785716066,-0.9833190822719317,-0.07767887064895904,0.09967256494599454,0.13082413879584556,0.21922961162636057,0.25078502727408697,1935.802097891923
1685679151344750881,49,1685679151344750881,camera_1,84,0,0.32919548751675115,0.4782837774048635,1.734564049820143,-0.9837118653270562,-0.0766013434725436,0.09601866309331208,0.1312387767801046,0.2448971407720819,0.281642293687252,1928.8412082565478
1685679151364728927,50,1685679151364728927,camera_1,85,0,0.32787002430237144,0.4749039429868435,1.7275432165687405,-0.9822775456784103,-0.07622884613735793,0.10295471848959303,0.13682219196202872,0.19248011603485793,0.2194580002837911,1934.0804597621318
1685679151374749898,51,1685679151374749898,camera_1,86,0,0.32794379300167276,0.4745458598538099,1.727866836423824,-0.9824023760602629,-0.07544168266447791,0.09768662239615773,0.1401836218419704,0.20549913874128833,0.23456249827237036,1934.2951983306557
1685679151394727706,52,1685679151394727706,camera_1,88,0,0.32694778362010657,0.472142384169764,1.7224244898367547,-0.9826032416195641,-0.07584428616791819,0.09664412266988111,0.13927823723673521,0.25508370238821954,0.2892591461158536,1949.1575483288611
1685679151414756536,53,1685679151414756536,camera_1,90,0,0.3272377829203191,0.47159711279350686,1.7238339740390993,-0.9825843803093874,-0.07703486680675506,0.09666266380164303,0.1387439883196867,0.2468995425151661,0.2803525766011626,1947.343594816513
1685679151424770832,54,1685679151424770832,camera_1,91,0,0.32782105751107204,0.4722226144574433,1.7269175465028024,-0.9825450522009762,-0.07695248879906454,0.09386509853983674,0.14097119613281842,0.2631364748813212,0.30000504553346063,1940.2591461215634
1685679151434716463,55,1685679151434716463,camera_1,92,0,0.32741019184074305,0.47148827397362936,1.724674745983129,-0.9819963842914302,-0.07723945904456,0.09370402963285729,0.1446952730244714,0.25226678291801363,0.2870147905306549,1941.2153329334687
1685679151444745063,56,1685679151444745063,camera_1,93,0,0.3276031447468254,0.47178915727348864,1.7257534335665923,-0.9822659778204431,-0.0771243384172722,0.09410064254863058,0.14265501853100615,0.24582958256360143,0.27994697997480095,1940.858853599988
1685679151454758167,57,1685679151454758167,camera_1,94,0,0.32761828280281496,0.47193690392801685,1.7257791852216104,-0.9825017316877517,-0.07621170795703844,0.0939325584788182,0.14162908337789926,0.2552819008124061,0.29068723678171327,1941.986701712478
1685679151474772453,58,1685679151474772453,camera_1,96,0,0.32683405807680366,0.4712719925406914,1.7216477060542152,-0.9825062206302553,-0.07624611169200944,0.09559720043773118,0.14046078507245405,0.24869994819164276,0.2817916659716821,1950.9465296622373
1685679151494780063,59,1685679151494780063,camera_1,98,0,0.32723527775452654,0.47310182204515455,1.7240753958647914,-0.982131535039602,-0.07614082975756128,0.0965859948491833,0.1424477712130957,0.2313242811942473,0.2629637088341754,1941.4283629187848
1685679151514760255,60,1685679151514760255,camera_1,100,0,0.32835378555180544,0.47572135395952253,1.7301281216135638,-0.9825120822374025,-0.07628717182496529,0.10186665589407017,0.13591710742004165,0.17845229315571487,0.20407869018718472,1930.1293980400083
1685679151534825325,61,1685679151534825325,camera_1,101,0,0.32913933220096736,0.4783320567733465,1.7343206295967974,-0.9836550219612706,-0.0763525569804956,0.09798579216328338,0.13035286474430227,0.27025805262383074,0.31064238607506056,1928.6743294114713
1685679151554753065,62,1685679151554753065,camera_1,103,0,0.32846078964442627,0.47810472629687734,1.7308223044895505,-0.9834556645036109,-0.07786061718565795,0.0995228166280601,0.12979941917299662,0.21787403454072773,0.24944407345929107,1935.1955140570644
1685679151574727535,63,1685679151574727535,camera_1,105,0,0.3279473719812863,0.47799896355275323,1.7282236646792262,-0.9836248515134917,-0.07693744989058256,0.10155307855861014,0.12747451715799674,0.248482154274825,0.2835979439029748,1941.2435652790596
1685679151594753742,64,1685679151594753742,camera_1,107,0,0.32800893159335376,0.47808456911444636,1.7286341838891897,-0.9838703693975801,-0.07748513889684178,0.10134385719539905,0.12539765580091553,0.24371621973114088,0.2782396168217746,1942.6651896105616
1685679151614749193,65,1685679151614749193,camera_1,109,0,0.32827982311845666,0.47778576694706726,1.7299138479360254,-0.9834201075926029,-0.07762530992500706,0.09990096561047454,0.12991920686216762,0.22019302635453641,0.2518204048331978,1936.8597297472875
1685679151634717464,66,1685679151634717464,camera_1,111,0,0.32946639269048705,0.4787350684076334,1.736064816789501,-0.9839723818455448,-0.07660519316629465,0.09819270791272104,0.12762518661270247,0.23178097541676834,0.26686953719504514,1927.5355234900485
1685679151664751529,67,1685679151664751529,camera_1,113,0,0.32793828051693047,0.4745986045458702,1.727850450123824,-0.9828675482869171,-0.07527473826900354,0.09785107654067834,0.1368585515151613,0.19230901659466326,0.21942098987404954,1937.8755651689137
1685679151684705734,68,1685679151684705734,camera_1,115,0,0.32738689252601416,0.47244775807084133,1.7247432476536044,-0.9821149160716096,-0.07767593755059737,0.09638681606632733,0.14186726910703215,0.23660993797238916,0.2691135409091151,1941.4590559066276
1685679151705610036,69,1685679151705610036,camera_1,117,0,0.32721052910098714,0.4715719753685002,1.7237417613004176,-0.9828913374327253,-0.07719164350304598,0.0975237042564969,0.1358499027644062,0.24126332066953182,0.273808799226515,1950.0895596563355
1685679151724663496,70,1685679151724663496,camera_1,119,0,0.3275533088458044,0.4716725082066586,1.7254797827792683,-0.9821943920444486,-0.0773928000871925,0.09462345093879042,0.14265669722636334,0.24137352808611467,0.2747719384859082,1941.098574680043
1685679151745631217,71,1685679151745631217,camera_1,121,0,0.32745305034172734,0.47173582957735577,1.7250103499311011,-0.9825079217427519,-0.07661008880551487,0.09256952589537468,0.14226721646765708,0.2868083567591384,0.32637952073039656,1944.0283238859847
1685679151774694681,72,1685679151774694681,camera_1,123,0,0.32696021041008866,0.47221202917870087,1.7224418371592067,-0.9825523850463685,-0.07567802558656253,0.09847910286099107,0.13843956581377503,0.2435390601749532,0.2761026321869928,1948.5261477185416
1685679151794743061,73,1685679151794743061,camera_1,125,0,0.3275526877162226,0.4739841574701552,1.7257091666946907,-0.98219648653778,-0.07502061391972058,0.09752260776193235,0.14195531090896485,0.21720143518177792,0.2473623929412594,1937.1971763605252
1685679151814736127,74,1685679151814736127,camera_1,127,0,0.32856959304528144,0.476953536081853,1.7314987510121245,-0.9835267669462614,-0.07609799131664804,0.10226088563667106,0.12816749075568964,0.20071610889863223,0.22978844964104217,1934.2913139024752
1685679151844539642,75,1685679151844539642,camera_1,129,0,0.3288364052370752,0.4788850146157242,1.7328805253589952,-0.9839147965766672,-0.07735685048567677,0.09484809953861265,0.13012082375371609,0.23754750500665978,0.272759477873125,1933.782026056666
1685679151874656915,76,1685679151874656915,camera_1,131,0,0.328144042415013,0.47834011084309835,1.7293524890060963,-0.9838739184865166,-0.07759871746231352,0.10002052603192885,0.12635840273795654,0.2424418163136579,0.2770723683532873,1941.110045937588
1685679151894814491,77,1685679151894814491,camera_1,133,0,0.3288447126154388,0.47891504927043377,1.7329032303902296,-0.9840584664607691,-0.07703281189673628,0.09386586448726464,0.12993875465856977,0.2494343151920475,0.28643732091763174,1934.6526998467743
1685679151914699554,78,1685679151914699554,camera_1,135,0,0.3285022130445227,0.4778159065774028,1.7311235876646804,-0.9838970343286328,-0.07743377463536141,0.10216621749110873,0.1245499915238879,0.21758945798501372,0.2490143629689452,1938.0681589881428
1685679151934685707,79,1685679151934685707,camera_1,137,0,0.3285261148016455,0.4765345149223968,1.7311963698167243,-0.9829808620794929,-0.07604026693403129,0.10120456858441668,0.13313203178687097,0.21063567302189767,0.24116500567761784,1930.88897782797
1685679151944688796,80,1685679151944688796,camera_1,138,0,0.32815991108194226,0.4754705485881751,1.7291017052807465,-0.9823061682171732,-0.07626216569077589,0.10034783818345372,0.13852431316759803,0.20389692281605676,0.23300772019897203,1930.7494690096937
1685679151964689970,81,1685679151964689970,camera_1,140,0,0.326859726955574,0.47218108812610277,1.7219785295350245,-0.9825161242587902,-0.07631133311510983,0.10112101350090051,0.1364301529656518,0.21749084978364405,0.2463315811787753,1949.5722959476982
1685679151984749555,82,1685679151984749555,camera_1,142,0,0.3272997168627214,0.4720326080195936,1.7242115526117048,-0.9826589939207787,-0.07709232056486073,0.09585445004934315,0.13874436991195657,0.24672308436129242,0.280323085770419,1946.8542137509203
1685679152004723310,83,1685679152004723310,camera_1,144,0,0.3278380410583419,0.47216047758619073,1.7270476554477614,-0.9825360698297191,-0.07701383526069049,0.09430411246669278,0.14070705395920316,0.2371220241766423,0.27035821551914263,1940.0171217848556
1685679152024724006,84,1685679152024724006,camera_1,146,0,0.3274568106688873,0.47157885107368647,1.7250068906956635,-0.9821057634544503,-0.07720660925880189,0.09426100888447154,0.1436045649705867,0.25692959723528475,0.29236373257825926,1941.3231883752155
1685679152044553756,85,1685679152044553756,camera_1,148,0,0.327736291794863,0.47253660014715365,1.7265168971665625,-0.9833868534390552,-0.07747654267028144,0.09545178199168992,0.13355388101326468,0.2104553016833961,0.23961014815681056,1947.7999169270042
1685679152064685344,86,1685679152064685344,camera_1,150,0,0.3273715334090101,0.47278494940111354,1.7247546510021547,-0.9828657012170032,-0.07627702338702146,0.09559660288041358,0.13790619490127667,0.22976998781086877,0.26124450395733917,1946.2764428209052
1685679152084697008,87,1685679152084697008,camera_1,152,0,0.32789646762369434,0.47493867910268794,1.7277756278429561,-0.9826367825464829,-0.07609337913161594,0.10270250892333092,0.13448771653902541,0.18682595621794462,0.21301867604560792,1936.373307206668
1685679152094671010,88,1685679152094671010,camera_1,153,0,0.3285917931297612,0.4764414875882471,1.7313952043681375,-0.982695787007328,-0.07575246443377692,0.09954582240637602,0.1366059426661085,0.24811130802845582,0.284268361742172,1928.1324786324985
1685679152114686489,89,1685679152114686489,camera_1,155,0,0.3289427663200601,0.47783957110916925,1.7331957076685494,-0.9834347939846729,-0.07657582589675524,0.09607092665726302,0.1332761265935073,0.25214142637560144,0.2895758418084329,1929.725168120815
1685679152134665727,90,1685679152134665727,camera_1,157,0,0.328517970076848,0.4783238053928067,1.7310690008944252,-0.9832524378019138,-0.07709019308024784,0.09753394069332737,0.1332624331920821,0.2325393986538984,0.26646634369151495,1932.4151961330788
1685679152154680490,91,1685679152154680490,camera_1,159,0,0.3280673861284289,0.478143622959983,1.728960292275584,-0.9837342194079502,-0.07776193934813802,0.10138799208560573,0.12625585695521765,0.24958377244183794,0.2850614263207065,1941.0496356203223
1685679152174697637,92,1685679152174697637,camera_1,161,0,0.32815104166113096,0.4782202769838749,1.7293937759091917,-0.9837009211403072,-0.07738584499566789,0.102425146362891,0.12590876909317333,0.2428107900195755,0.2774301424512669,1939.6054784792946
1685679152194674491,93,1685679152194674491,camera_1,162,0,0.32854741771851576,0.47830318409103517,1.7313965230141668,-0.9835448585442726,-0.07844697973682078,0.09734748520963099,0.13041874759657213,0.22476027585798874,0.257569445139869,1934.9835505748626
1685679152204685211,94,1685679152204685211,camera_1,163,0,0.329142269889093,0.4784243797087346,1.7343760152282648,-0.9836772924322748,-0.07681418415536785,0.10071131641286615,0.1278115652515136,0.27625727851409465,0.3174265046750705,1928.9267876558006
1685679152224682092,95,1685679152224682092,camera_1,165,0,0.3285423694528568,0.47664877840407444,1.731295919967509,-0.9832743338579865,-0.07609604524363582,0.10276198320870648,0.12969560933749963,0.19707849773112684,0.2255775507139846,1932.9392312259872
1685679152244690656,96,1685679152244690656,camera_1,167,0,0.32726532418226234,0.4732811279413944,1.7242530663811813,-0.9817733136328993,-0.07614033105876142,0.09722450242257599,0.14446870509982887,0.2270950015517883,0.25826606948131636,1938.0551044656895
1685679152264739990,97,1685679152264739990,camera_1,169,0,0.32745889233891967,0.4726963779981647,1.7250981635095168,-0.9818965364426723,-0.07698284119867188,0.09456260700683018,0.14495084421601656,0.24574125470826402,0.27979551402219394,1938.3735713600183
1685679152284699916,98,1685679152284699916,camera_1,171,0,0.3276840180590686,0.4721866220209623,1.7263309576039405,-0.98292285948412,-0.07695042264432023,0.09443370170818134,0.13792592482964167,0.24653349246364087,0.2807678641229626,1944.4806305738184
1685679152304738998,99,1685679152304738998,camera_1,173,0,0.3277066074582298,0.47195746384176646,1.7263843758948303,-0.9822673317584761,-0.0773903815431449,0.0949173824108777,0.14195882614673083,0.24476888525532559,0.2788897706969757,1939.622495917371
1685679152324721336,100,1685679152324721336,camera_1,175,0,0.3271898569595754,0.471470242628373,1.7236243861695395,-0.9827401531408094,-0.07659913042506285,0.09652563950233617,0.1379752352473732,0.2657975963666104,0.3017042525215099,1948.8520737201907
1685679152364609956,101,1685679152364609956,camera_1,177,0,0.32762345410581384,0.4739267896415962,1.7261486849662482,-0.9818370698026825,-0.0758545184882488,0.09884621523643788,0.14307860119399446,0.21267816016916186,0.2423186831447318,1934.0146337104968
1685679152374603509,102,1685679152374603509,camera_1,178,0,0.32756631351035204,0.4743475590475249,1.7259624434155083,-0.9825239020588445,-0.0756182745875852,0.1046570560311693,0.1340729616826129,0.1856598366284743,0.21119345320805752,1939.304209434893
1685679152394763708,103,1685679152394763708,camera_1,180,0,0.32790619902089474,0.47588547006250986,1.7279498140083087,-0.9830668577314369,-0.07590939504346478,0.102810654986785,0.13132892368157917,0.2201857507461682,0.25110543240657573,1938.5234535145578
1685679152414846181,104,1685679152414846181,camera_1,182,0,0.32823960965892607,0.47761935786270476,1.7297004709880692,-0.9837370886399961,-0.07730303380054039,0.09894427278698756,0.12843524548188207,0.22587151470361277,0.2582272901367136,1939.7568966625258
1685679152434752225,105,1685679152434752225,camera_1,184,0,0.3288259891640098,0.47906920800609737,1.732986366562166,-0.9843109695496668,-0.07660068295485221,0.0952372584114887,0.127256100856927,0.2719934348715469,0.31225599284697214,1936.1051101142073
1685679152454741477,106,1685679152454741477,camera_1,186,0,0.3279791653049027,0.4780665420239633,1.728465803697849,-0.9838171695974446,-0.07751784762244533,0.10033614410719477,0.12659944032639595,0.2533608184894547,0.28925187714803247,1942.616187249078
1685679152474611282,107,1685679152474611282,camera_1,188,0,0.32894194517305786,0.4791818579609966,1.7335266211241176,-0.9841978547949684,-0.07672450551927829,0.09719301752252407,0.12657586742610538,0.24273179180454463,0.2787628309321193,1934.0965647851122
1685679152494742870,108,1685679152494742870,camera_1,190,0,0.3290208672857465,0.4783440574058752,1.7337733476089732,-0.9839272176379824,-0.07687601713722009,0.10237695689663426,0.12448400329713395,0.22857239551376551,0.2623630265606642,1932.201634054305
1685679152514619112,109,1685679152514619112,camera_1,192,0,0.328117134949353,0.4761485212706513,1.7291023101299103,-0.9832233881577496,-0.07610605391065645,0.10423395302273636,0.12889887732248706,0.20609213400166482,0.23526390046465193,1937.3482013200414
1685679152534704208,110,1685679152534704208,camera_1,194,0,0.327619476293801,0.47388070417075934,1.7260906811173167,-0.9816324614859376,-0.07591276181930759,0.09872993414127203,0.1445246112414227,0.2196902182768099,0.2503365116002304,1932.5762582693715
1685679152554620504,111,1685679152554620504,camera_1,196,0,0.3271730027368429,0.47229292560283787,1.723542955298771,-0.9820747245985803,-0.07647831589320199,0.09391848022377344,0.1444286037293836,0.25321158312726766,0.28778341409272523,1942.9589611226697
1685679152574585914,112,1685679152574585914,camera_1,198,0,0.32746231724977565,0.4717950969839758,1.7250323946617145,-0.982500446813141,-0.07638315651528417,0.0954711690870884,0.14051242395562252,0.2555622301879339,0.29066857562111376,1943.7005390899717
1685679152594725847,113,1685679152594725847,camera_1,200,0,0.32704732763287075,0.4709318598363352,1.7228034644914414,-0.9819554003274161,-0.0770758323815266,0.09309272931624658,0.1454532625243277,0.28451157704694197,0.32306069616254035,1945.0465762973756
1685679152614751338,114,1685679152614751338,camera_1,202,0,0.3278903477760353,0.47241923250929563,1.7272789132416835,-0.9828048090630525,-0.0767103181136117,0.09588049757083432,0.1379027358793677,0.23070680035743862,0.2629864435311472,1941.255248491187
1685679152634745836,115,1685679152634745836,camera_1,204,0,0.3274824934151901,0.4723746613188374,1.7252085250584213,-0.9823292213903412,-0.0774772017369431,0.09609113189732688,0.1406878757546281,0.23089879227336496,0.2627048401381477,1942.170496756211
1685679152664798259,116,1685679152664798259,camera_1,206,0,0.32752992047543905,0.47423567405903316,1.7258154474817702,-0.9830082219642458,-0.07539976135988197,0.09993582016562128,0.1342480665983313,0.19992529129376635,0.22748041996494486,1943.4661121065717
1685679152674755811,117,1685679152674755811,camera_1,207,0,0.32840317911349937,0.47597935853118567,1.7304078270772678,-0.98260564208794,-0.07615457660424273,0.1001892451448466,0.13656041797124654,0.21899427013704553,0.2505910778985249,1930.0266787775327
1685679152695171356,118,1685679152695171356,camera_1,209,0,0.3291955722416135,0.4785966367173843,1.734780284733979,-0.9839733675323122,-0.07769509969252335,0.10463858672988365,0.12169901247776296,0.2181064232136123,0.25054638313713806,1930.8524385883939
1685679152714755058,119,1685679152714755058,camera_1,211,0,0.32899048927641555,0.4789866810780064,1.7336157937035563,-0.9836648663579871,-0.07777078063190666,0.0979420340215758,0.12947005192145253,0.21715251600835472,0.24945803083559695,1930.4821584685717
1685679152735143899,120,1685679152735143899,camera_1,213,0,0.32799476215777496,0.47814207645539253,1.7285378881304876,-0.9837925819280233,-0.0775992273732572,0.09954471323351635,0.1273631254395247,0.24436543218325824,0.27904864113806127,1942.2640041774134
1685679152754802703,121,1685679152754802703,camera_1,215,0,0.3279016196583664,0.47791197777526306,1.7280239459473552,-0.9836658437300272,-0.07746184681803069,0.09992969389255028,0.12812192023605873,0.2511523920693435,0.2866294730526352,1942.3913320992144
1685679152764801979,122,1685679152764801979,camera_1,216,0,0.3289785212754676,0.4790040824156698,1.7336229470368414,-0.9838052478603287,-0.07766919503206395,0.09630792687216914,0.12969006765027585,0.21503183816093951,0.24706197336473074,1931.5237677209088
1685679152774777412,123,1685679152774777412,camera_1,217,0,0.32844792463167893,0.47790868895185357,1.7308139659466983,-0.9838327831335774,-0.07711751229630295,0.09967199221810782,0.1272455818334869,0.19808938290225342,0.2267114316542801,1937.9272958713113
1685679152794739961,124,1685679152794739961,camera_1,219,0,0.32881891205476166,0.4775600370230653,1.7324418002479571,-0.9830887062780475,-0.0768313168268035,0.09856299365411023,0.1338614232150332,0.23871785559458658,0.2738759676889034,1928.8459236614863
1685679152814808607,125,1685679152814808607,camera_1,221,0,0.32794776911749485,0.4749257218810742,1.7279833851219386,-0.9828795502178196,-0.07591294893416585,0.10235946543565053,0.1330697327849705,0.20027122751343995,0.22837596587565237,1937.7799189747316
1685679152834719419,126,1685679152834719419,camera_1,223,0,0.3270834262382876,0.4726846919006801,1.723232317284142,-0.9823653681667186,-0.07622199023317994,0.09749398473435619,0.14015496627725238,0.2184028525953181,0.24792902531299607,1945.3894383448633
1685679152854747056,127,1685679152854747056,camera_1,225,0,0.32740267362894654,0.471978550667305,1.7246964687077935,-0.9830885344428735,-0.07729085324022203,0.09530679606322226,0.13593995761557776,0.22190679714549333,0.25219194297076336,1949.4599963785145
1685679152874737739,128,1685679152874737739,camera_1,227,0,0.32747924139662676,0.47163500116486945,1.725077673023655,-0.9820257364662403,-0.07695324662563036,0.09234933824049357,0.14551718275948103,0.25276275782380253,0.2877890896010693,1940.3564613969052
1685679152895649909,129,1685679152895649909,camera_1,229,0,0.32726319514534946,0.4712762811959713,1.7238967562097978,-0.981865856694189,-0.07700105395070773,0.09299029255642172,0.14616115297485083,0.2822668108274229,0.3209571920640435,1941.7796775179443
1685679152914771318,130,1685679152914771318,camera_1,231,0,0.32767083181049256,0.4723063276054216,1.7261893575887306,-0.9833266262307057,-0.0775151760313654,0.09571782115693668,0.1337843127707181,0.22428873891476542,0.2552613663041661,1948.1943616385101
1685679152944751024,131,1685679152944751024,camera_1,233,0,0.32777553974092466,0.47404650861908015,1.7269062245597762,-0.9820505991980926,-0.07611682210496777,0.10041882999530112,0.14035280043405962,0.1885847015073523,0.2149437816679666,1934.2376934201457
1685679152964745044,132,1685679152964745044,camera_1,235,0,0.3277126476332423,0.4754674437818921,1.7267960980849644,-0.9826178645807294,-0.07539248138496983,0.10211541400932474,0.1354641951924139,0.21652489464031532,0.2467110875774339,1937.2900449384476
1685679152984748840,133,1685679152984748840,camera_1,237,0,0.32897261260810545,0.4782145677072862,1.7334545908797394,-0.9835564059756022,-0.07670542371010651,0.10278628092624191,0.12715366566151767,0.24465228791814297,0.28075760911868225,1929.8970510545187
1685679152994754552,134,1685679152994754552,camera_1,238,0,0.3283409330146345,0.47769913318775165,1.7302292998311413,-0.9838293301083826,-0.0773234222861528,0.1000005138410914,0.12688906499760436,0.23191606521140784,0.2652383891537776,1939.3644011341971
1685679153024620771,135,1685679153024620771,camera_1,240,0,0.3280557911601205,0.47821572333946866,1.728781350757854,-0.983690591328084,-0.07738092515985978,0.10015094408123784,0.1278076732972064,0.23796803754521534,0.27181666099690865,1940.7487492468204
1685679153044752597,136,1685679153044752597,camera_1,242,0,0.3286551596879551,0.47887969261234953,1.7320015647383318,-0.9838587728902582,-0.07705453517444485,0.0986484680366938,0.1278788229924677,0.2505951813654974,0.28730657311094365,1934.8940155662128
1685679153064788341,137,1685679153064788341,camera_1,244,0,0.3278273892457391,0.47703085284722846,1.7273586535711267,-0.9829804506238127,-0.07665488510236271,0.0986467531001128,0.13469328262446906,0.2616830460028723,0.29856271402891515,1938.4971828286075
1685679153094740152,138,1685679153094740152,camera_1,246,0,0.3284718486950662,0.4761809134194415,1.7307436962636786,-0.9824887271862133,-0.07586575842818681,0.09815602758878995,0.13901684034000766,0.24413056566845626,0.27960850534254234,1928.0889517997869
1685679153104737758,139,1685679153104737758,camera_1,247,0,0.3276550651040226,0.47450319533307217,1.7264735079252471,-0.9826464089879942,-0.07574683521596004,0.102629594645109,0.13466854926353963,0.17888189858058468,0.20365220987431695,1939.223199009429
1685679153124722480,140,1685679153124722480,camera_1,249,0,0.32751735307443003,0.47289050586196446,1.7255252354099098,-0.9828865820039725,-0.07647795075331273,0.09330146679995015,0.13921180358755528,0.2447756131296046,0.2786578198871121,1944.945278740023
1685679153144579410,141,1685679153144579410,camera_1,251,0,0.3271895559368418,0.47165156577722983,1.7234823812989257,-0.9827540631484841,-0.07674337204895841,0.0968070805243691,0.13759831166133088,0.23033770063193518,0.2614137931349142,1949.1664019648456
1685679153164577007,142,1685679153164577007,camera_1,253,0,0.32739054043960597,0.47141150933245507,1.724588141308857,-0.9819731574344741,-0.07726609834602,0.09756025265868959,0.14226969187330551,0.24318300210870802,0.2764365536133943,1941.2436998300254
1685679153194742441,143,1685679153194742441,camera_1,255,0,0.3277291831957542,0.4721330066916915,1.726490321941914,-0.9827707222304269,-0.07667635123191342,0.09316047701732796,0.14001275017065115,0.2587107694125734,0.29480180191974226,1942.8303578533241
1685679153224603414,144,1685679153224603414,camera_1,257,0,0.32688041012375185,0.4722096413529041,1.7220917100604798,-0.9824517867147916,-0.07668258724843488,0.10101824853044995,0.13676103632848105,0.2120401068823412,0.2402003355811488,1949.0382496158118
1685679153244564056,145,1685679153244564056,camera_1,259,0,0.3278259003096187,0.47505656908839017,1.7272875708063482,-0.9821524547233281,-0.07574888250566841,0.10138146616177461,0.13914187291743757,0.22703092853771523,0.2588941342278323,1933.1780609220732
1685679153274590492,146,1685679153274590492,camera_1,261,0,0.3290025141951434,0.4782739214039758,1.7336760198138248,-0.9837675198247485,-0.07715767986185333,0.10004771896535924,0.12743081772486306,0.2764951735152863,0.31746309159035424,1931.379814990097
1685679153294579744,147,1685679153294579744,camera_1,263,0,0.3290892113069829,0.4794220652324407,1.7343875917562304,-0.9845159536654272,-0.07714127666318366,0.09782066492612931,0.12332346867664153,0.2634411228937097,0.3027464854108006,1934.9615067429845
1685679153314729213,148,1685679153314729213,camera_1,265,0,0.3281120549221317,0.47829798715090693,1.7292032450718886,-0.983793233535336,-0.07766520275288638,0.09950332824953827,0.12735021632767468,0.23424531478667632,0.267693465424687,1940.8492949139318
1685679153344708204,149,1685679153344708204,camera_1,267,0,0.328798113749543,0.478799127794091,1.7326740761140125,-0.9837617931325748,-0.07755920581525506,0.09423763304632155,0.13159244842966877,0.25396975048352033,0.2916121016173291,1933.1774382258297
1685679153364706754,150,1685679153364706754,camera_1,269,0,0.3289694602255843,0.4779203555396478,1.73340031695868,-0.9830989595192032,-0.07685902046797928,0.09836177350504069,0.13391821488470407,0.23926957638468593,0.27481244795707394,1926.760457612575
1685679153384683847,151,1685679153384683847,camera_1,271,0,0.32865708737036736,0.47653611850146244,1.7318168404254641,-0.9828091393167374,-0.07582075760367554,0.09992589399732531,0.135470380898313,0.22109156980877742,0.25338458415690696,1928.166378057795
1685679153414665937,152,1685679153414665937,camera_1,273,0,0.3274817525186559,0.4728978945363095,1.7253862208872104,-0.9830290680710235,-0.07642974403040244,0.09386440259357687,0.1378470873127661,0.23462014453252777,0.2669960921982056,1946.3234807881536
1685679153444541215,153,1685679153444541215,camera_1,275,0,0.32776727026043984,0.47209857782300724,1.7266842671771854,-0.9827150540435717,-0.07692911270141704,0.09273590505974402,0.1405456726045397,0.24508719349978492,0.27936948073644846,1942.187564493157
1685679153464681386,154,1685679153464681386,camera_1,277,0,0.3275868859397178,0.47173877847921064,1.7257690881859125,-0.9820987198276123,-0.07779559683381915,0.0959422568102184,0.14221474250019528,0.23162377934204414,0.26370321475567865,1939.9522651738953
1685679153484657764,155,1685679153484657764,camera_1,279,0,0.32700732099548563,0.47131237898133443,1.722488770257707,-0.9825747619591916,-0.07624640805617565,0.09664424254616959,0.13925951601971992,0.2599829397513531,0.2947826017860969,1949.7237244702405
1685679153514556884,156,1685679153514556884,camera_1,281,0,0.32686533846543275,0.47217690842002846,1.7220134473531734,-0.9824507862681408,-0.07679934730885106,0.1009806830677341,0.13673044452944857,0.2373783618095331,0.2688791698351701,1949.2882580496373
1685679153534510612,157,1685679153534510612,camera_1,283,0,0.32755487270293393,0.474613755641377,1.725904884326127,-0.9818612272486651,-0.07589137892087118,0.0991680039223417,0.14267002498525205,0.22509191423887387,0.2564380947300467,1934.1170709691935
1685679153554530143,158,1685679153554530143,camera_1,285,0,0.3285915691980638,0.4770955951447684,1.7314939314441864,-0.9830094431808127,-0.07661704380380678,0.10229890684394717,0.13174671485334155,0.19109681097324938,0.21885205337882818,1930.3869892801156
1685679153584644794,159,1685679153584644794,camera_1,287,0,0.3288410681685698,0.4790049208622265,1.732970809862931,-0.9840635831598559,-0.07663526751257818,0.09548080675882227,0.12895470372400422,0.24721055652480572,0.2838300907773342,1934.241073147627
1685679153604665756,160,1685679153604665756,camera_1,289,0,0.32794416696617495,0.4780652064131518,1.7282950430454433,-0.98368261478069,-0.07761285724005618,0.10097556381211996,0.12707750895451192,0.23324989742832258,0.2662407210373182,1941.945050229318
1685679153624515295,161,1685679153624515295,camera_1,291,0,0.3286531318905636,0.47887355636329537,1.7320363249576818,-0.9841020603732709,-0.07696246222991687,0.09799178985752005,0.12656035436546298,0.2708141704206355,0.3104790677581265,1936.7137920164973
1685679153645472526,162,1685679153645472526,camera_1,292,0,0.3284129935548599,0.47760995809119705,1.7306474605805204,-0.98374449810859,-0.07711388797446882,0.10202206282545319,0.12606232355219668,0.23934518586611375,0.2737984042616848,1937.777953989571
1685679153664515495,163,1685679153664515495,camera_1,294,0,0.3283758773746496,0.47665880837487273,1.7304237571267236,-0.9830469253308548,-0.07609027975948217,0.10101628816113369,0.1327581313887151,0.20752664346946403,0.23741101077328958,1932.8858095277096
1685679153684502601,164,1685679153684502601,camera_1,295,0,0.3280130609952757,0.47468366347797164,1.7282682819856092,-0.9828030997777255,-0.07541213299810004,0.09899881952462543,0.13641961368037134,0.18714589736191556,0.21359168041995405,1936.5333666361403
1685679153694490194,165,1685679153694490194,camera_1,296,0,0.32723141768951947,0.47305298323419664,1.7240747658773723,-0.981906966375615,-0.07658108395952946,0.099506194559649,0.14174824234140496,0.20368755591334775,0.2314466222815943,1939.9340749047697
1685679153714653015,166,1685679153714653015,camera_1,298,0,0.3275665713452345,0.4726925379367913,1.7256423768338196,-0.982174247414753,-0.07738157986338394,0.09739384125041992,0.1409265003453873,0.20794063602807,0.23669894669839198,1939.7099160426305
1685679153734671831,167,1685679153734671831,camera_1,300,0,0.32749037254702146,0.4717663513808887,1.7252301972688477,-0.9825600901241334,-0.07643545618560718,0.0928916616783105,0.141790089652258,0.28248709317995235,0.3215086111129781,1943.8634742374998
1685679153754581212,168,1685679153754581212,camera_1,302,0,0.32715303924157957,0.47107752422853527,1.723297244923376,-0.9817220422420001,-0.07686014280984983,0.09589445507770238,0.14532241296096218,0.26431884785415605,0.3001933570060524,1941.8941148002634
1685679153774645328,169,1685679153774645328,camera_1,304,0,0.32737240243648974,0.47184200813230986,1.724661946661901,-0.9832247138018597,-0.07736855241791613,0.09426635053258636,0.1356359997319101,0.2583864471525885,0.2936551669883488,1950.797246556729
1685679153794643402,170,1685679153794643402,camera_1,306,0,0.32726239033413995,0.47226765537994553,1.7240076326797775,-0.9818856275547198,-0.07703394177970661,0.09652644337535221,0.14369771029720643,0.22113849653396755,0.2513611445561334,1940.854754532221
1685679153814705371,171,1685679153814705371,camera_1,308,0,0.3276715583479473,0.4742311536339533,1.7264159468198907,-0.9825363212241085,-0.07498265600725372,0.09856336570674452,0.13887131350301285,0.20713042363058776,0.2359731595154609,1938.2511299042958
1685679153834686517,172,1685679153834686517,camera_1,310,0,0.32851875956071497,0.47644901989821703,1.7310540448917826,-0.9828398905656677,-0.07544237182240879,0.1025634321216903,0.13347262055603534,0.20559379894984886,0.2353267352222742,1929.7415061476631
1685679153854575634,173,1685679153854575634,camera_1,312,0,0.3289812366743148,0.47849335587465325,1.7337236849713327,-0.9841069295105231,-0.07768380515931761,0.10302777528337947,0.12200022633379377,0.18044565303716809,0.20706844560139187,1934.1228878411935
1685679153894569396,174,1685679153894569396,camera_1,314,0,0.32816145627149995,0.4783434690434047,1.7293988060443966,-0.9838376264567593,-0.0776520555520091,0.10176781754442976,0.12520780466377204,0.2184834476793185,0.2496447983726205,1940.746978169308
1685679153914549350,175,1685679153914549350,camera_1,316,0,0.3287171743615828,0.4790246429718218,1.7323865762815385,-0.9839841580175033,-0.07745776947144739,0.10118114287392063,0.12465090070200299,0.23280603799503297,0.2669039278385377,1935.245387674077
1685679153944579839,176,1685679153944579839,camera_1,318,0,0.3290889916156677,0.4782641499420213,1.7341463795271543,-0.9836441285874076,-0.07638822318135571,0.09688922574169576,0.13123088656977702,0.2643571702647023,0.30385359587814675,1929.032422020333
1685679153964694976,177,1685679153964694976,camera_1,320,0,0.32766770189615413,0.47473404634885247,1.7265153333470291,-0.9819827412656879,-0.07578703652535505,0.09854985137322332,0.14231706765298818,0.21978628431679678,0.2505744109583703,1933.7011178135876
1685679153984683752,178,1685679153984683752,camera_1,322,0,0.3273509796558199,0.47329351695943045,1.724739595046477,-0.9822544898158462,-0.0761417097235435,0.09619217905133386,0.141864801717493,0.22826850309502333,0.25968318148766967,1940.9159142679987
1685679154004547595,179,1685679154004547595,camera_1,324,0,0.32745089161807545,0.4722127017949631,1.7249893688899238,-0.9828357862011836,-0.07729531517294194,0.09544358910859582,0.13765817415862552,0.21798885485623032,0.24787298896461152,1946.6685388600458
1685679154024578571,180,1685679154024578571,camera_1,326,0,0.3274626342008474,0.47177110634949526,1.7250629005637805,-0.9825910917542774,-0.07622779445923715,0.09415815678246091,0.140848540171161,0.25988323567435145,0.29564691062327997,1944.3017252713914
1685679154044716596,181,1685679154044716596,camera_1,328,0,0.3273334147978151,0.47138367126356734,1.7243428336268443,-0.9820260867232165,-0.07712638966173875,0.0939491724564167,0.1443947298469926,0.2730011877720244,0.3104653670110685,1942.1407335591498
1685679154064735412,182,1685679154064735412,camera_1,330,0,0.32704095155982965,0.4712600884956567,1.7227763896051254,-0.9824270697631513,-0.0762740857243718,0.09773360368477639,0.13952583687004572,0.2571073172148317,0.2915745022594818,1948.0304721421558
1685679154094757795,183,1685679154094757795,camera_1,332,0,0.3274893670744461,0.4733410767987749,1.7253954090747046,-0.982224380011406,-0.07616514025295264,0.09896986412998841,0.1401395901076807,0.18436838523484766,0.20978369569714325,1939.3003785684705
1685679154114735841,184,1685679154114735841,camera_1,334,0,0.3278477511010981,0.4748640679204552,1.7274130771228768,-0.9822109074331585,-0.07547928436064798,0.10224965650890365,0.13823754444993233,0.18267913308227435,0.20829359730726235,1933.3914127368475
1685679154134700536,185,1685679154134700536,camera_1,336,0,0.3288602111139593,0.47779626737335773,1.7328181182546951,-0.9834682417696634,-0.0763474203704841,0.09592607659287541,0.13326468648054243,0.2726380334352143,0.3129903755887094,1930.642225198447
1685679154154765844,186,1685679154154765844,camera_1,338,0,0.3282032679649154,0.47764995614649347,1.7295469016080902,-0.9833813118359027,-0.07767806433505742,0.10007863125091486,0.1300445362943073,0.22224351024487987,0.25404926825771984,1937.4420167971407
1685679154174710988,187,1685679154174710988,camera_1,340,0,0.3278678637756609,0.47787832139233405,1.7278307844873477,-0.9835860308503572,-0.0771631334075526,0.10024654317873477,0.12866624009227307,0.24222321656998247,0.27638320225746255,1941.9807647671555
1685679154204742670,188,1685679154204742670,camera_1,342,0,0.3288763487971192,0.4790447305228683,1.733145391203582,-0.9842452897546452,-0.07647813067406423,0.09614068453087053,0.1271584598142452,0.2556693329825066,0.29353281489958605,1935.1981809930885
1685679154224698066,189,1685679154224698066,camera_1,344,0,0.3285670616608132,0.4779839391755232,1.7314453961342535,-0.9840962279971762,-0.07738820804849632,0.09968115546331732,0.1250173849601351,0.21974582184338942,0.2516336078520389,1938.853704429464
1685679154244731664,190,1685679154244731664,camera_1,346,0,0.3283961247647127,0.47641614377099895,1.7304181229123625,-0.9830103915787761,-0.0763657555182139,0.10245036346528048,0.1317678430350354,0.221440568449907,0.25326892433643877,1932.9464834989053
1685679154264706850,191,1685679154264706850,camera_1,348,0,0.3275189938408856,0.4741449276271853,1.7257385213398615,-0.9828386638725659,-0.07558774043979272,0.0985956916290128,0.13635814564811524,0.22732266905950382,0.258715775768162,1942.4724613723815
1685679154294726848,192,1685679154294726848,camera_1,350,0,0.3274000983259929,0.472139611849025,1.7247390834207692,-0.9828852066186005,-0.07726669303786782,0.09640300657172753,0.1366491459220817,0.23604769993107766,0.2682724257389035,1947.6005522659975
1685679154314681768,193,1685679154314681768,camera_1,352,0,0.32753876979509355,0.47184752671859975,1.725460383291523,-0.9826570763755574,-0.07634373060318828,0.0942286830250103,0.1402770841655972,0.2562390408711508,0.29160992498310173,1944.0288460757588
1685679154334716558,194,1685679154334716558,camera_1,354,0,0.32751173262874983,0.47162916111595166,1.7253334083406842,-0.982107091455473,-0.07768802658652899,0.09499681708320382,0.14284899783345492,0.24962565820896998,0.28411506735632314,1940.9240898138376
1685679154354745864,195,1685679154354745864,camera_1,356,0,0.3271708962263522,0.47140482275936896,1.723416869297676,-0.9824591778257,-0.07644587143978018,0.09581779877785711,0.1405309292761857,0.2711258571362123,0.30779778986459305,1946.9899563202634
1685679154374742269,196,1685679154374742269,camera_1,358,0,0.32719068588220074,0.4724159511080607,1.7236856349657264,-0.982307013939392,-0.0759642046317792,0.09476133042521329,0.14255756814767728,0.2399164253147319,0.27261746060804465,1944.1034423792735
1685679154394736528,197,1685679154394736528,camera_1,359,0,0.3276941586204252,0.47403463104701143,1.7264363351924406,-0.9819190068883693,-0.07531104239724783,0.0993174615614276,0.1424757966582143,0.19897765264613554,0.22676085537787852,1933.6465036151935
1685679154414721727,198,1685679154414721727,camera_1,361,0,0.3283337534825056,0.4765066703396887,1.730110915174079,-0.983494114736337,-0.07593819756741027,0.10306083343044652,0.1278717366810336,0.19163169735111296,0.21901760452998928,1937.0660112635228
1685679154434738159,199,1685679154434738159,camera_1,363,0,0.3288963641277765,0.47830311892689287,1.7332578219290566,-0.9839852827898646,-0.07796239412354633,0.10265365419121214,0.12311399447936901,0.19979295443044975,0.22917161334097497,1934.4207050350965
1685679154454715967,200,1685679154454715967,camera_1,364,0,0.3286446071399503,0.47889561077789894,1.7319823427150303,-0.9840802891976673,-0.0771520323969795,0.09895665433045922,0.12586154644438866,0.25867120671318844,0.29650543278271113,1936.7399000332223
1685679154474709033,201,1685679154474709033,camera_1,366,0,0.3279505664608569,0.47807853167860925,1.7282010803295114,-0.9835467905639153,-0.07703632335671305,0.10077823380240511,0.128626837194924,0.23277926380978897,0.2657147847803755,1940.6630548574035
1685679154494681835,202,1685679154494681835,camera_1,368,0,0.3290877327013254,0.4794277242672991,1.7343443091040123,-0.9845240045996055,-0.07690398090245688,0.09843064428402201,0.12292139909040661,0.2455984282423742,0.28220580576881027,1934.9536196109832
1685679154514697313,203,1685679154514697313,camera_1,370,0,0.3283741601877558,0.4777195944282978,1.7303108919784906,-0.9837152574897567,-0.07663842598202979,0.10171151831465809,0.12682906168140545,0.1989749301574193,0.2275511850665697,1937.8300049367829
1685679154544707298,204,1685679154544707298,camera_1,372,0,0.3284743595708886,0.4760597953286066,1.730820814464777,-0.9826379572317274,-0.07666259149923169,0.09841150349103313,0.13733414743869846,0.21649367921054363,0.24791305695052887,1929.7227931907403
1685679154574711322,205,1685679154574711322,camera_1,374,0,0.32726065816467315,0.4723549226041113,1.7239887291575637,-0.9816583841551835,-0.07650064564361453,0.09578133661146272,0.14601508001184693,0.23113247967557982,0.26282118668382665,1938.6821133985657
1685679154594694137,206,1685679154594694137,camera_1,376,0,0.32727483034868804,0.4717025437120394,1.724042831689191,-0.9828267660950565,-0.07706386949285052,0.09674566034296181,0.13694153887964916,0.24184731650166214,0.274630703891812,1948.7760002338332
1685679154614691734,207,1685679154614691734,camera_1,378,0,0.32732124085695863,0.4712509845596737,1.7242477870193595,-0.9817013988547812,-0.07726154055211568,0.09800797016445822,0.14383134436666523,0.2596255557728,0.29505304928380005,1939.8968058619646
1685679154644561052,208,1685679154644561052,camera_1,380,0,0.3273525604077777,0.47185059998997514,1.724358782839564,-0.9828874759010381,-0.07689499409019278,0.09647127252495966,0.13679423664091395,0.24275926646078005,0.2757796907838925,1948.3771475518597
1685679154665512561,209,1685679154665512561,camera_1,382,0,0.3275387182452776,0.4728788055338781,1.7255899181976206,-0.9825402179278585,-0.0765006372570709,0.09532985486319173,0.1402661449719837,0.22191340185236186,0.2526259945338436,1942.056989802281
1685679154684744358,210,1685679154684744358,camera_1,384,0,0.3276906432504795,0.4745581168354695,1.726674843965098,-0.9827236089553525,-0.0758828405798751,0.10293422663506323,0.13379330287551067,0.1939938462455757,0.22088637265547462,1939.4643872801682
1685679154714728593,211,1685679154714728593,camera_1,386,0,0.3291249905409183,0.47808774387682523,1.7341896138210555,-0.9833243341863366,-0.07672338969929032,0.09878620835772721,0.1320153790599884,0.2204309023800306,0.2533425925433446,1926.7441474567167
1685679154734805107,212,1685679154734805107,camera_1,388,0,0.32882746916156397,0.4788457806411735,1.732794277881928,-0.9837564604805794,-0.07721336475951868,0.0963939159272279,0.13026717060507015,0.22782491648104042,0.2615309272444431,1932.630559538491
1685679154754701375,213,1685679154754701375,camera_1,390,0,0.3278987451028175,0.4779564975354896,1.7279759054377593,-0.9835067586280405,-0.07728437537459354,0.10276580750396315,0.12720365507320391,0.2199018499813974,0.2508757989291214,1941.0512517471798
1685679154784725666,214,1685679154784725666,camera_1,392,0,0.3286930511371158,0.4789200724355475,1.7322725197804787,-0.9839621595630214,-0.07723451847481785,0.09760127472243292,0.12777828014414103,0.2568819296429865,0.2946234096512368,1935.2683274310543
1685679154804802417,215,1685679154804802417,camera_1,394,0,0.32921216531777375,0.478649947621865,1.7349219110388627,-0.9841910613957237,-0.07724134425125724,0.10065999561963283,0.12356898756918454,0.22981488140067086,0.26414994268430897,1931.9978700685324
1685679154824727296,216,1685679154824727296,camera_1,396,0,0.32831914893304853,0.47640071262084643,1.7301557654011914,-0.9832602671522992,-0.0761197277548248,0.10391689884537406,0.12886548110522428,0.19327330065425485,0.22090227105209556,1935.3255920333331
1685679154845879316,217,1685679154845879316,camera_1,398,0,0.32751535018245376,0.47367010201774484,1.7255124976414835,-0.9814940890673964,-0.07598753204387568,0.09950999308383092,0.14488964551029399,0.2050909839454107,0.23353247983909656,1932.8503398746248
1685679154864737272,218,1685679154864737272,camera_1,400,0,0.3274594425449545,0.4726828403191777,1.7251004831658876,-0.9822031258808296,-0.07668471232003703,0.09431241787277199,0.1431839454733392,0.24063409195514396,0.2739206751894118,1940.6387854507193
1685679154884825229,219,1685679154884825229,camera_1,402,0,0.327412877859554,0.47171307226048104,1.7247646103769485,-0.9823039548639938,-0.07632682740391328,0.09490435255474122,0.14228956231282583,0.26876854797592387,0.3056829851150493,1942.7178571214895
1685679154914750099,220,1685679154914750099,camera_1,404,0,0.32712019414548665,0.47100444445923645,1.7231605306901172,-0.9816667833317619,-0.07717619376588579,0.09689832301191585,0.14486157743294303,0.2633967889705673,0.29904346186567005,1941.9825427208566
1685679154934839487,221,1685679154934839487,camera_1,406,0,0.32746364191241484,0.47204394193847776,1.7250568142193299,-0.983201747293325,-0.07706552751640885,0.0946527314235084,0.13570589162611796,0.2317163303378038,0.26346135139528176,1949.4423205740743
1685679154954735517,222,1685679154954735517,camera_1,408,0,0.32767879084677115,0.4730554535138064,1.726260929695826,-0.9824995500421961,-0.07669517799842177,0.0943633020080997,0.14109589318190952,0.21928028669208288,0.24987902379640517,1940.3524949718271
1685679154984737396,223,1685679154984737396,camera_1,410,0,0.3282365067468526,0.4757737886704411,1.729393989718223,-0.9823594599492361,-0.07512864948179855,0.09937013402719046,0.13946739381914522,0.24689234053948894,0.28230432280844925,1929.6301993778914
1685679155004644632,224,1685679155004644632,camera_1,412,0,0.32882330152111444,0.4781042750439011,1.7327608904701395,-0.9836014979230725,-0.07687164622962143,0.1030739843792152,0.12646974750361956,0.23330304870614782,0.2675152171841974,1931.835571230623
1685679155024651050,225,1685679155024651050,camera_1,414,0,0.3284417707738426,0.47820652339375497,1.7307132023446636,-0.9832552908381981,-0.07729052795197847,0.09530437894047405,0.13473040741557013,0.25369319459423423,0.2907035480108167,1933.3856818745849
1685679155054655075,226,1685679155054655075,camera_1,416,0,0.3278543198277941,0.4779012154704701,1.7277645066423062,-0.9835726986557988,-0.07732319586810632,0.10052705480623068,0.12845303068311423,0.25304455391597,0.28870209679436926,1942.0852218351783
1685679155074737548,227,1685679155074737548,camera_1,418,0,0.3289896149631005,0.47930732268946297,1.7339022952759167,-0.984633521250741,-0.07696749242467169,0.09390137082385983,0.12552038279349212,0.2753368568373844,0.3164127613596445,1936.8740710169077
1685679155094770431,228,1685679155094770431,camera_1,420,0,0.328991370950422,0.47834207109493365,1.7336983219983522,-0.983769288046966,-0.07694734253944469,0.10257208168828398,0.12552315495483352,0.2633982807165012,0.30233502776826465,1931.1502137775544
1685679155124802112,229,1685679155124802112,camera_1,422,0,0.3270755120872269,0.4736330072421753,1.7234895993229236,-0.9827675284840937,-0.07578143151220273,0.09916583890625154,0.1363499027841494,0.2425544752040878,0.27533346516192364,1947.0004091425806
1685679155144763469,230,1685679155144763469,camera_1,424,0,0.3271152645510254,0.47268308730085984,1.723469120938806,-0.982522260820613,-0.0770297168738941,0.09951104158154993,0.1371640707825272,0.20280802057823166,0.23015554654970527,1946.659203970571
1685679155174770355,231,1685679155174770355,camera_1,426,0,0.32770949877610245,0.47219776107064065,1.7263793735357325,-0.9827953287647917,-0.07661906929238323,0.09469181952001604,0.1388391850122391,0.25003388518234715,0.2847977940277178,1943.1390686442617
1685679155194762468,232,1685679155194762468,camera_1,428,0,0.3274272345074181,0.47153230796864226,1.7249302396399702,-0.9822618298458741,-0.07740505117832933,0.09268763304735049,0.1434543772772198,0.26694760064128786,0.3037961119066271,1942.9020260183606
1685679155214771747,233,1685679155214771747,camera_1,430,0,0.3276117654373278,0.4720347251647084,1.7258695844245993,-0.9828679059195112,-0.0765932351791923,0.0950960569770926,0.13806120304266972,0.257715241110418,0.29332807078962936,1944.8647016040054
1685679155234759092,234,1685679155234759092,camera_1,432,0,0.3269627808642856,0.4715962762702962,1.7223942240135546,-0.9820159476565266,-0.07702788794306341,0.09595778834058001,0.14319038335052228,0.2584153379430063,0.29315810378100554,1945.7295340667476
1685679155264750480,235,1685679155264750480,camera_1,434,0,0.3278244574540922,0.4746371791597864,1.727379084755332,-0.9830363287479978,-0.07579530542901299,0.10180560997031408,0.13240191016429242,0.17720112501410767,0.20191415014481875,1940.4291093433267
1685679155284766912,236,1685679155284766912,camera_1,436,0,0.3286149317252956,0.47718139639245977,1.7314639022383789,-0.9828245892482543,-0.07658870179998253,0.10054517270181791,0.1344643661791303,0.22578193014487624,0.2586980736820506,1928.8711680667475
1685679155314739704,237,1685679155314739704,camera_1,438,0,0.32837934292726956,0.4780444571414283,1.7303843700902088,-0.9834773129940543,-0.07734800352573759,0.09602219593658265,0.1325496098224882,0.24912186095025385,0.2852605053708721,1935.9829458135641
1685679155324809074,238,1685679155324809074,camera_1,439,0,0.3286188402165144,0.4789066866029535,1.7318917820152235,-0.9842033092758848,-0.07760368878034293,0.1023950175291786,0.12180629656663886,0.22800465259933844,0.26118095664784147,1938.1595750988918
1685679155344623804,239,1685679155344623804,camera_1,441,0,0.3282045618261952,0.4784162395907269,1.7297283070006804,-0.9839880369515411,-0.0781157173083901,0.10139399221130971,0.12403522156670303,0.21481236472027376,0.24552413724727992,1941.5319697875534
1685679155364818572,240,1685679155364818572,camera_1,443,0,0.3285683000745882,0.47837363690139423,1.7313687245940395,-0.9833425671346289,-0.0772238447503827,0.09821462979107552,0.1320142414970783,0.2180616453406401,0.2499141459303877,1932.5745235122736
1685679155394731998,241,1685679155394731998,camera_1,445,0,0.3289380513693439,0.4777884842344262,1.733161681813859,-0.9832667800937703,-0.07668921206707567,0.09773411561162981,0.13324130951838045,0.2247570813051425,0.2580739644927116,1928.562077169539
1685679155414768934,242,1685679155414768934,camera_1,447,0,0.3275689573748251,0.47442654837918036,1.7260224600414653,-0.9825540241021657,-0.07590412830411182,0.10151873614720737,0.13608857129864904,0.2244589211186394,0.2554795122093328,1939.5590018192297
1685679155435229539,243,1685679155435229539,camera_1,449,0,0.32720644713100944,0.4728994100510609,1.723894377434732,-0.9823463922280916,-0.07658409062967829,0.09935976454231407,0.13877348424311362,0.2061562568997033,0.23412483125978742,1943.9255436521487
1685679155464718818,244,1685679155464718818,camera_1,451,0,0.3272658565164215,0.47162954182531375,1.7240614876141336,-0.9827795302489046,-0.07701839129887564,0.09464041131098361,0.13876510682575574,0.269828763732221,0.3065359816147291,1948.4279704412902
1685679155484751939,245,1685679155484751939,camera_1,453,0,0.327234079223883,0.471229540681836,1.7238161364583087,-0.9819118134400903,-0.07702017756725589,0.094358157869989,0.1449607564745857,0.2498460344504565,0.2839649464254136,1942.3577854561163
1685679155504754543,246,1685679155504754543,camera_1,455,0,0.3275499891536321,0.47189840521988685,1.7255069901967808,-0.982649603856254,-0.07631905816829712,0.09396804305568147,0.14051748747304393,0.2614400432212278,0.29756795797100466,1943.8165811763602
1685679155524651050,247,1685679155524651050,camera_1,457,0,0.3266211328301674,0.4713738178536725,1.7204895517314562,-0.9814367712211172,-0.07590098906590419,0.09445438999883818,0.1486582394750907,0.28134044591570273,0.31878920348402745,1944.4371190371457
1685679155554721593,248,1685679155554721593,camera_1,459,0,0.32740217011150785,0.47393181976855736,1.7250135208902144,-0.9826112254022116,-0.07489411145972268,0.09915058142144083,0.13796816294353356,0.22114911873359233,0.25150779986319544,1941.8609336041845
1685679155574812889,249,1685679155574812889,camera_1,461,0,0.3283847095795647,0.4767595747608912,1.7302367517304182,-0.9827533273339715,-0.07612561822915748,0.1020500655769356,0.13411402603374442,0.23146447050385177,0.26477894680625286,1930.813840222545
1685679155594789028,250,1685679155594789028,camera_1,463,0,0.328209905745151,0.4774201153310362,1.7295057239731568,-0.9837474955505078,-0.07669630429115608,0.09992517578703101,0.12795898229555078,0.22107629472156987,0.2526505260331492,1940.0068511855793
1685679155624781370,251,1685679155624781370,camera_1,465,0,0.3282440792359739,0.4784629599770364,1.7298940976602846,-0.9839570019360917,-0.07779221798964685,0.1019210086733486,0.12405279985633794,0.2123502020840533,0.2427508430223389,1940.6966116279373
1685679155644804000,252,1685679155644804000,camera_1,467,0,0.3286179269865388,0.47883684142608457,1.7318704434625973,-0.9841003908695053,-0.0771828498882383,0.0988221266320625,0.12579115891640913,0.24474475235911086,0.28049947621602306,1937.2014217642127
