%time,field.header.seq,field.header.stamp,field.header.frame_id,field.image_seq,field.transforms0.fiducial_id,field.transforms0.transform.translation.x,field.transforms0.transform.translation.y,field.transforms0.transform.translation.z,field.transforms0.transform.rotation.x,field.transforms0.transform.rotation.y,field.transforms0.transform.rotation.z,field.transforms0.transform.rotation.w,field.transforms0.image_error,field.transforms0.object_error,field.transforms0.fiducial_area
1685679150619689702,22,1685679150619689702,camera_3,25,0,0.028910091727274472,-0.45790905499441764,2.06103583532577,0.9921851067409903,0.05280957305680084,-0.0026273354814778365,0.11301752104517183,0.06982693076133728,0.027520751014427434,23012.632925102946
1685679150629700183,23,1685679150629700183,camera_3,26,0,0.028951431034017427,-0.4579516290381667,2.063241114514722,0.992586226563999,0.05289010317715525,-0.0016769316120890086,0.10941849807834092,0.10444784426363185,0.04119933374891479,23007.91541535616
1685679150639668464,24,1685679150639668464,camera_3,27,0,0.028940830235819504,-0.457287713281833,2.062418914405659,0.9924799970144735,0.052629123213682794,-0.0016661208801809434,0.11050273732863926,0.07648653374053538,0.03014764261554135,23021.90119381388
1685679150649677038,25,1685679150649677038,camera_3,28,0,0.028986958392463336,-0.4574305255943656,2.0652788918364022,0.9928549383782694,0.052792657855223545,-0.0008406055411317149,0.10701074710882319,0.10923749610083178,0.043122376028906687,23000.885141105842
1685679150659520626,26,1685679150659520626,camera_3,29,0,0.02893820319393785,-0.45565223362148155,2.0615259946642936,0.9922675926352674,0.052598074031706354,-0.0024090582946198038,0.11239512290174931,0.0799712662701495,0.03149388038183843,23041.703246938996
1685679150669546604,27,1685679150669546604,camera_3,30,0,0.028929934252719024,-0.4553433013572418,2.0619904782768077,0.992359256929457,0.05256650247313048,-0.0031898000152384004,0.111578193120435,0.08074206608580425,0.031805665010052046,23045.3789696116
1685679150679581403,28,1685679150679581403,camera_3,31,0,0.028924579960328684,-0.454856757477726,2.0615029836127077,0.9923668190111555,0.052804719994747874,-0.0008615732689938179,0.11144063784571051,0.09516411297954618,0.03744287354177673,23062.7561394202
1685679150690530300,29,1685679150690530300,camera_3,32,0,0.028926756697578496,-0.4545466105584382,2.0615086023986744,0.992206958998567,0.052584806159642346,-0.002720172032882643,0.11292824863638173,0.10137367999413982,0.03991180685159709,23050.832090102605
1685679150699576616,30,1685679150699576616,camera_3,33,0,0.028911364453469056,-0.45409476632612056,2.0613091751544643,0.9921857326342833,0.052477360196767596,-0.003382486567808928,0.11314661907616944,0.1009592076879926,0.03974261349878096,23058.074593415946
1685679150709584236,31,1685679150709584236,camera_3,34,0,0.028908372235928476,-0.45412593783384214,2.061836523517566,0.9921359498215163,0.05303608562897193,-0.0033669052171886216,0.11332296608442834,0.07194234209600836,0.028335321311599063,23045.572826503536
1685679150719590663,32,1685679150719590663,camera_3,35,0,0.02893615868314725,-0.4542367522595944,2.062364948152063,0.9923589071977743,0.052560668933855755,-0.0021065933893302767,0.11160975607336975,0.06543756474275142,0.025767408262255223,23052.086827048333
1685679150729571819,33,1685679150729571819,camera_3,36,0,0.02893605156093792,-0.4543271043928301,2.0624038562380984,0.9924337190612692,0.05269887792102658,-0.0011442808842432727,0.11089108240674972,0.08206936909118667,0.03230594669194098,23057.718576603584
1685679150739734888,34,1685679150739734888,camera_3,37,0,0.02892895003446954,-0.45468250134996124,2.062268660087898,0.9922828529817965,0.0526682335696455,-0.0022792185931833414,0.11223012970483556,0.0908058313652873,0.035767782957540635,23041.77653710916
1685679150749735355,35,1685679150749735355,camera_3,38,0,0.028937208006367076,-0.4549339922428894,2.0620498343153613,0.9923651354876803,0.05249711857178297,-0.00263978238304345,0.11157294456609186,0.10704417258966714,0.04215591940468937,23049.634169218363
1685679150759747266,36,1685679150759747266,camera_3,39,0,0.028954920567545256,-0.45553670713779526,2.0631849637526294,0.9925415815654774,0.05282982055986703,-0.0039362000944213145,0.10979401282369454,0.0974182459176518,0.038407529276103934,23038.061136962384
1685679150769736766,37,1685679150769736766,camera_3,40,0,0.02891675793461678,-0.45530554295487785,2.0602806081545206,0.9921158195750412,0.05282567873695395,-0.002223954924914329,0.11362527113022249,0.048844095785170794,0.019217491868559172,23057.399656952824
1685679150779731988,38,1685679150779731988,camera_3,41,0,0.02894744816811432,-0.4568286945554578,2.0631243640310015,0.9923732588382881,0.053214429670564375,-0.0042902824444689255,0.11110865445166412,0.08770640107104555,0.03461019892351333,23008.104203758754
1685679150789727687,39,1685679150789727687,camera_3,42,0,0.028953979570646465,-0.45731324583237865,2.0631491309385477,0.9925592106621746,0.05279369629599872,-0.002488512719869501,0.10969433105466199,0.07466173294233158,0.029447045626139506,23015.921507386018
1685679150799768686,40,1685679150799768686,camera_3,43,0,0.028919214777475315,-0.4574018808126785,2.0613747739174717,0.9921634391924855,0.0531969128175044,-0.00147048114802995,0.11304705251185974,0.07094506418798119,0.027956583808855746,23013.32666948391
1685679150809774398,41,1685679150809774398,camera_3,44,0,0.028939131680117858,-0.4581720104332994,2.06278357880428,0.9924011159623911,0.053146431248938523,-0.002535082630803291,0.11094618171959626,0.09246384567813948,0.0364827954359292,22997.45722791738
1685679150819780826,42,1685679150819780826,camera_3,45,0,0.028936038491607783,-0.4589541192985284,2.062660881707824,0.992584927579374,0.05272107996949786,-0.0027168801422888045,0.10949094862768928,0.08351398503873497,0.03294911171064129,23003.29923245753
1685679150829751491,43,1685679150829751491,camera_3,46,0,0.028913148310857756,-0.45911645297627984,2.0618897548455,0.9925309084756568,0.0527510216186559,-0.002580944888524069,0.10996846894522926,0.07773529068799691,0.030654235098647422,23010.460535322087
1685679150839737653,44,1685679150839737653,camera_3,47,0,0.028935017601789993,-0.4597895196229713,2.0637656246836036,0.9928578090167346,0.05295756893272117,-0.001947681713667197,0.10688813546492426,0.07913479238050058,0.031238945981090574,22996.49580642675
1685679150849753141,45,1685679150849753141,camera_3,48,0,0.028920327606067688,-0.4598555022106479,2.0632503894779117,0.992924371559039,0.0530081318790628,-0.001507462892697159,0.10624997823249871,0.08976211334811524,0.03541128148962194,23011.613716379743
1685679150879731416,46,1685679150879731416,camera_3,50,0,0.028930218431913554,-0.45972597358727746,2.0632218691414494,0.9928934047719835,0.052559541406095145,-0.0027877784025943267,0.10673523157353985,0.07542189152445644,0.029762569895093,23009.17879314185
1685679150899771451,47,1685679150899771451,camera_3,52,0,0.02894780733697838,-0.45895404840332776,2.0637149405065656,0.992835947292361,0.052867614331866035,-0.0026986235431791248,0.10711916051719773,0.10062133718747646,0.039712345350027795,23007.641376125634
1685679150919801712,48,1685679150919801712,camera_3,54,0,0.028959312280842583,-0.4580330455034457,2.0633764140177284,0.9926114547206435,0.053042578493312696,-0.0008618307471220622,0.10912489208201898,0.09809194604167715,0.038689432110076236,23007.137126957285
1685679150929745674,49,1685679150929745674,camera_3,55,0,0.028956275342144615,-0.45756185176634995,2.0633444643412044,0.9924106865026104,0.053095228550171326,-0.0026168387108831724,0.11088317354668324,0.10297006042674184,0.0406367630024864,22996.21234090347
1685679150939588308,50,1685679150939588308,camera_3,56,0,0.0289529796187617,-0.45649144641789885,2.062837969111675,0.9925428321818299,0.05259398229025805,-0.003688873388941428,0.10990446544360456,0.09631916467333212,0.03797673084807729,23030.902800863136
1685679150949737787,51,1685679150949737787,camera_3,57,0,0.028960741870430483,-0.4561869635313972,2.0635387029093404,0.9926489375710357,0.05285500732872588,-0.0020247459497895275,0.10885924555688209,0.09675254439935088,0.03814243709114497,23032.516250900706
1685679150959712505,52,1685679150959712505,camera_3,58,0,0.028940530867617574,-0.45548061023910796,2.062334218505705,0.9923975640312004,0.052809883919078565,-0.002523781841978899,0.1111387492758816,0.056226993969175965,0.022151386609598162,23041.623673730992
1685679150969728469,53,1685679150969728469,camera_3,59,0,0.028918692691116292,-0.45479266762236537,2.06097868651421,0.992052743980266,0.052812291032841345,-0.0023135863476691876,0.11417908037508112,0.07901026966283098,0.031102846437598378,23044.665592779405
1685679150979704856,54,1685679150979704856,camera_3,60,0,0.02895252598691815,-0.45466644536615497,2.063128838355659,0.992663914722837,0.05278431216056356,-0.0026120309335836847,0.10874440717237048,0.08148941450053826,0.03209648113325897,23061.365119554095
1685679150989737987,55,1685679150989737987,camera_3,61,0,0.028933676284950156,-0.45438637723003406,2.0626638953225322,0.9923872597561231,0.05308542846412775,-0.0025704581582726067,0.11109840999478786,0.10528203012654558,0.041469641112540596,23049.64290028438
1685679150999726295,56,1685679150999726295,camera_3,62,0,0.028934978862780056,-0.4543096472080086,2.0627886448181174,0.992492289526968,0.05286714093243796,-0.002090289747236153,0.11027126247540492,0.09238872525747865,0.03638287648269673,23056.829893216032
1685679151009739160,57,1685679151009739160,camera_3,63,0,0.028919261126654383,-0.45407713155966906,2.061801763822745,0.9924079320374046,0.052782754498870474,-0.002289272082455679,0.11106410981989925,0.055743838485796005,0.021936273148537883,23070.846410951573
1685679151019714593,58,1685679151019714593,camera_3,64,0,0.028934972495709664,-0.4545264552215,2.062813564140087,0.9924494816515956,0.05272968645539153,-0.0024665228231761753,0.11071369744055191,0.11133305972907692,0.04385619217489132,23048.983311339267
1685679151029738903,59,1685679151029738903,camera_3,65,0,0.028912571047498184,-0.4544018733087102,2.061224770767981,0.992149323248113,0.05274465130964471,-0.0031000431734987876,0.113349511992147,0.08244234009180218,0.03245472811707134,23053.738468310792
1685679151039720296,60,1685679151039720296,camera_3,66,0,0.028921076480748518,-0.45473290997983407,2.0613669998041835,0.9922281975577681,0.05294137182474137,-0.0034234956173822945,0.11255529662496988,0.0678158724331297,0.02670039621007653,23055.1204968756
1685679151059713840,61,1685679151059713840,camera_3,68,0,0.028971175853422175,-0.4565955331461074,2.0643095652863965,0.9926612616889388,0.05286026042085407,-0.0035022955528844395,0.10870669867227241,0.07875947077991441,0.031084074985877886,23013.579303555423
1685679151069734811,62,1685679151069734811,camera_3,69,0,0.028973501809576523,-0.4571368940299011,2.064621900885741,0.9929553829886367,0.05305501532487013,-0.0028520684538199887,0.10590863254854394,0.06418666045647115,0.02532510121098352,23028.603031654835
1685679151079697370,63,1685679151079697370,camera_3,70,0,0.028951874449001012,-0.4574840602338162,2.063927208530422,0.9929054604847178,0.05329553897256392,-0.00019687589092044387,0.10629343020684684,0.08419851103099063,0.03319100349789642,23033.26661430718
1685679151089725971,64,1685679151089725971,camera_3,71,0,0.028934283562248517,-0.45740421965253947,2.061544213189017,0.9924094156025022,0.05266109241905859,-0.0020217308946219757,0.11111378750146686,0.08447024232009426,0.033278055620849185,23030.53203546838
1685679151099730491,65,1685679151099730491,camera_3,72,0,0.028920259544988527,-0.45829262583060754,2.0615473120566468,0.9921447646406495,0.0527971222663041,-0.0010593357374688499,0.11340241480825143,0.07071110774995759,0.027879731231763273,22993.101716931917
1685679151109735727,66,1685679151109735727,camera_3,73,0,0.028924011806792133,-0.4589569388704518,2.062845159192161,0.9926675879231037,0.053210527668223574,-0.003403478844933222,0.10848094746981451,0.044650338182691485,0.017617557219152216,23010.235130047426
1685679151119721412,67,1685679151119721412,camera_3,74,0,0.028913757126565645,-0.4592583045127573,2.0627310111636024,0.9925611429380765,0.05308749070366455,-0.0007256037391953083,0.1095608021121666,0.06371127377497032,0.025131338886872964,22996.77009981336
1685679151129742622,68,1685679151129742622,camera_3,75,0,0.02890932350050154,-0.4595454254205454,2.062754093083489,0.9926045934448955,0.052924991631419054,-0.0013119619399556913,0.10923985119349058,0.07330272143008187,0.02892054902969819,22995.269734985188
1685679151139730691,69,1685679151139730691,camera_3,76,0,0.028891286568008073,-0.4595636754940765,2.061439153001564,0.9923585069259772,0.05244102242249249,-0.0018351599427194171,0.11167437077017223,0.0921443022089079,0.03633874761287688,22994.141025095705
1685679151149749994,70,1685679151149749994,camera_3,77,0,0.028911228563297135,-0.46001799164712387,2.0633765926664673,0.9929440111311023,0.05248187890720934,-0.0017777901761304184,0.1063234809782679,0.06141282513272017,0.024233506905997102,23006.0767929724
1685679151159701108,71,1685679151159701108,camera_3,78,0,0.028907054280921423,-0.45967173745066126,2.062059125328175,0.9925263794987395,0.05270645699112824,-0.002662809531557612,0.11002874549846185,0.0861328897299245,0.033980385213059995,22998.059864359435
1685679151169746637,72,1685679151169746637,camera_3,79,0,0.028914234229267415,-0.45969093842265984,2.0628051420286417,0.9926743438494535,0.05287543514827583,-0.0034748512838127916,0.10858066508127918,0.08279374090489,0.03267873182381763,22998.655997764563
1685679151179723501,73,1685679151179723501,camera_3,80,0,0.028915884616954463,-0.45920307153769296,2.0629260564384477,0.992755666939975,0.052636130792282916,-0.0036369172917314133,0.10794626592150595,0.07838131207972765,0.030930106913171856,23010.342656367917
1685679151189752101,74,1685679151189752101,camera_3,81,0,0.02894148880197116,-0.4590251991567707,2.063734392489092,0.9927679267953157,0.05314207663099812,-0.0034676547803984803,0.10759060641245521,0.1000196774257347,0.039487819762812,23001.33595931274
1685679151199736118,75,1685679151199736118,camera_3,82,0,0.028931763066109933,-0.45835953708419686,2.0626535944388436,0.9924660036196864,0.05316783747086841,-0.001296758070265022,0.11037541001666572,0.06930133514106274,0.027331939091996802,23003.236091955783
1685679151209747791,76,1685679151209747791,camera_3,83,0,0.028924483311483767,-0.45767430155001904,2.0615735677182543,0.9921765660758175,0.05293846024395468,-0.0018077422484785986,0.11304827829277812,0.07833004731219263,0.030877797517043323,23005.545693523956
1685679151219722747,77,1685679151219722747,camera_3,84,0,0.028937083663578,-0.4568725249560595,2.0623069145658466,0.9922145346804264,0.05296207501772751,-0.00047425627737942167,0.11271695018809257,0.07719630148494616,0.030427772985556274,23006.523199281663
1685679151229735374,78,1685679151229735374,camera_3,85,0,0.028938965793816825,-0.4564103140352197,2.062358855892034,0.992160859659652,0.05231133386024905,-0.003192861921379037,0.1134467211599053,0.09278938855277374,0.0365968184074586,23004.03579301408
1685679151239732742,79,1685679151239732742,camera_3,86,0,0.028947648105548805,-0.45605548337344076,2.062872329908001,0.9924389390585098,0.052936714356673124,-0.002349046944522059,0.11071196182884621,0.09228032163809985,0.03637490283458527,23027.993542796008
1685679151249737977,80,1685679151249737977,camera_3,87,0,0.028942514645233005,-0.45536456010380394,2.0616618964326667,0.9921269705688524,0.05275057783974622,-0.001004393109748245,0.1135801127043194,0.10925428150221705,0.04302442005479279,23030.280130777275
1685679151259550571,81,1685679151259550571,camera_3,88,0,0.028920315545912612,-0.45472048731884673,2.062001708212669,0.992285722894315,0.05284679283503688,-0.0028342267706870958,0.11210810758268064,0.08446820126846433,0.03326689688655991,23047.74932640604
1685679151269584894,82,1685679151269584894,camera_3,89,0,0.028930648712803177,-0.45447823523414616,2.0621369826361984,0.9923022144120698,0.0527575740075627,-0.0016353213979751892,0.1120280294464951,0.09187969856429845,0.03617538489431983,23049.104447811595
1685679151279601097,83,1685679151279601097,camera_3,90,0,0.028931754824867886,-0.4544283748806502,2.0627576488870814,0.9924844385721181,0.052668862275951744,-0.0020264061002962124,0.11043787311000264,0.08771012077340856,0.034542082964629205,23054.252538986017
1685679151289755582,84,1685679151289755582,camera_3,91,0,0.028942774557443852,-0.4544743524903943,2.0634711325100237,0.9925721832443063,0.05311534718220325,-0.0023751939019132583,0.109423852049148,0.06704565195832402,0.026416952623864832,23050.20099908718
1685679151299734115,85,1685679151299734115,camera_3,92,0,0.028944067766985042,-0.4545161570603121,2.0635883478488233,0.992515874343383,0.05328272310395372,-0.0022477844794958754,0.10985507753377262,0.09440423507476225,0.037203689965204935,23042.91531367739
1685679151309607982,86,1685679151309607982,camera_3,93,0,0.028936439873061374,-0.45467667015442437,2.063654531656383,0.9926180273731987,0.053144361785814324,-0.002606838052761529,0.10898776509078961,0.10844524879939854,0.04273670882261338,23048.51831846964
1685679151319581985,87,1685679151319581985,camera_3,94,0,0.028906217742755667,-0.45431629751251557,2.061107180294512,0.9922695093773113,0.052766401980064714,-0.0028943546348683073,0.11228780117820499,0.08359416807070374,0.03289354290731486,23068.4543149108
1685679151329910039,88,1685679151329910039,camera_3,95,0,0.028950579340080322,-0.45500180116186345,2.06290007656683,0.9924640455936466,0.0530210765646148,-0.0021604170152616595,0.11045006220976764,0.09278515016194433,0.03655537996397421,23044.00269132924
1685679151339726686,89,1685679151339726686,camera_3,96,0,0.028924742560438057,-0.4553636334671081,2.0610585013292444,0.9920158983636355,0.052768687981889925,-0.002044309305283948,0.11452398771403037,0.09657239052467048,0.03802871547600983,23031.84197436552
1685679151349738597,90,1685679151349738597,camera_3,97,0,0.028991157880473815,-0.45671948992274664,2.065149519300792,0.9929313746515487,0.05297322377722313,-0.0031258269373947247,0.10616662376279867,0.0772093812120147,0.03047530358088712,23021.43554532597
1685679151359714984,91,1685679151359714984,camera_3,98,0,0.0289642014250354,-0.4569632454427875,2.0641290707552664,0.992542388233249,0.05317898159940743,-0.002995226696111771,0.10964776374065742,0.053837498533539474,0.021251372104716795,23002.47785389446
1685679151369701623,92,1685679151369701623,camera_3,99,0,0.028959377037828138,-0.4572654287545794,2.0632508105224394,0.9926249102230603,0.0525313316343603,-0.003044730171384825,0.10921069736782217,0.11212729418184608,0.044225498292538364,23019.53735190793
1685679151379689455,93,1685679151379689455,camera_3,100,0,0.028911830323768466,-0.4576151078692153,2.0604932519910335,0.9921764146241367,0.052256492790758384,-0.0012464779670355933,0.11337401605958965,0.11715787975117564,0.04613619628507102,23023.403175658303
1685679151389691829,94,1685679151389691829,camera_3,101,0,0.02888795947810319,-0.4578436082762262,2.059609588805693,0.991954104359739,0.05287496136796859,-0.002387326813587969,0.11500258247052181,0.06042288686148822,0.02379535097247327,23019.239551317885
1685679151399777650,95,1685679151399777650,camera_3,102,0,0.02895534873757263,-0.45919141441240124,2.063942509104768,0.9928461114537429,0.05291120718768781,-0.003312597256391267,0.10698611977513978,0.07341774908127263,0.028987374753575282,23001.0945339424
1685679151409781455,96,1685679151409781455,camera_3,103,0,0.028913662225254367,-0.4590771407868857,2.061967386123165,0.9925079035520149,0.053215757566022974,-0.0008233240997173471,0.1099793920281681,0.06260227650636807,0.024678599173193885,23009.555417575175
1685679151419785499,97,1685679151419785499,camera_3,104,0,0.028910747976706834,-0.4598002037466508,2.0630889654980322,0.9927729349843047,0.05339993946267576,-0.0006761700331295241,0.10747040905346149,0.09473451325902715,0.03737089348042215,23003.131827913472
1685679151429781675,98,1685679151429781675,camera_3,105,0,0.02893688316436153,-0.46003211100785973,2.063735457753412,0.9928583998615637,0.05293477115886854,-0.00158742101683866,0.10689989673151659,0.06007862673141062,0.023716463120289882,22993.26209540363
1685679151439756870,99,1685679151439756870,camera_3,106,0,0.028913524466453008,-0.4598095330152918,2.0625717742951677,0.9927551824883422,0.05308218116876903,-0.0028396584949929777,0.10775604866798116,0.0670750659191981,0.026462190986050717,23009.756425541127
1685679151449792861,100,1685679151449792861,camera_3,107,0,0.028929387795758574,-0.4599742392434352,2.063480354344715,0.9927406492346268,0.05279532110261221,-0.0005473089746631183,0.10806645122224744,0.10320053232135251,0.04073138529985636,22986.929448068135
1685679151459784030,101,1685679151459784030,camera_3,108,0,0.028898742563073045,-0.4591536209997606,2.0613430470241165,0.9925951386254397,0.05286934091177767,-0.0027236660065121147,0.10932659883204711,0.06511399627197534,0.025662159331890033,23026.916408182107
1685679151469829559,102,1685679151469829559,camera_3,109,0,0.028922534942134048,-0.4590508327919257,2.0621861129109536,0.9927205372058918,0.052758162159078886,-0.002078567172227065,0.10825059304111323,0.046663149376399815,0.01839551528475213,23023.74925122993
1685679151480854749,103,1685679151480854749,camera_3,110,0,0.028941191994405376,-0.4590064895410352,2.063509885677407,0.9928860976358852,0.053124226664569084,-0.0005873972741775116,0.10655828746332871,0.03838427021401003,0.015138128747640317,23016.58867769781
1685679151489814043,104,1685679151489814043,camera_3,111,0,0.028942993127779437,-0.4585920163911253,2.0634276103070763,0.9928342443236862,0.05270502576362078,-0.0016162539282129984,0.10723680003017026,0.08385757415089756,0.0330752622132329,23017.39029669134
1685679151499768018,105,1685679151499768018,camera_3,112,0,0.028958783069965,-0.4576578166053924,2.0634039042403542,0.99261761583944,0.053004434313434975,-0.001082021652308677,0.10908541560393319,0.06409180606715381,0.025276020144237115,23012.539138617005
1685679151509766340,106,1685679151509766340,camera_3,113,0,0.028936177577088645,-0.45697601150558725,2.0625492248586177,0.9925023915023827,0.05286078715438616,-0.002774596320570956,0.11016824251447359,0.05871418211609125,0.023146161303528794,23027.25938938954
1685679151519773244,107,1685679151519773244,camera_3,114,0,0.028992477517017636,-0.4570849170582318,2.0652776086696014,0.9929782308280932,0.052990328383234774,-0.0019874024417176226,0.10574643460127589,0.09371437277877703,0.036986643756672606,23018.340467838796
1685679151529634714,108,1685679151529634714,camera_3,115,0,0.02894040996068688,-0.4558136819140859,2.061617658255104,0.9922270240947761,0.05293238863365253,-0.0010131935837427155,0.11261735358426152,0.09729417046764866,0.038311462406144,23035.422960740507
1685679151539764165,109,1685679151539764165,camera_3,116,0,0.02894502458946449,-0.4550087255685466,2.061749075550633,0.9921837846863495,0.05268049225120758,-0.0014459133525465428,0.11311062052795497,0.12685387360397726,0.04995096590185925,23038.242187860895
1685679151549741983,110,1685679151549741983,camera_3,117,0,0.028954870505555078,-0.45504750751598216,2.063417856820537,0.9925229059107398,0.05272433160023657,-0.0033521586099000866,0.11003267302243953,0.10659235075581819,0.042020897436584895,23037.51483164426
1685679151559710025,111,1685679151559710025,camera_3,118,0,0.028929508173366356,-0.4545303904996756,2.062263189625676,0.9922880022317287,0.05295336167651311,-0.0015589828474150047,0.11206262395019481,0.11105051875347272,0.04373003461557334,23045.58390509523
1685679151569711208,112,1685679151569711208,camera_3,119,0,0.028911081623548263,-0.4541921131907457,2.061576084571921,0.9923660174495393,0.053189150563386293,-0.002619470864483645,0.11123731409053411,0.08786827401490882,0.03457672328982311,23071.94240997638
1685679151579707860,113,1685679151579707860,camera_3,120,0,0.02893690655635059,-0.45429496586875007,2.062669025818512,0.992426778783966,0.052744217172333636,-0.0020821019938719616,0.11091799294364262,0.09665784484241158,0.03806560887062575,23052.610919465762
1685679151589748144,114,1685679151589748144,camera_3,121,0,0.028940441994143924,-0.4543923831430677,2.0628574147552734,0.9925422927973621,0.052713729030223554,-0.0014533580348048826,0.10990426529806124,0.09743782982695848,0.03836578766596593,23058.25462968136
1685679151599760532,115,1685679151599760532,camera_3,122,0,0.028937831789363856,-0.4543100829030289,2.0619212544659558,0.9923340744387026,0.05255840867221377,-0.0005296194576752521,0.11184997938738385,0.07109889283310622,0.02797845410647246,23057.268953729887
1685679151609628677,116,1685679151609628677,camera_3,123,0,0.02891395753445607,-0.4542859547695565,2.0609003781899835,0.9922460490301118,0.05288443109980587,-0.003165391179585191,0.11243218146982227,0.06087953981477767,0.023953210960406094,23071.308878253683
1685679151619602680,117,1685679151619602680,camera_3,124,0,0.028952970893950623,-0.45542418070812046,2.0632442791032446,0.9926218523164115,0.05328052578241057,-0.0030376683189511033,0.10887523339800524,0.11676757788518444,0.046016816757567594,23047.987824067466
1685679151629628896,118,1685679151629628896,camera_3,125,0,0.028929141204536067,-0.4552511554667831,2.0606700077269653,0.9922727256965775,0.05317920979933224,-0.0023088843908730876,0.11207800201945362,0.08978376683080569,0.035322952557836865,23066.961703296984
1685679151639592647,119,1685679151639592647,camera_3,126,0,0.02895646486862191,-0.4561993508697519,2.0630326949747824,0.992443429457699,0.05331166120383242,-0.002994110251698493,0.11047597661812977,0.08684778097085655,0.034243758617193254,23025.324984610546
1685679151649766445,120,1685679151649766445,camera_3,127,0,0.028961564102367835,-0.456584314468021,2.0626348441144455,0.9923605567486679,0.05285752115095401,6.702040519700918e-05,0.11147467593815134,0.11372399964602664,0.044812606821228666,23017.217742213983
1685679151659726381,121,1685679151659726381,camera_3,128,0,0.02895730513196079,-0.4576539475417013,2.0630840925854668,0.9926417615953127,0.052934145426039164,-0.00029698657950149074,0.10890464261885648,0.09776845766464248,0.03853879784014524,23020.385860558847
1685679151669731140,122,1685679151669731140,camera_3,129,0,0.028930643813080074,-0.45789354687097433,2.0620780858591217,0.9922932665944976,0.05294417907174074,-0.0009585651500760311,0.11202708657505145,0.12256598594831303,0.04831927038331464,23003.5528983851
1685679151679737329,123,1685679151679737329,camera_3,130,0,0.02892277519440887,-0.45819951415431825,2.0614480405480493,0.9923421317145503,0.05275348992931318,-0.0024342620023137746,0.11166126138013956,0.10279232577886432,0.040517442881047576,23014.84751909274
1685679151689730882,124,1685679151689730882,camera_3,131,0,0.028927234835183155,-0.45863164338602463,2.061620851280347,0.9922915359024971,0.05296051961182829,-0.0015915392715999332,0.11202748832967607,0.08557972247945145,0.033741440508309004,23001.27385072969
1685679151699925422,125,1685679151699925422,camera_3,132,0,0.028905752795793934,-0.45926161360059964,2.0616838496874275,0.9924285424954056,0.05310844778007294,-0.0035764624537745933,0.11069006157353455,0.0792397438781336,0.03125648587841433,23004.442718139624
1685679151709763526,126,1685679151709763526,camera_3,133,0,0.028893262859448283,-0.4592556685302216,2.060721666939149,0.9923080908177478,0.052702715040649224,-0.0010544729059822789,0.11200877113811614,0.08684848534176126,0.03422079275103067,23008.867434872074
1685679151719769716,127,1685679151719769716,camera_3,134,0,0.028904155348527652,-0.4597669421236458,2.0625159997659135,0.9927272534261354,0.05287546360675499,-0.0030915462356456754,0.1081074835302585,0.09244742925511673,0.03647350309637576,23007.856132518493
1685679151729758501,128,1685679151729758501,camera_3,135,0,0.028927523056901286,-0.459959172335217,2.063212095502396,0.9927761790377089,0.05282994902823974,-0.003544365560153559,0.1076656504821125,0.0957813182612881,0.037815412129660324,22996.13749118917
1685679151740840673,129,1685679151740840673,camera_3,136,0,0.02892069712323141,-0.4597061695803968,2.0629218026841247,0.992811815740238,0.053056491862567716,-0.003630739458951535,0.10722184912036438,0.08032479166286066,0.031698453467024906,23010.074723462567
1685679151750016927,130,1685679151750016927,camera_3,137,0,0.028898288833805904,-0.4590819914738593,2.0610640778333913,0.9922206532854199,0.05250845286749576,-0.002597630671646205,0.1128463109109476,0.10402788879582658,0.041021585021317274,22996.103364643644
1685679151759977817,131,1685679151759977817,camera_3,138,0,0.028931860537154304,-0.4592529566729736,2.0630497153532947,0.9927105372471589,0.05348388262259595,-0.0036648177799518474,0.10794365497197898,0.06873237411491573,0.027126451123477544,23007.236016419716
1685679151769967794,132,1685679151769967794,camera_3,139,0,0.02892551755825376,-0.45877052067909097,2.0623768498973574,0.9925070655667888,0.05296270981152117,-0.0025255665683740565,0.11008313986679004,0.07227215316379443,0.028507944394380744,23005.326801140338
1685679151779803752,133,1685679151779803752,camera_3,140,0,0.028932364630044297,-0.4579041167539281,2.06209277387588,0.992065561463097,0.05304037413964826,-0.00234419661878752,0.1139611565940293,0.10452419688226655,0.0412408777322856,22982.430653050993
1685679151789827108,134,1685679151789827108,camera_3,141,0,0.02894334482262525,-0.4574730530685204,2.062261931584527,0.9922985805328138,0.053001585002792596,-0.0020299456902349217,0.11193854733847992,0.077713550592307,0.03064317122650228,23007.13082924251
1685679151799854755,135,1685679151799854755,camera_3,142,0,0.02897737509165777,-0.45738668716165565,2.0639960593273368,0.9927545896548322,0.05250232209476128,-0.002465493819497466,0.10805439479331576,0.12988979514921084,0.05124599977581131,23015.44411568949
1685679151809805870,136,1685679151809805870,camera_3,143,0,0.02896861359935697,-0.4569134760265856,2.0640440757587317,0.9925165374591643,0.05314466618493274,-0.0022165035071426255,0.10991657945171932,0.09592914750101045,0.03785728471849083,23002.042022291804
1685679151819776535,137,1685679151819776535,camera_3,144,0,0.028911121313883674,-0.4551731706089958,2.0602761314141893,0.9920525955967814,0.05270997630739476,-0.0037599862325066653,0.11418917843164578,0.07899945630924776,0.031094645183516387,23052.953678332276
1685679151829791545,138,1685679151829791545,camera_3,145,0,0.028936212589228055,-0.45519692560374325,2.0621620235305294,0.9921570654364639,0.05295865154336141,-0.0028484066529160697,0.11318845043003653,0.10094961995491758,0.03978284094675932,23026.91512996191
1685679151839745998,139,1685679151839745998,camera_3,146,0,0.028937768731112416,-0.45507847043140376,2.0632563182723334,0.9927493552397715,0.05294616888684956,-0.004042830559912065,0.10783819542391765,0.07086905685719103,0.027924760796179515,23062.706401545573
1685679151849743366,140,1685679151849743366,camera_3,147,0,0.028978117942114606,-0.45520221325210053,2.0650635489020015,0.9928773791278848,0.052808733881582214,-0.0029076202292594986,0.10675810688921625,0.12624639907153323,0.04979988979616995,23036.882893087793
1685679151859721422,141,1685679151859721422,camera_3,148,0,0.028955473388367105,-0.454530773657732,2.0635950752004737,0.9924213919616762,0.05314599433392411,-0.0035627215739523974,0.11073658419011369,0.10228527302388102,0.040330356365747284,23033.226941427904
1685679151869770765,142,1685679151869770765,camera_3,149,0,0.028954271152545067,-0.45466103417147,2.064374657450115,0.9926531718816074,0.05283764737798013,-0.002220149781064511,0.10882524664752193,0.1241568720433861,0.048952856862384,23036.29504781124
1685679151879715919,143,1685679151879715919,camera_3,150,0,0.028925981754291796,-0.4541579552460337,2.061921392324575,0.9921455295673688,0.05308726657525022,-0.002315839344014376,0.11324145519722988,0.057184121338650584,0.022518606834570055,23044.49122990597
1685679151889950513,144,1685679151889950513,camera_3,151,0,0.028946954904977125,-0.45448894699209463,2.062846997901639,0.9925243851952354,0.05287157508677927,-0.0027440091033464177,0.10996550256650377,0.08497128868475555,0.03346767077919106,23056.541439960696
1685679151899837970,145,1685679151899837970,camera_3,152,0,0.028935256511168135,-0.45476069026560656,2.06186955133681,0.9922107219448638,0.05275081119391416,-0.0029477068262565563,0.11281199493184552,0.09887629188597202,0.03894497172817616,23042.25685480005
1685679151909801959,146,1685679151909801959,camera_3,153,0,0.028956628040500067,-0.45531536307150255,2.0628883978992243,0.9924441823975968,0.05273084206396149,-0.0012469250608887785,0.11078108276363624,0.10125467949546874,0.039891618156125214,23036.731665180752
1685679151919794797,147,1685679151919794797,camera_3,154,0,0.028942434515314076,-0.45554453020021674,2.062081791759537,0.9923940347877703,0.05280998489699705,-0.0028094010634228603,0.11116335942428829,0.11279524466954172,0.04443050467313366,23045.274687229663
1685679151929804563,148,1685679151929804563,camera_3,155,0,0.028952262161305795,-0.456058301969188,2.062577114651994,0.9925671889532569,0.05256917217669898,-0.0019451648837558674,0.10974093987050325,0.07800074975239113,0.030727928506768514,23043.780192675993
1685679151939792633,149,1685679151939792633,camera_3,156,0,0.02893109011656265,-0.45669025207936803,2.0612955950171123,0.9921839652605406,0.052906996696345986,-0.003000075989718628,0.11297268840077672,0.04349576128879562,0.017138717306381453,23025.7383961163
1685679151949778318,150,1685679151949778318,camera_3,157,0,0.028970911700111734,-0.45755644433338444,2.0630423359348713,0.9925901592661704,0.05223427183781756,-0.00265064260923692,0.1096783053629547,0.10210818541236222,0.040272965382156974,23014.566135799745
1685679151959773540,151,1685679151959773540,camera_3,158,0,0.028937370485957223,-0.45769561579525553,2.0616661527411515,0.9921801107212096,0.05251593798713703,-0.0008116349862947786,0.11322563930147865,0.08769496117020026,0.03456542934973937,23001.5375933291
1685679151969742059,152,1685679151969742059,camera_3,159,0,0.028909436832112285,-0.45805851647423285,2.061269787867572,0.9922137840381484,0.052971029053282985,-0.0016443903944712538,0.11270835295560587,0.09019729541614652,0.035548759510537584,23009.28524200129
1685679151979733467,153,1685679151979733467,camera_3,160,0,0.028930834463373602,-0.4592786264468118,2.063499195717716,0.9928729777776089,0.053157260291736126,-0.004529094066492804,0.106569427999954,0.04755417397245765,0.018772678828499742,23012.19797203386
1685679151989796638,154,1685679151989796638,camera_3,161,0,0.028923231113597264,-0.45944468492862556,2.0628670323696343,0.9925219899169377,0.05336120518078565,-0.0015080344445068704,0.10977434647990626,0.0648509991588071,0.02559190890388577,22989.13341280051
1685679151999792098,155,1685679151999792098,camera_3,162,0,0.028910742290589056,-0.4595493796260646,2.062321188663657,0.9926896604860331,0.053060240856503266,-0.004150413196662872,0.108326464331997,0.0836473592207767,0.03300272137794499,23012.4014753604
1685679152009743690,156,1685679152009743690,camera_3,163,0,0.028929085623752678,-0.4599082242886767,2.0633496221123515,0.9926875504553417,0.05284386433316329,-0.0017713636258991495,0.1085164293746185,0.09086475992808118,0.03587096125384169,22985.84912823001
1685679152019742488,157,1685679152019742488,camera_3,164,0,0.028923909563924682,-0.45986327770862306,2.0629585399751624,0.9926877839218604,0.0529061258837002,-0.002877665172937752,0.10846024405023547,0.10253613768145442,0.040472855307144,22994.375305216745
1685679152039746761,158,1685679152039746761,camera_3,166,0,0.028937439937620435,-0.45970618082754816,2.063584084716311,0.9928588160931989,0.05283835816186932,-0.0032307953321957573,0.10690669377682133,0.11681052256608382,0.04611475925245765,23000.80363021185
1685679152049749612,159,1685679152049749612,camera_3,167,0,0.028915557389409024,-0.4590882062601104,2.0620180833906487,0.9925138310497739,0.05286565066354833,-0.0022552882540815915,0.11007466479490913,0.10738328663865104,0.04234763947815329,23007.34078749829
1685679152059732675,160,1685679152059732675,camera_3,168,0,0.028943744806618748,-0.458530352961559,2.0628093479749285,0.9925492282833474,0.052702202379106486,-0.0032268214805063777,0.10980935716803228,0.08625209593446925,0.03403348972545724,23003.45376161159
1685679152069732189,161,1685679152069732189,camera_3,169,0,0.02892180284116531,-0.4578064143787348,2.061497189437059,0.9922127148344672,0.05305556642554148,-0.0026049307926896696,0.11265988517501138,0.07280709344195202,0.02870303267026876,23009.166910515636
1685679152079754590,162,1685679152079754590,camera_3,170,0,0.028942451169774636,-0.457542425028194,2.062346322805304,0.9924279642604261,0.05283656077138564,-0.0013055589257904127,0.11087528631597358,0.06562564132036641,0.025868645513004496,23015.751758314203
1685679152089567184,163,1685679152089567184,camera_3,171,0,0.028949342088278124,-0.4571373308242252,2.062729838067829,0.9925124604589223,0.05320911327973111,-0.003578083393294691,0.10988632042702907,0.04370312695391476,0.017234359242321515,23024.35889861687
1685679152099557399,164,1685679152099557399,camera_3,172,0,0.028973462661388713,-0.456462561822882,2.063865088314318,0.9926922969399524,0.053042920754281124,-0.0029697364978277375,0.1083495861508936,0.07948576391208917,0.031351049694052106,23027.621795192128
1685679152109542369,165,1685679152109542369,camera_3,173,0,0.028972873242885222,-0.4561214884248451,2.0642790469389336,0.9929382039981038,0.05312139441014309,-0.004267906060656366,0.10598879881760809,0.10964626987697557,0.04324318225488922,23047.708749667745
1685679152119569778,166,1685679152119569778,camera_3,174,0,0.028947455322017326,-0.4552963517074802,2.0623732181169827,0.9922828573511054,0.05270409113219379,-0.0019120547610175817,0.11222011331150075,0.07883480098098516,0.031060056285518778,23031.904410741525
1685679152129583120,167,1685679152129583120,camera_3,175,0,0.028947197576552647,-0.4550009728120593,2.062613253118821,0.9924008839083831,0.052831750513441016,-0.002472990215551292,0.1110998473218546,0.0702048652456142,0.027658354613942712,23042.836030994775
1685679152139585971,168,1685679152139585971,camera_3,176,0,0.028916850878713582,-0.4540513057714999,2.0606307073450134,0.9919913055352019,0.05237826241614891,-0.0019911481258151195,0.11491650315760638,0.06539372220868245,0.025729299891090775,23053.06000387925
1685679152149573802,169,1685679152149573802,camera_3,177,0,0.028930487344019373,-0.4542808527845352,2.062318820344973,0.9924046069697191,0.05265189142957534,-0.0009368609551769984,0.11117552197186381,0.08221519837388769,0.032361674199045204,23056.990247801878
1685679152159703493,170,1685679152159703493,camera_3,178,0,0.02893254180881713,-0.45419804627205035,2.0622456440275054,0.9924099933107494,0.05295925653712934,-0.0014335494098438252,0.11097597604924386,0.06705993926152587,0.026395261641406993,23061.56066149938
1685679152169562101,171,1685679152169562101,camera_3,179,0,0.02892547569057186,-0.4542455379465438,2.062412691559578,0.9923135190019247,0.05308385702666623,-0.0016358254379235187,0.11177346824862301,0.09013934712857008,0.035494203764419134,23049.337592537042
1685679152179546356,172,1685679152179546356,camera_3,180,0,0.02892408245276168,-0.45436108497798666,2.0616670897965523,0.9922766051885258,0.05283005875252076,-0.0028501482351633014,0.11219625814962553,0.07057363941567019,0.027782920045952127,23057.916740990466
1685679152189707994,173,1685679152189707994,camera_3,181,0,0.02893747879346848,-0.4546922172146425,2.0619538606057812,0.9922685902721402,0.052773309550931694,-0.0008122075065349845,0.1123270353803904,0.11484025802928954,0.04520763530550198,23046.70330010634
1685679152199696779,174,1685679152199696779,camera_3,182,0,0.028931761159842043,-0.45488143646939416,2.061362854516244,0.9921305790404175,0.05289032036466165,-0.0011175551195230493,0.11348250620780401,0.0831397027359344,0.032726076733546335,23043.51634634007
1685679152209699392,175,1685679152209699392,camera_3,183,0,0.02896783693246645,-0.4555700051566924,2.06269674025219,0.9925416659918874,0.05303313788244622,-0.0039223951874791906,0.10969568073713465,0.12005544721614571,0.04731079559384627,23048.01975892972
1685679152219693660,176,1685679152219693660,camera_3,184,0,0.028966508514477664,-0.4566857010440371,2.0637279205989323,0.9927215135764669,0.05293126119793602,-0.003118310420601979,0.10813211461247528,0.08752920461120083,0.03452146440190972,23029.454020723715
1685679152229707717,177,1685679152229707717,camera_3,185,0,0.028960812227527104,-0.45700105660697293,2.062999260316449,0.9924170651418788,0.05266806516778622,-0.002273091405555181,0.1110372765431681,0.11416010884568095,0.04502472433058716,23009.15658522187
1685679152239701032,178,1685679152239701032,camera_3,186,0,0.02894698568381384,-0.4573231027924051,2.0622757107052374,0.9924665421110183,0.05278485919560872,-0.002845077822228225,0.11052523224170892,0.11205050558783114,0.04417234288910554,23023.717223738782
1685679152249750614,179,1685679152249750614,camera_3,187,0,0.028960205470012244,-0.4578970520597531,2.0628047651390977,0.9925276581092123,0.05266295151385656,-0.002526384779840613,0.11004125956220268,0.10791503963992,0.04256398927666033,23010.454836757846
1685679152259763956,180,1685679152259763956,camera_3,188,0,0.02891384580711418,-0.4582642982336478,2.0607018437252043,0.9922256660804221,0.052777085156228885,-0.0034476296265132517,0.11265398663000428,0.060609527514316135,0.023887406440769282,23017.3985747688
1685679152269703388,181,1685679152269703388,camera_3,189,0,0.028900481571920378,-0.4587589726344837,2.0613089395637263,0.9925546965959511,0.052962631952149106,-0.00015305358838735848,0.10968186019857531,0.08071490429574624,0.03178914936317215,23029.857417503605
1685679152279735565,182,1685679152279735565,camera_3,190,0,0.028926858112093758,-0.4594137862430997,2.0629569300179473,0.9926703957222905,0.05304847261836468,-0.001943435340164399,0.10857056722928417,0.05917765275808051,0.023349939351136294,23000.35228572507
1685679152299767971,183,1685679152299767971,camera_3,192,0,0.028911396421716636,-0.45972262043148615,2.0623136644095075,0.9926125054887981,0.05275706894390546,-0.001542698778831567,0.10924617020370363,0.10552617162466049,0.04162294999310793,23000.651023439117
1685679152309732913,184,1685679152309732913,camera_3,193,0,0.02888420366068031,-0.4592830276852076,2.060424648789793,0.9923309343376536,0.05294782088297177,-0.0032230893379751675,0.11164880973581268,0.0678661524434574,0.026745666256811757,23017.77295425022
1685679152319739103,185,1685679152319739103,camera_3,194,0,0.02891216768939614,-0.4597411761884003,2.0628234575137356,0.9928066160786898,0.05301168216669703,-0.0016702877742887376,0.10734055507118084,0.07998327218228951,0.03154941993081956,23010.40014865808
1685679152329796791,186,1685679152329796791,camera_3,195,0,0.028921405538795256,-0.4596196632224044,2.063069109829803,0.9926853306244464,0.05296337029660204,-0.0018932946575378141,0.1084764085190799,0.04832789581269026,0.01907193225960892,22996.097610035675
1685679152339744329,187,1685679152339744329,camera_3,196,0,0.028925978553864883,-0.4590543257363956,2.062962465532934,0.992686225654928,0.053241221225183315,-0.002485885618958484,0.10832012800082096,0.09395073150517419,0.03706606232494652,23008.207539021278
1685679152349598169,188,1685679152349598169,camera_3,197,0,0.028927406841058458,-0.4584500730633152,2.0619085107303694,0.9924302592268687,0.05264581762925576,-0.0008011123764534305,0.11095024414573394,0.0838532920461148,0.0330515680036487,23009.926971769186
1685679152359577894,189,1685679152359577894,camera_3,198,0,0.028943372184667658,-0.45813102825432345,2.0624509876811135,0.9923379565745957,0.05271644006510512,-0.002557419984830707,0.11171309901367542,0.08562939736293629,0.03378178992201533,22996.308099296635
1685679152369618654,190,1685679152369618654,camera_3,199,0,0.02897641416052501,-0.45794939178489746,2.0637255849426235,0.992774161824197,0.05266090838877155,-0.0027021498769072734,0.10779142233023736,0.11014384170994163,0.04345627600375398,23015.290701938793
1685679152379613399,191,1685679152379613399,camera_3,200,0,0.028946407706936905,-0.45679325863359055,2.0628597898261503,0.9925249612318486,0.052791042266201925,-0.0031974413287241443,0.10998674264253369,0.0750276442267932,0.029583501040782983,23025.661271874793
1685679152389574766,192,1685679152389574766,camera_3,201,0,0.028928921287491062,-0.4558972682279498,2.0609897488641464,0.9920670743765716,0.052816734537911095,-0.001668348971647057,0.11406370633277985,0.07869004789972676,0.030985794700284168,23030.97019158397
1685679152399609804,193,1685679152399609804,camera_3,202,0,0.028966561413153763,-0.4560977703520572,2.06385430388101,0.9924940597355881,0.052707756833340565,-0.001080887728993503,0.110346116564588,0.16833286732435226,0.06638672947818233,23012.177839294298
1685679152419598817,194,1685679152419598817,camera_3,204,0,0.028940283115873103,-0.45461103157938904,2.0620907300008615,0.9922051135522273,0.052662151769556034,-0.0033736654261409004,0.11289078258832576,0.07400766137288883,0.029157120063539026,23038.992664904334
1685679152429575204,195,1685679152429575204,camera_3,205,0,0.028897719186475004,-0.45403152803590835,2.0604369578387884,0.9920184119324107,0.05273570670758425,-0.0022964725344403517,0.11451262742181782,0.08735298365354538,0.03436295901371076,23061.44518988138
1685679152439630031,196,1685679152439630031,camera_3,206,0,0.02894111740910832,-0.4543588369271826,2.0626361770550696,0.9924665084139654,0.05263835276248693,-0.0031499297769183826,0.11058712148096143,0.11704019864555447,0.04609845548472789,23055.74694439349
1685679152449628114,197,1685679152449628114,camera_3,207,0,0.02894557316783549,-0.45444846440032505,2.063347343247002,0.9925063105843037,0.05288041543605027,-0.003116673878422165,0.11011435627373951,0.08414850337430835,0.033162274665354645,23045.68508882727
1685679152459792613,198,1685679152459792613,camera_3,208,0,0.02892255964065921,-0.4541187103597939,2.061417024661785,0.9920754161510161,0.05294205458876197,-0.0020941808668252884,0.11392594933203601,0.07859593030298129,0.030939834543683507,23047.48925752425
1685679152469775199,199,1685679152469775199,camera_3,209,0,0.028925503992751418,-0.4544142248134181,2.062012409361939,0.9922151978882203,0.05270294102726973,-0.002308924984976416,0.11280988410653457,0.08406105451285839,0.03310467466443301,23044.046332645703
1685679152479741811,200,1685679152479741811,camera_3,210,0,0.028936961831683074,-0.4546876593867963,2.06214040350732,0.9924424214274132,0.052698691290781655,-0.0024929217688847067,0.11079112522483772,0.10330273676663637,0.040672400913584844,23059.243296482593
1685679152489768981,201,1685679152489768981,camera_3,211,0,0.028922647359075095,-0.4548406423407736,2.061433508791518,0.9921729394991745,0.05296833660672586,-0.002789649345240611,0.1130461467685413,0.11521353508578613,0.04536517846365614,23047.235036254402
1685679152499599695,202,1685679152499599695,camera_3,212,0,0.028923067766731644,-0.45550045454275273,2.0609121694865555,0.9918839176597608,0.05316597360210747,-0.0021468206776759187,0.11547754889952776,0.07640116394031793,0.03009213983600838,23022.497898017977
1685679152509573459,203,1685679152509573459,camera_3,213,0,0.028934033658267983,-0.4560510463758753,2.061431533034699,0.9920500105392208,0.05287961653340292,-0.002429087070363125,0.11416927029817027,0.07273180183256045,0.028658575418750585,23019.174382482903
1685679152519598484,204,1685679152519598484,camera_3,214,0,0.028944506934595278,-0.45685609761786,2.062867919138076,0.9922672853986377,0.05275100392628563,-0.003225954528837934,0.11230565048013202,0.08524338860297576,0.03363247191140204,23000.285929871945
1685679152530079603,205,1685679152530079603,camera_3,215,0,0.0289796064627807,-0.4576199152517444,2.0640860261642184,0.9927006507996203,0.05276868221234479,-0.0021292203448952662,0.10842670566011747,0.13906188076362014,0.05487623117818207,23006.629452490706
1685679152539624929,206,1685679152539624929,camera_3,216,0,0.028931068232844505,-0.45812631255179687,2.062175672172383,0.9922678826054856,0.05293224175374504,-0.002031954161964119,0.11224303138651029,0.07544418459292501,0.02975732257569292,22996.053197743124
1685679152549619674,207,1685679152549619674,camera_3,217,0,0.02895063668419308,-0.45895280628420104,2.0639513979349555,0.9927666203252546,0.05314014483760366,-0.0007058686671373835,0.10765716104391257,0.06878755893558264,0.027146113098124147,22997.825414753053
1685679152559623956,208,1685679152559623956,camera_3,218,0,0.028917704450227948,-0.45905856318951027,2.062733768818176,0.9927961664907724,0.052839574528281946,-0.0027727145701767686,0.10749913124676483,0.06840644363546744,0.026979855607055268,23020.872649777677
1685679152569632053,209,1685679152569632053,camera_3,219,0,0.02890382486105134,-0.4592973000446543,2.0623864431065133,0.9925186847599435,0.052654736979596,-0.0020533841503824982,0.11013592824111644,0.06782873236807063,0.026760064921173887,22996.693173164043
1685679152579630136,210,1685679152579630136,camera_3,220,0,0.028898304599218647,-0.45964450100761306,2.062126540893735,0.9924900700772453,0.05291431444658797,-0.00296707938508652,0.11024850368433571,0.08077684533782303,0.03187301729779444,22994.92277910096
1685679152589643001,211,1685679152589643001,camera_3,221,0,0.028921193208787825,-0.4598459309367636,2.0627172485620417,0.9927350617890309,0.05275443709843637,-0.003071654232917637,0.1080954735473674,0.06807929265778512,0.026865178336314348,23002.960386807572
1685679152599792718,212,1685679152599792718,camera_3,222,0,0.0289169955668217,-0.4598944940679801,2.062906362978305,0.992894406127725,0.05275738920130102,-0.0023924484295683368,0.10663785610863905,0.05003210558788851,0.019737599631297342,23013.610311314
1685679152619763612,213,1685679152619763612,camera_3,224,0,0.02890196560580554,-0.4591252136778697,2.0617352184338036,0.9923830606201263,0.053083061229345745,-0.0016161308892938756,0.11115501664657909,0.05210287484806031,0.02054557933640359,23000.93676847592
1685679152629771709,214,1685679152629771709,camera_3,225,0,0.02892956106546187,-0.45883475240857907,2.0618450042694394,0.9924755979952506,0.05294344635326475,-0.0012905008972385877,0.11039707187984166,0.0708824415341951,0.027941887453879842,23011.15908140923
1685679152639775037,215,1685679152639775037,camera_3,226,0,0.028923195031560787,-0.4584282123553022,2.0616340631492585,0.9923602427738158,0.05298636409973613,-0.0012616411691915737,0.11140916498629697,0.04434180539101362,0.017477663428376047,23010.705726651242
1685679152649901866,216,1685679152649901866,camera_3,227,0,0.028930417139104686,-0.4580255320159642,2.0616924833523864,0.9923818572824438,0.05262482315775603,-0.0011932150264022457,0.11138874971092394,0.0940696937032044,0.03707115614185576,23015.717016678307
1685679152659767627,217,1685679152659767627,camera_3,228,0,0.028977171976628614,-0.45764693329167677,2.0641335824942413,0.9926733405767473,0.05260781522742759,-0.0014860825050814486,0.10876510581977047,0.08924547547940165,0.03521829734891811,23001.958090787757
1685679152669770002,218,1685679152669770002,camera_3,229,0,0.02897017499921184,-0.45707855793965174,2.063745236930253,0.9925188518082374,0.052547502268218374,-0.0026712663254122816,0.11017237923748692,0.10773137101205066,0.04251347182926995,23002.74533792561
1685679152680538892,219,1685679152680538892,camera_3,230,0,0.028969454527691552,-0.45659761700510115,2.0637579788346234,0.9925784443780168,0.05251961176800569,-0.0012218768859551513,0.10967328367806772,0.11629502929281443,0.045864004217859716,23014.33331591545
1685679152689630746,220,1685679152689630746,camera_3,231,0,0.028945602897904606,-0.4557682996360786,2.0621499504772562,0.992344836931976,0.05271396354224994,-0.0034420715082502887,0.11162936354673277,0.07725366234080866,0.030443049187634543,23036.04186011014
1685679152699751615,221,1685679152699751615,camera_3,232,0,0.028930296489195595,-0.45473328703434124,2.061163607275359,0.9921778565119544,0.052645935743546125,-0.001980136972743175,0.11317060375644952,0.06440910813398659,0.025350154989385525,23052.665212679654
1685679152709784507,222,1685679152709784507,camera_3,233,0,0.028922357967087975,-0.4544743645363188,2.061414054774869,0.9921063749550579,0.052786847639040096,-0.003419257755918049,0.1136960780601757,0.10796023375587538,0.04251478504230366,23045.30334645416
1685679152719769954,223,1685679152719769954,camera_3,234,0,0.028924051136770424,-0.4542855759541207,2.0616803226195657,0.9921398132045371,0.05271026757409912,-0.0018187945454277272,0.11347647656291948,0.0867766534211114,0.03416402718859831,23045.071371682927
1685679152729792118,224,1685679152729792118,camera_3,235,0,0.028936399352639416,-0.4543881863021655,2.06290335698149,0.9923917767521686,0.05310493204356392,-0.0017499527292779806,0.11106468967573886,0.08895754534751177,0.03504093355961953,23045.37356500653
1685679152739748954,225,1685679152739748954,camera_3,236,0,0.028952629383076245,-0.4544638009171753,2.0635782226122785,0.992525127330689,0.0531652289791116,-0.0013107160016168368,0.10984358000521274,0.10371352365473285,0.04086277052426243,23043.871020435814
1685679152749762058,226,1685679152749762058,camera_3,237,0,0.02894892589649503,-0.45444071609924513,2.0631050697013054,0.9926192329032915,0.05276189987053003,-0.0034276225860316385,0.10913978099639507,0.07527132541872561,0.029652300459744534,23060.495857708163
1685679152769768476,227,1685679152769768476,camera_3,239,0,0.028943595596735868,-0.45471252004338114,2.062490015661948,0.992218559340153,0.052645997546009876,-0.0014850914808536605,0.11282076026436944,0.09446923923678696,0.03721618564013964,23030.826415655196
1685679152779777526,228,1685679152779777526,camera_3,240,0,0.02892428769917223,-0.4550270973143312,2.0608234102788083,0.9920074413794803,0.05296610163412858,-0.002745227915895608,0.11449144967686427,0.0933014212641865,0.03673425322646796,23041.12718705087
1685679152789783477,229,1685679152789783477,camera_3,241,0,0.028939985981843924,-0.4557341695281277,2.06216633116865,0.9924293060843665,0.05240053304120159,-0.0037133575286249806,0.11101561844067459,0.09736043849261478,0.03836285469343667,23042.541271690505
1685679152799834012,230,1685679152799834012,camera_3,242,0,0.028946302704122996,-0.45635643446236396,2.062941055230166,0.9923994171393817,0.05307588324602947,-0.0021020751680657455,0.11100418352051844,0.11846226995112374,0.04670499740571515,23019.524089477964
1685679152809664726,231,1685679152809664726,camera_3,243,0,0.028955695205551038,-0.45680547743723504,2.0628498901836503,0.992320190264781,0.05265710846669078,-0.002785109360575063,0.11189330671065957,0.1403649144922383,0.05536581614083712,23005.660140321124
1685679152819638729,232,1685679152819638729,camera_3,244,0,0.028956296448525303,-0.45777591232636483,2.0628979252827904,0.9924022860256422,0.05342564147945639,-0.0009619545632872451,0.11082634238756789,0.09468727052444592,0.037343025485881795,23002.296327269178
1685679152829762458,233,1685679152829762458,camera_3,245,0,0.028918047324079654,-0.45784271646532965,2.0611349979034497,0.9921112903641647,0.05277664141997995,-0.0031228090096882435,0.11366644938709045,0.09045848157256842,0.03566406007857144,23004.632075269932
1685679152839749336,234,1685679152839749336,camera_3,246,0,0.02892911125291867,-0.4585538112501124,2.0624271213406953,0.9924251173215966,0.05279649474268478,-0.003635262776890539,0.1108679462993871,0.10366766003426164,0.04090661658206023,22999.22201803117
1685679152849772453,235,1685679152849772453,camera_3,247,0,0.028910343712484445,-0.458760021145624,2.061665373004904,0.9924903953025151,0.052938990037299544,-0.0025348232034781743,0.1102445156795353,0.07291605119826272,0.028744721904380828,23017.303373086266
1685679152859744548,236,1685679152859744548,camera_3,248,0,0.028922722156446593,-0.4595783891163383,2.062683505584265,0.9926935528131662,0.05295254491171741,-0.003078999392356575,0.1083792321124673,0.0747454889351502,0.029493661708881003,23004.793067493003
1685679152869613647,237,1685679152869613647,camera_3,249,0,0.028899117603203694,-0.45954172996327725,2.0617052337064186,0.9926150303380686,0.05308732720388538,-0.0016054539581923542,0.1090621829732509,0.04608393367379904,0.018165932367923892,23016.927382899463
1685679152879602670,238,1685679152879602670,camera_3,250,0,0.028935745196985867,-0.46023541658962525,2.0643343723541716,0.9931763577026405,0.05265046841365731,-0.003638953671889844,0.1039971571366891,0.06694362737471239,0.026436454013214813,23007.61980648501
1685679152889645338,239,1685679152889645338,camera_3,251,0,0.028907597246205032,-0.4599343059706956,2.0628968702428003,0.9928371450098904,0.05258827937252396,-0.002812413504943015,0.10724256007539434,0.06724714289885014,0.026535440078549705,23006.981337258345
1685679152899609804,240,1685679152899609804,camera_3,252,0,0.02890843997326946,-0.45951856458772544,2.0621460201175226,0.9926703414991468,0.05259671488523274,-0.0032408051367536165,0.10875971622487027,0.05774896789807826,0.022778599510946254,23011.958192153375
1685679152909620046,241,1685679152909620046,camera_3,253,0,0.028933293417271685,-0.459658495766599,2.0638239692783387,0.99290494498166,0.05301330580681452,-0.0020710713300228925,0.10641931357580638,0.11761580762686208,0.04642533277775415,23002.073448628907
1685679152919774293,242,1685679152919774293,camera_3,254,0,0.02893422941062818,-0.45905126681886377,2.0625774435550333,0.992684650747261,0.05291038294768369,-0.0024854142140586415,0.10849653572028344,0.07923928793752566,0.03125257160828582,23013.71214960656
1685679152929760694,243,1685679152929760694,camera_3,255,0,0.0289402541674535,-0.45896903854951343,2.0638475262775,0.9926632658987766,0.053203735647448416,-0.003643690520054703,0.10851601986676976,0.086096424725838,0.03400251282200491,22990.580581808932
1685679152939774751,244,1685679152939774751,camera_3,256,0,0.028948250478801712,-0.45774791762783157,2.0623782387257377,0.99242664401014,0.05311038266627844,-0.0031527135169795105,0.11071903137804372,0.07276945083867759,0.028698648936658525,23013.673563599117
1685679152969805002,245,1685679152969805002,camera_3,258,0,0.028955264463197586,-0.45639477078660995,2.0627587716554845,0.9923966216492901,0.05247054028931817,-0.004494279932896635,0.11124562548122023,0.09638619847828522,0.0380179076823678,23019.580762980975
1685679152989796161,246,1685679152989796161,camera_3,260,0,0.028945041502084698,-0.4550746922932558,2.0625132550270475,0.9923432050070506,0.05286077541133992,-0.003469835073228029,0.1115735727841108,0.08606759458780289,0.033917317796492916,23038.692638990717
1685679153009748220,247,1685679153009748220,camera_3,262,0,0.028943738927759848,-0.4546118939260124,2.0630655234477655,0.9924887511676418,0.05273917158232867,-0.0023932668770992767,0.1103581934437107,0.07643923704745248,0.03011579650219297,23046.723414468812
1685679153029599905,248,1685679153029599905,camera_3,264,0,0.028945786728296338,-0.45452582587016666,2.063985093252205,0.9926695008536528,0.052892618229585436,-0.003886747686467239,0.10860260680205053,0.1293272816692479,0.050987153331737305,23047.59847632819
1685679153039617061,249,1685679153039617061,camera_3,265,0,0.028928798266580437,-0.4541233785723697,2.0618632033016,0.9922008798785938,0.05244671149478116,-0.0018279533355539032,0.11306376523064522,0.07893828634405509,0.031077969965788266,23047.939849361075
1685679153049728870,250,1685679153049728870,camera_3,266,0,0.028947016438226697,-0.45456049604723237,2.0631168127504735,0.9925793069508498,0.052860649026717305,-0.0020597736262076114,0.10948894250130389,0.09907944465521723,0.03902493773668071,23055.331456814652
1685679153059795856,251,1685679153059795856,camera_3,267,0,0.02893234795821334,-0.4548629923824829,2.062040537602916,0.9924021788993769,0.05284297678306222,-0.0035491396711642,0.11105376503328723,0.06277673883596435,0.02472386038144654,23056.115791809054
