%time,field.header.seq,field.header.stamp,field.header.frame_id,field.image_seq,field.transforms0.fiducial_id,field.transforms0.transform.translation.x,field.transforms0.transform.translation.y,field.transforms0.transform.translation.z,field.transforms0.transform.rotation.x,field.transforms0.transform.rotation.y,field.transforms0.transform.rotation.z,field.transforms0.transform.rotation.w,field.transforms0.image_error,field.transforms0.object_error,field.transforms0.fiducial_area
1685421847363853931,31,1685421847363853931,camera_2,35,0,0.1673933328166408,0.0005062785904488176,0.4061136459482847,-0.9769269546684806,-0.03833897278424905,0.20984009680563379,-0.010534808048545535,1.0980281103984453,0.06365761527357897,45716.74146409053
1685421847384173631,32,1685421847384173631,camera_2,37,0,0.16715045369712983,-0.001650015870906046,0.4057882890653481,-0.9767162938373434,-0.038648419541583635,0.21072888316476895,-0.011176708804980768,0.9873067201697268,0.05720337763871682,45738.631623591304
1685421847394137859,33,1685421847394137859,camera_2,38,0,0.16688131822286922,-0.002215917383183744,0.40520842646027405,-0.9763007133038003,-0.03874135400721105,0.21266055116995636,-0.010560050580804484,1.1171361553133465,0.06458135817710585,45790.00386517751
1685421847404070377,34,1685421847404070377,camera_2,39,0,0.16677049610301842,-0.0026474664633009044,0.4050033171320373,-0.9761876380644265,-0.038887462938647546,0.2131569541032123,-0.010467732984383998,1.0536654908792116,0.06086391375865424,45811.62883395399
1685421847413631439,35,1685421847413631439,camera_2,40,0,0.16665480355790052,-0.003016472865588683,0.40475051834767795,-0.9760421266185698,-0.03874871383267765,0.21386827822513788,-0.010033135662788755,1.0519549722084776,0.06070472651697481,45835.98894049972
1685421847423451423,36,1685421847423451423,camera_2,41,0,0.16670776738419318,-0.0029357983560638363,0.4048842045005057,-0.9761661474557893,-0.03891727334333274,0.21326265119858911,-0.010204900812420247,1.0731672098627314,0.06195677468764089,45830.50610459758
1685421847433674573,37,1685421847433674573,camera_2,42,0,0.16663435052717906,-0.002677641773185734,0.4046605686134981,-0.9758582349334003,-0.03876684848145833,0.21462978257997062,-0.01148447652959444,1.050842899887357,0.06066174708702064,45829.149994549574
1685421847444332361,38,1685421847444332361,camera_2,43,0,0.16684744903080526,-0.0022611416981066354,0.4051166312500749,-0.9762274850889578,-0.038702026221145575,0.21295192997864057,-0.011555346885257368,1.1105304137454368,0.0642037080051126,45796.53464213366
1685421847454303264,39,1685421847454303264,camera_2,44,0,0.16727661060234553,-0.0010474364018076456,0.40598407593985913,-0.9767822530356819,-0.038305786570669784,0.21047987725674172,-0.011283534008753069,1.125599820225034,0.06527166643750933,45709.22145434143
1685421847464211940,40,1685421847464211940,camera_2,45,0,0.167356813087517,-0.000366977394823444,0.4061141868358208,-0.9768867929299274,-0.0384290255415843,0.20996427245298377,-0.011419636084153984,1.2668364747660235,0.07348347150248458,45705.46223306331
1685421847474445819,41,1685421847474445819,camera_2,46,0,0.1674481495106062,0.0003660101041287095,0.4062350376317407,-0.9769714047397683,-0.037964268736490975,0.2096173866143548,-0.012088831584381045,1.1036029839888215,0.0640571571167064,45694.22504779976
1685421847484321832,42,1685421847484321832,camera_2,47,0,0.1673102265657955,0.0010566676426690775,0.40580242136842437,-0.9766218466114565,-0.03799760161070242,0.21124837619365092,-0.011835309400632632,1.061679833335802,0.06151744159979444,45732.22752033197
1685421847494045019,43,1685421847494045019,camera_2,48,0,0.16714098469762387,0.0022001794466737445,0.4052318856374005,-0.976247538617249,-0.0381311185668633,0.21300616463159205,-0.010730096436753985,0.9856616852339357,0.05695618305011446,45794.51987438136
1685421847504356861,44,1685421847504356861,camera_2,49,0,0.16712324790012129,0.0025761665423433104,0.4051418325505105,-0.9762434249042974,-0.037799633813516885,0.2130859966146288,-0.0106921027605309,0.9002252194331959,0.05199602603292288,45810.736677096225
1685421847513789653,45,1685421847513789653,camera_2,50,0,0.16711030782900532,0.0027847089699309163,0.4050809898980386,-0.976397167842163,-0.03787665905821778,0.21237891466386474,-0.010446335940860665,0.9838814496179111,0.05679255235829205,45850.923541530516
1685421847523940801,46,1685421847523940801,camera_2,51,0,0.16713980417988808,0.002804330464988444,0.40514416691379646,-0.9762796661409738,-0.03789637505351656,0.21290047665576242,-0.010736166784328285,0.901805478730239,0.05208563865379073,45816.23899324982
1685421847533840179,47,1685421847533840179,camera_2,52,0,0.16720273233800093,0.002300896630915555,0.40536606972813016,-0.9763508548195239,-0.03770636073154927,0.21260058674559482,-0.0108733237326951,0.9483488074620254,0.054833102167233194,45779.351740870145
1685421847544041872,48,1685421847544041872,camera_2,53,0,0.16720145057401134,0.0018061779487645547,0.40542310511742197,-0.9764662705849103,-0.037782698754956164,0.21199305339664942,-0.012043064242714216,0.9188420664286241,0.05315817845352218,45788.87995768014
1685421847554116249,49,1685421847554116249,camera_2,54,0,0.16722714251734022,0.0011987718269091045,0.40560924026593653,-0.9765163473438889,-0.038211824042452706,0.2117442161196504,-0.010957500325026624,1.1917528299381956,0.06897327930455,45759.0629655081
1685421847563947677,50,1685421847563947677,camera_2,55,0,0.16722788307453268,0.0005111927808575095,0.40568614341623743,-0.9766569068810562,-0.03838500117659951,0.2111223916271416,-0.009757749732206233,1.0928344746353105,0.06323390722169579,45764.5229087551
1685421847573385477,51,1685421847573385477,camera_2,56,0,0.16707156075962823,-0.0009624996825280093,0.40552062666738165,-0.9765157584977399,-0.03850217881182261,0.21169054567720288,-0.011030344655281297,1.1305407749023288,0.06542708510597063,45769.91133603362
1685421847583566188,52,1685421847583566188,camera_2,57,0,0.16693741904601228,-0.0016456158560945225,0.40526623441148085,-0.9764430896069656,-0.03845333809389771,0.21201077232841492,-0.011474579075015394,1.0299077295931056,0.059556055625242334,45806.70959090094
1685421847593456268,53,1685421847593456268,camera_2,58,0,0.16687062955993817,-0.0022128980307053346,0.4051893765472084,-0.9762859368763659,-0.03878737627554505,0.21271074590664885,-0.010744648664941663,1.0844689650111832,0.06269045518984939,45792.254889288466
1685421847603562831,54,1685421847603562831,camera_2,59,0,0.16674369255791946,-0.002650413027667875,0.40491648407448144,-0.9760030755449015,-0.038940492743135366,0.2139932008684749,-0.010418470803325811,0.9947624749620445,0.057454162374590556,45798.446714782156
1685421847613704681,55,1685421847613704681,camera_2,60,0,0.1667162513336096,-0.003022889766500285,0.4049159290798126,-0.9762004950602843,-0.038966346870174785,0.2130875808991051,-0.010387498361800142,1.075221545950626,0.06208688275964357,45828.36089932546
1685421847623912811,56,1685421847623912811,camera_2,61,0,0.16669544355074903,-0.0029272230718635577,0.404838602934568,-0.9761375967303739,-0.039077005523246416,0.21334967266229962,-0.010502240888295334,1.172772808233276,0.06770567952077915,45836.62343788844
1685421847634131431,57,1685421847634131431,camera_2,62,0,0.1667542392771209,-0.0026729406669081125,0.4049636204723083,-0.9761052838927957,-0.038416010244319704,0.21362324278219327,-0.010382439823725338,1.0962365379673429,0.0633229068467632,45802.42824588227
1685421847643990039,58,1685421847643990039,camera_2,63,0,0.16685116111208168,-0.0022568604300731215,0.40514569246305693,-0.976194705521705,-0.038678206941894534,0.21314145934855294,-0.010890891879033466,1.060031100641936,0.0612803308275139,45784.67652330315
1685421847653934001,59,1685421847653934001,camera_2,64,0,0.16731076053132343,-0.0010535897945830952,0.40609165116276486,-0.9770203190652785,-0.03837465419551932,0.20935379859373518,-0.011387232470163993,1.0927627637283877,0.0633773334598389,45727.74131881494
1685421847663992881,60,1685421847663992881,camera_2,65,0,0.16750381058713165,-0.00035695655914917386,0.4064843933864562,-0.9771805512105628,-0.038162315921297894,0.2086157535980813,-0.01188592991936885,1.1673561107018031,0.06781839282846018,45672.58219820727
1685421847674118995,61,1685421847674118995,camera_2,66,0,0.16748373137118674,0.0003810133012143689,0.4063279151801775,-0.9771536198183888,-0.038076340884527694,0.2087628354059542,-0.011792967986533991,1.086673949204851,0.06307649409507224,45706.100770749144
1685421847684166431,62,1685421847684166431,camera_2,67,0,0.16738799481587976,0.0010574209140418252,0.4059910142577613,-0.9767851795929567,-0.03801149925698011,0.21046796693491746,-0.012209575998967765,1.016325848235283,0.058936114973526674,45718.85090733551
1685421847694442272,63,1685421847694442272,camera_2,68,0,0.16723359031305637,0.002193339131758547,0.4054530764358332,-0.9765263758092079,-0.038017318962420985,0.2117361274205251,-0.010896474328992328,0.9481787083204836,0.05482931856452182,45792.967865288025
1685421847704766988,64,1685421847704766988,camera_2,69,0,0.1671339946206668,0.002579687656400868,0.40515725777284384,-0.9762291741262117,-0.03778177047860798,0.21314577452104574,-0.010863526507544215,0.9413984915008768,0.054385506654413315,45804.49537857342
1685421847714714765,65,1685421847714714765,camera_2,70,0,0.16715425514398813,0.002776300970220082,0.40518586908531407,-0.9763659392230812,-0.03774021293689729,0.21254492958405644,-0.01048245966444737,0.8889815216534771,0.0513441640448256,45820.82772569361
1685421847724614381,66,1685421847724614381,camera_2,71,0,0.16709355970768236,0.002802866253638836,0.4050214957829143,-0.9762274779982051,-0.03767307099005871,0.21316932129140898,-0.010931211442574034,0.92789075744804,0.05357138094023304,45833.01246893569
1685421847734568119,67,1685421847734568119,camera_2,72,0,0.167184449090638,0.0023052418715397618,0.4053396537535706,-0.976439286956822,-0.03800790851717305,0.212140970595107,-0.010859390975982961,0.9994846354820766,0.05777194782299742,45803.43299912243
1685421847744538545,68,1685421847744538545,camera_2,73,0,0.1672522931308218,0.0018141800668098453,0.4055799808969442,-0.9765221894248814,-0.0379266696848287,0.21173586800483446,-0.011571667455173865,1.0168794634519145,0.05885558619297169,45765.11870361588
1685421847754817247,69,1685421847754817247,camera_2,74,0,0.1672088712352914,0.0012075605950516211,0.40555313391315334,-0.9764620944714234,-0.03817712740016304,0.21199544424932884,-0.011055162661976595,1.1499380365130492,0.06654614615045905,45761.63646182233
1685421847764514446,70,1685421847764514446,camera_2,75,0,0.1673171545671807,0.0005061350277719557,0.4059365685500202,-0.9767780475314661,-0.03814230086858288,0.21055941246549986,-0.010702549567784443,1.1042647837894037,0.06398396582194585,45729.381500126095
1685421847774247646,71,1685421847774247646,camera_2,76,0,0.1671162260050974,-0.0009593297208309183,0.40560545086712746,-0.9765409405955554,-0.03847280739254569,0.21157354826076277,-0.011147560649525923,1.0598169088480063,0.061361570479886725,45754.41550473172
1685421847784592151,72,1685421847784592151,camera_2,77,0,0.16703957598334357,-0.001642039436134453,0.4055270924809301,-0.9765316570153152,-0.03859370960487661,0.21164593192632486,-0.01012165623278149,0.9797522106673568,0.056685718635619095,45764.7651877401
1685421847794804334,73,1685421847794804334,camera_2,78,0,0.16685800473415885,-0.002211197262318318,0.40515270892465716,-0.9762391959247844,-0.03862991570445524,0.212968072288166,-0.010457635423926664,1.0202132060658187,0.058963246358973605,45791.01633692813
1685421847804668188,74,1685421847804668188,camera_2,79,0,0.16674511876988324,-0.002648536588733143,0.40494526441920087,-0.9761052884978292,-0.038787380390370364,0.21356103054298078,-0.010280618777219181,1.0011169906938449,0.057815168422372,45809.607527805485
1685421847813958883,75,1685421847813958883,camera_2,80,0,0.16664117319895116,-0.0030121065449196117,0.40474406915604805,-0.9759686927492677,-0.03873334929888428,0.21420425144757674,-0.010068618930102165,1.1352874200238148,0.06552052206818001,45825.353460373706
1685421847823863983,76,1685421847823863983,camera_2,81,0,0.1666844342634012,-0.002929476792851454,0.40482921580314424,-0.9761152796359478,-0.03902295934109785,0.21348986013368848,-0.009912069692895598,1.1206120628048666,0.06467608841298789,45834.93488731891
1685421847834009647,77,1685421847834009647,camera_2,82,0,0.16688196291589485,-0.0026757435632273705,0.4052617514031,-0.9762684873224572,-0.03903979540285564,0.21278681249424358,-0.009874586804724417,1.125533038051799,0.06507560182443224,45767.99161341391
1685421847844023704,78,1685421847844023704,camera_2,83,0,0.16686327901059067,-0.002252491433666251,0.405167577102695,-0.9762638383005579,-0.038572391410092256,0.21283805369680361,-0.011002342756225308,1.209206662955694,0.06990939527021667,45791.114555462256
1685421847854235172,79,1685421847854235172,camera_2,84,0,0.16722696600400452,-0.001059608988734517,0.4058666839156835,-0.9767640016746421,-0.038261196630355127,0.21054561753286277,-0.01177747012981808,1.0500574060715735,0.06086815177111818,45732.050360077774
1685421847864627122,80,1685421847864627122,camera_2,85,0,0.16734438100015842,-0.00035970049614124974,0.4060867845982913,-0.9768790335003515,-0.038350215503040935,0.2100260311818195,-0.011210758417822682,1.2033798590418883,0.0697888299205083,45709.72494856175
1685421847874716758,81,1685421847874716758,camera_2,86,0,0.1672549346494836,0.0003773628014831728,0.40576307649771154,-0.976620135799162,-0.03834786455190807,0.21120574533578132,-0.01160537690435659,1.0438908260548487,0.060472316076412055,45740.9573146694
1685421847884512186,82,1685421847884512186,camera_2,87,0,0.16723479552808296,0.0010647113039256996,0.4055909297840777,-0.9764195736900747,-0.038287458041917695,0.21216147657712967,-0.01124253210772721,0.9777741936268285,0.056601544552488996,45745.020879184376
1685421847894406080,83,1685421847894406080,camera_2,88,0,0.1672442683745882,0.002209629289429001,0.40547665910224484,-0.9765045145265796,-0.037911360596631055,0.21185701291915018,-0.010875105695872987,0.9636203841073439,0.05573332663911508,45782.98518407626
1685421847904581069,84,1685421847904581069,camera_2,89,0,0.16713176519499756,0.00257898053901636,0.4051357556191349,-0.976020646469575,-0.038046578153141476,0.2140509126460863,-0.010879446278527553,0.9540927007328719,0.05513073030962034,45774.09718207385
1685421847913896799,85,1685421847913896799,camera_2,90,0,0.16711114009770234,0.0027793324746795112,0.405071335499925,-0.9762222953018102,-0.03787799482986746,0.21316524967418304,-0.010764013873890041,0.9035558514879085,0.052173789775437386,45822.35503458789
1685421847923966169,86,1685421847923966169,camera_2,91,0,0.16705782307520053,0.0027942698413534407,0.4049479370196121,-0.976112224249014,-0.03760982963173429,0.21371187968649036,-0.010847067234116178,0.9154399199178442,0.05283953598014002,45829.19580425184
1685421847933853149,87,1685421847933853149,camera_2,92,0,0.16711560015174137,0.0023068721638862975,0.4051771396603478,-0.9763206623990984,-0.038104184297382895,0.21267611652659202,-0.01071936429011212,1.0444659942295402,0.06033154590942826,45819.84659923521
1685421847944179773,88,1685421847944179773,camera_2,93,0,0.16719809543069897,0.0018137066175498598,0.405420579144054,-0.9764622829389982,-0.03778017793331554,0.21206130667607828,-0.011138687701936316,1.0382775419857353,0.06004748888556095,45788.181014102905
1685421847954245805,89,1685421847954245805,camera_2,94,0,0.16721274078067846,0.0012047220428770401,0.40555709841179943,-0.9764075010430917,-0.03827204874334028,0.21227285416380406,-0.010192034974664445,1.069335089996457,0.06186567747315842,45750.97410102912
1685421847964195489,90,1685421847964195489,camera_2,95,0,0.16713914590997506,0.0005140877857259178,0.40546604255094015,-0.9762831157501686,-0.038367605509954696,0.21277731258579685,-0.011181234160026835,0.9958172879414633,0.05762707779573855,45749.02135733049
1685421847974240303,91,1685421847974240303,camera_2,96,0,0.1671650908488671,-0.0009670342579556721,0.40573369114595836,-0.9767002936818227,-0.03847725585885871,0.2108669599412343,-0.010543353762219503,0.8211795199313201,0.047546438839573935,45753.38047840075
1685421847984506607,92,1685421847984506607,camera_2,97,0,0.1670103289800042,-0.0016315385522852276,0.4054641384655745,-0.9764194190868327,-0.03837270228903198,0.21217775544514292,-0.010642078905487849,1.1074641401064582,0.0640830941891075,45758.2936393481
1685421847994331121,93,1685421847994331121,camera_2,98,0,0.16684848907452027,-0.00220490585154767,0.40514178460371963,-0.9761731570662393,-0.03882906697136186,0.21321179825454417,-0.010908715163956655,1.0597160892211832,0.06126004796999593,45783.777121790205
1685421848004377841,94,1685421848004377841,camera_2,99,0,0.16671984156465294,-0.002644864748957953,0.40488172340041745,-0.976175472784541,-0.038577971417260166,0.21325056309695187,-0.010834380187168643,1.105267518258188,0.06382056764988481,45834.81731958685
1685421848014040470,95,1685421848014040470,camera_2,100,0,0.1666623409935805,-0.0030208983524369543,0.40478847031911125,-0.97613171094261,-0.03858629487897177,0.21346669473158286,-0.010485751291123419,1.1055074546748074,0.06380993699975601,45842.501409424
1685421848024366140,96,1685421848024366140,camera_2,101,0,0.16665269719788178,-0.0029267357565626218,0.40474562168748285,-0.9760133751223047,-0.03891850000452653,0.21392460085783624,-0.01093192972811539,1.1200416892534122,0.0646566190040768,45834.88577265387
1685421848034057617,97,1685421848034057617,camera_2,102,0,0.16675280361892347,-0.002676294084144548,0.4049676484592078,-0.976180347125173,-0.03869207032558099,0.2132125364876917,-0.010736287299711659,1.1159302614396438,0.06445995048983626,45816.73580923116
1685421848044148683,98,1685421848044148683,camera_2,103,0,0.16694958316673741,-0.002253431929583223,0.40537821058435,-0.976372833508308,-0.03849645523148974,0.21233128426943004,-0.011381504384851459,1.1991079520084895,0.0693965245984102,45762.36362334642
1685421848054579734,99,1685421848054579734,camera_2,104,0,0.1673662063493844,-0.001043162564540934,0.4062216659748542,-0.9769580256894776,-0.03839226379596069,0.209639624922636,-0.011413929377561471,1.2678761429269798,0.07358765535128091,45688.04264733033
1685421848064138412,100,1685421848064138412,camera_2,105,0,0.16736603455540672,-0.00035572521703931175,0.4061414832423183,-0.976843871268695,-0.03823626023612608,0.2101452291356864,-0.012370215820844509,1.1175503244739957,0.06486240930783843,45691.07499984816
1685421848074463844,101,1685421848074463844,camera_2,106,0,0.16745866755463748,0.00039159773407082803,0.40627501668798977,-0.9770224022298577,-0.03838776720882164,0.20936652723971264,-0.010920720731817497,1.3076710329041816,0.07587268472084531,45697.168811134514
1685421848084604263,102,1685421848084604263,camera_2,107,0,0.16733635369576935,0.0010521488887039556,0.4058726401278792,-0.9766536552994661,-0.03796066717127747,0.21110373488222828,-0.011909595160085083,1.1030674961511977,0.06393388338133732,45722.06787021062
1685421848094639778,103,1685421848094639778,camera_2,108,0,0.1672170781172288,0.002201478297908129,0.40541177362220077,-0.9762990062754988,-0.038056848148709306,0.2127809968574586,-0.010778405763646384,1.022479930485133,0.05913426179943818,45762.52083713376
1685421848104806900,104,1685421848104806900,camera_2,109,0,0.16723863540380657,0.0025779023603251785,0.4054046908107025,-0.9765485607869367,-0.03798971105955087,0.21165489439954854,-0.010578088451618173,0.9452358261332847,0.05463653641856142,45805.96004868485
1685421848114786386,105,1685421848114786386,camera_2,110,0,0.16712576923491013,0.002789505808017422,0.40510437318794856,-0.9763019218586695,-0.03797695338832948,0.21280785897216156,-0.010252977425783303,0.9376388055388816,0.05413345048891364,45828.9603009885
1685421848124944448,106,1685421848124944448,camera_2,111,0,0.16705639966513486,0.002805882222779407,0.40494098463704886,-0.9762232271136042,-0.037773891946227385,0.21317278432285808,-0.01089531803920911,0.8659474906744435,0.04997328106756983,45851.30887200963
1685421848134739637,107,1685421848134739637,camera_2,112,0,0.16716361431788831,0.0023145171382149944,0.40528792734376234,-0.9764726161458881,-0.03793602626161996,0.2120502575877927,-0.009837483704354888,1.0687835855642334,0.06173482969608317,45819.39786514151
1685421848144896984,108,1685421848144896984,camera_2,113,0,0.1672900959700279,0.0018275865910343156,0.4056580507806938,-0.9767282814539482,-0.03795585321647816,0.21084943961872155,-0.010184852826483206,0.9836081150569953,0.05690345839646037,45782.2485989472
1685421848154495477,109,1685421848154495477,camera_2,114,0,0.1673951512570337,0.0012086874456136865,0.4060150618927174,-0.9768763446324746,-0.03823422980704456,0.21008092407885448,-0.010805383229269013,1.0776508511626162,0.062452810774750206,45730.97980617035
1685421848164531230,110,1685421848164531230,camera_2,115,0,0.1672757956755849,0.0005172720358988343,0.4058178650437755,-0.9766127945104114,-0.03814117688416916,0.21129803642218878,-0.011217844203902335,1.079803975764662,0.0625606243615613,45726.958116507136
1685421848174585819,111,1685421848174585819,camera_2,116,0,0.1669973239588471,-0.0009634579570808254,0.4053265985832548,-0.9762855736416091,-0.03837034421411392,0.2127713796425821,-0.011069570414305605,1.0115087440353818,0.05850604739057746,45771.796237826115
1685421848184454679,112,1685421848184454679,camera_2,117,0,0.16704012517001923,-0.0016331620353367748,0.40552948811483713,-0.9765562408541039,-0.038666980236108456,0.21150195073276606,-0.010473677699674102,1.0968543909257278,0.06346836902358854,45769.339122512385
1685421848194130420,113,1685421848194130420,camera_2,118,0,0.16690637626582347,-0.0022127720507836724,0.40528725021179873,-0.9763942054044206,-0.03867626623283454,0.21223978201241192,-0.010619652267426683,1.0713076576357707,0.061946198536772676,45788.741733874194
1685421848204078674,114,1685421848204078674,camera_2,119,0,0.16680068575770307,-0.002641014609943179,0.40506524226043295,-0.9762480464297939,-0.03888045639482262,0.21287809062299057,-0.010534727583151321,1.124624065181706,0.06498007271497562,45808.078165536965
1685421848214077949,115,1685421848214077949,camera_2,120,0,0.16661953748590308,-0.0030110599313414614,0.4046733281819039,-0.9759309110499332,-0.039027459596684536,0.21429769821633574,-0.010592959636326336,1.1125120383803733,0.06419958047341963,45836.10717762913
1685421848224314689,116,1685421848224314689,camera_2,121,0,0.1667425111556364,-0.0029274835693935504,0.4049768012246922,-0.9761889205068559,-0.03883457931149425,0.2131786217746156,-0.010096640413232083,1.0643723214161582,0.06147103747430863,45813.491064317066
1685421848234741926,117,1685421848234741926,camera_2,122,0,0.16672577909566652,-0.0026734050807964618,0.4048888507452725,-0.9760492014887692,-0.03883881998489413,0.2138152483480789,-0.010126297900335791,1.1182678152108565,0.06456811526586678,45812.20138900403
1685421848244777917,118,1685421848244777917,camera_2,123,0,0.16679268027693644,-0.0022437668798644885,0.40501804368247313,-0.9760442315189832,-0.038948120612173474,0.2137902372561196,-0.010697498458480493,1.1638077928801067,0.0672467031202718,45789.58307833409
1685421848254122734,119,1685421848254122734,camera_2,124,0,0.1673072148872772,-0.0010516645456345726,0.40609477351776446,-0.9769364697431023,-0.03825704928795287,0.20972581596379034,-0.012108442673853036,1.1850670784479007,0.06875736656052582,45712.23923784541
1685421848273976325,120,1685421848273976325,camera_2,126,0,0.1673781156208222,0.0004018415198278574,0.40606902903969067,-0.9768594470769815,-0.038431936276363425,0.21014676461397214,-0.010341385438299697,1.1045930400141515,0.06403006103537712,45714.4402392211
1685421848283725976,121,1685421848283725976,camera_2,127,0,0.16747755844936188,0.001073010781391623,0.4062197697690719,-0.9769996509825073,-0.037910394831098655,0.2095269640180124,-0.011529756857959986,1.133677986334078,0.0657772965254185,45704.34862049039
1685421848293838739,122,1685421848293838739,camera_2,128,0,0.16730934207638817,0.002203193191387637,0.4056517973418967,-0.9767131351350791,-0.03792474149307594,0.2108858902091369,-0.010968452397129532,0.9909855667501688,0.057345114122680556,45780.96045610214
1685421848303928613,123,1685421848303928613,camera_2,129,0,0.1670732603444283,0.002577402926590083,0.4050037951037862,-0.9761859995314175,-0.037699264004639535,0.2133738830233015,-0.010547315104526618,0.9525939149898477,0.05498904542505224,45830.33998197827
1685421848314105510,124,1685421848314105510,camera_2,130,0,0.1671227954434098,0.0027806396887514353,0.4050961536233711,-0.9762560799794983,-0.03807115933806543,0.21297339079071892,-0.010816096561284651,0.84657064138446,0.0488861392167148,45823.99000756837
1685421848324357032,125,1685421848324357032,camera_2,131,0,0.16719345478618727,0.002799531540812981,0.40528843326593333,-0.9764791168347755,-0.037795196784339624,0.21199393353395293,-0.0108917230231107,0.9184965685126372,0.05307237153756439,45818.74755301885
1685421848333657264,126,1685421848333657264,camera_2,132,0,0.16728483460715238,0.0023055194229481026,0.40557579364067026,-0.9766488116557331,-0.03813649839910341,0.21112501602321393,-0.01135490160668236,0.8611549335764721,0.049824235151166546,45788.241921301
1685421848343584537,127,1685421848343584537,camera_2,133,0,0.16718622412574857,0.0018237544535312008,0.4054062089470363,-0.9764555740302684,-0.037980411033411425,0.21207171173636247,-0.010843864816631951,1.0216160482377745,0.05907053934870594,45791.81473842122
1685421848353847503,128,1685421848353847503,camera_2,134,0,0.16736944357040853,0.0012049206085568173,0.4059509337031004,-0.9768277804145874,-0.038088164933920546,0.2103229713442002,-0.011001219351688683,1.0807605127920397,0.06262490484226127,45735.92311263201
1685421848363565683,129,1685421848363565683,camera_2,135,0,0.1673484837848149,0.0005114397750504191,0.4060003494003894,-0.9769212343618296,-0.03820701586724727,0.2098293093017648,-0.011695586749846044,1.015175127191469,0.0588497893934345,45740.76894760692
1685421848373697519,130,1685421848373697519,camera_2,136,0,0.1670734983143467,-0.0009603041416657639,0.405530337904901,-0.976387371167525,-0.03816078955298394,0.2123199504968969,-0.011475808740906713,1.1405485324794427,0.06603706786237928,45743.217864934144
1685421848383660316,131,1685421848383660316,camera_2,137,0,0.16697179812802712,-0.001640566236816008,0.40536719208698024,-0.9764286865502673,-0.03879182523735826,0.2120648705482831,-0.01052164701053685,0.9904400772065856,0.05727491797337212,45784.27051625402
1685421848393629550,132,1685421848393629550,camera_2,138,0,0.1668561100169883,-0.0022121554426828925,0.4051769828883893,-0.9762698312169638,-0.03855290743893545,0.21283053941889157,-0.010679488483524223,1.1580589083605446,0.06694149944386084,45791.310646413825
1685421848404668331,133,1685421848404668331,camera_2,139,0,0.16671022449996192,-0.0026412588590862133,0.4048587094448761,-0.9759868752100326,-0.03905982744877772,0.21401931262736482,-0.010939978059323346,1.0148100776132196,0.05860712628112404,45810.258472999805
1685421848413850545,134,1685421848413850545,camera_2,140,0,0.16678226618495895,-0.003016728236371948,0.4050920706341989,-0.9764322662498232,-0.03870220361840396,0.2120927195922751,-0.00994219076796748,1.1330441625323147,0.06544767958113724,45828.172647984684
1685421848424290895,135,1685421848424290895,camera_2,141,0,0.1666573846150033,-0.0029305171054628144,0.40476463033697857,-0.9759550517917386,-0.03911108117907351,0.21418476415307156,-0.010341519031648623,1.082379624072928,0.06247602244648312,45821.911528574296
1685421848443527698,136,1685421848443527698,camera_2,143,0,0.16694179030548678,-0.0022534100072879116,0.4053517645018003,-0.976313198627728,-0.038667380596410145,0.21259667558152343,-0.010955610197135309,1.0677074592094868,0.061776343334393725,45758.731099806275
1685421848453709840,137,1685421848453709840,camera_2,144,0,0.16715920685361416,-0.0010353165614260449,0.40571655242613686,-0.9766186806207676,-0.03874587793771937,0.21114121676895223,-0.011579990790709727,1.1393392375321127,0.06600198806706883,45744.411338649006
1685421848463969230,138,1685421848463969230,camera_2,145,0,0.16745259758952602,-0.0003637340806421545,0.4063380809371316,-0.9771052564526974,-0.037893288399372234,0.20896449234272685,-0.012777223749193586,1.1306404032511637,0.06567047962257355,45689.99557644361
1685421848474265813,139,1685421848474265813,camera_2,146,0,0.1674160112691894,0.0003840625901707492,0.4061465474478932,-0.976896576225756,-0.037889682192856836,0.20998992861625485,-0.011902992122160495,0.9837917620316148,0.05708347028979033,45700.104925139574
1685421848484120368,140,1685421848484120368,camera_2,147,0,0.16735357469222373,0.0010732365977335141,0.4059080360647641,-0.9766871356057804,-0.03801738022117588,0.21098499946316693,-0.011056579254998028,1.0831653264467604,0.06277032086856035,45719.64458457242
1685421848493988037,141,1685421848493988037,camera_2,148,0,0.1673554183889718,0.002204557499811208,0.4057564791577112,-0.9768900396584064,-0.038097244047072674,0.2100599596714072,-0.010452930453306569,0.9757839518715627,0.05646561816699916,45788.9308164227
1685421848504429578,142,1685421848504429578,camera_2,149,0,0.167209801686178,0.002579417591686041,0.40534189782106006,-0.9764714509671076,-0.03789031452081029,0.21200946336286064,-0.01094609319791436,0.923552198219113,0.05338274242206479,45806.38793825825
1685421848514805793,143,1685421848514805793,camera_2,150,0,0.16712913547774194,0.002783249507876813,0.4051121565085328,-0.9763085811901582,-0.03768756650428236,0.21280335996032873,-0.010767154454183941,0.9248459807713516,0.05340801254306461,45826.93838027726
1685421848524653196,144,1685421848524653196,camera_2,151,0,0.16699141744430226,0.002810477894436579,0.4047931828196729,-0.9759659555753388,-0.03788539610511025,0.21436091882312758,-0.01022481301440815,0.963947017560713,0.055596377651962424,45839.68958958611
1685421848534277439,145,1685421848534277439,camera_2,152,0,0.1672300301735027,0.002314716822301329,0.40545765964820557,-0.9765410383915109,-0.03783249783012929,0.21172875708149966,-0.010355475357817515,0.9501762814470567,0.05493395757138418,45793.23356938315
1685421848544733285,146,1685421848544733285,camera_2,153,0,0.16727821231669332,0.0018260197476372654,0.4056308105227713,-0.9765061188883823,-0.03807805562852087,0.21182124422299375,-0.010845365319938668,0.9553197749191895,0.05529284165491484,45750.91696901525
1685421848554733991,147,1685421848554733991,camera_2,154,0,0.1672994253297033,0.0012087920997283868,0.40578084361255423,-0.976620448611092,-0.03781034957356304,0.21132277303530855,-0.011205463687948827,1.0413079134305008,0.0603173941240467,45735.98932788732
1685421848564234495,148,1685421848564234495,camera_2,155,0,0.16728210481670036,0.0005016425154077916,0.40584700760188713,-0.9767147743558243,-0.03787171025323208,0.21083534378893415,-0.011934861831983772,1.1525840787799098,0.06679719917936845,45737.13663522481
1685421848574152469,149,1685421848574152469,camera_2,156,0,0.1671722802531037,-0.0009731620221673405,0.4057655107554461,-0.9766454042926112,-0.03852570705776928,0.21106208898458143,-0.011502989319556069,1.0837480973568745,0.06278889683310594,45737.80019578454
1685421848584475994,150,1685421848584475994,camera_2,157,0,0.16710576511531638,-0.0016320949196653234,0.40568983720377044,-0.9766144673442316,-0.03872678258967021,0.21119877734840695,-0.01093137368922473,1.0084976368234493,0.05840613678914272,45743.99379861307
1685421848594378948,151,1685421848594378948,camera_2,158,0,0.1668747955002227,-0.002203672725022778,0.4052216257452866,-0.9763719383058821,-0.03877016744780342,0.21234104478346752,-0.010295285578834199,1.1574152613757178,0.06689595811610445,45800.766000980744
1685421848604280948,152,1685421848604280948,camera_2,159,0,0.16666341590979045,-0.0026421367908896643,0.4047441221716825,-0.9758920310002664,-0.038626310900664915,0.2145563999481347,-0.010406881265597521,1.013273062533699,0.05848448404328403,45816.37815613042
1685421848613917112,153,1685421848613917112,camera_2,160,0,0.16666156159557644,-0.003009884062071997,0.40478621678302346,-0.9760901336978607,-0.03890118619097417,0.21360735355361404,-0.010327009172517923,1.1698439479368972,0.06752224349379751,45838.15554480953
1685421848623836278,154,1685421848623836278,camera_2,161,0,0.1667300873269089,-0.002930710601445486,0.40493062611182506,-0.9762826628272524,-0.03890748227458075,0.21271335762367766,-0.010554504936003527,1.0469350997591391,0.06045304539890582,45840.22591108922
1685421848633970260,155,1685421848633970260,camera_2,162,0,0.16669738990614696,-0.0026725858399763696,0.40480261946807833,-0.9759261357562695,-0.03878700943253215,0.2143633140185843,-0.010588439454705613,1.0214737835922278,0.058978869628121676,45809.053896553814
1685421848643836021,156,1685421848643836021,camera_2,163,0,0.16691276219492976,-0.00225134998260152,0.4053087163411116,-0.9763406860047876,-0.038944456067170244,0.21244188487416493,-0.01051854288602865,1.0962951628607698,0.06339671463243887,45775.971535329256
1685421848653903961,157,1685421848653903961,camera_2,164,0,0.1670385048540818,-0.0010551676440590538,0.40542991118600336,-0.9763063607143614,-0.03815556939488167,0.21260003626829527,-0.013086906874861465,1.0677564502693713,0.061839756858254734,45750.26699473384
1685421848664151906,158,1685421848664151906,camera_2,165,0,0.16747133330107647,-0.000349671922516935,0.40637566810272246,-0.9771648147577984,-0.03814532167029434,0.20867587140760474,-0.012175381977752553,0.9783875430584885,0.05681779659297624,45693.27004431817
1685421848674287557,159,1685421848674287557,camera_2,166,0,0.16723676761779271,0.00038179382371258345,0.40571249037360224,-0.9765825460561446,-0.03830895779125929,0.21138900593275614,-0.011560391957325698,1.043796001584269,0.06045393937939856,45745.294933159836
1685421848684615612,160,1685421848684615612,camera_2,167,0,0.1674170315354512,0.0010671746558380676,0.4060623573840033,-0.9768860815903706,-0.03816581729075595,0.21004224045296793,-0.010918388664909082,1.0355286219273694,0.06002814047200931,45720.749512817245
1685421848694358825,161,1685421848694358825,camera_2,168,0,0.1672300387107078,0.002212507742862946,0.40544438532543897,-0.9764351279242152,-0.03813771057973979,0.21213172169756975,-0.010958496109522504,1.0481854423414916,0.06062139678991708,45779.87972405835
1685421848704420566,162,1685421848704420566,camera_2,169,0,0.167102988171892,0.002575607947875964,0.4050724293157628,-0.976245644904338,-0.03782664516257045,0.21305553983901107,-0.01099648420932524,0.828154245915357,0.04782419885260204,45826.56499644974
1685421848714002370,163,1685421848714002370,camera_2,170,0,0.16711827491886988,0.0027832983319940135,0.40510268076877154,-0.9762401016262697,-0.03792159716445604,0.21308076232483553,-0.010667950707345327,0.9216399544966407,0.05322232839279396,45819.03698373331
1685421848723795413,164,1685421848723795413,camera_2,171,0,0.1671063416968028,0.002800888439312791,0.4050681283186845,-0.9762987652320279,-0.03778054724897536,0.21284253217602628,-0.010554987109554286,0.8871352976420894,0.0512148364271208,45835.82066089474
1685421848733765602,165,1685421848733765602,camera_2,172,0,0.16708022697183655,0.0023031011853148027,0.4050843467660721,-0.9760437500875548,-0.03792962649801038,0.21396594422173926,-0.010886508257642863,0.9023469000239857,0.052124091020571174,45790.75185125484
1685421848744535923,166,1685421848744535923,camera_2,173,0,0.16735634032316207,0.0018360425276328653,0.40582040819684495,-0.9768338107890792,-0.037878335015899704,0.2103453161939534,-0.010760380614774002,1.0714807257754728,0.06204235816158628,45764.35257794103
1685421848754413843,167,1685421848754413843,camera_2,174,0,0.1672514158513079,0.001219460072126033,0.40567020944353177,-0.9766393316115215,-0.037795300300995156,0.2112101254788068,-0.011722376882898797,1.1804084780160338,0.06835010735034132,45764.71341936453
1685421848764071226,168,1685421848764071226,camera_2,175,0,0.1673418472903749,0.0005178886137431897,0.4059814597201585,-0.9768830772876352,-0.03807878439998825,0.2100220910028023,-0.011839796386338116,1.0982825553510338,0.06367090238050056,45737.562113065964
1685421848773902416,169,1685421848773902416,camera_2,176,0,0.16714707161409234,-0.0009584733778092522,0.4056847803344416,-0.9765830780292152,-0.03853252566768848,0.21137005075998455,-0.011110257169589554,1.1313508137245663,0.06551961271635363,45744.60769122417
1685421848783986330,170,1685421848783986330,camera_2,177,0,0.16707332400662855,-0.0016372555442976605,0.40561248378484804,-0.9765293176146933,-0.03840845601141592,0.21161818968433055,-0.011533609171781449,1.1242031177971512,0.06511073608166507,45744.400640430395
1685421848794017791,171,1685421848794017791,camera_2,178,0,0.16676268600219468,-0.002204902999122749,0.4049080290313685,-0.9759289536110902,-0.03858531127269584,0.21439364879972703,-0.010450579500245685,1.028701669187285,0.05941558615628274,45791.04777197726
1685421848804315567,172,1685421848804315567,camera_2,179,0,0.16679065971349066,-0.00264297561546186,0.4050428080012665,-0.9762096565216452,-0.03904416690844693,0.21304993834134167,-0.009999165818595656,1.0839100238517858,0.06260821096029161,45807.56079943291
1685421848814297199,173,1685421848814297199,camera_2,180,0,0.16667688028037753,-0.0030106562713482833,0.4048381741391364,-0.9760728208585503,-0.038911338255367994,0.21368783842515557,-0.010259817035088855,1.1122196734213503,0.0642097637876093,45823.875891563715
1685421848824040651,174,1685421848824040651,camera_2,181,0,0.16659693616730173,-0.002927216817247952,0.40463173371488487,-0.975969836158807,-0.03882148464482957,0.21417475749535067,-0.010244241793843176,1.176337967175641,0.06785404124553428,45852.96228944199
1685421848834529876,175,1685421848834529876,camera_2,182,0,0.16682567642505164,-0.002674095319110819,0.4051526390081522,-0.9764009172180093,-0.03875902789798735,0.21217571626551598,-0.01097506443939469,1.0134622398763895,0.058577104956952876,45814.39396422589
1685421848844327211,176,1685421848844327211,camera_2,183,0,0.16698226012517217,-0.0022399159169095677,0.40547127112075715,-0.9765731600997819,-0.03867254911628743,0.21142930873246818,-0.010341389001715436,1.1839485644595698,0.06849607567211524,45778.30089027062
1685421848853940963,177,1685421848853940963,camera_2,184,0,0.16728357530518403,-0.0010467633842355844,0.40603102017339504,-0.9770581625500224,-0.0381072903298873,0.20920038737386118,-0.011848178793130368,1.1993987276800908,0.0695503618705782,45746.53395786742
1685421848863691091,178,1685421848863691091,camera_2,185,0,0.1676524705063184,-0.00033998409493296274,0.40684231358415224,-0.9776087987787007,-0.038524871457757716,0.20658782332141773,-0.010878514831902986,1.1114596693078056,0.06461029180713504,45669.20084735682
1685421848874133586,179,1685421848874133586,camera_2,186,0,0.16751637067441033,0.0003924833457436198,0.40640317920361935,-0.9771681189051349,-0.038438795415686476,0.20866116767961898,-0.011200156470735072,1.1735943264793605,0.06812708727423726,45693.9954428191
1685421848884414196,180,1685421848884414196,camera_2,187,0,0.16731663864934032,0.00106850885770209,0.40580461759239245,-0.9767963443177837,-0.03833356962096419,0.21042755566159693,-0.0109399719292918,0.865548683097586,0.05011881358222316,45763.50769273892
1685421848894105195,181,1685421848894105195,camera_2,188,0,0.1671629526853469,0.002208233882225841,0.40530403745261545,-0.976302224721096,-0.03807969807721285,0.21277450744538098,-0.010531456706568933,1.0906860421528108,0.06303793503682635,45787.948224437176
1685421848904334068,182,1685421848904334068,camera_2,189,0,0.1670801504137498,0.0025730024008465305,0.4050101992382261,-0.9762223970711682,-0.037748685855932176,0.21320203835713517,-0.010476593584519191,0.8113622565870173,0.046831811901721185,45835.21877564211
1685421848914702892,183,1685421848914702892,camera_2,190,0,0.16709339640913579,0.0027819408373351375,0.4050416782756144,-0.9762942062978563,-0.03775001209090778,0.21287398416675332,-0.010451133974265961,0.8977125720120966,0.05181673692194838,45840.81392711401
1685421848924483060,184,1685421848924483060,camera_2,191,0,0.1672392535212428,0.0028114815437584994,0.4054158069746807,-0.976678699191952,-0.037795467562577637,0.21110395350739802,-0.010263624602903023,0.9689632013905793,0.05599156176720203,45824.92268208205
1685421848934133529,185,1685421848934133529,camera_2,192,0,0.1672378381900893,0.002309436681727345,0.40547395282377785,-0.9766300344453515,-0.038171766978258304,0.2112612994979559,-0.01026427588602284,0.8957089734030887,0.05177600421106149,45807.38488027499
1685421848954307556,186,1685421848954307556,camera_2,194,0,0.16736020834914775,0.0012000362684757974,0.4059230627142475,-0.9768781097265806,-0.03823108922768442,0.21008870447240283,-0.010501371653018525,1.0163516649627127,0.05886672743996913,45751.37040223927
1685421848964161396,187,1685421848964161396,camera_2,195,0,0.167385257536322,0.0005088552564581207,0.4060913403892394,-0.976926474732097,-0.03836935921750925,0.2098339430228077,-0.010591109302436027,1.1311479770229198,0.06557015540196351,45721.88413318712
1685421848973950386,188,1685421848973950386,camera_2,196,0,0.16718134899834036,-0.0009566836573920976,0.4058155292792514,-0.976756570543107,-0.03836906582805838,0.2106048673585278,-0.01095474934661543,1.2292622842360288,0.07121020220463993,45745.849555533154
1685421848983922958,189,1685421848983922958,camera_2,197,0,0.16708140611025565,-0.0016329766927119277,0.4056297112974438,-0.9765863894065296,-0.038527059921829865,0.2113974151556675,-0.010287008564208028,1.0007697909604758,0.057929995625969746,45751.04779133995
1685421848994344472,190,1685421848994344472,camera_2,198,0,0.16691663101576645,-0.0022053734360552154,0.4053051868306715,-0.9764407267268936,-0.03864377310140613,0.21202424145453266,-0.010765083611979405,1.095545603428036,0.06335415290777759,45792.56774369115
1685421849034499645,191,1685421849034499645,camera_2,200,0,0.16670774594463084,-0.002675061881146884,0.4048561798010295,-0.9759576680823816,-0.03897416381219774,0.21420626315649077,-0.01016471794355561,1.1858175607630983,0.0684675300515219,45804.77954384292
1685421849044290065,192,1685421849044290065,camera_2,201,0,0.1668981800441165,-0.002257680523620678,0.4052535927197189,-0.9763033655487555,-0.03869917324907212,0.21263867964802718,-0.010904326001879665,0.9839738305890933,0.056901168588369,45779.36511259993
1685421849054096460,193,1685421849054096460,camera_2,202,0,0.16725626190635193,-0.001052315593065219,0.40596300797886314,-0.9767158599048575,-0.038165700287161264,0.2107618656729367,-0.012204274249968543,1.074314868368674,0.06231850662007235,45702.34147455169
1685421849064132928,194,1685421849064132928,camera_2,203,0,0.16737945649373084,-0.0003408306571379494,0.40618930482855736,-0.9769488105056712,-0.03842724201535304,0.20967140585574628,-0.011500882101941686,1.1472185188904405,0.06656259822988013,45700.248983440935
1685421849074242353,195,1685421849074242353,camera_2,204,0,0.16736980139992855,0.00038792022719380754,0.40605899547205715,-0.9767689896105538,-0.03794455482340679,0.21056720356118255,-0.012000186617501895,1.3018394956598058,0.07552095590016956,45698.8268398291
1685421849084137201,196,1685421849084137201,camera_2,205,0,0.16740136163205646,0.0010807614878918883,0.40602945701395476,-0.9768168432948512,-0.03798500426606554,0.21037482093056858,-0.011332644211324343,1.0930085150175728,0.0633715623651802,45715.29308750316
1685421849094203948,197,1685421849094203948,camera_2,206,0,0.1672498490442435,0.0022020712153367444,0.4055055502905263,-0.9764884103259325,-0.03802678221755955,0.21191095316941835,-0.010867210320051529,0.9820608019363133,0.056806172868802914,45774.95842952071
1685421849104744672,198,1685421849104744672,camera_2,207,0,0.16716662750561326,0.0025779579586426107,0.40524156858950644,-0.9762913358105952,-0.037848752535375854,0.21284808968342794,-0.010880729331936232,0.8843163817655295,0.05110233022691824,45797.08397985785
1685421849114857435,199,1685421849114857435,camera_2,208,0,0.1671160026745584,0.0027824625003926087,0.4050944237694217,-0.9762814163220709,-0.037942458791247434,0.21290692622484858,-0.010276513539765495,0.964411307417322,0.0556776308708246,45827.82812839141
1685421849124501705,200,1685421849124501705,camera_2,209,0,0.1670620929551379,0.0028062905896458963,0.4049598175269256,-0.9762079865606972,-0.0378889192786013,0.21324145716270873,-0.010510838127099758,0.887603021285031,0.051221779534269145,45844.875035613775
1685421849134444475,201,1685421849134444475,camera_2,210,0,0.16722936499463323,0.0023084507236766625,0.40544820868951076,-0.9765081824556102,-0.03811330441311951,0.21182070065992584,-0.01054212482812385,0.9467416385887191,0.054739263032689604,45791.4796380955
1685421849144553899,202,1685421849144553899,camera_2,211,0,0.16714968083362017,0.0018261990908518084,0.40532553504570934,-0.9763995345321789,-0.03796747715599408,0.21234186637807692,-0.010646662708492512,0.9239813924068585,0.0534047525853809,45799.99970653908
1685421849154948949,203,1685421849154948949,camera_2,212,0,0.1673058258962084,0.0012130291385260028,0.40580894323880207,-0.976702350014765,-0.038185212733823116,0.21091324398444797,-0.010488685144714165,1.2149620155105367,0.07035328840641526,45746.569274699315
1685421849164797067,204,1685421849164797067,camera_2,213,0,0.16724324744146465,0.0005114460000241491,0.405736059445348,-0.9765897998438332,-0.037838299164813446,0.21143095174789134,-0.011729390447795281,1.0333078420953825,0.059860912128838165,45739.317752995994
1685421849174274206,205,1685421849174274206,camera_2,214,0,0.16715261936331455,-0.0009606485391881591,0.405721058415136,-0.9765632108366549,-0.03834297725825668,0.21149428476408066,-0.011148042317193461,1.0313478806638159,0.059742913297387915,45732.23021244793
1685421849184525251,206,1685421849184525251,camera_2,215,0,0.16700549297887635,-0.001640589184377142,0.4054316015777507,-0.9763670449600786,-0.03855705546948856,0.2123671652743161,-0.010997004264700157,1.1260684203007258,0.06516272187421711,45757.061103931395
1685421849194457292,207,1685421849194457292,camera_2,216,0,0.16698136825006007,-0.0022157847074314382,0.4054598008709721,-0.9766140781619446,-0.03874359218846952,0.21120707037706563,-0.01074475792961393,1.0350963870296255,0.05988280201695612,45788.569660018664
1685421849204372167,208,1685421849204372167,camera_2,217,0,0.16687798403173984,-0.002647192277708774,0.40526844374548177,-0.9765381211796553,-0.03872087031105699,0.21159993003511426,-0.009973048400461901,1.0373532206867822,0.059955614552933,45812.34999574999
1685421849214095830,209,1685421849214095830,camera_2,218,0,0.16661350287787294,-0.003016589413171004,0.40467336224856937,-0.9759556022504209,-0.03871301468287043,0.21430084565161017,-0.009333406837105207,1.0615811755560571,0.06122732184212113,45838.68634306408
1685421849224348783,210,1685421849224348783,camera_2,219,0,0.16664269111099878,-0.002927024767486607,0.40472875067715697,-0.975978631055723,-0.03889010920573738,0.21411179558573426,-0.010459929235670297,1.1528072961373255,0.0665332508946423,45832.68688879114
1685421849234328269,211,1685421849234328269,camera_2,220,0,0.1667636314427644,-0.0026716564092229946,0.404995818800603,-0.97620376901823,-0.03894465375812837,0.21309074959127575,-0.010091963975848429,1.1527055167825893,0.06657229673206093,45816.46037397531
1685421849244121789,212,1685421849244121789,camera_2,221,0,0.16685189259361366,-0.0022556142163483893,0.4051480057495154,-0.9762685498353396,-0.03868467898131207,0.21277450588312694,-0.011411566969846017,1.1370598902576603,0.06573972772938888,45797.247774137184
1685421849254408597,213,1685421849254408597,camera_2,222,0,0.16720348218264192,-0.0010283332372217498,0.4058512645268355,-0.9767764663896175,-0.03864882292595925,0.21043803181807216,-0.011394646040422857,1.336804598919116,0.07746636970336332,45742.033151305994
1685421849264194250,214,1685421849264194250,camera_2,223,0,0.1675065707502803,-0.00034688781408777087,0.40647855897161467,-0.977239592240514,-0.038086324707445676,0.2083454448732255,-0.012016107042247863,1.2950195507146418,0.07523021205345945,45683.53277793783
1685421849274530410,215,1685421849274530410,camera_2,224,0,0.16735613776139865,0.0003971589228862738,0.40601785979546096,-0.9767344595420581,-0.03781534845080039,0.21076624255435417,-0.011721175885869779,1.1511140023358166,0.06676363601051016,45700.69209540425
1685421849284192323,216,1685421849284192323,camera_2,225,0,0.16734609166879674,0.001072815863479144,0.4059001377143782,-0.9768041145341942,-0.03797371586543333,0.21040247144892588,-0.011938121318870903,1.0714320303522982,0.062096377000018056,45742.49563019303
1685421849294039726,217,1685421849294039726,camera_2,226,0,0.1672999929956414,0.0022058284780009274,0.4056436241088906,-0.9767063489855682,-0.03802604290120348,0.21090891808492054,-0.010777577872865122,1.0087630737689324,0.058365167269957094,45782.58872230885
1685421849304095029,218,1685421849304095029,camera_2,227,0,0.16713687913789377,0.002577422998184608,0.4051777712712985,-0.9763427484319296,-0.03803120159259577,0.2125976300422359,-0.01052202405593638,0.8734400110552087,0.05044510183112354,45821.59965839701
1685421849314305067,219,1685421849314305067,camera_2,228,0,0.1671372420548962,0.0027768671508675417,0.40515127214632196,-0.9764266362311779,-0.03808357724384036,0.21222323704192028,-0.010097666167414521,0.8627482622978278,0.0498046964820505,45841.46866835446
1685421849324599981,220,1685421849324599981,camera_2,229,0,0.16703915381761078,0.002802330941926709,0.4048964863840432,-0.9760866433730357,-0.0379064168373931,0.21382381799735156,-0.009866258072108341,0.9284217355889268,0.053557098805889373,45837.02157106018
1685421849334306716,221,1685421849334306716,camera_2,230,0,0.16709781527335324,0.002313232663266404,0.4051271302171286,-0.976233506974196,-0.03795401935768554,0.21311461589046288,-0.010478204489299493,0.9616954467492178,0.055540125318681244,45814.24485301063
1685421849344426870,222,1685421849344426870,camera_2,231,0,0.167245175583605,0.0018177766586415568,0.4055457906423652,-0.9764470766773562,-0.037667141866942505,0.21212973959797743,-0.011544108883546964,0.9889409206807613,0.057239016038122044,45757.28558498457
1685421849354394435,223,1685421849354394435,camera_2,232,0,0.1672244273815626,0.0012162709610529236,0.40559291070250075,-0.9764665471879578,-0.03823663152664717,0.211994116966157,-0.010465973631852527,1.0744155935244635,0.06217257006790378,45753.49198999302
1685421849364210844,224,1685421849364210844,camera_2,233,0,0.16717269823183592,0.0005157931282008051,0.4055705634965364,-0.976491319199837,-0.03778879156521404,0.2118756861884113,-0.012058373090619664,1.1196179770631718,0.06482849749213346,45759.31907625473
1685421849374529600,225,1685421849374529600,camera_2,234,0,0.16720330200075562,-0.0009530282495151061,0.4058339284099115,-0.9766722025191094,-0.038416794717599324,0.21096482751482387,-0.011375423584998063,0.9873092184425332,0.0572182876193574,45726.316764453426
1685421849384448766,226,1685421849384448766,camera_2,235,0,0.1668460194978428,-0.001631957915241877,0.4050583638174545,-0.9760131810063063,-0.03872738964857071,0.2139240369521088,-0.011617495731515158,1.0598039005417377,0.06126395934772769,45780.665469906286
1685421849394477128,227,1685421849394477128,camera_2,236,0,0.16686553486813605,-0.0022087863001369183,0.405205958451005,-0.9762150276862858,-0.03860100778263273,0.2130802746565685,-0.010534631930492845,1.0770748288487084,0.06226891566884545,45775.697115653646
1685421849404227018,228,1685421849404227018,camera_2,237,0,0.166787812484048,-0.0026467436128217673,0.4050533890905966,-0.9762049656705171,-0.0387701462813539,0.21309997547539009,-0.010447067049418935,1.0732357900124043,0.062007729259576275,45802.848288573325
1685421849413721323,229,1685421849413721323,camera_2,238,0,0.16677402899421817,-0.0030221844497967175,0.40507321059221224,-0.9763406305609051,-0.03884524962699354,0.21248780937040163,-0.009947389924941675,1.058347434285679,0.06113444588890439,45817.22777749295
1685421849423791170,230,1685421849423791170,camera_2,239,0,0.16676110876805383,-0.002936184859733726,0.40502392313181274,-0.9763243620626424,-0.03887464746913631,0.21251498024552087,-0.010811336567270312,1.0829208897193894,0.06256208990098268,45826.7099284334
1685421849433790922,231,1685421849433790922,camera_2,240,0,0.16679018695488043,-0.00267644575958701,0.40505539971260857,-0.9762775916354235,-0.03887705714430862,0.21273432989885124,-0.010711833681602,1.070751115330495,0.06186540651893528,45815.191283449996
1685421849443904161,232,1685421849443904161,camera_2,241,0,0.16683628015951413,-0.002252491724119895,0.4051071327547063,-0.9761301294016015,-0.03879207680329457,0.21342232849267195,-0.010772880416411185,1.199172385619022,0.0693160293349144,45782.92618234874
1685421849453932046,233,1685421849453932046,camera_2,242,0,0.16716949460262934,-0.0010454482823256954,0.4057440717678575,-0.9766354368825444,-0.03831030601274311,0.2111481945779404,-0.011488420471418789,0.99739092431264,0.05778393712768676,45737.96858481268
1685421849463674306,234,1685421849463674306,camera_2,243,0,0.16741906146246588,-0.000325659575376776,0.40627202317472855,-0.9770300520382923,-0.03865492209398931,0.20926757761136114,-0.01118728620498623,1.284059178782627,0.07451646290115735,45697.19648067604
1685421849473554611,235,1685421849473554611,camera_2,244,0,0.16744850873410608,0.00038775459437802393,0.4062326532227434,-0.9769603059003943,-0.03821660477177955,0.20961743450966053,-0.012189461198670355,1.1209475629148073,0.06506719231757033,45694.697735158945
1685421849484040737,236,1685421849484040737,camera_2,245,0,0.16736639014321625,0.0010658591902337768,0.4059457673575735,-0.976797515178103,-0.03823693968716113,0.21041069020777697,-0.011484434314811406,0.9865252419840544,0.05717632312006358,45732.42227921542
1685421849493785381,237,1685421849493785381,camera_2,246,0,0.16725288082867018,0.002201631160631427,0.4055368804083791,-0.9765150847961204,-0.03791368389023604,0.2118089196267719,-0.010854644445430698,1.1012267978512682,0.06370479409053725,45772.59035689825
1685421849504144430,238,1685421849504144430,camera_2,247,0,0.16725212632900024,0.002574240778860233,0.4054404953112328,-0.9764861715772423,-0.03813227495674556,0.21191675797824316,-0.01058177740430379,0.8725492307567038,0.05044832952178285,45787.9940912861
1685421849514231204,239,1685421849514231204,camera_2,248,0,0.1671179824017654,0.0027802607078410346,0.4050972024958807,-0.9763589861446527,-0.038056370149212794,0.21252989666337263,-0.010290086972813514,0.9400689328322187,0.05426714033317888,45841.53383274538
1685421849524204492,240,1685421849524204492,camera_2,249,0,0.1670964347124114,0.0028015476484005005,0.40506299255937855,-0.9762289798071712,-0.03799173412245798,0.21310459215551705,-0.010956273328502773,0.9917668698471971,0.05726662897713012,45827.282139181145
1685421849533901214,241,1685421849533901214,camera_2,250,0,0.1671407778017866,0.0023068017137450195,0.40523097213176146,-0.9762625791722539,-0.03802749577888981,0.2129660536449092,-0.010523595756139602,1.0105003834469246,0.058386855545241576,45796.564577244455
1685421849544153451,242,1685421849544153451,camera_2,251,0,0.16727555932606666,0.001827926249900145,0.40563738052044435,-0.976589997280574,-0.03785818087341863,0.21148173445102494,-0.010686970855680477,0.9870239229057916,0.057120345699055976,45762.84155938986
1685421849554153442,243,1685421849554153442,camera_2,252,0,0.16735675286654078,0.0012068496503451175,0.4059277154904481,-0.9769248976078244,-0.03810405114820814,0.20984456476272656,-0.011449207814457569,1.1045891270623542,0.06399837210744537,45758.799590583425
1685421849563955307,244,1685421849563955307,camera_2,253,0,0.16730159956031748,0.0005298347722251344,0.4058939291269737,-0.9768586527364749,-0.038211044315306225,0.21016495592083226,-0.010852648018234127,1.1014061520108953,0.06380083049178087,45753.61791698262
1685421849573865890,245,1685421849573865890,camera_2,254,0,0.16721751421135206,-0.0009570117522188937,0.40588549164291654,-0.9768400427687799,-0.0384833122834305,0.21022037087405193,-0.010486238065199409,1.041438895801548,0.06033201026560856,45744.733605779234
1685421849584159851,246,1685421849584159851,camera_2,255,0,0.16703717912353463,-0.0016363680830462659,0.40553345687484277,-0.9765431490275371,-0.03863224210616369,0.21155626150986123,-0.01072269430709316,0.8773896384518594,0.05077407476946293,45766.056411162936
1685421849594107151,247,1685421849594107151,camera_2,256,0,0.1669131362318827,-0.0022065976357042117,0.40530894096258396,-0.9763905936266334,-0.03880157790280165,0.21225237643324413,-0.01023596249131826,0.9708296901662834,0.056132419473780025,45784.256734117844
1685421849603926181,248,1685421849603926181,camera_2,257,0,0.1667898148897494,-0.002644164403157184,0.40505622158285115,-0.9761982175525169,-0.03868178483154774,0.21311984326415012,-0.010985990014507887,1.0386775120859966,0.06002682306342763,45800.33976545883
1685421849623877525,249,1685421849623877525,camera_2,259,0,0.16669584810888824,-0.0029363625813823807,0.4048751040742641,-0.9761358239894187,-0.038842080705251254,0.21342187778838442,-0.01006220513929164,1.115659562536166,0.06440618815252364,45827.324269150165
1685421849634238243,250,1685421849634238243,camera_2,260,0,0.16678841677688078,-0.0026733141300139037,0.40504442377239575,-0.9761929598701086,-0.03890717420623236,0.21312804369970653,-0.010486843379150337,1.1445412997272797,0.06613095258715271,45802.96933003957
1685421849644634485,251,1685421849644634485,camera_2,261,0,0.1668642166034065,-0.0022557322667222006,0.4051918780174457,-0.9762407865881979,-0.03854076145841399,0.2129180205616982,-0.011595379594934974,1.0520920705748722,0.060848681224595906,45781.847432607305
1685421849653844833,252,1685421849653844833,camera_2,262,0,0.16736189382314148,-0.0010467281324937183,0.4062265089330572,-0.9770584215277495,-0.03876330728561745,0.20908047464097312,-0.011815331306773647,1.1944156569079496,0.0693199225519763,45707.46528774686
1685421849663874864,253,1685421849663874864,camera_2,263,0,0.1673479889074598,-0.0003398041137604099,0.4061137097555386,-0.9767774836120808,-0.03821353731832906,0.21048201056213223,-0.01194974074172082,1.3875117570278235,0.0805162062576193,45686.173135740675
1685421849673893451,254,1685421849673893451,camera_2,264,0,0.16756127147376815,0.00040746081655258825,0.4065422136390525,-0.9772509289977666,-0.03818430844882029,0.20829188558194722,-0.011707722323522081,1.3242520885542035,0.0769312489923919,45676.9025204638
1685421849683772563,255,1685421849683772563,camera_2,265,0,0.16733704157321477,0.0010737011896345783,0.4058737349614799,-0.9765720531568794,-0.03812146518647428,0.2114350679119102,-0.012206184583221494,1.0596804892411456,0.06143579153801249,45708.932235412765
1685421849693831205,256,1685421849693831205,camera_2,266,0,0.16722394595827056,0.0022033622667743916,0.4054345753534666,-0.9764736797961611,-0.03794731635031091,0.21197470816582706,-0.011219489523429195,0.8984070109436288,0.05195856649839845,45787.80184884275
1685421849704447031,257,1685421849704447031,camera_2,267,0,0.16715922344198475,0.0025733540532978543,0.405209920195606,-0.976341035814183,-0.03783603717704009,0.21266077681940396,-0.010100003890781514,0.8387157553806901,0.048441876770964794,45811.55851582228
1685421849714063644,258,1685421849714063644,camera_2,268,0,0.167149654977826,0.0027818279754343134,0.4051792438632003,-0.9763977558541206,-0.037695569374675525,0.21243361707948355,-0.009920924709100392,0.9334830220905133,0.05389941532722968,45827.09560024041
1685421849724048137,259,1685421849724048137,camera_2,269,0,0.16710012568841232,0.002796719013396779,0.40504278708748215,-0.9762401479091894,-0.03781957164823799,0.21306747136135107,-0.011274141132147917,0.8781929513206705,0.05071078632305195,45832.01062711699
