%time,field.header.seq,field.header.stamp,field.header.frame_id,field.image_seq,field.transforms0.fiducial_id,field.transforms0.transform.translation.x,field.transforms0.transform.translation.y,field.transforms0.transform.translation.z,field.transforms0.transform.rotation.x,field.transforms0.transform.rotation.y,field.transforms0.transform.rotation.z,field.transforms0.transform.rotation.w,field.transforms0.image_error,field.transforms0.object_error,field.transforms0.fiducial_area
1685679150816597461,31,1685679150816597461,camera_2,36,0,-0.7181821779453934,0.605363820792885,2.533885268352194,-0.9841961122851044,-0.004120469975048921,0.13376598064411052,-0.11596420444426178,0.018359042995143682,0.009984812876687336,21074.353739759885
1685679150826606988,32,1685679150826606988,camera_2,37,0,-0.7182646621767388,0.6050881613194112,2.5340455679189255,-0.9840737467954573,-0.0036331045334332306,-0.13195800346636025,0.11904934582168476,0.018020480652921833,0.009801925702244333,21071.957950642332
1685679150836511135,33,1685679150836511135,camera_2,38,0,-0.7180895514145751,0.6046314738924902,2.533374034749363,-0.9839841712469037,-0.003497718387410128,-0.13342339039703105,0.1181571648127524,0.010352055192925034,0.005628996543202896,21077.440212745103
1685679150846525430,34,1685679150846525430,camera_2,39,0,-0.7180444640051846,0.6043772414072953,2.5331808666605315,-0.9839751709808274,-0.0035417343757162064,-0.1333044440813288,0.1183648773878087,0.009807255875784904,0.005331815392417866,21081.652703101754
1685679150856575250,35,1685679150856575250,camera_2,40,0,-0.718180082239217,0.6043027420005141,2.533736487171214,-0.9842221862960551,-0.0041279784427742,0.13374999832203396,-0.11576089903523311,0.015516715968260542,0.008435653827817158,21084.4264216827
1685679150866560459,36,1685679150866560459,camera_2,41,0,-0.7181522731291011,0.6043125462233463,2.5335204533580833,-0.9840775071718384,-0.0037261695707579683,-0.13166759771698971,0.11933657968212069,0.016076011495897546,0.008738846364646924,21086.655310625796
1685679150876572370,37,1685679150876572370,camera_2,42,0,-0.7179584110403119,0.6042736189252497,2.5328677327780156,-0.9839610358743767,-0.003422803375756058,-0.1329938074455464,0.11883438677088193,0.01527915638871491,0.008305334214229961,21085.93522965302
1685679150886604309,38,1685679150886604309,camera_2,43,0,-0.718058459283111,0.604567596091224,2.5333873887382974,-0.9840378967958304,-0.004351455011737839,0.13527506645328627,-0.11554712850165669,0.02445187306148,0.013299477828500274,21072.385041671925
1685679150896622419,39,1685679150896622419,camera_2,44,0,-0.71827304298132,0.605353903520315,2.534060536562346,-0.9840629979796789,-0.003417396700387221,-0.1319766996073595,0.1191238354309814,0.013454120489768684,0.007319303532303187,21068.374924254837
1685679150916553020,40,1685679150916553020,camera_2,46,0,-0.7178442558810262,0.6058183728236591,2.5327705660018727,-0.9841910339174404,-0.003918451110170466,0.13348588708290096,-0.11633646224253077,0.014473642411758192,0.007866058067343376,21088.547859926002
1685679150926592111,41,1685679150926592111,camera_2,47,0,-0.7175402247952666,0.6060274219436308,2.5317456149767645,-0.9840589013612083,-0.0037103528159605505,0.13537914748864124,-0.11526837536376298,0.011321818281430751,0.006151237361920526,21091.72365341684
1685679150936650991,42,1685679150936650991,camera_2,48,0,-0.7174255787117709,0.6069159955368576,2.5314753377203454,-0.9841393533742645,-0.004002163664217175,0.13529437956784263,-0.11466972871443405,0.015635567775461823,0.008491263107559783,21098.391905292407
1685679150946601867,43,1685679150946601867,camera_2,49,0,-0.717457162755576,0.6074020531523974,2.5314614254632173,-0.9842278221067496,-0.003630386184240032,-0.1326356033412533,0.11700517601140345,0.013525883085094392,0.007344080000455255,21102.586634623585
1685679150956583499,44,1685679150956583499,camera_2,50,0,-0.717096102586909,0.6075443320123535,2.530335403169829,-0.9840882270681972,-0.0041120724192106675,0.13549485827321103,-0.11486773083731662,0.015098467061761767,0.008195149737323418,21107.930152680718
1685679150966665983,45,1685679150966665983,camera_2,51,0,-0.7174939009779555,0.6082985135713901,2.531635055643366,-0.9843724098818161,-0.0036994111732850904,-0.1317434570105064,0.11679441149026747,0.005883280246052891,0.0031939285164286567,21104.85972927836
1685679150976606130,46,1685679150976606130,camera_2,52,0,-0.7168768571300235,0.6084324948690972,2.529490207530608,-0.9843277623796916,-0.003640934052223605,-0.13162584462838517,0.11730403587976608,0.007172290293965489,0.003888803194865193,21130.78009437769
1685679150986675024,47,1685679150986675024,camera_2,53,0,-0.7169815689494121,0.6087548827785009,2.529883190280954,-0.9842267442160139,-0.00389123581843538,-0.13299783419918343,0.11659395504089039,0.008541079529095441,0.004634342528972113,21113.13367172704
1685679150996515750,48,1685679150996515750,camera_2,54,0,-0.717101524191372,0.608999279013354,2.5304454686931623,-0.9842398108712775,-0.004165419641903669,0.134785338814206,-0.11440085845839874,0.013924394792411476,0.007555597995138843,21111.51356396522
1685679151006612062,49,1685679151006612062,camera_2,55,0,-0.7166702122686825,0.6086931629546491,2.5288012841392367,-0.9842810550313764,-0.003696547082013033,-0.1315435965828187,0.1177854933514649,0.013310068403370678,0.0072153541480604565,21134.30772523956
1685679151016626119,50,1685679151016626119,camera_2,56,0,-0.7169749628635524,0.6088155741550311,2.5298938180913018,-0.98424666605841,-0.003732629184039876,-0.13215376017239577,0.11738803816648496,0.021938407386187464,0.011903733377515343,21114.293749985285
1685679151026635408,51,1685679151026635408,camera_2,57,0,-0.7168423200097338,0.6085009696414417,2.5293992136542185,-0.9841490771470172,-0.0039053433118989224,-0.13311229037992528,0.11711729331785785,0.011347259511239827,0.0061563805627296775,21115.61403654586
1685679151036547660,52,1685679151036547660,camera_2,58,0,-0.7171860489082433,0.608513423787544,2.5305956677188495,-0.9842027112507632,-0.0034633309689124587,-0.1322158910057214,0.11769446321220867,0.008626456372439861,0.00468348792606595,21102.918683957778
1685679151046587467,53,1685679151046587467,camera_2,59,0,-0.7174415488713051,0.6083751857677204,2.531461454860609,-0.9843346454974011,-0.003962125263991848,-0.13139250474972106,0.11749730606483123,0.010508847422897816,0.005705587507773297,21103.519951360075
1685679151056580781,54,1685679151056580781,camera_2,60,0,-0.7173985750122629,0.6075108370342024,2.531409450087603,-0.9841358607683015,-0.0043971002552148815,0.134702858519568,-0.11537943042777254,0.026972331572324038,0.01464964023280831,21095.855032364852
1685679151066596269,55,1685679151066596269,camera_2,61,0,-0.7175290824677071,0.60716028448954,2.5317486772264846,-0.9842162817525542,-0.0034517333324352276,-0.13309120145217998,0.11658957228755118,0.014073131955228746,0.0076422368772431715,21099.502846885007
1685679151076539993,56,1685679151076539993,camera_2,62,0,-0.7174249129403142,0.6065758951531541,2.5314105484888465,-0.9840680730482404,-0.004471201731087775,0.1345101552647477,-0.11617682252866428,0.014699166829814203,0.007985029734087878,21094.850687376686
1685679151086440086,57,1685679151086440086,camera_2,63,0,-0.7177514219102594,0.6063649182694895,2.532525713171915,-0.9840541927025289,-0.003952063326118985,0.13516205473751802,-0.11555494787837005,0.015037905672215857,0.00817573946007282,21077.544224064568
1685679151096586465,58,1685679151096586465,camera_2,64,0,-0.717749465789368,0.6054386248622203,2.5323175120275447,-0.9840043859293358,-0.0035418462368977882,-0.1331782898805511,0.11826397127425205,0.012543865261250176,0.006817048187717152,21087.782026379144
1685679151106612443,59,1685679151106612443,camera_2,65,0,-0.7182480951448889,0.605445773191266,2.5339994763761817,-0.9840938398866219,-0.0035468910802236736,-0.13250617344586071,0.11827445987872527,0.01729839845211245,0.009408883215440924,21071.124062548508
1685679151116572380,60,1685679151116572380,camera_2,66,0,-0.7183038267666336,0.6051235285850208,2.5341242042571093,-0.9841554791548718,-0.003931642832942287,-0.13251231566271285,0.11774133187536313,0.0071896783338161185,0.003909392058683764,21077.548614669122
1685679151126630544,61,1685679151126630544,camera_2,67,0,-0.7181693812097392,0.6047257524760519,2.533643924582168,-0.9840755084698398,-0.0034029489778143896,-0.13230180964016308,0.11865936429131436,0.009502268163487315,0.005166383653995412,21080.86112247
1685679151136612892,62,1685679151136612892,camera_2,68,0,-0.7181261955681444,0.6042914710325133,2.533426752693124,-0.9840042257631205,-0.0033692480242404196,-0.13259631708737452,0.11892244759900271,0.011141292648972012,0.006057566522965748,21081.441638645258
1685679151146612405,63,1685679151146612405,camera_2,69,0,-0.7182121218271214,0.6042953670483988,2.533704742121481,-0.9840717708499512,-0.0035936471593543467,-0.13243378288653626,0.11853745680879557,0.008603165915701538,0.004677122644307421,21083.326269561545
1685679151156580924,64,1685679151156580924,camera_2,70,0,-0.7182035739766373,0.6043100981771773,2.5336923058194003,-0.9840795457879452,-0.0033319190830319555,-0.13218758301132652,0.11875516314939404,0.01236624586454127,0.006722842062733243,21084.079494032077
1685679151166647195,65,1685679151166647195,camera_2,71,0,-0.7182178516702044,0.6044326967908145,2.5337499181712233,-0.9841483922557929,-0.003190320663941306,-0.13197084001616485,0.11842914024777502,0.015210796525934711,0.008267549564239189,21088.186433881994
1685679151176623821,66,1685679151176623821,camera_2,72,0,-0.718306171890223,0.6049801723945482,2.5341548789030757,-0.9841229329954891,-0.0036311327260451142,-0.13227314690300349,0.11829066842256984,0.00554705441754777,0.003016627435396771,21075.477307567155
1685679151186637639,67,1685679151186637639,camera_2,73,0,-0.7181583652216679,0.6051920471829795,2.5337825177043807,-0.9841240199320637,-0.004110479325540635,0.1348064398659836,-0.11537001830254,0.01840181194711477,0.010009357271333928,21070.60404589004
1685679151196563482,68,1685679151196563482,camera_2,74,0,-0.7180869001172921,0.6055296426250014,2.533471079553088,-0.9840899227196213,-0.0037315629835083285,-0.13191926286786365,0.11895548547162318,0.01084024427109398,0.0058944394416438825,21077.975820273976
1685679151216616868,69,1685679151216616868,camera_2,76,0,-0.7176434156930216,0.6065444803700852,2.5321200376442143,-0.9840586222930631,-0.004354141853930496,0.1353769071041703,-0.11525086707831524,0.011626304141827859,0.006318862748401299,21083.379005318035
1685679151226600885,70,1685679151226600885,camera_2,77,0,-0.7175128438112167,0.6069437517456989,2.5317383666625313,-0.9841322121462802,-0.0036923827844419386,0.13473849695880602,-0.11539364264431619,0.020916563109494746,0.011362678038645997,21093.326086139998
1685679151236645460,71,1685679151236645460,camera_2,78,0,-0.7174025079928877,0.6073280484049663,2.531404712510328,-0.9840192881142128,-0.004115847696118557,0.13438750723100512,-0.11674372924134628,0.01497640018351376,0.008138552259618204,21086.354899119357
1685679151246683359,72,1685679151246683359,camera_2,79,0,-0.7172971014877495,0.6076980926255832,2.5309521034923237,-0.9842292757773903,-0.0036467809370556237,-0.13246471804712148,0.11718588722285428,0.016249799926299602,0.00882082199740169,21107.52995180548
1685679151256713151,73,1685679151256713151,camera_2,80,0,-0.7171706389944539,0.608355185529809,2.5305162156405263,-0.9842099569976916,-0.0036175808716432264,-0.13250235215337974,0.11730643771362645,0.01264743326464668,0.006865414277094878,21106.124514278497
1685679151266636371,74,1685679151266636371,camera_2,81,0,-0.7170924977819477,0.6085871741399853,2.530237810210683,-0.9842596822820613,-0.003406847172044728,-0.13314980197019713,0.11615679688102339,0.005535611649975181,0.0030037311405107544,21112.19722669758
1685679151276564121,75,1685679151276564121,camera_2,82,0,-0.7169809776791196,0.6087396520612831,2.5298611567481464,-0.9842263489907878,-0.0038445210604500504,-0.13258748538246004,0.11706524817398031,0.008416353084612638,0.0045667383320060935,21113.55780278938
1685679151286593675,76,1685679151286593675,camera_2,83,0,-0.7170884027693831,0.6089706572857793,2.5302518403386434,-0.9842623420350759,-0.0033965659660138837,-0.13325245609871972,0.11601675885373054,0.010292009741533546,0.00558536364183617,21108.763277712285
1685679151316569328,77,1685679151316569328,camera_2,85,0,-0.7169000794368149,0.6085891548069216,2.5295830602555895,-0.9841441528339004,-0.0035154453237609845,-0.13418137470283806,0.11594518864479306,0.015964840829838067,0.008662570016734818,21111.402086423484
1685679151336606740,78,1685679151336606740,camera_2,87,0,-0.7173984822606697,0.6080079856153968,2.531281486838638,-0.9841775036986153,-0.0037884806582874483,-0.13248624212815976,0.11759117430582311,0.01171708176843822,0.006363985216838407,21095.38899043017
1685679151356539964,79,1685679151356539964,camera_2,89,0,-0.7174606266370906,0.6071395783282759,2.5314589661744322,-0.9841556684534009,-0.0037047526595872233,-0.13286992320616467,0.11734342148564979,0.017292586446274072,0.009391276526490725,21098.633071076583
1685679151366637229,80,1685679151366637229,camera_2,90,0,-0.717361596412192,0.606566059750518,2.5312065294988852,-0.98402436906716,-0.00395266630791224,0.13590296078681763,-0.11493825629620752,0.014784340412006713,0.008030639323504526,21094.211184268584
1685679151376657962,81,1685679151376657962,camera_2,91,0,-0.717855105117015,0.6060113401888455,2.532852146322968,-0.9841521191519385,-0.004018873506028554,0.13324139904154458,-0.11694094495061788,0.01605642377398908,0.008728739876893933,21082.78251021123
1685679151386636972,82,1685679151386636972,camera_2,92,0,-0.7177841518537791,0.6054927155657518,2.5324322967059016,-0.9841051519416915,-0.0034161603662516333,-0.13209435182853735,0.11864426654993109,0.01892265742935706,0.010280860650076938,21094.622390490378
1685679151396531343,83,1685679151396531343,camera_2,93,0,-0.7182295253328215,0.6054502222021654,2.5339408522649234,-0.9841889629218983,-0.0035522770371247217,-0.13161683469308075,0.11847563216098117,0.012953315876075067,0.007042687740345272,21080.47573391162
1685679151406596899,84,1685679151406596899,camera_2,94,0,-0.7180133736757487,0.6049092483574264,2.5331270800576964,-0.9839954482159133,-0.003543986894226126,-0.13248694432707236,0.11911174429976511,0.01074992521898821,0.0058449462501350795,21079.83192282427
1685679151416619300,85,1685679151416619300,camera_2,95,0,-0.7184042319104336,0.6047171412246607,2.534441374022732,-0.9841115503588582,-0.0035937166674187082,-0.13245678378783454,0.11818097173141573,0.01190116725047119,0.006473205731268823,21072.4991001701
1685679151426610231,86,1685679151426610231,camera_2,96,0,-0.7181824334455209,0.6043733711764723,2.5336191740796186,-0.9840730685444106,-0.0034139079631114663,-0.13211353888298571,0.11888882976050033,0.005837483695358969,0.003173508733695219,21084.052263455807
1685679151436578035,87,1685679151436578035,camera_2,97,0,-0.7183976990316476,0.6044893576979399,2.5343808142334874,-0.9840280626083036,-0.0037263420250573144,-0.13205974793337966,0.1193109774925722,0.009719613706693053,0.005288064823499497,21068.130233186756
1685679151446679353,88,1685679151446679353,camera_2,98,0,-0.7179536812847938,0.6041196458584832,2.5328088643353,-0.9839249370615772,-0.0035834491745684273,-0.13293423045657135,0.11919466218461196,0.010380656181951053,0.005643012345745876,21084.95721351553
1685679151456651210,89,1685679151456651210,camera_2,99,0,-0.7181814874519399,0.6045865703845411,2.5336658745522946,-0.9839817856986077,-0.0035350293397909847,-0.13316979194121215,0.11846162034718408,0.00866499480616767,0.00471270322611423,21073.410045134828
1685679151466646432,90,1685679151466646432,camera_2,100,0,-0.7181667215208895,0.604824081758324,2.5336238819711845,-0.9840675096602659,-0.003689231944136473,-0.13249441214130475,0.11850213816651187,0.004075119984918274,0.002215718319130791,21079.621068770764
1685679151476609230,91,1685679151476609230,camera_2,101,0,-0.7180600342724074,0.60506481771692,2.533313097703944,-0.9840689541551455,-0.003372099422195894,-0.13267592257173239,0.1182963312331571,0.007649649429367855,0.004158633728626173,21082.127425040828
1685679151486644268,92,1685679151486644268,camera_2,102,0,-0.7182534745494232,0.6056242262692674,2.5340483044334574,-0.9840994823220078,-0.0033323207433437058,-0.13178930561761462,0.11903227905424113,0.01429376682790462,0.007775569323258305,21069.47378219536
1685679151496660709,93,1685679151496660709,camera_2,103,0,-0.7176092187509681,0.6059983162343149,2.532011246699055,-0.9840822275981471,-0.003893752124186063,0.13445350804526532,-0.11614328303516279,0.011325339815812185,0.006154201992081751,21089.761536269096
1685679151506700038,94,1685679151506700038,camera_2,104,0,-0.7176023019554834,0.6064804328482448,2.5320022402335676,-0.9840073868420679,-0.004134153789831328,0.1358320714839132,-0.11516084303736271,0.013895367985242046,0.007552804619862172,21080.966194222685
1685679151516655206,95,1685679151516655206,camera_2,105,0,-0.7177839719862985,0.607144857480937,2.5327137779236675,-0.9841838799084123,-0.004120969803795526,0.13448128294902953,-0.11523841665296808,0.019620913139078766,0.010664537463672283,21081.971356917413
1685679151526970386,96,1685679151526970386,camera_2,106,0,-0.7175201818306217,0.6073973526488712,2.5316655129917938,-0.984163424812144,-0.003588147275972732,-0.1318581572185261,0.1184183467039282,0.00983159791212529,0.005340836135477393,21094.117791713914
1685679151536545991,97,1685679151536545991,camera_2,107,0,-0.7171707795444405,0.607975896513818,2.530613207068738,-0.9840776703030342,-0.0039958574508905335,0.13515859176998196,-0.11535738816799004,0.012163274106569588,0.006604392308705969,21100.22842429625
1685679151546535730,98,1685679151546535730,camera_2,108,0,-0.7172243104277078,0.6084022565337995,2.5307335633532646,-0.9841918518943552,-0.003867061432861165,-0.1322384317730952,0.11774736371922079,0.012875773245468736,0.006991176011690747,21101.12189238984
1685679151556569814,99,1685679151556569814,camera_2,109,0,-0.7169254338852811,0.6084441474871024,2.529691211145438,-0.9841814953911032,-0.0036724250859478985,-0.13285258327208002,0.11714729421397173,0.01806157431565225,0.009799893008661128,21114.7517233612
1685679151566600084,100,1685679151566600084,camera_2,110,0,-0.7168554375410819,0.6085916270898257,2.529423348682384,-0.984217954952308,-0.003784732243174489,-0.1327054804408348,0.1170040529738668,0.012932535086292773,0.007014925613483179,21120.504382447354
1685679151576653480,101,1685679151576653480,camera_2,111,0,-0.716737668069554,0.6087092766825233,2.5290026405479953,-0.9841573959528748,-0.0039278527231539385,-0.13341020390868186,0.11670693834252382,0.00625631824368611,0.0033934160017410836,21120.065897094784
1685679151586578369,102,1685679151586578369,camera_2,112,0,-0.7166719714501298,0.6086532139489719,2.5288300217836777,-0.9841955287651735,-0.003655161705083232,-0.13362623485591332,0.11614572876254473,0.021663959370926023,0.011746604442308283,21126.416105852466
1685679151596580505,103,1685679151596580505,camera_2,113,0,-0.7170508313669702,0.6088767687015386,2.5301560804800594,-0.9843727222568202,-0.0037315109391152694,-0.13112006169879073,0.11749020777457961,0.009382901538629085,0.005089672468439018,21121.16018550702
1685679151606666326,104,1685679151606666326,camera_2,114,0,-0.7168997863235889,0.6085572458703281,2.529606108733106,-0.9842073722326355,-0.0036777558812730714,-0.13323558754823625,0.11649292152437582,0.009647870319895446,0.0052338844501906,21117.180111472488
1685679151616553783,105,1685679151616553783,camera_2,115,0,-0.7173731274651942,0.6084024315667617,2.531262048934119,-0.9842569628968114,-0.0037599077080139034,-0.13138073067729905,0.11816597517843833,0.017147034930530936,0.009311717470826816,21099.328349499723
1685679151626556634,106,1685679151626556634,camera_2,116,0,-0.7171479440276598,0.6078314034080721,2.5304110933502617,-0.9841460360826482,-0.003811820378433355,-0.13293482583442442,0.11734726996647485,0.009224364184774458,0.005007228909390276,21106.782130509848
1685679151636592388,107,1685679151636592388,camera_2,117,0,-0.7175765184526373,0.6077867064596599,2.531920046566695,-0.9842633154830551,-0.0038133647355231646,-0.13186680489908315,0.11756840480930628,0.007203147979453206,0.003912399420095811,21095.806565878913
1685679151646677494,108,1685679151646677494,camera_2,118,0,-0.7174171341106648,0.6071792261779956,2.5314385044280088,-0.9840373764037137,-0.0042244600028186405,0.135430679696358,-0.11537385654975388,0.014719979953952134,0.007997746209082992,21088.496362162758
1685679151656708240,109,1685679151656708240,camera_2,119,0,-0.717997102211707,0.6066956621021649,2.5334185154404496,-0.9841148244508583,-0.004221371430467185,0.13496822761044133,-0.11525523786361556,0.01732935826294124,0.009425838700276324,21067.549454379827
1685679151666660547,110,1685679151666660547,camera_2,120,0,-0.7177455414925389,0.6059937622039429,2.5323511938994407,-0.9839944211177588,-0.0036038721199957427,-0.13232768912718978,0.11929532264563945,0.008763990961597301,0.004764318581336836,21081.718908373266
1685679151676642417,111,1685679151676642417,camera_2,121,0,-0.7180227907814785,0.6057584739991516,2.53330198828619,-0.9841081418644897,-0.0035954774337833046,-0.13279266769550474,0.1178318508059512,0.014559789386112243,0.007915512923127697,21079.860588909592
1685679151686659336,112,1685679151686659336,camera_2,122,0,-0.7181071549751202,0.605413320243274,2.533560500614192,-0.984037840742653,-0.0034042507338965617,-0.13239689135722624,0.11886547952379112,0.01632642190088518,0.008879634531859679,21072.972454689916
1685679151696620941,113,1685679151696620941,camera_2,123,0,-0.7180616542653118,0.6046818646559171,2.5334206329465276,-0.9840590040201858,-0.004062864886902981,0.13524549509271674,-0.11541241611211847,0.02168732025893405,0.011795343140675697,21073.087680200573
1685679151707066297,114,1685679151707066297,camera_2,124,0,-0.7185912263171164,0.6048856149121291,2.5351355859583937,-0.9842204590556826,-0.00339952731789309,-0.13193581139314012,0.11786209255850692,0.014734434254933149,0.008015098320404814,21070.579213424244
1685679151716557502,115,1685679151716557502,camera_2,125,0,-0.7182539948607234,0.604447840276642,2.533931400209529,-0.9841091654197703,-0.0035400887881946925,-0.13224044432488904,0.11844443082277344,0.008933744771638885,0.004857098695903325,21082.124397808337
1685679151726569652,116,1685679151726569652,camera_2,126,0,-0.7180277576871887,0.6041765331678252,2.5330711797393866,-0.9840606974408868,-0.0035441736317127926,-0.1320202585958994,0.11909086407317612,0.01787157414946705,0.009711909938545534,21092.73566697003
1685679151736544609,117,1685679151736544609,camera_2,127,0,-0.7182231178402431,0.6044624638602031,2.5337778767506203,-0.983992255723594,-0.003374071300678662,-0.1321137424943918,0.11955674536794972,0.006957694669836201,0.0037843846023067193,21073.893185429966
1685679151747106552,118,1685679151747106552,camera_2,128,0,-0.7181004537731913,0.6045385808698106,2.533388693782954,-0.9840086134955232,-0.0036826326078533275,-0.13211792897599045,0.11940828960666486,0.007404797084745951,0.004026218026398414,21080.487259905094
1685679151756401777,119,1685679151756401777,camera_2,129,0,-0.7185420762433556,0.6051600184109623,2.5349838804862603,-0.9841486736165018,-0.0036442348942655875,-0.13255431819879687,0.11776018214051713,0.008164472135831602,0.004442344910205709,21064.069549586275
1685679151766567468,120,1685679151766567468,camera_2,130,0,-0.7181244098976057,0.6051317881478537,2.533578572810641,-0.9840255317124625,-0.0036127889309640173,-0.13271744447288342,0.11860345959006716,0.01352130745362956,0.007353565483383412,21074.024824624878
1685679151796613454,121,1685679151796613454,camera_2,132,0,-0.7179637812524284,0.6067150592586906,2.5333098038879838,-0.9841695875621995,-0.0039162025910278505,0.1339938840548752,-0.11593327956546756,0.024343633675016463,0.013238071308782092,21073.703310966135
1685679151816635847,122,1685679151816635847,camera_2,134,0,-0.7172860481462867,0.60754740860178,2.530886847103262,-0.9840250571990232,-0.003407040237183729,-0.1338295996704256,0.1173572202011232,0.013265043147839606,0.007205834584652612,21091.54567472753
1685679151826618194,123,1685679151826618194,camera_2,135,0,-0.7174852623878092,0.6081444730694266,2.5316215695526894,-0.9842567179548907,-0.003531759218450303,-0.1317132725380126,0.11780430244612046,0.014479556819424033,0.007864323646622862,21096.2757011829
1685679151836505413,124,1685679151836505413,camera_2,136,0,-0.7171542634828669,0.6082487407919281,2.5304970621907055,-0.9841298045945704,-0.0037866614364230945,-0.13310343769209462,0.11729306790414083,0.01393554056994617,0.007566576345133711,21100.36761782225
1685679151846498966,125,1685679151846498966,camera_2,137,0,-0.7167986599054508,0.6082632044311512,2.5292384438554483,-0.9841498408465017,-0.0037589230355949944,-0.1331614613906946,0.11705975593564306,0.01491091406205669,0.008088259794888924,21120.17621211102
1685679151856574058,126,1685679151856574058,camera_2,138,0,-0.7166500646611788,0.60857374678387,2.5287511040273527,-0.984112677295998,-0.004080491993271346,-0.13351143061182635,0.11696275418430925,0.022102019342128187,0.011987611086259767,21121.163679965768
1685679151866502046,127,1685679151866502046,camera_2,139,0,-0.7168491065503236,0.6088083912127706,2.5294265023176656,-0.9843198898827076,-0.003746612351361489,-0.13248840321886002,0.11639218311252567,0.012481291603762656,0.006767707202697538,21127.5212631228
1685679151876488685,128,1685679151876488685,camera_2,140,0,-0.716692965126834,0.6086778195479603,2.5288809400284,-0.9842141513348026,-0.0037424642496295224,-0.1336706779826759,0.11593380922451553,0.00764628523029387,0.004145792306792314,21127.106844733942
1685679151886425495,129,1685679151886425495,camera_2,141,0,-0.7166868948158386,0.6085765268680523,2.5288533024265405,-0.9841959206840026,-0.003713953855578729,-0.1331617842494537,0.11667277090747846,0.008391808078158647,0.004550338674933928,21126.884610592853
1685679151896555423,130,1685679151896555423,camera_2,142,0,-0.7171064989061288,0.6085349427964701,2.5303375221305457,-0.984246272582859,-0.0037155343649809013,-0.13200690898739834,0.11755698911899591,0.010644401074387133,0.005776944121439551,21110.41447947197
1685679151906562089,131,1685679151906562089,camera_2,143,0,-0.7172502209250537,0.6083326869002107,2.530856032871695,-0.9843031032879036,-0.003838389084069661,-0.1315327118428725,0.11760872987283652,0.012370185810141265,0.006714055265866862,21109.942473927047
1685679151916505098,132,1685679151916505098,camera_2,144,0,-0.7173632836746764,0.608046296918137,2.5311938846478315,-0.9842631659133884,-0.003496484741019129,-0.13128830059426042,0.11822511132445876,0.014970583957619965,0.008128285517174422,21103.989257025532
1685679151926528692,133,1685679151926528692,camera_2,145,0,-0.717362491030367,0.6076315124596277,2.531304879087218,-0.9841701322636301,-0.004054502258401002,0.1348716068600924,-0.11490152929618505,0.01858549250755459,0.01009217359649469,21099.774312152284
1685679151936581850,134,1685679151936581850,camera_2,146,0,-0.7173626683756225,0.6067228575612582,2.5312556797273946,-0.9841026321704606,-0.0040391303516200796,0.13436785933702378,-0.11606452153160152,0.023226312710903585,0.012614366455359054,21099.358199550763
1685679151946591138,135,1685679151946591138,camera_2,147,0,-0.7176730658489441,0.6064899574122564,2.532289131320531,-0.9841857177821906,-0.004174889111694762,0.13340235604525608,-0.1164682558297933,0.01503603697346989,0.008169786816165538,21092.006289757213
1685679151956498384,136,1685679151956498384,camera_2,148,0,-0.7180697451883933,0.6063535520565657,2.5336324420836585,-0.9841990236996508,-0.004249039012579005,0.13462553841266434,-0.11493559858992261,0.013030987305683084,0.007086113805420238,21073.568422435663
1685679151966384172,137,1685679151966384172,camera_2,149,0,-0.7178971425095496,0.6057457844301168,2.5328598038943664,-0.984085883475467,-0.003536367512069725,-0.13218986126568325,0.11869418110290225,0.011527340684551746,0.006265816632189053,21084.55103859643
1685679151976614475,138,1685679151976614475,camera_2,150,0,-0.7181033122933801,0.6051316733366735,2.533500237302998,-0.984116686264078,-0.003899691044151497,-0.13235039379639538,0.11824767857471713,0.014746026979992166,0.008016056547014901,21083.30658268102
1685679151996547698,139,1685679151996547698,camera_2,152,0,-0.7183948456831659,0.6047809394698291,2.534421660076284,-0.9840968079209638,-0.0033789043880913753,-0.13247910526020384,0.11828500460481801,0.0060970208869548514,0.003316504938717756,21070.883495154565
1685679152006455183,140,1685679152006455183,camera_2,153,0,-0.718207399309214,0.604445613277737,2.533742865661149,-0.9840688529286413,-0.0035385790555008453,-0.13234746666942043,0.11865967815632533,0.01002389521454461,0.005450017950612854,21081.302523938008
1685679152016615390,141,1685679152016615390,camera_2,154,0,-0.7180751716503803,0.6042331863000956,2.5332897376300383,-0.983945626237564,-0.0035865309564529625,-0.13347656779404496,0.1184151479059517,0.015698875897214748,0.008536147573269532,21078.757810092065
1685679152026562213,142,1685679152026562213,camera_2,155,0,-0.7181623428274752,0.6043743356667787,2.5336898614152497,-0.984205725876135,-0.004071899923618542,0.13395581845503118,-0.11566480659943681,0.019071103844908066,0.010368359385106872,21083.338899696493
1685679152036368608,143,1685679152036368608,camera_2,156,0,-0.7181948749356099,0.6045584697775336,2.53370919140638,-0.9840747627221924,-0.0032460679097080112,-0.13304995388774812,0.11783053164122788,0.013368742365855724,0.007268237018267701,21081.082530127722
1685679152046412944,144,1685679152046412944,camera_2,157,0,-0.7181250990385769,0.6047391270250309,2.533502831638011,-0.9840633225435587,-0.003456869340094157,-0.13262048301195134,0.11840284947827256,0.009298640565248206,0.005055347042380204,21081.71045907097
1685679152056570529,145,1685679152056570529,camera_2,158,0,-0.7184337753528323,0.6056955772563479,2.534701391854874,-0.9842351724029027,-0.003453947939154748,-0.13108275830994107,0.11868658779541863,0.018505873274989426,0.010066087309127688,21071.434177295203
1685679152066629171,146,1685679152066629171,camera_2,159,0,-0.7177863327140028,0.6055604086800616,2.5324475987151986,-0.984034682782095,-0.0033521790667862287,-0.13240436553234353,0.1188847760035879,0.015425354737089947,0.008383481537411358,21087.544603460934
1685679152076582908,147,1685679152076582908,camera_2,160,0,-0.7177861784384657,0.6060204209331739,2.5324975344984266,-0.9841087075531681,-0.0034572781862115894,-0.1311237056194168,0.1196857250059864,0.019024792971322313,0.010339129358042272,21089.606060655784
1685679152086627244,148,1685679152086627244,camera_2,161,0,-0.7176494819007945,0.6063719143142233,2.5321700054227945,-0.984091510277608,-0.004085969380903868,0.13556121033721688,-0.11476219981188852,0.013258414110168815,0.0072048062008309,21086.448972533224
1685679152106534242,149,1685679152106534242,camera_2,163,0,-0.7175649182587661,0.6077318257987675,2.531872829218235,-0.9842251532773573,-0.003378514684361861,-0.13248566831764974,0.11720486758286,0.009898436954244971,0.005376829926891234,21093.39127632766
1685679152126542568,150,1685679152126542568,camera_2,165,0,-0.7173378060152261,0.6083464980432136,2.531146565782495,-0.9843284693094506,-0.0035627433054317716,-0.13152665784862103,0.11741170998765597,0.015072587004397064,0.008181692264993826,21107.72238782025
1685679152146593093,151,1685679152146593093,camera_2,167,0,-0.716749469308738,0.6086112808136588,2.529069197424687,-0.9841388848746796,-0.0037358932625158677,-0.13347355243393433,0.11679687144705127,0.005503751686774194,0.0029855114123208707,21118.35515399207
1685679152166368961,152,1685679152166368961,camera_2,169,0,-0.7168675343244999,0.6088404201397515,2.529513005186144,-0.9842777455199897,-0.004066713224383481,-0.13319298233978666,0.11593278644572692,0.008720721933059394,0.004729506431976153,21122.27986364998
1685679152186376094,153,1685679152186376094,camera_2,171,0,-0.7170034516619282,0.6084977498070497,2.529961013015427,-0.9841258610586167,-0.0038439076633935776,-0.1331549653407518,0.11726580564945055,0.01348395604873076,0.007319318986998046,21105.46182493306
1685679152196342229,154,1685679152196342229,camera_2,172,0,-0.7171251799927338,0.6083028370480601,2.53039174504109,-0.9841641276945048,-0.003821875020418032,-0.13244427678471932,0.11774921051801394,0.015075348550453782,0.008184117809271524,21104.5014722841
1685679152206388950,155,1685679152206388950,camera_2,173,0,-0.7174942795499143,0.6082473892805172,2.531694403333805,-0.9843151252528894,-0.003710021333022094,-0.13231766575590448,0.11662763509994627,0.01325856801122427,0.007199524837247327,21099.453899992404
1685679152216592550,156,1685679152216592550,camera_2,174,0,-0.7173894249035155,0.6072809292010763,2.531245585203388,-0.984193678218571,-0.0034656708465859993,-0.13204293567709047,0.11796379113083526,0.01293498172890395,0.007023276088071608,21103.907310312374
1685679152226413488,157,1685679152226413488,camera_2,175,0,-0.7174693466875532,0.6068749478582071,2.5316392372181404,-0.9840710415556081,-0.004003658999256897,0.13468631570665474,-0.11596444389400405,0.007885958591941744,0.004284729925003519,21089.878702442635
1685679152236541986,158,1685679152236541986,camera_2,176,0,-0.7175838578354178,0.6064701140894408,2.531854957359255,-0.9840868997524559,-0.003743301827817818,-0.1326659511387479,0.11814697133433875,0.016267980347038247,0.008838121067579523,21092.883246853948
1685679152246593475,159,1685679152246593475,camera_2,177,0,-0.7177245423954933,0.6061238874131756,2.532311969381,-0.9840133028415147,-0.003399490585466985,-0.13259453254465586,0.11884844649366308,0.010295929649146272,0.00559668545891074,21082.74628060917
1685679152256473064,160,1685679152256473064,camera_2,178,0,-0.7181756014011048,0.6056259146089144,2.5337921108444266,-0.9841593164191051,-0.003488488713448519,-0.13171433441273547,0.11861536351664585,0.006605281625525095,0.003591543031847779,21078.49182636431
1685679152266582489,161,1685679152266582489,camera_2,179,0,-0.7184961080489513,0.6055168624187421,2.534892144844915,-0.9842276948301258,-0.003605364895469771,-0.1309189146028115,0.11892469832868607,0.008920153792132623,0.0048525878898775035,21069.635353514226
1685679152276574373,162,1685679152276574373,camera_2,180,0,-0.7182282799909941,0.6049512984693508,2.533871071860175,-0.9840369735586639,-0.003676474822536671,-0.13210600865484548,0.11918775389976347,0.006094372278312221,0.003314885737927577,21072.396231456783
1685679152286568880,163,1685679152286568880,camera_2,181,0,-0.7180427842331369,0.6045486930288355,2.5331915471122293,-0.9840405340564902,-0.0035880599628541434,-0.13234428770303375,0.11889635264337343,0.015490895733819343,0.008420453033216767,21085.98848886112
1685679152296663284,164,1685679152296663284,camera_2,182,0,-0.7182230195251377,0.6043814139914789,2.533785554631412,-0.984082041853194,-0.0035895062254025748,-0.132400251030055,0.11848976274043659,0.012550325627671555,0.006823289150371477,21082.392431804794
1685679152306660413,165,1685679152306660413,camera_2,183,0,-0.7182416573922437,0.6043894877972463,2.5338731389214244,-0.9840626584512481,-0.0034986539694579198,-0.13188742032645093,0.11922311865531135,0.023002673784503713,0.012508195931928052,21079.441935357638
1685679152316625833,166,1685679152316625833,camera_2,184,0,-0.7183002171224054,0.6044816393940453,2.534087182355512,-0.9840318944125863,-0.0033394962096423148,-0.1327820223741981,0.11848634131434865,0.015628278502845205,0.008500489164520213,21072.609496126654
1685679152326692819,167,1685679152326692819,camera_2,185,0,-0.7185309309196212,0.6048022841852828,2.53489796222527,-0.9841785225933789,-0.0036738521543374014,-0.13162911999646051,0.1185449840576112,0.01127548940712586,0.006133552875786072,21071.21251257695
1685679152336714029,168,1685679152336714029,camera_2,186,0,-0.7181945137176138,0.6050294652197212,2.5337867325398906,-0.9840396505542083,-0.003381755973308512,-0.13171352782865348,0.11960801164896623,0.007646055208169855,0.004158823963612758,21073.216987292402
1685679152346724271,169,1685679152346724271,camera_2,187,0,-0.7182187044984555,0.6053993242108732,2.5339206461771893,-0.984171340320251,-0.0034089792731141363,-0.13190251905014902,0.11830839877532441,0.015895739954430613,0.008642732291194994,21079.59511042945
1685679152356546163,170,1685679152356546163,camera_2,188,0,-0.7185110013309153,0.6060739564315923,2.5350351450050193,-0.9842491555156921,-0.003405039439559202,-0.13063914812162478,0.11906056673440647,0.01353350178396795,0.007363841844404432,21064.673171020586
1685679152366645336,171,1685679152366645336,camera_2,189,0,-0.7177943298343151,0.60591471435602,2.5325150190783963,-0.9840474562553363,-0.0033708717701029086,-0.13265804199043044,0.11849508410131035,0.01614676859753672,0.008776392337381369,21084.565982195654
1685679152376639604,172,1685679152376639604,camera_2,190,0,-0.7175710001081729,0.6067209890133164,2.53197647250718,-0.9841353978571078,-0.003997086680000508,0.13500595260276788,-0.11504318643241813,0.019151085361954756,0.010404520160373165,21091.33831046265
1685679152386638402,173,1685679152386638402,camera_2,191,0,-0.7174285974057157,0.6070986211784051,2.531408789742441,-0.9840769950202424,-0.00356317564785494,-0.13242993211279924,0.11849930266390626,0.02546627033734694,0.01383484181190251,21092.95303808013
1685679152396576404,174,1685679152396576404,camera_2,192,0,-0.7176504525560764,0.6077570924640027,2.5322053574339627,-0.9841840119282123,-0.0035044653065592892,-0.1317135259408116,0.11841071096840394,0.014149497787002474,0.0076896812150023825,21084.97663173917
1685679152406652212,175,1685679152406652212,camera_2,193,0,-0.7172677398111775,0.6078619945848873,2.5308423347638307,-0.9842457804027945,-0.0036304524788246238,-0.13212399135476482,0.11743216970906611,0.008600102097261697,0.00466805246234489,21109.12489253282
1685679152416514873,176,1685679152416514873,camera_2,194,0,-0.7169183445662916,0.6082961446207548,2.529680754214673,-0.9841935283474055,-0.0038591129751140833,-0.1328981166727063,0.11698844639953966,0.01313664304325357,0.007126811896334637,21117.403796639286
1685679152426521539,177,1685679152426521539,camera_2,195,0,-0.7170850221578265,0.6086966414163847,2.530276284786826,-0.9842435485105065,-0.003924630410861473,-0.13383557054145873,0.11548711854326692,0.015340494981501251,0.00832455358104544,21109.419696545687
1685679152436499118,178,1685679152436499118,camera_2,196,0,-0.7167403119955114,0.6085854764071184,2.529046889258928,-0.9841205394550169,-0.003873425887387619,-0.134260774496228,0.11604225448660649,0.010429520916659385,0.00565742183698219,21117.26385700889
1685679152446535587,179,1685679152446535587,camera_2,197,0,-0.7169689600295631,0.6088769937679755,2.5298512348718556,-0.9843128571232425,-0.0037404681914263976,-0.1330017770557899,0.1158651608534251,0.009787782153580338,0.005308853811872541,21120.027283526728
1685679152456675767,180,1685679152456675767,camera_2,198,0,-0.7171320750736871,0.6089963691534844,2.5304466190774564,-0.9843426823479664,-0.0035203095501843526,-0.13283426609920465,0.11581083230236737,0.008568512392230332,0.004649132324623036,21112.924857314676
1685679152466638803,181,1685679152466638803,camera_2,199,0,-0.7170097437386643,0.6087514020153163,2.529982174127322,-0.9842219372486882,-0.003929860014466719,-0.13319240389639,0.11641098738094666,0.013867049827240407,0.0075247828464273265,21111.336091318175
1685679152476586341,182,1685679152476586341,camera_2,200,0,-0.7170169758919951,0.6085563102396643,2.5300141091089063,-0.9842050211109178,-0.0036842140937604004,-0.1329509162010827,0.11683730940013132,0.015677292831242085,0.008507549916753536,21111.126199185856
1685679152486617803,183,1685679152486617803,camera_2,201,0,-0.7167940223129687,0.6080837557638594,2.529200318008695,-0.9841041344808857,-0.0037034161965024633,-0.1339479901959069,0.11654729996263136,0.007310340763069689,0.0039656110249023414,21118.14791644225
1685679152496659278,184,1685679152496659278,camera_2,202,0,-0.7173388900514863,0.607807840523047,2.5312236672605164,-0.9841184272562381,-0.0042509619398016915,0.1343099113823743,-0.11599007785907164,0.02309725247323513,0.012545309124888165,21095.391512019327
1685679152506616115,185,1685679152506616115,camera_2,203,0,-0.7171434651379524,0.6072001455858635,2.5303971989306944,-0.9840232005205098,-0.003741953151685723,-0.1341795472065798,0.11696233468694288,0.005908973282203078,0.0032082466275355965,21101.671987651374
1685679152516587018,186,1685679152516587018,camera_2,204,0,-0.7178394215254007,0.6073116227580071,2.53292167041982,-0.9842986250243305,-0.004095141288826473,0.13414409988614082,-0.11465080487625857,0.02150868612807244,0.011687035599193908,21088.067061523907
1685679152526596546,187,1685679152526596546,camera_2,205,0,-0.7176111389635101,0.6066142390555277,2.5320741858920512,-0.98414578705105,-0.004002983530609544,0.13455743778230025,-0.11547875081583393,0.021707389518269338,0.011793990866221368,21091.238782164648
1685679152536478281,188,1685679152536478281,camera_2,206,0,-0.7179860567324515,0.605964749575683,2.533206710568685,-0.9841302324780218,-0.0034913514631237604,-0.13161196601334238,0.11896968685265344,0.01700408991018776,0.00924422605113679,21081.6008834939
1685679152556445360,189,1685679152556445360,camera_2,208,0,-0.7181725446234294,0.6052693128526649,2.5337568464816385,-0.9840767590851708,-0.0033943853885700158,-0.13182574371872832,0.11917794959330674,0.015165348784648813,0.008247771034185553,21074.846853289528
1685679152566613912,190,1685679152566613912,camera_2,209,0,-0.7180745074316903,0.6048374143226218,2.533368720005028,-0.9839548060981829,-0.003402390339661612,-0.13278513199677103,0.11911957025133979,0.009785808579181321,0.005322377665898307,21073.3313892174
1685679152576618432,191,1685679152576618432,camera_2,210,0,-0.7181262108864914,0.6043886707015338,2.533435801327077,-0.9839848925896713,-0.003357644509550544,-0.13278172723611742,0.1188758608416114,0.007904649843112566,0.0042982703016003375,21078.73196373588
1685679152586617946,192,1685679152586617946,camera_2,211,0,-0.7180950683161931,0.6042526332895599,2.533342409793265,-0.9839241515531792,-0.003207259863582645,-0.13362611190964713,0.11843580408995572,0.015325980857596733,0.008334567913548552,21075.751391213853
1685679152596617698,193,1685679152596617698,camera_2,212,0,-0.7179341128054166,0.6040859343283878,2.532760270821994,-0.9838814758277756,-0.003693939173409217,-0.13334775206058955,0.11908809074264722,0.012153566727647558,0.006607541263601196,21082.144145843326
1685679152606623649,194,1685679152606623649,camera_2,213,0,-0.718381471108708,0.604506242312539,2.534326420840736,-0.9840956232103385,-0.0036266453101780585,-0.13137285016886915,0.11951496165985923,0.009540599334286524,0.005189208857328527,21074.83754408802
1685679152616674184,195,1685679152616674184,camera_2,214,0,-0.7180323391901476,0.604578449453146,2.533168649197005,-0.9839439247342178,-0.0037506459778437096,-0.13242629806880818,0.1195974966843545,0.009034894552314654,0.004913166241680142,21077.689146153745
1685679152626644134,196,1685679152626644134,camera_2,215,0,-0.7183058892643537,0.6050927418825328,2.5341741658920593,-0.9841364053816667,-0.003616491953653272,-0.13216346897895465,0.11830162321730835,0.010409179914859124,0.0056607542135208464,21075.427032834166
1685679152636640071,197,1685679152636640071,camera_2,216,0,-0.7181807237637593,0.6053385448328993,2.533797216971519,-0.98405729676954,-0.003428338259998132,-0.13233618287735135,0.11877128387305044,0.01332726982946042,0.00724889310960099,21071.8847583842
1685679152646693468,198,1685679152646693468,camera_2,217,0,-0.7178137988773067,0.6054200240421815,2.5326686022761775,-0.9840939220707822,-0.0039610194431874655,0.13388836634950074,-0.11669347978605302,0.010760821474832483,0.005849755927709256,21083.62685374869
1685679152656519889,199,1685679152656519889,camera_2,218,0,-0.7180312139912138,0.6065164268296667,2.533382805750324,-0.9842308599048204,-0.0034064617592358005,-0.13099631460011885,0.11881908933537329,0.013081374185276218,0.007111018413152861,21083.06981560449
1685679152666503190,200,1685679152666503190,camera_2,219,0,-0.7174835924179228,0.6065572943256534,2.5315271708116636,-0.9839807172810574,-0.003731580135121604,-0.13335009531571843,0.11826147051360321,0.01737340925319586,0.009440764881705333,21087.434313819507
1685679152676476478,201,1685679152676476478,camera_2,220,0,-0.7176503632537278,0.607189363906675,2.532148053234587,-0.9842358398475085,-0.0033032452592156782,-0.13229910913691512,0.11732794148030418,0.011651181906927377,0.006328764519080028,21095.227077275285
1685679152687075853,202,1685679152687075853,camera_2,221,0,-0.7175546765556202,0.6075798978260117,2.531955544273882,-0.9841695891040817,-0.004052152379339397,0.13443374106937767,-0.11541823601965781,0.012339413864538074,0.006703975514102148,21089.942264676087
1685679152696637392,203,1685679152696637392,camera_2,222,0,-0.7170979497134609,0.6080497917602565,2.5302541102686993,-0.9840332696165134,-0.003770346680934546,-0.13328088229768933,0.11790044608774554,0.017924362095072865,0.009734156831896969,21097.083464205964
1685679152706556558,204,1685679152706556558,camera_2,223,0,-0.7167747839275287,0.6081350134794855,2.5291496825375575,-0.9839772822762716,-0.003521144777282227,-0.13357145188347358,0.11804650247000532,0.010324814182240516,0.005604200362979625,21107.292837238172
1685679152716486454,205,1685679152716486454,camera_2,224,0,-0.7170115291815944,0.6086189147265518,2.5299666761954485,-0.9842543121694363,-0.0040111897464156976,-0.13228729958635566,0.1171641143901927,0.005257271928712726,0.002852398078869801,21115.722588476492
1685679152726550817,206,1685679152726550817,camera_2,225,0,-0.7167929130272063,0.6086494431353969,2.529236234376453,-0.9841387022052639,-0.0036775559974620456,-0.13374296353002954,0.11649167399359293,0.014940475230105221,0.008105373357786811,21115.545565723216
1685679152736650228,207,1685679152736650228,camera_2,226,0,-0.716847814922177,0.60886202502749,2.529456786571553,-0.9841986612785656,-0.003462742098601043,-0.13358936778879532,0.11616748843126465,0.010016206244472414,0.005433778184833412,21115.683536225006
1685679152746654033,208,1685679152746654033,camera_2,227,0,-0.7170218142600325,0.6089503846439984,2.53003735050191,-0.9842793216385449,-0.003972594907153701,-0.13359320800750357,0.11546120672647295,0.007031662913504988,0.0038148900159752724,21113.682982345803
1685679152756646871,209,1685679152756646871,camera_2,228,0,-0.7170502046862857,0.6088399649194323,2.530147421592096,-0.9843186109319538,-0.0036383461110793586,-0.1324048172337099,0.11650149777523489,0.012670540250837803,0.006873960805805443,21116.65091278917
1685679152766683816,210,1685679152766683816,camera_2,229,0,-0.7170060374756456,0.6085823695682163,2.529967277322509,-0.9841565789239312,-0.003936018787421742,-0.13415658078975304,0.11585485638354326,0.011669577157590538,0.006333222638922769,21107.18010869017
1685679152776728630,211,1685679152776728630,camera_2,230,0,-0.7169462325045685,0.6079005199309442,2.529732922435462,-0.9841473892028434,-0.003744246054014732,-0.13277799345672653,0.11751553684649362,0.011273573385551572,0.0061168471856443505,21116.15086331522
1685679152786695003,212,1685679152786695003,camera_2,231,0,-0.7171323761610705,0.607666067761431,2.5304987543597495,-0.9840834943869199,-0.004382970901360525,0.1353934822906303,-0.1150176968754104,0.018919234920758754,0.010270698745216144,21104.42362574162
1685679152796633243,213,1685679152796633243,camera_2,232,0,-0.7172098696005315,0.6072924164286052,2.530737040698166,-0.9841101606582799,-0.003972624691050032,0.13518855965099955,-0.11504548353449952,0.02361052279593423,0.012817814667889333,21105.009437183144
1685679152806795597,214,1685679152806795597,camera_2,233,0,-0.717593790457376,0.6071438312027452,2.5320590987127476,-0.9841984579349511,-0.004115428017811157,0.13313114193407888,-0.1166728661601429,0.022624472447205335,0.012291733856638974,21093.07959329803
1685679152816630363,215,1685679152816630363,camera_2,234,0,-0.7178030726856478,0.606338620621876,2.532702885872606,-0.9841396198084612,-0.003946692325469099,0.13402917211277698,-0.11614565581936051,0.008129036068567075,0.004418852642139007,21082.364386946414
1685679152826727628,216,1685679152826727628,camera_2,235,0,-0.7176941670123675,0.6057695018076243,2.5321544453937737,-0.9840686193249841,-0.003393027433370686,-0.1323682557376523,0.11864267654443489,0.012871757528046146,0.006993632989224923,21092.99730253045
1685679152836685657,217,1685679152836685657,camera_2,236,0,-0.718037400185362,0.6056169243993167,2.533315233496577,-0.9841306934338927,-0.003926599858013642,-0.1326488706245371,0.11779489452822439,0.010862028240808286,0.005904370325031445,21082.951759193907
1685679152846470832,218,1685679152846470832,camera_2,237,0,-0.7182947426622064,0.6054149081939891,2.5341733490390372,-0.9841482152704949,-0.003546233954943826,-0.1319866862997847,0.11840282616660347,0.010545966972131282,0.005735573850669726,21073.75578645757
1685679152856530904,219,1685679152856530904,camera_2,238,0,-0.718348980911425,0.6048145939007428,2.5342998137332864,-0.984136937186587,-0.0036713872108707973,-0.13220237620072106,0.11825202538576159,0.006268650817219168,0.0034090090902944153,21076.072764286197
1685679152866532087,220,1685679152866532087,camera_2,239,0,-0.7181848486182286,0.6044526877509571,2.533681040257584,-0.9840539246052216,-0.0037166154689221333,-0.13284807107024563,0.1182178085206802,0.011507611270644702,0.006256580850211858,21080.778975000037
1685679152876457691,221,1685679152876457691,camera_2,240,0,-0.7182992007901382,0.6044059030598091,2.534030824451191,-0.9840897686224814,-0.0033466829136290597,-0.1331669312815002,0.11756995967973675,0.015169910446275026,0.008248316761391445,21078.971874023562
1685679152886946201,222,1685679152886946201,camera_2,241,0,-0.7180690650429654,0.6041614189727618,2.533220852564019,-0.9839950157528906,-0.0031942222233003192,-0.13260843658285115,0.1189899511089441,0.014813529938692227,0.008053012882475353,21084.705585889868
1685679152897646665,223,1685679152897646665,camera_2,242,0,-0.7181325700535056,0.6043725077169869,2.533470520554245,-0.9839340964866926,-0.0036915081972092485,-0.13329756422178385,0.1187089967554493,0.010823852993780747,0.005886805951824812,21073.951771100856
1685679152906499862,224,1685679152906499862,camera_2,243,0,-0.7182166670678257,0.604656883217163,2.533790495739608,-0.983983233727351,-0.003621364481847082,-0.13227806670578646,0.11944201325888125,0.01018837392621208,0.005542130275695855,21071.3295875527
1685679152916440248,225,1685679152916440248,camera_2,244,0,-0.7181455766707109,0.6048874548001534,2.5335772656459503,-0.9841122162569086,-0.00335692263242462,-0.13208405070763402,0.11859882138123812,0.008103380867396481,0.004405190355174823,21083.683370258314
1685679152926528930,226,1685679152926528930,camera_2,245,0,-0.7183794551873119,0.6054376422770716,2.5344454399461784,-0.9843232875267386,-0.003672659013999777,-0.13065365823237945,0.11842212123930666,0.009184198133880273,0.004992481715244124,21085.180775680692
1685679152936497449,227,1685679152936497449,camera_2,246,0,-0.7179512721019261,0.6059403400418005,2.533179307762893,-0.9841745571464954,-0.004014543337073002,0.13428387168192185,-0.11555157425759231,0.021138517840881832,0.011492012769056429,21080.36082348624
1685679152946648836,228,1685679152946648836,camera_2,247,0,-0.7178917307577163,0.6063701906213015,2.5330149338515415,-0.9841269680980842,-0.003952463520208699,0.1345165575442828,-0.11568830727705146,0.015325692787882872,0.008333012382565168,21076.378160553984
1685679152956591129,229,1685679152956591129,camera_2,248,0,-0.717424713717241,0.6064660355186426,2.53142423928353,-0.9841011093950571,-0.0038322852502953716,0.13472291663914643,-0.11567219116719467,0.02088699280284345,0.01134457210002042,21097.992581850624
1685679152966670513,230,1685679152966670513,camera_2,249,0,-0.7177666320713018,0.6072420675473144,2.532655761392235,-0.9842637025630199,-0.0038004629387313107,0.1335672984993789,-0.1156300007349496,0.008068979543168098,0.0043843997173667205,21089.183003219317
1685679152976665496,231,1685679152976665496,camera_2,250,0,-0.7174342303054385,0.6078961249610482,2.5314278617670953,-0.9841898233901608,-0.003678638625271039,-0.13295921108505693,0.11695600600545508,0.015565538662485778,0.008453988859137956,21095.283052241895
1685679152986633539,232,1685679152986633539,camera_2,251,0,-0.7170668949050315,0.6079941784324654,2.530254584499136,-0.9841295560263973,-0.004052543661024291,0.13424640148750505,-0.11597628004388343,0.019420281110797077,0.010540400317689762,21110.117049399523
1685679152996579885,233,1685679152996579885,camera_2,252,0,-0.7171070860484071,0.6083788557754183,2.5302936643941756,-0.984191282860886,-0.0035897457545914476,-0.1332617022848375,0.11660167739019996,0.006942772830370814,0.0037682641442013834,21107.329901220517
1685679153006443023,234,1685679153006443023,camera_2,253,0,-0.7171561175553991,0.6087252401934913,2.5304919886483286,-0.9843327348470512,-0.003706623624222435,-0.13198062092192775,0.11686078790978412,0.010307723481673747,0.005593069141861523,21114.015377487514
1685679153016504287,235,1685679153016504287,camera_2,254,0,-0.7167914321309798,0.6087731916008924,2.529213919989231,-0.9842439672627316,-0.0035720298057421427,-0.13306291006160484,0.11638434377493878,0.008976793149486184,0.0048681254049364004,21124.037908423685
1685679153026666164,236,1685679153026666164,camera_2,255,0,-0.7170116437018123,0.6090108233378249,2.5299952769596747,-0.984287812438639,-0.003800049870008639,-0.13316371440207103,0.11588997830868629,0.006032641336787492,0.003272878125422943,21114.46298634215
1685679153036612749,237,1685679153036612749,camera_2,256,0,-0.7168208295839228,0.6088162706107535,2.5293310198821706,-0.9843294917938241,-0.003935999935999987,-0.1322251501004576,0.11660389860689639,0.009673637803643942,0.0052448167804695365,21129.774624241283
1685679153046517133,238,1685679153046517133,camera_2,257,0,-0.7170161342440795,0.6088553880658522,2.5300059903111443,-0.9842752488616742,-0.003997112078159966,-0.13352045029058565,0.11557918033765084,0.00577892066212371,0.0031351468109318474,21114.659979087995
1685679153056684732,239,1685679153056684732,camera_2,258,0,-0.717112945076837,0.608449867251925,2.5303669798077237,-0.9842072568267402,-0.0036969058789924586,-0.13232949892706494,0.11752153934584463,0.019350193208083514,0.010503305981913135,21107.319833861897
1685679153066704034,240,1685679153066704034,camera_2,259,0,-0.7173279828933358,0.6082771229993871,2.5310922794638806,-0.9842332789693593,-0.003587073506966678,-0.13177736507990698,0.1179267209985761,0.013895698706619442,0.0075454411720406464,21100.679971336624
1685679153076536655,241,1685679153076536655,camera_2,260,0,-0.7172427250653017,0.6077952878713292,2.530785282817057,-0.984137803587999,-0.003318204960777036,-0.13195427750712402,0.11853202821347777,0.015995872032362968,0.00868619118438444,21101.035867678936
1685679153086576461,242,1685679153086576461,camera_2,261,0,-0.7171988432076903,0.6072877454909255,2.530568342600141,-0.9840257008992629,-0.003485041062804453,-0.13367699003942346,0.11752334573396393,0.015141184034291655,0.008222453772629644,21098.60444282787
1685679153096680879,243,1685679153096680879,camera_2,262,0,-0.7179798005639475,0.6069952173200758,2.533299091260128,-0.9843106085839786,-0.003585390183517681,-0.13185097202512894,0.11719680875475501,0.021057008896605115,0.011442859660398399,21087.005939709255
1685679153106745004,244,1685679153106745004,camera_2,263,0,-0.7178045663276404,0.6063470897865773,2.5327294994885405,-0.9841530655267887,-0.003993666281798842,0.13336883543402006,-0.11678847536819525,0.020416170882526785,0.01109824601733555,21083.007785950093
1685679153116597175,245,1685679153116597175,camera_2,264,0,-0.717892951198078,0.6059435633984925,2.5328902825235944,-0.9841606944045109,-0.003588638595294245,-0.13178552920489875,0.11852182733339836,0.009540724931866862,0.0051848145163661446,21089.074505039956
1685679153126585960,246,1685679153126585960,camera_2,265,0,-0.7180486010641918,0.6056237775021834,2.533377278059454,-0.9841137403945415,-0.0037834895157425937,-0.1321074587380158,0.11854725015593169,0.0149947573809186,0.008152173681381285,21080.619845077978
1685679153136593103,247,1685679153136593103,camera_2,266,0,-0.7184385290771275,0.6051952063883708,2.5346605126257953,-0.9841185735469549,-0.0035558795443222688,-0.1330949665829315,0.11740408336536495,0.009079599127289839,0.00493965256376344,21065.735536389522
1685679153146639823,248,1685679153146639823,camera_2,267,0,-0.7184874996313028,0.6049412827047973,2.5347899067020774,-0.9842138105067929,-0.0035271662989236115,-0.1308787623350705,0.11908603560131886,0.008545522927306592,0.004647879176864639,21074.84536620648
1685679153166635274,249,1685679153166635274,camera_2,269,0,-0.7181246856126896,0.6042642616090246,2.533415626588076,-0.9841102167726563,-0.003603007802734484,-0.1317997376476133,0.1189240460734053,0.004974623501766473,0.002703521418406471,21091.348932090215
1685679153176581621,250,1685679153176581621,camera_2,270,0,-0.718074294860245,0.6041794772556804,2.533226761872482,-0.983912350016642,-0.0034717755921119383,-0.13244385556974894,0.1198459819133965,0.010833170104888268,0.005891431143308223,21077.3444235014
1685679153186617612,251,1685679153186617612,camera_2,271,0,-0.7182216131844168,0.6044262806923255,2.5337793178280803,-0.9840795902020194,-0.003414661451647884,-0.13301581014797764,0.1178239979192425,0.013983296521473676,0.007602227168137658,21081.66531042732
1685679153196570634,252,1685679153196570634,camera_2,272,0,-0.7180678601837874,0.6045069944170898,2.5332741865863504,-0.9840603146852187,-0.0034563627186649766,-0.13162082798493355,0.11953789465665737,0.008235241475631483,0.0044764925803717675,21086.996202369104
1685679153216671228,253,1685679153216671228,camera_2,274,0,-0.7176246675220957,0.605157996737629,2.5318289981524313,-0.9839632985972913,-0.0033923694245982876,-0.13236164839829018,0.11952034503176552,0.010456550458911806,0.005681568046681057,21093.80479876115
1685679153226671695,254,1685679153226671695,camera_2,275,0,-0.7179610459991969,0.6058954022360573,2.533183876659175,-0.9841779964865165,-0.003976734257819407,0.1332395868597031,-0.11672647218983682,0.012795623537385836,0.00695688218752494,21080.587221818045
1685679153236565589,255,1685679153236565589,camera_2,276,0,-0.7177806100935752,0.6062422956812152,2.53249103720712,-0.9840790150780184,-0.003673421760860032,-0.13299047474006867,0.11784961469625352,0.012166626242105849,0.0066124784873673684,21084.80462996417
1685679153246543407,256,1685679153246543407,camera_2,277,0,-0.7177305503158222,0.6067037002260168,2.5324994133353473,-0.9842371278705653,-0.003906347546117708,0.13321835857438485,-0.11625353976845673,0.01568620251782704,0.0085229005182263,21092.09251291911
1685679153256460189,257,1685679153256460189,camera_2,278,0,-0.7171660142197884,0.6072131636106842,2.5304610142539685,-0.9840860399160477,-0.003570199580242995,-0.13344397297344715,0.11728011679040264,0.0049049920053221285,0.002662695509599074,21106.193827485447
1685679153266492605,258,1685679153266492605,camera_2,279,0,-0.7173863449418846,0.6078636081360139,2.5313874207997604,-0.9841958677519015,-0.004251878012482129,0.133962493345103,-0.11573446250020693,0.015889599104411904,0.008628810701651812,21099.424889171503
1685679153276437759,259,1685679153276437759,camera_2,280,0,-0.7171732906864012,0.6080816208095734,2.5305252929030986,-0.9841794303245397,-0.0036578737304916245,-0.13344777008072736,0.11648674407982096,0.006696139113046229,0.003634752002745632,21105.663973758918
