%time,field.header.seq,field.header.stamp,field.header.frame_id,field.image_seq,field.transforms0.fiducial_id,field.transforms0.transform.translation.x,field.transforms0.transform.translation.y,field.transforms0.transform.translation.z,field.transforms0.transform.rotation.x,field.transforms0.transform.rotation.y,field.transforms0.transform.rotation.z,field.transforms0.transform.rotation.w,field.transforms0.image_error,field.transforms0.object_error,field.transforms0.fiducial_area
1684938610987445592,17,1684938610987445592,camera_2,19,0,0.22321380301515578,-0.054802015632893164,0.4683064534954186,0.9727187546187998,-0.0017390371810324023,-0.2245929544941896,0.058079298843090876,0.5305718699237332,0.04489861613771979,31765.806343046024
1684938610997375249,18,1684938610997375249,camera_2,20,0,0.22322808299607702,-0.05405054260696462,0.4683146287976808,0.9725897374850812,-0.0019308821764807845,-0.22496271556396177,0.05879839146447253,0.4933426871430129,0.041751005775935865,31760.61513056817
1684938611007294654,19,1684938611007294654,camera_2,21,0,0.22325495566519651,-0.053587782858779166,0.4683194069895574,0.9725457955559129,-0.0018790581922245291,-0.22513990063414713,0.05884870286822824,0.42913540086010477,0.03630913454584439,31760.122206739376
1684938611017464876,20,1684938611017464876,camera_2,22,0,0.22328170607582704,-0.0531583820791952,0.4683711795235266,0.9725840206661985,-0.002073807259892734,-0.22483054950539208,0.059390622806331526,0.43399957596557215,0.03672220465821154,31765.72539462802
1684938611027369022,21,1684938611027369022,camera_2,23,0,0.2232552552459702,-0.052806677600223756,0.46831221767958536,0.9725977056870952,-0.0019149850579563946,-0.22485875894620877,0.05906415367714231,0.5445003905915655,0.04603953746070176,31780.714140993077
1684938611037524938,22,1684938611037524938,camera_2,24,0,0.2232653012293561,-0.052633984974088555,0.4683204145589673,0.9727011927272693,-0.002057095590733336,-0.22428055043426737,0.05955159713710875,0.5031158020719886,0.0425356842297847,31796.181344999
1684938611047421932,23,1684938611047421932,camera_2,25,0,0.2231957504760326,-0.05280988773290949,0.46818526086291545,0.9725507247878343,-0.001746091702384461,-0.22496704350710803,0.059429523084878186,0.5086581308860332,0.04299779367573479,31791.510296135202
1684938611057460069,24,1684938611057460069,camera_2,26,0,0.2232744686489345,-0.05317833294051658,0.46837307791001626,0.9726098570552099,-0.0018645167622321865,-0.2247213058589517,0.05938791315861383,0.4621195368235931,0.039099042147533444,31769.239269638903
1684938611067376136,25,1684938611067376136,camera_2,27,0,0.22324708042313124,-0.05362700739710561,0.46834860210678836,0.9726429172387525,-0.0017620321271005412,-0.2244715690887136,0.059792687336523744,0.43955542432377115,0.03720123916244989,31770.996167868143
1684938611077528715,26,1684938611077528715,camera_2,28,0,0.22332479023592297,-0.05411512769374171,0.46852510158584065,0.9727570880610693,-0.0016763109054629397,-0.22420998925977442,0.05891280272427566,0.4532158335787244,0.03837592929298747,31754.24255192606
1684938611087256431,27,1684938611087256431,camera_2,29,0,0.22315100975676644,-0.05450878526249429,0.4681980372562987,0.9726597091232357,-0.001663512165290951,-0.22462543998974976,0.05893839737378109,0.5096428229589947,0.043118500049632205,31779.01757170446
1684938611097277641,28,1684938611097277641,camera_2,30,0,0.2231030727381958,-0.05493844149675519,0.46808630794481426,0.972725346053426,-0.0017958688100859215,-0.22457734198877888,0.05802752334638178,0.5127595628728159,0.04335408405815049,31793.761404671237
1684938611107274770,29,1684938611107274770,camera_2,31,0,0.22313327618904627,-0.05489606574481214,0.46814200837438874,0.9727357979636322,-0.001621801972711246,-0.22450069332343087,0.058153897682924796,0.4900562349357642,0.041443635543457966,31788.337166730085
1684938611117485046,30,1684938611117485046,camera_2,32,0,0.22316930898670867,-0.054659997665908636,0.46820426418218475,0.9727128230551705,-0.0015796448047591665,-0.22460871881064262,0.05812221623934471,0.4678814137005247,0.0395729157666967,31780.82877655258
1684938611127748966,31,1684938611127748966,camera_2,33,0,0.22330674458837663,-0.053849574294572926,0.46846940803295595,0.9726067186174873,-0.0019384119928047725,-0.22474010453057358,0.05936580560101002,0.49655556108336896,0.04205237915242004,31745.906973361023
1684938611137832164,32,1684938611137832164,camera_2,34,0,0.22333565170398353,-0.053000324058298645,0.46846999762302205,0.9727473205077574,-0.0020857660954251254,-0.22412386230690973,0.059386819829043085,0.4692013779422268,0.039697805255777735,31776.635287685556
1684938611147666215,33,1684938611147666215,camera_2,35,0,0.2232340314778369,-0.05270977806254304,0.4682536555239926,0.972624545173015,-0.0020254809177205763,-0.2245740037763783,0.0596984788908808,0.5049565130029805,0.04269243730895417,31793.7367267073
1684938611157434463,34,1684938611157434463,camera_2,36,0,0.22321675340814093,-0.052600923211949514,0.46822205515522225,0.9726354533077496,-0.001983780785861124,-0.22450293103616256,0.05978940992177604,0.5300197280012071,0.04480179392576484,31801.369889765745
1684938611167466640,35,1684938611167466640,camera_2,37,0,0.2232805538244239,-0.0526913640810564,0.46836736855106154,0.9726912114405801,-0.002043181968811002,-0.22427768048292318,0.0597256614103112,0.490175194456242,0.04145478132674861,31788.33112746198
1684938611177322864,36,1684938611177322864,camera_2,38,0,0.22329183615041096,-0.052946915348563835,0.4684035915083479,0.972753567827318,-0.0018906959359326933,-0.22407507958745554,0.05947503893211697,0.5330222023767419,0.04508178135741019,31788.201770774547
1684938611187266111,37,1684938611187266111,camera_2,39,0,0.22319363309508125,-0.05376718032071123,0.46825154187797907,0.9725514859632454,-0.0016393764838850112,-0.2251129760957518,0.0588648247151133,0.41519127233186737,0.03512182365539873,31768.883385086665
1684938611197446584,38,1684938611197446584,camera_2,40,0,0.2232256093581329,-0.05424333603604885,0.4683538619788052,0.9727577436418745,-0.001531598955072599,-0.22433461637107827,0.058429498432307506,0.5026154108927585,0.04252169917165622,31775.77080916263
1684938611207614421,39,1684938611207614421,camera_2,41,0,0.2232700120981263,-0.05464842666973037,0.46844694674882587,0.9728768284790047,-0.0017630453816166623,-0.22382862490415453,0.05838077554410304,0.4736480728024617,0.040089265924841806,31772.05554160847
1684938611217481613,40,1684938611217481613,camera_2,42,0,0.22309912791255757,-0.05486698533379662,0.4680840402203582,0.9727380546360439,-0.0017385488325189077,-0.2245183236874267,0.058044610769903686,0.468305490037892,0.039591545793016755,31797.23127081083
1684938611227546215,41,1684938611227546215,camera_2,43,0,0.22310340080369462,-0.05494067746056644,0.46809276476269035,0.9727135375610689,-0.001648920232957261,-0.22473357532084073,0.057623563157863586,0.5678316171397455,0.048003565326965494,31791.261049536522
1684938611237639904,42,1684938611237639904,camera_2,44,0,0.22317210089453302,-0.05455998967107965,0.46821971097153203,0.9726247713466232,-0.0016754978288407156,-0.22499555487113554,0.058096877353127435,0.48213710577692837,0.040785511907901195,31769.05816844361
1684938611247411966,43,1684938611247411966,camera_2,45,0,0.22322324764585685,-0.054149431411072924,0.4683059258028237,0.9725833169669519,-0.0017512822235843765,-0.22504080486189912,0.05861109720218107,0.48237513296771795,0.0408216758292138,31759.048192687802
1684938611257488727,44,1684938611257488727,camera_2,46,0,0.22328726966346008,-0.053690187806462605,0.46840949768318013,0.972606157145279,-0.0017344499444115627,-0.2249224794140106,0.05868673632718994,0.48562282661441714,0.04109799948235581,31755.247615708282
1684938611267543077,45,1684938611267543077,camera_2,47,0,0.22329860106436455,-0.053233851014948534,0.46842880600700915,0.97263414889608,-0.002032099913206937,-0.2245229238738002,0.05973390683941912,0.4653931228676811,0.03939113361508761,31764.699320044823
1684938611277577638,46,1684938611277577638,camera_2,48,0,0.22325969839601012,-0.052861155156148656,0.4683224011956899,0.9726630695314302,-0.0021626791760060533,-0.22451957028638458,0.0592692040346023,0.5213691553799435,0.04408551514098179,31787.52184198446
1684938611287481307,47,1684938611287481307,camera_2,49,0,0.22314807164001693,-0.052597728449910494,0.4680887401019602,0.9724946410261018,-0.0019048069222691608,-0.22525924469930306,0.059235272968070435,0.5058488773647696,0.04273705819038446,31799.979596254183
1684938611297482013,48,1684938611297482013,camera_2,50,0,0.22329681903399265,-0.0527812724298342,0.4684046609199442,0.9726796558201943,-0.0020064608251981236,-0.22436692203779002,0.059579741219254356,0.5155896396026947,0.04361221063725589,31780.43118884416
1684938611307347774,49,1684938611307347774,camera_2,51,0,0.22325324502211338,-0.05308840498178796,0.4683270341375347,0.9726198012319546,-0.0018806917957484017,-0.22470425130737837,0.05928899302799156,0.5081429986748844,0.04297885206721429,31778.098444940522
1684938611317423582,50,1684938611317423582,camera_2,52,0,0.22332187042811505,-0.05354273276061959,0.4685133023412513,0.9726377002198107,-0.001690678342026217,-0.22461379226028166,0.05934382903315637,0.4645630079321563,0.039334450968053464,31749.66465787823
1684938611327345848,51,1684938611327345848,camera_2,53,0,0.2231982567392165,-0.053980780211213684,0.4682671435545619,0.9726321118518564,-0.0020547750749610747,-0.22476416389066353,0.058852557501949475,0.4413554235943593,0.037338916453160106,31774.28660501051
1684938611337489843,52,1684938611337489843,camera_2,54,0,0.2231947882485628,-0.054763266647658945,0.46829805421068943,0.9728665323074508,-0.0014055273134500439,-0.22385068281106987,0.05847740259335022,0.5039310453576036,0.042630398295291375,31788.768505712054
1684938611347357511,53,1684938611347357511,camera_2,55,0,0.22304277443843099,-0.05490044153101215,0.4679813800203473,0.9726867289706921,-0.0016043355510756514,-0.22484967004957526,0.05762446763599531,0.5047974805929698,0.04265563490907939,31803.6299093219
1684938611357583522,54,1684938611357583522,camera_2,56,0,0.223110522054224,-0.05492183538378691,0.4681095049646944,0.9727444570955069,-0.0016243402004658461,-0.22457026999490107,0.05773886510226791,0.49937403184594586,0.04221697720778466,31793.549222898437
1684938611367489814,55,1684938611367489814,camera_2,57,0,0.223256898758821,-0.05443326934394319,0.46839574394908656,0.9728096017052883,-0.0018573074207163679,-0.2241599769339258,0.05822657451821598,0.4752333339420147,0.040212266323997485,31772.83300507092
1684938611377610206,56,1684938611377610206,camera_2,58,0,0.22333471862736384,-0.0535482016891528,0.4685150871319358,0.9726793879642309,-0.0016675331755319422,-0.22449326692755525,0.059116839114004255,0.4599728328175843,0.03893884563566819,31753.908126548864
1684938611387309789,57,1684938611387309789,camera_2,59,0,0.22330517272342204,-0.05310694469498835,0.46842525069834723,0.972654151990595,-0.0019833647191373153,-0.22457345898206604,0.05921763589234008,0.4485667804838158,0.03795211514834366,31768.79287625967
1684938611397513389,58,1684938611397513389,camera_2,60,0,0.2232573683408556,-0.052776505531440136,0.4683089832376361,0.9726558112501904,-0.00202334025959944,-0.2244771720946521,0.05955315393676407,0.5018540740129538,0.04243617254475016,31789.59581411795
1684938611407332420,59,1684938611407332420,camera_2,61,0,0.22319774914441684,-0.05261047998887937,0.4681853491791575,0.9725938621555799,-0.0019085837526609747,-0.22458894907444676,0.06014433106276781,0.5436211482156068,0.04595620965814294,31801.014975500526
1684938611417387008,60,1684938611417387008,camera_2,62,0,0.22322417542540737,-0.05264151215744034,0.46825416099533324,0.9726146055395719,-0.002005000669986894,-0.22457489969533528,0.059857526596466065,0.5156789246248081,0.04359950413893205,31794.235098494217
1684938611427381277,61,1684938611427381277,camera_2,63,0,0.22329621485070358,-0.05322373452628375,0.4684344938914218,0.972644599500301,-0.0021009309016541133,-0.22446002578563307,0.05979770879020863,0.4380569107597694,0.03707778272153043,31765.86285171727
1684938611437302350,62,1684938611437302350,camera_2,64,0,0.22327350417361436,-0.053668525532553656,0.46841094722989784,0.9726451434615336,-0.0015301892244990018,-0.22471431523591406,0.05884352088109676,0.5037707226583734,0.042630768746569674,31761.821337550657
1684938611447784662,63,1684938611447784662,camera_2,65,0,0.2232896390632571,-0.054158473194913584,0.4684729613499522,0.9727818801595446,-0.001862679802292742,-0.22421293386932561,0.05848507795091818,0.45384362974436954,0.03841224643791453,31764.116051556783
1684938611457941770,64,1684938611457941770,camera_2,66,0,0.2232142869895315,-0.05455603070545636,0.46833104150520716,0.9727843785186294,-0.001649098458021275,-0.22415780509076355,0.05866099045610425,0.4593666438595392,0.03887116866216849,31776.92507859459
1684938611467843055,65,1684938611467843055,camera_2,67,0,0.22321699702863346,-0.05485124202314415,0.46833180696048826,0.9728757944580355,-0.0016950505689354097,-0.22386562553847694,0.058258021451827006,0.47852092096582055,0.04048677256456452,31783.280656498406
1684938611477747440,66,1684938611477747440,camera_2,68,0,0.2231567261324429,-0.05488271359597186,0.4681974608875344,0.972766036797884,-0.0016563335435564547,-0.22445483886026002,0.057823174627007666,0.4618512017186731,0.039058021046755306,31785.180700285135
1684938611487940788,67,1684938611487940788,camera_2,69,0,0.2232418083475681,-0.05464652910511757,0.46837020801042856,0.9728058320201272,-0.001715801162608597,-0.22417642481507216,0.058230574195443495,0.48657554388046254,0.04117440024829328,31772.08179482376
1684938611497491359,68,1684938611497491359,camera_2,70,0,0.22325786622004312,-0.05424521722374763,0.4683999634022764,0.9727050074141623,-0.0017644628818391727,-0.22457337526836435,0.058383682161434865,0.4934172817738727,0.041758393517122676,31761.76209658454
1684938611507246017,69,1684938611507246017,camera_2,71,0,0.2233277610143503,-0.0537947496669207,0.4685183174854288,-0.9727745873841441,0.001906110841986497,0.2241649315985462,-0.05878819883688843,0.4711684624780901,0.039882561453213936,31762.510860295493
1684938611517330884,70,1684938611517330884,camera_2,72,0,0.22333189291350605,-0.05333282178524533,0.46849707381751926,0.9727170957440926,-0.0018623162481146624,-0.2243018947829538,0.059216918377660875,0.4348355990368873,0.036802056263990975,31764.56278953445
1684938611527457475,71,1684938611527457475,camera_2,73,0,0.22328030576338584,-0.052693018909941616,0.46836564000094555,0.9726694122317354,-0.002095039372561004,-0.22438089579440693,0.059691196346674955,0.49285218358272687,0.041682464108653575,31785.531906335607
1684938611537402629,72,1684938611537402629,camera_2,74,0,0.22326753509065486,-0.05261454782870188,0.4683308745474037,0.9726748283815253,-0.00208060655567974,-0.22429515138051015,0.05992523989543133,0.5219142063288018,0.044135327756580245,31792.126168262454
1684938611547674417,73,1684938611547674417,camera_2,75,0,0.2233172367543407,-0.05272835263914122,0.46844538852670725,0.9727232777470349,-0.002135642624171489,-0.22406487958337157,0.059998280783167296,0.506921958993189,0.04288892314010869,31782.021558891283
1684938611557824611,74,1684938611557824611,camera_2,76,0,0.22326893150181606,-0.05298837082242503,0.4683641185405485,0.9725863325596223,-0.002060657062688803,-0.22471328404390106,0.05979564687248571,0.5081836402532646,0.042999198247350545,31770.852704579014
1684938611567706346,75,1684938611567706346,camera_2,77,0,0.22344083610769164,-0.053424518017778866,0.468750654037111,0.9728410099270894,-0.001916172351493955,-0.2234896847545407,0.060241667439374535,0.49710501974914223,0.04212546982564588,31747.85730684037
1684938611577773809,76,1684938611577773809,camera_2,78,0,0.22314287333029584,-0.05427819657603316,0.468172598060098,0.9725588819014779,-0.0017910745377150339,-0.22515234714261967,0.058586976903719314,0.465121389424894,0.03934430807575974,31772.33401179546
1684938611587699413,77,1684938611587699413,camera_2,79,0,0.2232252067875512,-0.054669417010612495,0.4683564118301804,0.9728536412861237,-0.0017395573362281932,-0.2239196478998631,0.05841881427250332,0.49391776468837634,0.041792430995345395,31780.77655687648
1684938611597897529,78,1684938611597897529,camera_2,80,0,0.22309421821118947,-0.05488165627504123,0.468087485564121,0.9727001823845013,-0.0017133892998906347,-0.22475531946797322,0.057762149000138645,0.4869360169977881,0.04116538959582365,31791.669419502377
1684938611607322454,79,1684938611607322454,camera_2,81,0,0.2231655012977799,-0.05481972279240274,0.46822386722154696,0.9727687181293939,-0.0017432975140736432,-0.22438398636450102,0.0580500525912683,0.5016329950885847,0.042428901560959485,31783.71333213988
1684938611617678642,80,1684938611617678642,camera_2,82,0,0.2231657283574344,-0.05409567083237904,0.4681805136520076,0.9724930095355779,-0.001897736043978796,-0.22550456134301466,0.05832184681434811,0.4443688077153638,0.03758699602609187,31764.05100107448
1684938611627488374,81,1684938611627488374,camera_2,83,0,0.2232264473674811,-0.053626829486755866,0.46829208563351826,0.9725994555672325,-0.0020295231912113424,-0.22492500694669873,0.05877857871679833,0.4571715207421221,0.03867173191658827,31771.40884938812
1684938611637572765,82,1684938611637572765,camera_2,84,0,0.223307938522591,-0.053201480349114844,0.4684443813891837,0.9726277351711566,-0.0019481934629673925,-0.22458621728040856,0.0596030563455784,0.45898033888079226,0.038847789120849775,31762.004384045264
1684938611647545099,83,1684938611647545099,camera_2,85,0,0.22326767810964449,-0.05283565732844511,0.4683382459535227,0.9725910224429041,-0.0021252806557688904,-0.22477883273332416,0.05946984614613583,0.49010142299812287,0.04145404761374993,31776.198315778754
1684938611657351016,84,1684938611657351016,camera_2,86,0,0.2232546412180112,-0.052636294432208464,0.46830244137388755,0.9727012294852267,-0.002025915655211448,-0.22426006864685893,0.05962914919896502,0.5022897449089214,0.042463431036829986,31798.768741897307
1684938611667568683,85,1684938611667568683,camera_2,87,0,0.22325854931812172,-0.0527994541541391,0.46832658210526784,0.9726331960752111,-0.002156333091954797,-0.22453858842033714,0.05968616615530773,0.4878176358179189,0.0412574284399202,31784.450079930015
1684938611677324295,86,1684938611677324295,camera_2,88,0,0.22339183932437667,-0.05317009635394823,0.4686327790684099,0.9728612621662404,-0.0017750559781869388,-0.2236437929400415,0.05934026990144219,0.4773311066091992,0.04040339365487009,31769.002989665132
1684938611687362909,87,1684938611687362909,camera_2,89,0,0.22321682721661879,-0.053572490683454974,0.4682885198962534,0.9724818160666084,-0.0018721463407290605,-0.22520618642201,0.05964718002659345,0.44201213849009946,0.037411372646847,31758.22356624039
1684938611697351932,88,1684938611697351932,camera_2,90,0,0.22315234079710358,-0.05403233806487687,0.46817733793958227,0.9725903445194733,-0.0017462419926537105,-0.22498669189388845,0.0587023070844744,0.4391707254108041,0.03714136631407082,31779.793950323972
1684938611707373619,89,1684938611707373619,camera_2,91,0,0.22316604015034394,-0.05447094739569831,0.4682304293771021,0.9726640941929491,-0.0017642568143050844,-0.2247501574193771,0.05838504950471783,0.4641391430632211,0.03926266905337781,31775.486906859554
1684938611717360496,90,1684938611717360496,camera_2,92,0,0.22307660849229718,-0.05492246166458154,0.46804887403859385,0.9726879359284979,-0.0016252841223961063,-0.22474978723721029,0.057991989856435715,0.5019416536670178,0.04243410725290525,31794.536967790926
1684938611727523088,91,1684938611727523088,camera_2,93,0,0.2231360496146924,-0.054906974439182306,0.4681481291903489,0.9727777765289602,-0.0015657401572755684,-0.22431854631282594,0.05815613234417127,0.48031072836602107,0.040616482574447256,31792.95842632652
1684938611737458705,92,1684938611737458705,camera_2,94,0,0.22318558345937178,-0.05471067954812973,0.4682531072127193,0.9726980579593048,-0.0018316968735969021,-0.2246521203883363,0.05819413831121522,0.4726663863984868,0.03999048537349172,31771.96481415582
1684938611747415781,93,1684938611747415781,camera_2,95,0,0.2232152326714649,-0.054357156476470075,0.4683085654161793,0.9726174010536577,-0.0017021197698569475,-0.22506695261779558,0.057942737208872476,0.4812911518965848,0.04072051866622379,31759.708989148035
1684938611757306098,94,1684938611757306098,camera_2,96,0,0.22323870659675452,-0.05391568429983092,0.46833307754179543,0.9725599705408887,-0.002013136970933642,-0.2250828163354202,0.05882836706519666,0.48578091739909723,0.041113502471292605,31756.364106018096
1684938611767359495,95,1684938611767359495,camera_2,97,0,0.2232925538629795,-0.05304920292811041,0.4683958285183802,0.9726749025891964,-0.0019246078248647315,-0.22442387911790865,0.059445371892925,0.44995031284634024,0.03806517537578097,31776.548022797328
1684938611777237415,96,1684938611777237415,camera_2,98,0,0.22335418463074963,-0.05276421893814645,0.46851883112066073,0.9727530455824749,-0.0019490825967816722,-0.22411824015196974,0.059318865618238854,0.4951776184607297,0.04189329854067772,31774.832857121015
1684938611787213563,97,1684938611787213563,camera_2,99,0,0.22321347848134054,-0.05260892786161671,0.46821805242471226,0.9725674235911677,-0.002096337011807398,-0.22486796379249244,0.05951983535082766,0.4997724774875678,0.04224619452769312,31792.37278233213
1684938611797314405,98,1684938611797314405,camera_2,100,0,0.2232378116837225,-0.052660871430915177,0.4682863313763056,0.9726069184715965,-0.002037636063874214,-0.22462064517010116,0.05980966430121411,0.5070262691006064,0.042873676730014514,31788.653374893358
1684938611807515382,99,1684938611807515382,camera_2,101,0,0.2232467368572398,-0.05289189928553818,0.46832581266196793,0.9726073615823262,-0.0018906629275446602,-0.22463083043858628,0.05976901878090264,0.4676495306775905,0.03955585504029061,31780.445285583835
1684938611817369937,100,1684938611817369937,camera_2,102,0,0.22322850881550488,-0.053709754422043704,0.46832132479243566,0.9725998564485502,-0.0018503029378149915,-0.22464298365874288,0.0598466833516764,0.4402584941126406,0.03726496051716676,31767.887888476478
1684938611827354669,101,1684938611827354669,camera_2,103,0,0.22327929585677025,-0.05419811872525096,0.46847093317435706,0.9728044503771034,-0.0018000113786972385,-0.22404905434520037,0.058739105649985475,0.47547850757837296,0.04024593803104117,31767.617443326155
1684938611837469339,102,1684938611837469339,camera_2,104,0,0.22320895177758424,-0.05459159744589024,0.4683327364721125,-0.9727615335208349,0.0016832179013169237,0.2242949858457002,-0.058514314523605136,0.48832664103247225,0.041323479296902325,31773.352538530038
1684938611847411155,103,1684938611847411155,camera_2,105,0,0.22306272739102778,-0.05493286032474286,0.46800981380875484,0.9726984921763243,-0.0017377743180041995,-0.22477049549153996,0.05773082205211014,0.5038437185576186,0.0425829794632103,31800.463515176183
1684938611857686758,104,1684938611857686758,camera_2,106,0,0.22311990406230164,-0.054577521720228284,0.468113195571054,0.9725876030121232,-0.0017454039310436013,-0.22516392256596063,0.058064757012842874,0.5034807753399946,0.04257608780404523,31778.032492133323
1684938611867297172,105,1684938611867297172,camera_2,107,0,0.2231800177972028,-0.05418111245508074,0.46823086486870324,0.9725924292582725,-0.0017446186797039967,-0.22505762238842728,0.058395115035614835,0.5063726725638844,0.04283365836741861,31770.087672431495
1684938611877352714,106,1684938611877352714,camera_2,108,0,0.22329314634362146,-0.05373568710463872,0.46844725812719723,0.972743101655648,-0.0020559828050580324,-0.22425575007637413,0.0589575243182579,0.5386740565882064,0.04558827929499734,31769.07967104741
1684938611887491226,107,1684938611887491226,camera_2,109,0,0.22332027305355473,-0.053281781552154656,0.4684845950624127,0.9726901039473004,-0.001917132771843944,-0.22444229626897452,0.05912649093625548,0.4666229060967453,0.039489202682773006,31763.785748467788
1684938611897417783,108,1684938611897417783,camera_2,110,0,0.22328953208932925,-0.052898606011609416,0.46839868461898004,0.972698754732371,-0.0019846737969822074,-0.22428873332985674,0.05956305661484202,0.5022638310329057,0.04248545033530703,31782.25364082725
1684938611907409667,109,1684938611907409667,camera_2,111,0,0.22326475704249238,-0.05261488549454035,0.46833196979369757,0.9726462994985423,-0.001935759782679818,-0.22452683641317964,0.059524185304337486,0.5339324130327441,0.04514622838263242,31787.966737678733
1684938611917379617,110,1684938611917379617,camera_2,112,0,0.2232151917416552,-0.0527370589519181,0.4682405451743599,0.9725894388771298,-0.0019827731233256376,-0.22473939314604058,0.05964945233412139,0.4551239726715721,0.03847881497248798,31791.04296859401
1684938611927395582,111,1684938611927395582,camera_2,113,0,0.22323804299442324,-0.05303904930582569,0.46829996363486515,0.9724838292496323,-0.00200069573165846,-0.22525200990171218,0.05943678238095096,0.43997530825436115,0.037221790373191295,31764.330817643993
1684938611937539100,112,1684938611937539100,camera_2,114,0,0.2233095456742758,-0.05346928790472859,0.4684834341867865,0.9726834039289358,-0.001586449259018213,-0.22457865052175338,0.05872740952736949,0.45310552592854947,0.03834182931848176,31760.27606443197
1684938611947442293,113,1684938611947442293,camera_2,115,0,0.22315841678364234,-0.053901400221048085,0.46820246795940934,0.9724834807155328,-0.0019308118852273495,-0.2253499520696508,0.05907241998658873,0.5249461441417225,0.04441438606097912,31765.21193601563
1684938611957524299,114,1684938611957524299,camera_2,116,0,0.22315890408034253,-0.054706491245278766,0.4682299602563975,0.9727217511020883,-0.0017225897254421268,-0.22455040927102835,0.05819399723114585,0.509386973339133,0.043088478379359904,31779.438489792177
1684938611967372894,115,1684938611967372894,camera_2,117,0,0.22314190327791147,-0.05490987562093379,0.4681880887481331,0.9728020921203341,-0.0016824278353804326,-0.22425681544203946,0.05798396097779888,0.4986873836023733,0.04217183197282454,31791.682278003784
1684938611977416753,116,1684938611977416753,camera_2,118,0,0.2231430295627952,-0.054940604634822456,0.4681857398458403,0.9728172019308957,-0.0017692165670943419,-0.2241859372409178,0.05800195723846822,0.5373825572896749,0.04544361032863365,31793.388665748746
1684938611987510442,117,1684938611987510442,camera_2,119,0,0.22316745758676773,-0.054788757666879705,0.4682227495727391,0.9726823957668822,-0.0016545900454630628,-0.22485853697658292,0.05766157859207943,0.4736000803532079,0.040058134410041295,31772.299732503692
1684938611997385025,118,1684938611997385025,camera_2,120,0,0.22324444710153357,-0.054485341606567185,0.468371016161242,0.9726774868154918,-0.0017751501535923243,-0.22477119113913344,0.05807983400567,0.43971088883699844,0.03721316274827798,31757.25874946313
1684938612007816076,119,1684938612007816076,camera_2,121,0,0.22327218024232576,-0.05358293070943107,0.4684010977685225,0.972650361306199,-0.00198860509164572,-0.22462885189530024,0.059069442158442516,0.46402183594182134,0.039268051744396654,31765.165737181655
1684938612017294406,120,1684938612017294406,camera_2,122,0,0.22331561666497932,-0.05316143658145428,0.4684666053379115,0.9727536020471735,-0.0019452582464935364,-0.22406010516056707,0.059529110106228106,0.4615694241365418,0.03905581204709148,31776.755541856168
1684938612027345418,121,1684938612027345418,camera_2,123,0,0.22327317421734966,-0.05280922672071674,0.46835633631970186,0.9726607581758382,-0.0021212940537467116,-0.2244576470150172,0.0595425420419982,0.5077706867596135,0.04294512543931158,31783.905791996513
1684938612037252902,122,1684938612037252902,camera_2,124,0,0.22324472504739165,-0.05262405742721993,0.4682960750511773,0.9726560868371259,-0.002013548422833727,-0.22443761234410525,0.05969791057244235,0.5811889684409834,0.049138859478342824,31794.418250016155
1684938612057298660,123,1684938612057298660,camera_2,126,0,0.2232593913045079,-0.053178693179072624,0.46836842382431704,0.972644244415283,-0.0019870131261651132,-0.22447281553799214,0.059759356331090786,0.45742904441431165,0.038704423515848706,31775.710543012257
1684938612067289352,124,1684938612067289352,camera_2,127,0,0.22320899433171146,-0.05362417858721522,0.46828688424674814,0.9725660784869771,-0.00189805673435691,-0.22485812309584288,0.05958560929378151,0.42287953197956085,0.03578396454411337,31769.301255326718
1684938612077427387,125,1684938612077427387,camera_2,128,0,0.22315528983411687,-0.05408656406637383,0.46819554723057494,0.9725294893398152,-0.0017336565414876781,-0.22518307835795406,0.0589573406851941,0.4491459150449373,0.03799882469858635,31768.849498397685
1684938612087564945,126,1684938612087564945,camera_2,129,0,0.22319867654874442,-0.054523730915102764,0.46831231082323654,0.972657095562201,-0.001904447513923703,-0.2247873557044907,0.05835402511869314,0.48103599791647866,0.04070839954967635,31763.156117046492
1684938612097419738,127,1684938612097419738,camera_2,130,0,0.22313559547718448,-0.054943703847607495,0.4681772424137089,0.9727513591306332,-0.0016226556789248271,-0.22442543766805897,0.058184046142853676,0.5135217272909358,0.043434151333704984,31785.904091538865
1684938612107470512,128,1684938612107470512,camera_2,131,0,0.2231546755303579,-0.05489465437182372,0.4682070791358792,0.9727353475862145,-0.0018001074135270672,-0.22461332308951043,0.057719652288571635,0.4955118141369894,0.041908092447214496,31780.00260035231
1684938612117496013,129,1684938612117496013,camera_2,132,0,0.2231906564715518,-0.054664553360896775,0.46827520418575735,0.9727015737636525,-0.0016024404373651043,-0.22467550908812486,0.05805166835113771,0.509743106609676,0.04312512218003661,31770.668160351925
1684938612127269029,130,1684938612127269029,camera_2,133,0,0.2232128608799521,-0.05383424065632695,0.46827708939252793,0.9724460991526436,-0.002136063422853007,-0.2254886729785175,0.05915132994487816,0.5028728321194649,0.0425648926674472,31750.133498040974
1684938612137543678,131,1684938612137543678,camera_2,134,0,0.22324558883385248,-0.05299123023356592,0.4683147716336021,0.9725732255685007,-0.0021543649851445083,-0.22476896271631056,0.05979626257741256,0.5624980766442604,0.047586948126060624,31775.723572060706
1684938612147510051,132,1684938612147510051,camera_2,135,0,0.22334154258029337,-0.05273768060996291,0.46850737847652857,0.9728152897384287,-0.0019473284608070736,-0.22369616602509948,0.05988860716926028,0.47711296123452485,0.04036485776806077,31786.163956396987
1684938612157280921,133,1684938612157280921,camera_2,136,0,0.22327265393942636,-0.052613470771013096,0.4683589730657569,0.9726614852916698,-0.0019492253031770834,-0.22454673016075463,0.059199675041618875,0.5224983636871912,0.04417650519591034,31786.41648032004
1684938612167383909,134,1684938612167383909,camera_2,137,0,0.22323255567609884,-0.05268185539110724,0.4682894458619812,0.9725391980833787,-0.0020106071340138896,-0.22485067883853657,0.0600469639210886,0.5115035502822138,0.043264423656189495,31779.50182770285
1684938612177326440,135,1684938612177326440,camera_2,138,0,0.22324154032992966,-0.05293212350124327,0.4683216861111205,0.9725988873778292,-0.001796217954237043,-0.2247738705235253,0.05937074197231508,0.5041903730016202,0.04264014911925578,31779.13201637938
1684938612187257051,136,1684938612187257051,camera_2,139,0,0.22329299273793185,-0.05378106794700689,0.46847701353062354,0.9727186450525851,-0.0017466519816448892,-0.22422441121334713,0.05948781547464933,0.4342660725233145,0.03676584836104037,31762.25925600389
1684938612197292804,137,1684938612197292804,camera_2,140,0,0.22316384317263008,-0.054224419458772904,0.4682402055307523,0.9726785090101295,-0.0018011646927131697,-0.22463133356449386,0.05860066464314434,0.4736403613933362,0.04006186291003825,31781.181171789533
1684938612207281112,138,1684938612207281112,camera_2,141,0,0.22314267959665252,-0.05461952168936795,0.46819680019882604,0.9726770716380088,-0.0015734570513773296,-0.22474899442269436,0.058178415659103276,0.46485816413769504,0.039317013334209186,31779.351061362762
1684938612217411994,139,1684938612217411994,camera_2,142,0,0.22315106570798018,-0.05488050928929727,0.46820259259175423,0.972831201665603,-0.0017031809608041475,-0.22411662133734436,0.05803699062500869,0.45760527544189245,0.03869666384982171,31794.00891188949
1684938612227215528,140,1684938612227215528,camera_2,143,0,0.2232015408131049,-0.05485021366610682,0.46831036236201506,0.9727483436605108,-0.0016800314894304274,-0.2244512121166647,0.05813338781877113,0.5118733470444568,0.04331526078671584,31769.33241613002
1684938612237271308,141,1684938612237271308,camera_2,144,0,0.22310046122622662,-0.054537881279514734,0.4680855189458496,0.9725237493629647,-0.0016667465244390718,-0.22557188084212887,0.0575508944706287,0.4505124746938236,0.03808747361513286,31773.750650610313
1684938612247378349,142,1684938612247378349,camera_2,145,0,0.2232453738645796,-0.054147123940169316,0.4683742688213816,0.9726140647270973,-0.0015663416126359055,-0.2248861329441689,0.058699700837431576,0.491732353111729,0.041621428356900816,31754.921468262102
1684938612257555246,143,1684938612257555246,camera_2,146,0,0.2232566355596947,-0.05367509207019069,0.46837122414920807,0.9725674269700859,-0.0019378709401601322,-0.2251126572824728,0.0585929704335768,0.4913301181513816,0.041575532903635685,31756.163191412335
1684938612267307758,144,1684938612267307758,camera_2,147,0,0.22338201909676147,-0.05324944449327206,0.46860678714657344,0.9727413645322723,-0.0018283838520746526,-0.22407376559055553,0.05968117219401152,0.4200643180520274,0.035570151096968615,31755.096880990095
1684938612277370691,145,1684938612277370691,camera_2,148,0,0.22332642783259593,-0.0526649950648736,0.46846635279172577,0.9726952256061541,-0.0020053259267762014,-0.22424854112703704,0.05977096747850155,0.4996393365436233,0.04227218664408511,31776.211101397406
1684938612287227869,146,1684938612287227869,camera_2,149,0,0.22331024604142696,-0.052637883685963824,0.4684453190392215,0.9727476496151776,-0.0019144995244751771,-0.22395959999429532,0.06000368680434484,0.5750153349363245,0.04864200315795324,31787.286267822834
1684938612297221422,147,1684938612297221422,camera_2,150,0,0.22325696075917298,-0.052776298944059774,0.4683403560742857,0.9726376699620259,-0.0019168919502649314,-0.22446417720636103,0.05990093193902283,0.49910233641276136,0.04221496593230931,31784.346833823707
1684938612307412147,148,1684938612307412147,camera_2,151,0,0.2232669054163299,-0.053093886489357756,0.4683783558575243,0.9725515520655672,-0.0019198830124945196,-0.22490939595885406,0.059628485084716465,0.4663980526966043,0.03946745832836165,31762.941779916866
1684938612317361831,149,1684938612317361831,camera_2,152,0,0.22328918578718246,-0.054004036050467094,0.46847653369406816,0.9727165575858945,-0.0017630940882579745,-0.22433531330516043,0.05910209219442752,0.49596797360572964,0.0419902405054492,31758.272374947563
1684938612327234268,150,1684938612327234268,camera_2,153,0,0.22322544747772488,-0.05441990680207417,0.46837198706158367,0.9726758902504401,-0.0018061438073753624,-0.22472658881891097,0.058277874428269066,0.4851293853134848,0.041057063655249824,31759.659913575284
1684938612337232112,151,1684938612337232112,camera_2,154,0,0.22318623457733922,-0.05475950437522831,0.46828952244821287,0.9727197312494067,-0.001738747953047249,-0.224559654423096,0.0581916041969756,0.4548813842702657,0.03848913726664428,31770.220812649226
1684938612347248315,152,1684938612347248315,camera_2,155,0,0.22311681137823286,-0.054919567731813265,0.46814630720799294,0.9726981238968676,-0.0016225212379238785,-0.22469378726058137,0.058038169844018724,0.4985834253602661,0.042166323862536825,31783.439747127246
1684938612357335090,153,1684938612357335090,camera_2,156,0,0.22309853933534873,-0.05491659717980242,0.46809799551554315,0.9726574652392489,-0.0016177228749208888,-0.22495968619803602,0.05768862862593167,0.4977941327379085,0.04208916606466761,31783.877175076632
1684938612367224693,154,1684938612367224693,camera_2,157,0,0.22329321429202748,-0.05444715762405482,0.4684831370185772,0.972785980011235,-0.0018336609729106034,-0.2243038238601675,0.05806779987845932,0.5098805316374637,0.043158502980979285,31758.078379550247
1684938612377489328,155,1684938612377489328,camera_2,158,0,0.22325784664359205,-0.054002230879243315,0.4684026533831769,0.972688090836566,-0.0019506399934168977,-0.2246178260468675,0.05848850459972012,0.4852402315591462,0.04106182603084448,31763.515532836336
1684938612387248992,156,1684938612387248992,camera_2,159,0,0.22329188919507728,-0.053535666939501125,0.46843202039238746,0.9726521483045004,-0.0018027619622291984,-0.22466876323513152,0.05889393240686372,0.4072910868562758,0.034466198213186916,31761.42925346271
1684938612397202014,157,1684938612397202014,camera_2,160,0,0.2232721441073545,-0.053097447650796464,0.4683819347051994,0.972642886973902,-0.002125835400989303,-0.2245665445633712,0.05942358375080237,0.47166697052307427,0.03990364000319979,31774.304128261283
1684938612407767534,158,1684938612407767534,camera_2,161,0,0.2232338894210232,-0.05277387750544282,0.46828501369183617,0.9725937027793361,-0.0019533202474141327,-0.2247522065754581,0.05953250787136455,0.47212091187248006,0.039922203379443626,31785.20718159852
1684938612417790889,159,1684938612417790889,camera_2,162,0,0.22330227580800951,-0.05266167732747143,0.46842315501301784,0.9727272891456702,-0.0021673862427701402,-0.22407082485727403,0.059909839225052094,0.49001793446950614,0.04144981379128784,31786.714491054867
1684938612427709102,160,1684938612427709102,camera_2,163,0,0.22322516838299844,-0.05285232916773121,0.46827756393133774,0.9726348078685862,-0.002038197981931521,-0.22442876978337295,0.06007581514175949,0.4612479709321633,0.03900934563137092,31791.403813824516
1684938612437391281,161,1684938612437391281,camera_2,164,0,0.2232842808244274,-0.0532211545178948,0.4684400189831964,0.9727180799859183,-0.0018038504708974485,-0.2242133706483271,0.059536941595140024,0.5056264998856932,0.04278302928703242,31775.929985234536
1684938612447620153,162,1684938612447620153,camera_2,165,0,0.22332190988461675,-0.0541678073075416,0.4685561692855917,0.9728377143535474,-0.0016935920565970155,-0.22388757276847263,0.05880704071072871,0.47306267370004207,0.04005245829268494,31761.190451242255
1684938612458399057,163,1684938612458399057,camera_2,166,0,0.2231346223126191,-0.05484236588348755,0.4681887614837148,0.9728046360879746,-0.0017115131054861227,-0.22416603786224393,0.058290635592486394,0.4575769282528199,0.038697075817239995,31793.842730870238
1684938612467679262,164,1684938612467679262,camera_2,167,0,0.22309560318564559,-0.05494321930779977,0.46809348288361846,0.9727295234597088,-0.0016908826967826603,-0.2245505499747795,0.05806432305278128,0.5175412828684784,0.043758491103582056,31794.041975776214
1684938612477633476,165,1684938612477633476,camera_2,168,0,0.22312748215591507,-0.05487398965863626,0.46814814045953485,0.9727090892909986,-0.0016732330255148672,-0.2246822698466611,0.05789737056612221,0.45358565251808614,0.03835690719746459,31784.664947974026
1684938612487714052,166,1684938612487714052,camera_2,169,0,0.22313867219770678,-0.05461897953630764,0.468162954525684,0.9726152048837551,-0.00191092482383027,-0.22499763529767053,0.05824152904676492,0.4680144607555121,0.03958722028428991,31774.78048786102
1684938612497912883,167,1684938612497912883,camera_2,170,0,0.22318194967006805,-0.05422884741277563,0.4682409576787279,0.972577558196462,-0.0018478379321024687,-0.22516576125980112,0.05822249345295113,0.4446921516209841,0.03761776342654868,31765.835636564985
1684938612507337570,168,1684938612507337570,camera_2,171,0,0.22320559246536315,-0.05330926076721252,0.46825030131841,0.9725436127958361,-0.001912680238327302,-0.22501385264831003,0.0593635324142136,0.4441036722273566,0.03756483477346726,31775.236611928547
1684938612517417669,169,1684938612517417669,camera_2,172,0,0.22326626086250656,-0.052939235043380786,0.468352098292081,0.9726128219170714,-0.001987607181768358,-0.22460224534818513,0.0597844414940533,0.44506828422890976,0.03765228921042426,31776.43432311993
1684938612527411460,170,1684938612527411460,camera_2,173,0,0.2232245842609388,-0.05268237565891184,0.4682634741512245,0.9726356035994181,-0.0019517977373775242,-0.22460192673585994,0.05941504525730333,0.5372573306085542,0.04541552141678671,31795.068331859773
1684938612537307739,171,1684938612537307739,camera_2,174,0,0.22322204485488834,-0.05261213341767472,0.46826142668963167,0.972573762138376,-0.0020382840351985433,-0.22472041155709155,0.05997382118732341,0.5353315741522237,0.04526695266702357,31788.73356689139
1684938612547350883,172,1684938612547350883,camera_2,175,0,0.22334241811254565,-0.05300026461333193,0.4685218313843429,0.9727730153908584,-0.002031094456184334,-0.22390677747522733,0.05978536763578741,0.4554803430219181,0.0385473289317753,31774.754033116627
1684938612557265043,173,1684938612557265043,camera_2,176,0,0.22327500901768552,-0.053385656044258,0.46841414317862773,0.9726251995814217,-0.0018791344955433839,-0.22467793791575494,0.05930020410311869,0.4743402819731273,0.040142271817083006,31763.73208610992
1684938612567399263,174,1684938612567399263,camera_2,177,0,0.22332814489389013,-0.053859958300181525,0.46856465278784426,0.9727798337572742,-0.0019266788144297062,-0.22387176667670805,0.05980898786107001,0.4883309400174767,0.04136111281436516,31758.334177049583
1684938612577279329,175,1684938612577279329,camera_2,178,0,0.22319615379485008,-0.05429025200630591,0.4683188347370413,0.9726926664824496,-0.0017284520057790507,-0.22450717022218217,0.05884317754637285,0.4578180583193898,0.03874045947860082,31771.95942211432
1684938612587441444,176,1684938612587441444,camera_2,179,0,0.22316280825357318,-0.05465997797366234,0.4682379576558276,0.972664526678903,-0.0018370509808090815,-0.22476289287323883,0.058326544312623664,0.4621493796003051,0.039100711318598665,31771.530768071534
1684938612597739219,177,1684938612597739219,camera_2,180,0,0.22306535397008578,-0.05492859944788943,0.46802714675266577,0.9726547476470259,-0.0015129627372201175,-0.2249522547719577,0.05776621760569773,0.5120322884176858,0.04328192275274751,31792.755610076238
1684938612607639074,178,1684938612607639074,camera_2,181,0,0.22309035207448166,-0.05479438922980454,0.46805909893212805,0.9725931997873065,-0.001730875772424971,-0.22526106069546212,0.05759276283443981,0.436457090661861,0.036898659531595546,31781.77933257306
1684938612617705821,179,1684938612617705821,camera_2,182,0,0.22316532170499864,-0.0545138134023544,0.46822558312865314,0.9726296923139321,-0.0017868675875428125,-0.2249863087921568,0.05804696020990765,0.4457423142157495,0.03770474937402926,31770.31963230716
1684938612627779245,180,1684938612627779245,camera_2,183,0,0.223143830789091,-0.054086519470424345,0.4681767605565912,0.9725152927719968,-0.001774097132307717,-0.22530011756307683,0.058742786195637,0.49056324461707845,0.04149732418624013,31769.52540104559
1684938612637896299,181,1684938612637896299,camera_2,184,0,0.22330158756833252,-0.053191273671375106,0.4684410098224068,0.972722533706896,-0.002142055233073793,-0.22422527350093474,0.05940800233677411,0.42247913900064304,0.03574624514021675,31775.445815527808
1684938612647608041,182,1684938612647608041,camera_2,185,0,0.22325913236250247,-0.052831597137440026,0.46833671798393517,0.9726660199492546,-0.002127162224752583,-0.2244040047065705,0.059658456974676526,0.5014948636526242,0.042412692155608424,31787.311079291627
1684938612657655954,183,1684938612657655954,camera_2,186,0,0.22326990259080887,-0.052642719242514555,0.4683542281018427,0.9727273186946929,-0.001962187716816638,-0.2242177855437946,0.0593641131512504,0.5240160395624116,0.044300731999659435,31795.679242001148
1684938612667663574,184,1684938612667663574,camera_2,187,0,0.22325653816644422,-0.0526313034138518,0.4683281044990793,0.9726497039147659,-0.001958913162750704,-0.22448163605408958,0.05963816905487971,0.5011318715987727,0.042373913355738174,31789.18071158535
1684938612677704334,185,1684938612677704334,camera_2,188,0,0.2232497167150693,-0.05279918038207593,0.4683328229987373,0.9726658999654745,-0.0018967487795613313,-0.2245506830737721,0.059113789588582544,0.5070005255402066,0.042864458195471175,31788.284536657142
1684938612687679052,186,1684938612687679052,camera_2,189,0,0.22328306515782723,-0.05359043400057046,0.4684366828327958,0.9726385496235976,-0.0019621114180886504,-0.22472777882501666,0.05888826138766397,0.43389175162883475,0.036720644648600545,31758.8888227367
1684938612697686195,187,1684938612697686195,camera_2,190,0,0.2233422101308596,-0.05408366449882031,0.4686066091434424,0.972903446945879,-0.0018489197717873414,-0.2234882453229303,0.05923232748240177,0.4511916000628844,0.03820669543997857,31765.34356534599
1684938612707697868,188,1684938612707697868,camera_2,191,0,0.22326684208514577,-0.054494216753294314,0.4684699009095658,0.9728257373144363,-0.0017110305020822405,-0.22403255903142466,0.058451430154236046,0.5056283882004209,0.042799328626376636,31765.99401214835
1684938612717778205,189,1684938612717778205,camera_2,192,0,0.22312154614357582,-0.05477871818716197,0.46816357700815386,0.9727148210329404,-0.0018549693830727755,-0.22456883633531485,0.058234644142858685,0.48887183476472273,0.0413462401211414,31786.402494982587
1684938612727349281,190,1684938612727349281,camera_2,193,0,0.223101032569311,-0.05493261925901781,0.4681178692025857,0.9727205340357448,-0.0015840357990579252,-0.2246795448469972,0.05771789690511027,0.53411815315485,0.04515742169758548,31789.985846253105
1684938612737379074,191,1684938612737379074,camera_2,194,0,0.2231107933123761,-0.0547027170923827,0.46811274268025843,0.9726248802103316,-0.0018751316928477123,-0.22497172831334586,0.05818116307430629,0.4992236106772907,0.04221849695188117,31781.513284508153
1684938612747431278,192,1684938612747431278,camera_2,195,0,0.2232180080136549,-0.054364246158865974,0.46831675979202614,0.9726501244602502,-0.0017649883741169793,-0.22478928086119876,0.05846707974069074,0.44369486940559,0.03754691949762972,31763.31412767782
1684938612757278919,193,1684938612757278919,camera_2,196,0,0.2233327838030386,-0.053953194495205165,0.46856356070798255,0.9727476411945501,-0.0017787595032081793,-0.22439576890733826,0.058355817718143875,0.5207997078541666,0.0440889635989365,31751.01778502251
1684938612767351150,194,1684938612767351150,camera_2,197,0,0.22326896762369902,-0.05305223061401505,0.4683744044557702,0.9725944640899556,-0.002092759217524504,-0.22479083317356643,0.059369268999738094,0.4615274368552491,0.039046352141052114,31769.394258538276
1684938612777622938,195,1684938612777622938,camera_2,198,0,0.22320850618377233,-0.052612036371830394,0.4682486528278424,0.9725940083156214,-0.0020149508251757105,-0.22473783758023838,0.059579688833390605,0.5499074821127579,0.046486090460337436,31793.306790689945
1684938612787363767,196,1684938612787363767,camera_2,199,0,0.22332170946483687,-0.05268313003085531,0.46848374089935146,0.9727088931451646,-0.0019571765420571385,-0.22431207090326097,0.059309978109779296,0.5280268294736743,0.04466548981877874,31775.925784822313
1684938612797722578,197,1684938612797722578,camera_2,200,0,0.2232396161963594,-0.052890129285093644,0.46832004199523325,0.9726590717582011,-0.0020439910046354953,-0.2244128689507113,0.059741246024489846,0.5118737642769702,0.043290584583625946,31788.58310160273
1684938612807389259,198,1684938612807389259,camera_2,201,0,0.2233056484113133,-0.053282181518103565,0.46847221958967755,0.9726389313603219,-0.0019406867301196222,-0.2245315818297776,0.059626434559552695,0.45560952031519264,0.038567780559345656,31759.58046476938
1684938612817335605,199,1684938612817335605,camera_2,202,0,0.22329913443808713,-0.053736929945551175,0.4684819656482465,0.9727198815957361,-0.0016536340061673138,-0.22441164689382498,0.05875976668905294,0.4489459011820145,0.037995822474122566,31761.646826456294
1684938612827499151,200,1684938612827499151,camera_2,203,0,0.22328176264371924,-0.054619923004774106,0.4684984995482898,0.9728347710469988,-0.001642298161608935,-0.22400456837684463,0.05841031111871816,0.47486811969429255,0.04020267735671669,31760.942154427998
1684938612837358951,201,1684938612837358951,camera_2,204,0,0.22317094836225815,-0.05486984245139055,0.4682587960683492,0.9728303813567696,-0.0015266649410449601,-0.22419202889565745,0.05776376531225274,0.47123729391023517,0.03985216573762,31786.89999789744
1684938612847616434,202,1684938612847616434,camera_2,205,0,0.223012067828526,-0.05492832709437545,0.46792307556253476,0.9725603512834704,-0.0016235996068252041,-0.22544032665450023,0.057448987402751325,0.5449109600158408,0.046045803161287285,31794.001297314662
1684938612857404470,203,1684938612857404470,camera_2,206,0,0.22314321232383436,-0.05486310332829208,0.4681847946770754,0.9727149577540435,-0.0017786268699624525,-0.22472352509931193,0.05763492617281503,0.44783462007762864,0.037871597965582565,31780.706924303664
1684938612867386579,204,1684938612867386579,camera_2,207,0,0.2231522484027152,-0.05458266297265581,0.46821479556421164,0.9726251263667921,-0.0015388901031477642,-0.22507871482061254,0.05777168434391978,0.5157205821597017,0.04361787310943863,31770.351036752352
1684938612877345085,205,1684938612877345085,camera_2,208,0,0.22330155665758245,-0.053732146359334404,0.4684855193915648,0.9726428226960562,-0.0018671319635929274,-0.22475382604618377,0.05872112868193662,0.4548373383586295,0.038502036669384884,31750.821709218908
1684938612887297391,206,1684938612887297391,camera_2,209,0,0.22332397962705935,-0.05328566918331755,0.4685047800047341,0.972643110202038,-0.001953723805943008,-0.22447944693578367,0.05975400441142836,0.4332196312607266,0.03667908409991232,31755.624124710455
1684938612897452354,207,1684938612897452354,camera_2,210,0,0.2232752951922385,-0.05290245612015352,0.4683721393986416,0.9725947433556721,-0.001925861097334462,-0.22484291380729626,0.05917280090204283,0.5016568967257626,0.04243200615023217,31771.44565719926
1684938612907306432,208,1684938612907306432,camera_2,211,0,0.2232500345031317,-0.0526661518500733,0.46831770523062105,0.9725810754670663,-0.0019218721451597532,-0.22480745980439268,0.05953120246625864,0.5139963639667258,0.043466527951799304,31780.82492580124
1684938612917261600,209,1684938612917261600,camera_2,212,0,0.2232114670144771,-0.05260858486277645,0.46823618053343224,0.9726300194053087,-0.0019196857744703231,-0.22459098088891724,0.05954873182117496,0.5426604010281153,0.04586750277843042,31799.23040307592
1684938612927342414,210,1684938612927342414,camera_2,213,0,0.22328488595836285,-0.05304800878667287,0.46842636845045893,0.97262211663101,-0.0017796730685550107,-0.224647633219796,0.059468410881131445,0.453065033769235,0.038335757056540985,31766.919392323594
1684938612937364578,211,1684938612937364578,camera_2,214,0,0.22322064523472165,-0.05344453461457321,0.46833627886026385,0.972576394214927,-0.0016765052265751354,-0.22488780393697094,0.05931123322375387,0.5975028158864006,0.05055464793683281,31767.994442829855
1684938612947360754,212,1684938612947360754,camera_2,215,0,0.22330973468455856,-0.05392952935474856,0.4685303258043429,0.9727158368760785,-0.0018050474266601444,-0.22442504932791205,0.05877107901359418,0.45892419514711946,0.03885484902615562,31752.289896073504
1684938612957498073,213,1684938612957498073,camera_2,216,0,0.22321570450279177,-0.054355475431044784,0.4683549627511482,0.9726816103930068,-0.001734112595586397,-0.22458530022178066,0.058727511279344155,0.4948295946815051,0.041880384092850186,31764.33060838071
1684938612967509269,214,1684938612967509269,camera_2,217,0,0.2232085786660891,-0.05471545493340312,0.468355847346958,0.9728381822510074,-0.0018282273841161284,-0.22398881697241227,0.058408377913507094,0.4995321936439722,0.04226887085110816,31779.037551901296
1684938612977392435,215,1684938612977392435,camera_2,218,0,0.22313343789485335,-0.05493807178882186,0.4681754915279829,0.9728092501576251,-0.0016843255847664594,-0.22420689819240633,0.058056805441082826,0.5009255386539735,0.042359803378158936,31794.010806374696
1684938612987379789,216,1684938612987379789,camera_2,219,0,0.2231571305916948,-0.05479319881748998,0.4682151198815705,0.972757090680717,-0.0016897223938714943,-0.22435194941079925,0.05836942833532837,0.483313070028089,0.04088286827275694,31784.27488914621
1684938612997345209,217,1684938612997345209,camera_2,220,0,0.22325625053211945,-0.05450068747108758,0.468422129953738,0.9728458972069607,-0.001687138129200129,-0.2240513583429001,0.058043110506054506,0.4822731330059469,0.04080576317060475,31773.750059242586
1684938613007635593,218,1684938613007635593,camera_2,221,0,0.2232740447348089,-0.053590438940734286,0.46840383006107306,0.9726232363282808,-0.0019044956314765967,-0.22475076593204238,0.05905511208736129,0.4341853766818531,0.03674457554243702,31760.895292497007
1684938613017694950,219,1684938613017694950,camera_2,222,0,0.22331275748855847,-0.052817590852368486,0.46845362427192133,0.9727242207294327,-0.001999560605184853,-0.22420205834943188,0.05947292825800867,0.495594053179957,0.04192250681694737,31779.68437530961
1684938613027468681,220,1684938613027468681,camera_2,223,0,0.22327445065407459,-0.05263832015555006,0.46836977052293566,0.9726936794004657,-0.001996785655590254,-0.22433626305077173,0.05946646098301811,0.5161612565279938,0.043644738436855644,31789.423515756604
1684938613037459373,221,1684938613037459373,camera_2,224,0,0.22325477066424898,-0.05264112451452447,0.4683413539338376,0.9726390641097795,-0.0019947853326589,-0.2244701519310245,0.05985334319143416,0.5112151723005809,0.043233839293499686,31786.619977614617
1684938613047625541,222,1684938613047625541,camera_2,225,0,0.2233110987092747,-0.052850125414732094,0.4684647212686075,0.9727171112558218,-0.0019218454629551347,-0.2241503748892259,0.059785762662737656,0.536557853105478,0.04539728731289259,31777.610294570688
1684938613057420015,223,1684938613057420015,camera_2,226,0,0.2232459420365067,-0.053182847460025266,0.4683367737337592,0.972579931691089,-0.001959434415203871,-0.2249197751602445,0.05912302284553959,0.4395628768252209,0.03718284178204026,31770.448505911023
1684938613067594051,224,1684938613067594051,camera_2,227,0,0.22320702190986405,-0.054108810508198275,0.46832927878313196,0.9726518209451589,-0.001768897857603763,-0.22476798793484606,0.058520575972534045,0.4845103191328235,0.04099375225931533,31767.65688569587
1684938613077317714,225,1684938613077317714,camera_2,228,0,0.22326245482005186,-0.05454437308720163,0.46846782240321116,0.9728518571996425,-0.0016156959611947526,-0.2238739939910579,0.05862668576901737,0.4507765428861603,0.03815749831770006,31769.125890645442
1684938613087400436,226,1684938613087400436,camera_2,229,0,0.2231506170038752,-0.054819922441821434,0.4682248383686169,0.9727754370270225,-0.0016592006342349395,-0.22434063259799522,0.05810745852015932,0.4974325227667578,0.04207241765039041,31785.552902283154
1684938613097492694,227,1684938613097492694,camera_2,230,0,0.22306783402683183,-0.05492981454801066,0.46804926659141205,0.9726654439175125,-0.0015987968689254756,-0.22488938467544045,0.057828563164079506,0.5262180992867798,0.04448498570215189,31791.85395812708
1684938613107340097,228,1684938613107340097,camera_2,231,0,0.22308246112766414,-0.054880536887943886,0.46806378150412425,0.9726218042924324,-0.0015650826928918036,-0.22505009061215592,0.057938182975979295,0.46320073830429465,0.039165103320202274,31784.39548286982
1684938613117363214,229,1684938613117363214,camera_2,232,0,0.22322223783826345,-0.054305571070935414,0.4683371404882658,0.9726848159309457,-0.0018562046563998468,-0.22466066476037863,0.058381410321098906,0.47870937001425773,0.04050619043992885,31766.694496104716
1684938613127349615,230,1684938613127349615,camera_2,233,0,0.22325412488627505,-0.05385637781729419,0.4683874446582069,0.9725585189195799,-0.001957518300974122,-0.22515148010762262,0.058591009586809906,0.47099279053509235,0.03986398389389502,31750.416708352048
1684938613137473583,231,1684938613137473583,camera_2,234,0,0.22326899026538194,-0.053397058889897375,0.46839322577589004,0.9725470962689624,-0.001952751981164668,-0.2249944004672877,0.05937888561496828,0.4552776286145672,0.03853577139316546,31755.58982755523
1684938613147513866,232,1684938613147513866,camera_2,235,0,0.22324644008633035,-0.05298792155263521,0.46832162409625405,0.972706654013773,-0.0020925202492405337,-0.22436088185914124,0.05915725896054678,0.5020712046534754,0.042450247103026834,31792.25707316165
1684938613157436132,233,1684938613157436132,camera_2,236,0,0.22334388581640002,-0.052745527055743056,0.4685264058213106,0.972804220938923,-0.0019403287684715117,-0.22394663482757232,0.05912772274568945,0.5196099528111517,0.043949424140589624,31781.786578841282
1684938613167537689,234,1684938613167537689,camera_2,237,0,0.22323471681628615,-0.052676510421394186,0.46828795904090453,0.9726492885960749,-0.001984839668563851,-0.224523498268841,0.05948630540016202,0.47140318190213293,0.039852125296641054,31793.772787828697
1684938613177374601,235,1684938613177374601,camera_2,238,0,0.22323128396155487,-0.052924781462307356,0.4682971520272123,0.9725786162981278,-0.002045741867372095,-0.2248071752402315,0.05956831389538591,0.46421862189890817,0.03926167624745615,31779.811654840603
1684938613187415599,236,1684938613187415599,camera_2,239,0,0.2232852868801353,-0.05332331618168071,0.4684356603811041,0.9727652407790236,-0.0016986891913368077,-0.22412184494819154,0.05911259936915488,0.4827029738225974,0.0408337031048473,31780.56086078775
1684938613197338104,237,1684938613197338104,camera_2,240,0,0.22324065254184716,-0.05377561125958605,0.4683794995469411,0.9726953401241692,-0.0019142616748352912,-0.2243897248736617,0.05923987064544928,0.534289582981728,0.04521346537171782,31772.601315211952
1684938613207367658,238,1684938613207367658,camera_2,241,0,0.22325390350313523,-0.054252622363282495,0.46843023185057586,0.9727458095301945,-0.001834035481599763,-0.22433380619174886,0.05862226330347036,0.4666949946549721,0.03950073933735838,31764.481752285494
1684938613217511177,239,1684938613217511177,camera_2,242,0,0.22316248593847102,-0.05488451374217192,0.46824174252205814,0.9728132659125415,-0.0015443630525950678,-0.22418062612408804,0.058094848979479974,0.45904392638476565,0.038826984044838184,31786.847221795913
1684938613227376461,240,1684938613227376461,camera_2,243,0,0.22301989405494932,-0.05492180105080407,0.46793785280977507,0.9726083666900476,-0.0016051787592073089,-0.22516476143950948,0.05771671033208482,0.5251588277169503,0.044379693796709516,31798.729505376883
1684938613237310171,241,1684938613237310171,camera_2,244,0,0.223171923062713,-0.0548459394263629,0.4682607455164599,0.9728303535368761,-0.0016849123321072213,-0.22416913794376897,0.05784861192195937,0.5033503039740026,0.04257069257636131,31787.23020890473
1684938613247302055,242,1684938613247302055,camera_2,245,0,0.22330711717753707,-0.054162041646375156,0.4685113521485907,0.9727288576365393,-0.0019027255276488127,-0.22438148891225593,0.05871879247906067,0.48056967568118125,0.04069090607177814,31752.123353295952
1684938613257670402,243,1684938613257670402,camera_2,246,0,0.2232408423448855,-0.05321780556291603,0.4683231922652069,0.9725176404686946,-0.0019603518535485824,-0.22509341824938683,0.05948570465767327,0.42905605357373133,0.036304180459738045,31763.536499258124
1684938613267621278,244,1684938613267621278,camera_2,247,0,0.2232412708993421,-0.05285246100469136,0.46829881463135103,0.9726605376644626,-0.0021158720623226388,-0.2244582200366609,0.059544176992116865,0.5045349642750807,0.04266217046506839,31791.189733122003
1684938613277306318,245,1684938613277306318,camera_2,248,0,0.22329032362354242,-0.05266018559539164,0.46839722495329017,0.9726125818241502,-0.002049279649349196,-0.22463031296143024,0.05968072242466116,0.4759178423555568,0.040259489473379616,31774.45740328496
