%time,field.header.seq,field.header.stamp,field.header.frame_id,field.image_seq,field.transforms0.fiducial_id,field.transforms0.transform.translation.x,field.transforms0.transform.translation.y,field.transforms0.transform.translation.z,field.transforms0.transform.rotation.x,field.transforms0.transform.rotation.y,field.transforms0.transform.rotation.z,field.transforms0.transform.rotation.w,field.transforms0.image_error,field.transforms0.object_error,field.transforms0.fiducial_area
1685667512621299505,27,1685667512621299505,camera_3,31,0,0.02733871230660906,-0.46770154431433303,2.0585909746827986,0.99218759985749,0.05268964232809889,-0.002469937632335277,0.11305515330343241,0.08632361801574007,0.033983426562701397,23052.01244891272
1685667512641292572,28,1685667512641292572,camera_3,33,0,0.027365701098536185,-0.46888426854868803,2.0606428740547624,0.9926701518521768,0.05290512561556769,-0.003910221136642378,0.10858972085809951,0.07732283358927816,0.030486497070677646,23043.300232652815
1685667512661269664,29,1685667512661269664,camera_3,35,0,0.02735488042460282,-0.4699979429878044,2.0591980521948576,0.9922866522514009,0.05272340825572324,-0.00246707167258988,0.11216664184582659,0.08249142003478482,0.0325169535264408,23019.095443717204
1685667512671169996,30,1685667512671169996,camera_3,36,0,0.02736112479291177,-0.4707563686346795,2.0601938886665883,0.9925809681561063,0.052953941218285394,-0.003262129162103214,0.10939954422696074,0.09728593577165157,0.03837555598810194,23018.229898079757
1685667512681191921,31,1685667512681191921,camera_3,37,0,0.027361769843789026,-0.47132629186423536,2.060397264229261,0.9926882397502804,0.05305342182990705,-0.0015970058571812367,0.10841052839055706,0.0905369077809155,0.035707316073591074,23016.531319259666
1685667512691112041,32,1685667512691112041,camera_3,38,0,0.027357104556925867,-0.4717997432125466,2.0602782361031746,0.9926592641055935,0.05274167588861933,-0.0026091817046244724,0.10880759707223499,0.08385562157491222,0.03308665883417457,23007.732283185924
1685667512701244592,33,1685667512701244592,camera_3,39,0,0.02730247300131436,-0.47204509039577003,2.057555325390936,0.9922798875848928,0.053079784519761364,-0.0023374277440574337,0.11206113332190416,0.06069035560358316,0.023911082457388967,23021.466696512412
1685667512711368560,34,1685667512711368560,camera_3,40,0,0.027315211804878805,-0.4727388131626005,2.0590182179439243,0.9925224130770388,0.052817445436520165,-0.0010789393060676173,0.11003823375202852,0.07504792662803084,0.029591507236099282,23004.61620722222
1685667512721369743,35,1685667512721369743,camera_3,41,0,0.02730753238747551,-0.47305380738013775,2.05915877711499,0.9926992852268899,0.05306118128446985,-0.002266280745653133,0.10829360148365438,0.05730600777314976,0.022598402720387756,23015.1861366136
1685667512731208562,36,1685667512731208562,camera_3,42,0,0.02730135404831397,-0.4732938860027928,2.059282667047018,0.9925670777341941,0.052901735456444055,-0.0028605395601019627,0.10956194547982452,0.06843179184943438,0.027004011627645364,22995.92141392083
1685667512751545429,37,1685667512751545429,camera_3,44,0,0.027302066752414707,-0.47344359244098033,2.059421918783254,0.9927851977645206,0.05287969580323153,-0.0026031509067781177,0.10758490822032704,0.08660697238519789,0.03416428234112905,23011.320000384472
1685667512761228084,38,1685667512761228084,camera_3,45,0,0.027299014519345424,-0.4730974373338819,2.0585471183257567,0.9925039604882336,0.05270548563034021,-0.002426147164077966,0.11023671806425926,0.07965806877473369,0.03141261089378237,23005.733032235403
1685667512771234989,39,1685667512771234989,camera_3,46,0,0.027312848146328925,-0.4729627936076791,2.05896916974308,0.9925867089390216,0.05271979990723941,-0.0015009491283318281,0.10949883600777217,0.09339158266084269,0.03682479118454271,23007.650514410823
1685667512781248092,40,1685667512781248092,camera_3,47,0,0.027323039217324038,-0.4721467339852939,2.058386482992845,0.9923506695115766,0.05260644790841223,-0.0020780158553077416,0.11166195506299462,0.10422384110279383,0.04108632362996342,23008.436757888867
1685667512791257381,41,1685667512791257381,camera_3,48,0,0.02734241643637162,-0.4720523353059609,2.0598898255295444,0.9926014658968445,0.05302307772323452,-0.0031689760761144958,0.10918260263805936,0.08228560257703066,0.032467701193951176,23007.38613674348
1685667512801459550,42,1685667512801459550,camera_3,49,0,0.0273451473357177,-0.47146753120355656,2.0594894347339263,0.992451505389454,0.0528654410897971,-0.0020924920938604603,0.11063849269320698,0.0636848735739477,0.02511523899223295,23008.672455976248
1685667512811379909,43,1685667512811379909,camera_3,50,0,0.027356914417832456,-0.4711222084870457,2.0602068360065613,0.9925098909376401,0.052960520082917455,-0.0028165749294486392,0.11005165427728651,0.0686516971909441,0.027087206539323287,23006.12184945354
1685667512831221818,44,1685667512831221818,camera_3,52,0,0.027344823426388033,-0.46923818395899825,2.0587650159425293,0.9922983155995186,0.05280948569362504,-0.0026720566910705215,0.11201817349061047,0.10480048629688099,0.041282382156660524,23039.367784259604
1685667512841258049,45,1685667512841258049,camera_3,53,0,0.027363033391508085,-0.4691011554843987,2.0602928482193703,0.9925892863812998,0.05301769024598933,-0.0044614716562216905,0.10925075904863685,0.09165046439738944,0.036138192908982666,23040.268485434353
1685667512851230382,46,1685667512851230382,camera_3,54,0,0.027353214353202274,-0.468483056219606,2.059463539374993,0.9924391909032498,0.05276256261916795,-0.002923097370855149,0.11077914897182561,0.057292241661343724,0.022569039201037422,23048.977158207454
1685667512881459236,47,1685667512881459236,camera_3,56,0,0.027355474183553073,-0.46770728807435286,2.06035453447808,0.9925766706720205,0.05277742118984876,-0.0033720193094036897,0.10952043706986306,0.11164619104238227,0.04399112743911391,23054.40872737741
1685667512891270160,48,1685667512891270160,camera_3,57,0,0.02733230961719433,-0.46737582908155423,2.059077648411454,0.9923237504297483,0.05282120977632075,-0.0037976336367691985,0.11175451717745255,0.09957638219930232,0.039211644171560846,23060.173133957647
1685667512901387929,49,1685667512901387929,camera_3,58,0,0.027351461143726698,-0.46786906447641613,2.060354490796394,0.992540411668992,0.052925117794214264,-0.0044744105435546525,0.10973806432001651,0.13410971872508526,0.05286199398666645,23049.874368884597
1685667512911392927,50,1685667512911392927,camera_3,59,0,0.02735709431155484,-0.4679766719024483,2.059876691116542,0.9925084242206841,0.05288861172575392,-0.0021042259141463146,0.11011537056196766,0.09573748806724325,0.03770578005512558,23054.37300953221
1685667512921393871,51,1685667512921393871,camera_3,60,0,0.027338605860894146,-0.4680102442527051,2.0587499057191656,0.9922753373370158,0.05263184009688972,-0.0030897650195181856,0.11229424594720525,0.05662797047989443,0.022298011067631737,23053.027373693418
1685667512931458234,52,1685667512931458234,camera_3,61,0,0.02734219655849665,-0.46834499117781203,2.058589464053009,0.9923083875559473,0.052662632333308465,-0.0016076146269692472,0.11201842132905653,0.0733638284727931,0.02887642463415918,23054.791953560205
1685667512941306829,53,1685667512941306829,camera_3,62,0,0.027357424289048977,-0.46938038551304334,2.059110178273061,0.9923202960036929,0.05301209017079425,-0.004024044291493117,0.1116868636071715,0.10642456717323512,0.04194616218543391,23034.032881708346
1685667512961121797,54,1685667512961121797,camera_3,64,0,0.027359233198277016,-0.47052886126045357,2.059573861336438,0.9924205329684428,0.05287827967178612,-0.0017010437989161153,0.11091654399402501,0.12189774704165757,0.04805396286562491,23017.602490583435
1685667512981263160,55,1685667512981263160,camera_3,66,0,0.027308136371843487,-0.47166362417657726,2.057947209517915,0.9923518410524127,0.05256840492009634,-0.00327471816704556,0.11164077474189432,0.06475039437646046,0.025517156030067406,23024.232720994383
1685667513001104593,56,1685667513001104593,camera_3,68,0,0.027317290429397182,-0.4727081115875447,2.059013179508145,0.9926574371568029,0.052792126754133244,-0.002683201191905395,0.10879799741460039,0.07074390107300133,0.027895403057229845,23017.988677120302
1685667513011293411,57,1685667513011293411,camera_3,69,0,0.027314735879019912,-0.47318180238611135,2.059787388936375,0.9926807750408955,0.052828407269371165,-0.0014639544358331662,0.10859049261790077,0.07506831694627181,0.02961749309770196,22998.36922957748
1685667513031296730,58,1685667513031296730,camera_3,71,0,0.027291405126974845,-0.47332589220389454,2.058699676842533,0.9925621539622264,0.05322688023501059,-0.003576387315593531,0.10942796350148519,0.09101394424214959,0.03590274128449811,23007.519529260004
1685667513041250705,59,1685667513041250705,camera_3,72,0,0.027297290820913183,-0.47331878433484437,2.058874880936329,0.9925688479237035,0.05284841927046324,-0.0022841264214219534,0.10958516997530458,0.10031537158647554,0.03956674787553228,23002.89283347921
1685667513051259756,60,1685667513051259756,camera_3,73,0,0.02732305372893197,-0.473473697679131,2.0600987290412704,0.9928435372736566,0.05281186447023135,-0.001715384913058755,0.10709656819763737,0.1043557008379139,0.04117665954500333,23003.173171724655
1685667513061190128,61,1685667513061190128,camera_3,74,0,0.027303598194402395,-0.47243711400073085,2.0578509170535164,0.9923916984878606,0.052486223914648085,-0.0018371437760824646,0.11135770280634816,0.06746384885627776,0.0265834049707922,23017.33642220685
1685667513081284761,62,1685667513081284761,camera_3,76,0,0.02732152759887401,-0.47174537695686913,2.0582562935386974,0.9923321701621326,0.052778766567575075,-0.002339780666553108,0.11173983751263587,0.09121060726465657,0.035949042355220985,23016.149804309254
1685667513091312646,63,1685667513091312646,camera_3,77,0,0.027328784622202187,-0.4713409869439607,2.0585608539115525,0.9922832430853443,0.052658439223862735,-0.0037095117028693348,0.11219310938495515,0.08105392340803519,0.03196139520839259,23011.478502479138
1685667513101358652,64,1685667513101358652,camera_3,78,0,0.027375719005132707,-0.4707767400050921,2.06062453924834,0.9925881405845198,0.05278469378516998,-0.004388127254583796,0.10937688792505101,0.11154196929419413,0.044025827493252775,23009.689245208167
1685667513121225833,65,1685667513121225833,camera_3,80,0,0.027360814613578595,-0.4695286502983717,2.059643567559514,0.9923925249985778,0.0527012956625429,-0.001977116261249401,0.11124630678690471,0.11627999367192388,0.04582920807228894,23026.68451678077
1685667513141357421,66,1685667513141357421,camera_3,82,0,0.02734562187028209,-0.4681352635455871,2.0592349233533174,0.9924515082234194,0.05269971563042077,-0.002353227141820959,0.1107122672496224,0.09089296619640663,0.03578748834352767,23058.630087655038
1685667513151235103,67,1685667513151235103,camera_3,83,0,0.02734118528748238,-0.4677966034021817,2.0591234996015912,0.9922921915229947,0.05314115567625577,-0.003394501243612555,0.11189594084323035,0.07420473347883672,0.029225740277371105,23052.599338846278
1685667513161219835,68,1685667513161219835,camera_3,84,0,0.027351959983941684,-0.46779920085239035,2.0601348171211074,0.9924989743220091,0.052427983516520435,-0.0033839440800978067,0.11038859287360321,0.12800026359036565,0.05043815911451201,23048.56706885971
1685667513171259164,69,1685667513171259164,camera_3,85,0,0.027365056021768454,-0.4677690014562711,2.060671313415619,0.9924921434136162,0.05289265560536994,-0.003321280267945752,0.11023012901489031,0.10546498466283083,0.04157475300979387,23040.139657713466
1685667513181262493,70,1685667513181262493,camera_3,86,0,0.027347925858571143,-0.4676197585062827,2.060033419711389,0.9923965050236723,0.05286131463194104,-0.0028500179941797128,0.11111586578709766,0.10709533072076738,0.042196336749250496,23045.330822077354
1685667513191218137,71,1685667513191218137,camera_3,87,0,0.027357860669485333,-0.46787715245958766,2.060571797016877,0.9925626017673767,0.05284196750068674,-0.0023892264131812734,0.10964259957051103,0.1101504047983326,0.04340458518328159,23046.949351734245
1685667513201098680,72,1685667513201098680,camera_3,88,0,0.02733766290607645,-0.46775119836959855,2.059039273762593,0.9923384314140475,0.05289373240177124,-0.0031663961716418667,0.1116094285739414,0.08517877559643239,0.033540495120486735,23057.86218678672
1685667513211148262,73,1685667513211148262,camera_3,89,0,0.027360928039144167,-0.4682230713859002,2.0598601842332234,0.992513460847152,0.05258624889148489,-0.0016530327395086072,0.11022242942111947,0.08278694009641185,0.03260577926763115,23050.48080715513
1685667513221131324,74,1685667513221131324,camera_3,90,0,0.02733023414126568,-0.4686402872873234,2.0582535699619773,0.9921239715854222,0.05266155321339243,-0.001713583720402881,0.11363911936280871,0.07107618183363229,0.02798354417680598,23040.17381439638
1685667513231356620,75,1685667513231356620,camera_3,91,0,0.027352882935587283,-0.46932197653391283,2.0592061944456512,0.9924134159272132,0.052970114417568846,-0.003585282211522558,0.1108914993032981,0.11036972427973524,0.04349039324750444,23041.445160317242
1685667513241377353,76,1685667513241377353,camera_3,92,0,0.02736245215798334,-0.4698090309983082,2.0591830454454043,0.9922800918549777,0.05269802333538671,-0.0023533695098471416,0.11223902751169144,0.09648122225189582,0.03802718805008195,23021.214435887276
1685667513251344680,77,1685667513251344680,camera_3,93,0,0.027352537640782253,-0.47032552704865815,2.0591239445911276,0.99246528373921,0.052845800966969815,-0.0013047450433765356,0.11053632675722828,0.12537213281029835,0.0493906526044072,23033.0472698901
1685667513261290550,78,1685667513261290550,camera_3,94,0,0.02733831059632662,-0.4713390309088876,2.0591374510125657,0.9924531507966763,0.05325302670959268,-0.0031009259620966454,0.11041396142786748,0.062481628730893135,0.024636188037589223,23019.475062685793
1685667513271290302,79,1685667513271290302,camera_3,95,0,0.027322870669539142,-0.47166679656918425,2.058429284130607,0.9922306891880964,0.052831953663185154,-0.0013272230661404958,0.11262895979444729,0.10120874649146572,0.03989349229778919,23004.657211007776
1685667513281440734,80,1685667513281440734,camera_3,96,0,0.027320809141867998,-0.4721810711018342,2.0587284849822103,0.9924977143718035,0.05294816321961598,-0.002674188396723771,0.1101709022148481,0.08208216016646475,0.03236078319296436,23017.15536016925
1685667513291398286,81,1685667513291398286,camera_3,97,0,0.02732768501974773,-0.47284523598398326,2.059947504566281,0.9927678027607468,0.05308840808100992,-0.005373373765994205,0.10753993483071418,0.09072253212798387,0.035814907495329874,23010.556376653498
1685667513301383733,82,1685667513301383733,camera_3,98,0,0.027319286818347693,-0.47337557807656455,2.059829545750742,0.9927201017367103,0.052855063827034754,-0.0032494786783168546,0.10817847625112333,0.1045008446672,0.04124734421408508,22998.549101462595
1685667513311320781,83,1685667513311320781,camera_3,99,0,0.027306916596654886,-0.4734298289462861,2.059408003705101,0.9927335247171755,0.0526376577983322,-0.002443458795058258,0.10818250964567205,0.0857758556958288,0.033838612651802644,23005.695386874246
1685667513321361064,84,1685667513321361064,camera_3,100,0,0.02731602078361579,-0.47363722280315895,2.0600672806279228,0.9927877609379856,0.05293330675944628,-0.0019074420253020637,0.1075494696973059,0.08882483677007258,0.03505576656561177,22996.61372576515
1685667513331420660,85,1685667513331420660,camera_3,101,0,0.02730494087425507,-0.47346500587120366,2.059396349041339,0.9926203560650632,0.05282150734038478,-0.002105763695154793,0.1091342423202597,0.0982949121389538,0.038784404030465916,22995.538393100713
1685667513341283082,86,1685667513341283082,camera_3,102,0,0.027307593651276912,-0.47310780981340345,2.0593046244873996,0.9926380146383426,0.053132526289850775,-0.002146955988100957,0.10882140012374912,0.05975564196705818,0.023570488793046445,23006.182500826428
1685667513351216793,87,1685667513351216793,camera_3,103,0,0.027319362884492514,-0.4727379741289692,2.058970947336062,0.9926521548425945,0.053100711363386004,-0.002830424440783083,0.10869223816143053,0.05607943329960108,0.02211271334257447,23019.418561540544
1685667513361325740,88,1685667513361325740,camera_3,104,0,0.027315817771138236,-0.47221714165867024,2.0582804185115853,0.9924041823927647,0.05305175372143535,-0.0034394930051092204,0.11093971373812024,0.05517369182780385,0.02175225974362308,23016.90787490597
1685667513371153831,89,1685667513371153831,camera_3,105,0,0.027328926710090122,-0.47201984151773996,2.0591906425384288,0.9925062951891198,0.05271231085972205,-0.0028380928502221366,0.11020259308550495,0.09464335913071409,0.037326297798297575,23010.52736873924
1685667513381209850,90,1685667513381209850,camera_3,106,0,0.027360201313193045,-0.4712750910408985,2.060132174072349,0.9925960311817286,0.05274885722922697,-0.002410757025576897,0.10938402622803435,0.08166062698001042,0.03221163622082528,23012.257571282335
1685667513391331672,91,1685667513391331672,camera_3,107,0,0.027351531969701037,-0.470617504191478,2.059518760095127,0.9924721059743546,0.05311057122523055,-0.0025750341859849435,0.11032567827074619,0.0645253689144738,0.02543856819505129,23023.614831128638
1685667513401448726,92,1685667513401448726,camera_3,108,0,0.027353717404594555,-0.47020673936564633,2.0600385193000883,0.992470531026947,0.052788603983448146,-0.002979540280684069,0.11048407429256075,0.061655743047595024,0.024316769075123597,23017.796149406808
1685667513411308526,93,1685667513411308526,camera_3,109,0,0.02735127875065001,-0.46948529574293096,2.059056131151621,0.9924713987525592,0.05296501803099139,-0.0030477419873669353,0.11038994878109915,0.08790054131532088,0.03462622901399687,23047.475551802887
1685667513421285629,94,1685667513421285629,camera_3,110,0,0.027332718163386262,-0.4684121184488115,2.0584363726272725,0.9923252921798855,0.05252627545590065,-0.0023093887495478195,0.1119203806750095,0.08786264370428398,0.03458402148036983,23057.878905181777
1685667513431297063,95,1685667513431297063,camera_3,111,0,0.027356624861095205,-0.468318405643781,2.0597653162332583,0.9925300959962973,0.052774559516984856,-0.002521125018384953,0.10996589624975064,0.06168715964304283,0.024297809830131044,23053.749123262256
1685667513441300153,96,1685667513441300153,camera_3,112,0,0.027354012364821486,-0.46802973763230904,2.0598615672725913,0.9923810389641124,0.05268898417867317,-0.0018316460368932883,0.1113570362551175,0.09014172834577039,0.03551144035188942,23041.09732336249
1685667513451169013,97,1685667513451169013,camera_3,113,0,0.02732506405016082,-0.46749144787948943,2.058581129999433,0.9921329252269234,0.052676102864839126,-0.002751294330694268,0.11353377139488884,0.111843912221957,0.044034547846189015,23049.73142385342
1685667513461155891,98,1685667513461155891,camera_3,114,0,0.027342254866202256,-0.4674647580791756,2.0595399687404172,0.9923637153148844,0.052984390033384045,-0.0027622181339803024,0.11135205920956207,0.08426758216228336,0.033186980652176436,23054.456182135047
1685667513471203088,99,1685667513471203088,camera_3,115,0,0.027334920588457795,-0.46740343772289894,2.0591789146135175,0.9922993322797937,0.05287019172816473,-0.003082593155948907,0.11196997634695517,0.09854711580555886,0.038805881387876634,23055.72404119885
1685667513481296300,100,1685667513481296300,camera_3,116,0,0.02734492139279774,-0.4675674444933165,2.0594059368609487,0.9923384398078567,0.05262670533701347,-0.0028027598138625986,0.11174522496512149,0.10443405341356993,0.04112968359029942,23051.626043262204
1685667513491240262,101,1685667513491240262,camera_3,117,0,0.027324106208188356,-0.46743534757553656,2.0579020291133285,0.9921012722656816,0.052694789947445225,-0.0007210788736907454,0.11383235360155043,0.1084412097116001,0.042651781978211886,23060.521354307417
1685667513501283407,102,1685667513501283407,camera_3,118,0,0.02734664325024073,-0.46832129513257587,2.059009394435193,0.9923923037171044,0.0528574753035239,-0.0025064845913389594,0.11116348484367188,0.07988725660834461,0.0314550468361217,23055.882379719755
1685667513511155605,103,1685667513511155605,camera_3,119,0,0.027369929983775933,-0.46903876631448876,2.0603381906870015,0.9926262568773088,0.05269256000973115,-0.002959308386583003,0.10912309916437096,0.1141563119017519,0.0449952718958757,23041.81690903845
1685667513521301269,104,1685667513521301269,camera_3,120,0,0.027342329701785198,-0.46914830463192875,2.05874844756218,0.9922959062091528,0.05295089903953559,-0.0028464317187372207,0.11196845376235094,0.09835003444459288,0.0387406340307664,23041.423469685702
1685667513531226396,105,1685667513531226396,camera_3,121,0,0.027356343721888814,-0.4698697917137701,2.059734933833582,0.9923785114631027,0.052837263728205165,-0.0026822767940172143,0.1112920434675943,0.06879660184495151,0.027125258826194775,23019.839563014924
1685667513541152477,106,1685667513541152477,camera_3,122,0,0.027339091231579352,-0.4706751259854656,2.058713149114582,0.9922232202860923,0.05283622631676435,-0.0037187798416583023,0.11263918052875696,0.0712671834626235,0.028100904955640115,23013.56455352554
1685667513551230907,107,1685667513551230907,camera_3,123,0,0.02736657880572385,-0.4716359973001772,2.060655699096738,0.992662510311636,0.05304112501325501,-0.00273788256233637,0.10862911063892713,0.10420023952610791,0.04112315355940119,23004.78901950921
1685667513561204671,108,1685667513561204671,camera_3,124,0,0.02733233004706363,-0.4716662512939885,2.058779454058952,0.9922824123174939,0.052791909882296026,-0.0023131935325640227,0.11217520934696548,0.06844244070816785,0.02698907598886362,23002.91449395172
1685667513571235656,109,1685667513571235656,camera_3,125,0,0.027311341746589037,-0.4719841881145618,2.0581851271423792,0.992371093326479,0.05294784547842625,-0.002015609612081895,0.11131970224130688,0.0736344006145373,0.029018461658571894,23018.387396410813
1685667513581254243,110,1685667513581254243,camera_3,126,0,0.027315938994651404,-0.4728102342489509,2.058705416673222,0.9925731729666198,0.05299380721381295,-0.0020913341016500784,0.1094795826884489,0.0714799813576974,0.02818020826268272,23015.18133445432
1685667513591293096,111,1685667513591293096,camera_3,127,0,0.027317530966250312,-0.47331800668769713,2.0598134942548145,0.9928119437223721,0.05303229152834286,-0.0033796911182766404,0.10724084177869699,0.059255002823192626,0.02338278728260706,23009.413049601495
1685667513601204633,112,1685667513601204633,camera_3,128,0,0.027309843945061387,-0.4734036365487066,2.059373150898487,0.9926820060086228,0.05287498074278095,-0.0002174194488927535,0.10856621982426407,0.11801116570131853,0.046535612453150015,23002.706683071097
1685667513611187934,113,1685667513611187934,camera_3,129,0,0.027314399595699236,-0.4736393054050491,2.0600796198068534,0.992955247684235,0.05279573959922469,-0.0027265982142597907,0.10604268781339095,0.09405707340920344,0.03711455103812731,23011.53949282947
1685667513621099948,114,1685667513621099948,camera_3,130,0,0.027284196346502268,-0.4730128782050306,2.057825398522101,0.9925400431038801,0.052620109990632664,-0.001591349987744065,0.10996751549952388,0.051529008080251515,0.02030181164805798,23023.479834898608
1685667513631176471,115,1685667513631176471,camera_3,131,0,0.0273082051969896,-0.473176090175421,2.059352846761667,0.9926135964249074,0.052936459534950284,-0.002912903565010295,0.10912146643596997,0.07378051342675462,0.029111601307410268,23001.003623808043
1685667513641316890,116,1685667513641316890,camera_3,132,0,0.02731193353055318,-0.4727908714139938,2.058863282159968,0.9924997706277372,0.052782048492949214,-0.002327687924304006,0.11023993164776633,0.06549868686124682,0.025831687661480498,23004.608770094805
1685667513661291599,117,1685667513661291599,camera_3,134,0,0.027338941395375276,-0.4715977826265381,2.0590158544365766,0.9922739726661853,0.05310764280857491,-0.00222740922155592,0.11210254275770548,0.09303067956352606,0.036690096713165546,23000.188724590946
1685667513681227207,118,1685667513681227207,camera_3,136,0,0.027351714810258068,-0.470607524027415,2.0590788453017184,0.9923486560364273,0.0527173197544128,-0.002802373626025803,0.11161171875151801,0.11185314459726214,0.04409525617278255,23018.541210976648
1685667513701045989,119,1685667513701045989,camera_3,138,0,0.027347803733029974,-0.4689998143585341,2.058827974037721,0.9923633651893857,0.052718703840208464,-0.0017244419928737667,0.11150208964507986,0.07752741110743955,0.030527276144074526,23046.922638601394
1685667513711111783,120,1685667513711111783,camera_3,139,0,0.02736542890723033,-0.4688053032954589,2.05994023017249,0.9925153134672544,0.052709496400459084,-0.003610740170634396,0.1101000639310801,0.0750856566010043,0.0295941230030541,23042.427412002347
1685667513721076965,121,1685667513721076965,camera_3,140,0,0.02734661023656908,-0.4683714007772148,2.059790431307308,0.9924400009535698,0.05286274108848758,-0.004188515157118643,0.11068347416244555,0.06576178461546078,0.025918534789298092,23044.843404258147
1685667513731276273,122,1685667513731276273,camera_3,141,0,0.027341924876450423,-0.46796205422206727,2.0593990655511596,0.9922676083066961,0.052863570792414695,-0.0017521114657856247,0.11228252977999695,0.08903366164304316,0.03506742390533466,23041.238815718323
1685667513741112947,123,1685667513741112947,camera_3,142,0,0.027339834297399505,-0.46749725718629526,2.059265022920043,0.9922520585140991,0.05289829578437446,-0.0017543878694110374,0.11240349105274829,0.09837570117088035,0.03873591729556221,23048.41730179265
1685667513751310825,124,1685667513751310825,camera_3,143,0,0.027351245902620537,-0.4676137794826128,2.060148197344894,0.9924993884937421,0.052790845086445534,-0.0035401935065376726,0.11020688519572186,0.10810326813952997,0.04259495725145308,23052.488083513228
1685667513761296749,125,1685667513761296749,camera_3,144,0,0.027345637922842198,-0.46742934443414585,2.0593448066919455,0.992370504801137,0.052688753529382924,-0.0019676846169966898,0.11144866383005554,0.07857248798245564,0.030933573005074426,23057.758655954854
1685667513771136283,126,1685667513771136283,camera_3,145,0,0.027343162089691637,-0.46766405596844485,2.0599462509928155,0.992415102577381,0.05279596999856999,-0.0023343206587874738,0.1109927956008788,0.0983274262980558,0.038734166930788676,23047.851487377193
1685667513781286001,127,1685667513781286001,camera_3,146,0,0.027336381060019684,-0.46783432784640594,2.058720160613402,0.9922910998092777,0.05304820716455,-0.003352433184921078,0.111950981003571,0.07976603164570406,0.031405940242713024,23059.38598895864
1685667513791279554,128,1685667513791279554,camera_3,147,0,0.027336093961265972,-0.4680262486594852,2.058101896491141,0.9922586698637336,0.05300365053553064,-0.00266441553587348,0.11227754005149003,0.07904971856623888,0.031106610504325057,23065.568833745558
1685667513801316976,129,1685667513801316976,camera_3,148,0,0.02734961017615592,-0.4687858965987742,2.0596335172012545,0.9923831926245378,0.05302846429263369,-0.0016927366452445952,0.11117875522663598,0.11112393095390871,0.043778872352014706,23037.591751584318
1685667513811284065,130,1685667513811284065,camera_3,149,0,0.027336555695122007,-0.46891438718223954,2.0582143922725065,0.9919759234116015,0.05267444788224926,-0.001926422795462061,0.11491500688428034,0.10913065250497311,0.04298468977560341,23023.414906646118
1685667513821268081,131,1685667513821268081,camera_3,150,0,0.027358449988991076,-0.47006193227131793,2.0588321831397423,0.9923489357831791,0.05283708312129801,-0.0025512067660700935,0.11155861078940481,0.09687925881007686,0.038171745476894836,23031.594566818785
1685667513841255187,132,1685667513841255187,camera_3,152,0,0.02735400304141412,-0.4711642782902531,2.058988849401306,0.9922308856154246,0.05291803773100109,-0.001817038852817114,0.11257996839286344,0.11861598101677373,0.0467704969798587,23001.98703154573
1685667513851068973,133,1685667513851068973,camera_3,153,0,0.027338725924089643,-0.4717796464550783,2.0594731724233273,0.9925497713586813,0.05332040046487273,-0.002598367353583165,0.1095223025561048,0.05613582499790937,0.02213816790550737,23015.93351425416
1685667513861116170,134,1685667513861116170,camera_3,154,0,0.027327118112127215,-0.4726351944304036,2.059486614295284,0.9926674737557737,0.052889751296215856,-0.0024865515480347222,0.1086635993171305,0.06917487765895203,0.027284809732232424,23011.629249792073
1685667513871099710,135,1685667513871099710,camera_3,155,0,0.02732497498631542,-0.47311295215836435,2.060059837097264,0.9926935799987546,0.05301605295239746,-0.002774976473563204,0.10835614363835498,0.07774774386780336,0.030688150434641827,22996.64105476183
1685667513881156682,136,1685667513881156682,camera_3,156,0,0.027332686666468563,-0.47353962371877184,2.0607506353657516,0.9928972939800068,0.05300446076860457,-0.002720140141033872,0.10648047512770804,0.11004031600896268,0.043448300998592766,22996.121855072437
1685667513891249418,137,1685667513891249418,camera_3,157,0,0.02731261536612729,-0.4733675993773199,2.059234585040159,0.9926814248792624,0.05237350898142966,-0.0019016217441797636,0.10879792319429438,0.09758938365848735,0.03849319783786003,23003.563357979518
1685667513901298522,138,1685667513901298522,camera_3,158,0,0.027310627375829823,-0.47349941488359965,2.059410827914607,0.9927245640899134,0.05278038849727799,-0.0024098925999687985,0.10819594659794182,0.11545823467895389,0.045550094590340554,23004.328777319282
1685667513911431312,139,1685667513911431312,camera_3,159,0,0.027323681080199013,-0.4736277767730564,2.0603656956351677,0.9929523365069786,0.05292438678713574,-0.001859887371745665,0.10602456096349622,0.086122025270015,0.033984814733886204,23006.633695156303
1685667513921302080,140,1685667513921302080,camera_3,160,0,0.027298952234818267,-0.473050619114527,2.0586281866589253,0.9925639856225575,0.05317445683210949,-0.0023525490335449305,0.10946998263779192,0.07278582180151716,0.028698451169477043,23012.969131285565
1685667513931292772,141,1685667513931292772,camera_3,161,0,0.0273198672478574,-0.4729719125991692,2.0594120071828383,0.9927874204509928,0.052708054546483585,-0.003056048877615092,0.10763670073653532,0.05271571135381237,0.02079222847957005,23018.33430599772
1685667513951235294,142,1685667513951235294,camera_3,163,0,0.027325016651177057,-0.47165750828810393,2.058805778737664,0.9923305921248335,0.052809508763473824,-0.0026301181526513645,0.11173286980938485,0.09157110739033669,0.036109007751948946,23007.167633672252
1685667513961313009,143,1685667513961313009,camera_3,164,0,0.027344386257684573,-0.47124437557176496,2.059208616978508,0.9923817206689295,0.05272441789063931,-0.0010247710086264742,0.11134453774051076,0.08003665308933705,0.03155086069545253,23009.817266026497
1685667513971132278,144,1685667513971132278,camera_3,165,0,0.02735125938851079,-0.4707807023530721,2.0594744686014534,0.9925641428427199,0.05301309253790877,-0.002267637254010328,0.10954858366838084,0.08204315608600155,0.03233735970421842,23030.192528898835
1685667513981279373,145,1685667513981279373,camera_3,166,0,0.027350676777674797,-0.46965421069633495,2.059221569404801,0.9923646301910328,0.05311256661649528,-0.0031164773553277983,0.11127346306337825,0.07842292112763972,0.030907092739263117,23032.753707838012
1685667513991246223,146,1685667513991246223,camera_3,167,0,0.027346358795021765,-0.4691874270082631,2.059318707760855,0.9923960580632926,0.05265775460526065,-0.0033066375410259006,0.11120382623157489,0.126660356647335,0.049912337789287275,23037.871828009367
1685667514001287937,147,1685667514001287937,camera_3,168,0,0.02737289127611519,-0.46905787992248565,2.060867965434489,0.992655089518545,0.05295923228342339,-0.0024390043591663367,0.10874393880403613,0.10566710849525407,0.0416609538649643,23035.293867910972
1685667514011305332,148,1685667514011305332,camera_3,169,0,0.027349044405362725,-0.46829955804113793,2.059390422122947,0.9923872817922876,0.05269662860036803,-0.0024242123561426087,0.11128643882127756,0.05422039551194757,0.02135640512663655,23047.546318683293
1685667514020461320,149,1685667514020461320,camera_3,170,0,0.02734121033622258,-0.46759015272103394,2.0589201428162287,0.9922183494039903,0.05270882086521821,-0.001692915815551563,0.11279034242815583,0.08886797568993643,0.034985111375021444,23049.880466676783
1685667514031383037,150,1685667514031383037,camera_3,171,0,0.027350169605819572,-0.46761616787454996,2.0598483981737763,0.9924210342482033,0.052898261070820844,-0.0034543371491287888,0.11086177119399677,0.10110844351584092,0.03983350277768485,23051.526616132825
1685667514040448188,151,1685667514040448188,camera_3,172,0,0.027342818785656434,-0.46746173903882915,2.059572184884384,0.9923634047126856,0.0529056215368639,-0.0027715404935686984,0.11139204082939431,0.08859711128752679,0.034893758466860735,23053.437721417045
1685667514051209449,152,1685667514051209449,camera_3,173,0,0.027351844778092913,-0.4675427057467249,2.059920959750096,0.9925598947217976,0.0526640797198105,-0.0024785548605589275,0.10975065768788192,0.09364698576973751,0.03687728366706852,23062.69188896496
1685667514061471700,153,1685667514061471700,camera_3,174,0,0.02735385554806645,-0.4677655510170641,2.0597612254914126,0.9923667080997027,0.053010229093198816,-0.0035134243071727974,0.11129190499081183,0.08239039621548727,0.03246280613029114,23046.867776377592
1685667514070451498,154,1685667514070451498,camera_3,175,0,0.02733811834375095,-0.46790097648658346,2.0591743406078287,0.9923092584439831,0.052638458676119784,-0.0015355673356850423,0.1120230793520365,0.10020381963113323,0.039453346091513374,23049.118380856704
1685667514081341743,155,1685667514081341743,camera_3,176,0,0.02731693609516156,-0.46777039187998576,2.0571618378261816,0.9919062580162681,0.05263554475757135,-0.0018919871100710015,0.11553309102163671,0.0794852614053525,0.031268899717490514,23052.266533442064
1685667514091323137,156,1685667514091323137,camera_3,177,0,0.02736446517499381,-0.46883488465590417,2.060064528702829,0.9926196601448394,0.05278865175134103,-0.0029278535791216176,0.10913751057101634,0.06791341479402035,0.026760131005217267,23049.71228842717
1685667514100521326,157,1685667514100521326,camera_3,178,0,0.027346346828110667,-0.469448581105518,2.0586004551531456,0.9921315998446069,0.053154934371618466,-0.0007201111876806638,0.1133530898635205,0.11723368527600542,0.046172227709129286,23025.49710431227
1685667514111347675,158,1685667514111347675,camera_3,179,0,0.0273351785324124,-0.4697762268165383,2.057838620107154,0.992186327170011,0.05274028045326748,-0.0032126312633763425,0.11302404166795839,0.05189185740891844,0.02043702621606561,23039.04599365498
1685667514121414899,159,1685667514121414899,camera_3,180,0,0.027351029695866537,-0.4706702672115235,2.05944335222702,0.9925134961419985,0.052977174626301624,-0.00395804114619555,0.10997596489636513,0.11128272418864071,0.0438791521553902,23027.635391264466
1685667514130542993,160,1685667514130542993,camera_3,181,0,0.027326633815619564,-0.4708761996298019,2.05804962708786,0.9923013326505972,0.05291384395825676,-0.002423932511079172,0.11194782216993684,0.061367412214167416,0.02417448726383777,23030.820978067808
1685667514141346931,161,1685667514141346931,camera_3,182,0,0.027319030768387546,-0.47206083485674527,2.0589491696089883,0.9925362216610455,0.052981216996448637,-0.003294480231469297,0.10979064503133198,0.07293443486560136,0.02876030439546287,23018.71731806337
1685667514160484552,162,1685667514160484552,camera_3,184,0,0.027325643146602078,-0.47295938036145035,2.0595807952858616,0.9927670912823587,0.05282912710345778,-0.0017362264171581693,0.10779411539634212,0.08495838334783912,0.03350507254542553,23013.81408162835
1685667514181238174,163,1685667514181238174,camera_3,186,0,0.02730458071680126,-0.4736068591076703,2.0598356936936164,0.9927677773555847,0.05299234157223638,-0.0020367719233014146,0.10770238409281492,0.09258696489268914,0.036535588399289776,22999.861236099612
1685667514201102018,164,1685667514201102018,camera_3,188,0,0.02730193264217798,-0.4732871471050928,2.0587476570841066,0.992634033099409,0.05281849582968389,-0.002434113637146702,0.10900439404855498,0.09071911597857252,0.03577329417905554,23011.779404578734
1685667514221214294,165,1685667514221214294,camera_3,190,0,0.02731509367068536,-0.47247372527539183,2.058505154043408,0.9924385693470049,0.05280315172735485,-0.002681850266603671,0.11077148062238483,0.06606471148552373,0.026048595915501155,23010.600182688333
1685667514241204261,166,1685667514241204261,camera_3,192,0,0.027325640836172477,-0.47172952245414446,2.0589103034886436,0.9923443153960944,0.0530240647411366,-0.0019507494035005946,0.11152310449476086,0.11188098613638431,0.044114346575827794,23006.351307758596
1685667514261359214,167,1685667514261359214,camera_3,194,0,0.027355159501042666,-0.47023562550246245,2.0591527552211373,0.9923672566130494,0.052962302179699064,-0.0032828065325659294,0.11131687083001565,0.09191433619707823,0.03623249929005619,23025.486684353094
1685667514281346559,168,1685667514281346559,camera_3,196,0,0.02735201464643153,-0.46930404869482567,2.0595578476127785,0.992445258450306,0.052933116648110144,-0.0021223464789455223,0.11066160032660988,0.10807589814066887,0.042583483317344524,23037.524139500234
1685667514301316022,169,1685667514301316022,camera_3,198,0,0.02734467300223673,-0.4679138868560554,2.05898507051799,0.9922650750543577,0.05308572642010476,-0.0033352837153824556,0.11216417592242892,0.08747143280925229,0.034449535908915425,23050.956096052425
1685667514341328382,170,1685667514341328382,camera_3,201,0,0.027333412235409287,-0.46731722373049545,2.0587227564300083,0.9922410951509223,0.05265980600397036,-0.0033535891123545086,0.11257578498677323,0.08914132439531386,0.03509420981501956,23059.257264460197
1685667514361337661,171,1685667514361337661,camera_3,203,0,0.027322962699897285,-0.4675535183189867,2.0579064162340415,0.992123418327622,0.05302504310669353,-0.0043136538303738545,0.11340573177789352,0.07526213681558147,0.029624795400177355,23063.16741729551
1685667514371304988,172,1685667514371304988,camera_3,204,0,0.027364840738697344,-0.46838082547986715,2.0600729954664168,0.9924465292695749,0.05275307733934559,-0.0017515725933992393,0.11074263571657471,0.11043750203680248,0.04351338167581649,23038.872003502453
1685667514381334304,173,1685667514381334304,camera_3,205,0,0.027353221487121816,-0.4690292904358382,2.05919025141651,0.9923719557509166,0.052621018339180425,-0.002482639200414463,0.11145746440077087,0.09691649430897087,0.03818029039656066,23039.92770870635
1685667514391241312,174,1685667514391241312,camera_3,206,0,0.027367889553221413,-0.4696849143547006,2.059873530620927,0.9924243697292597,0.05294619590527692,-0.002072509201222464,0.11084347257395266,0.1062258790479973,0.04187439720106075,23024.356122034842
1685667514401276588,175,1685667514401276588,camera_3,207,0,0.02734314889194289,-0.4699804805098868,2.0589357494816745,0.9923294799864969,0.052659702161978066,-0.0026432608285396515,0.11181311233541916,0.08516705688089132,0.033561875184525046,23028.109434911523
1685667514411297798,176,1685667514411297798,camera_3,208,0,0.02735403845987278,-0.47071623308777005,2.0598140996823484,0.9925369393287089,0.053048071033426986,-0.003231772826111997,0.10975373283871476,0.1130349010345526,0.044575693746172554,23022.370766366825
1685667514421354293,177,1685667514421354293,camera_3,209,0,0.02733078470256514,-0.4715285359753293,2.0589313930176933,0.992412955195436,0.052900761511395444,-0.00248052916475585,0.11095892378190605,0.07596976857166737,0.02995151835260285,23014.918478618834
1685667514431474447,178,1685667514431474447,camera_3,210,0,0.02733558021419249,-0.47225003229696355,2.060016456942102,0.9927122050543356,0.05308005756206879,-0.0030755395255104073,0.10814585744259168,0.07599102315725759,0.029981817633971827,23012.7479411792
1685667514451350927,179,1685667514451350927,camera_3,212,0,0.027320479715923815,-0.4727218482228182,2.0588040481034016,0.992459863364984,0.05292209424725647,-0.0023086663287462126,0.11053208407437208,0.0584492307389155,0.023051018253795796,23003.745097443458
1685667514461295604,180,1685667514461295604,camera_3,213,0,0.027292780268375675,-0.4732751844840905,2.059018091586915,0.9925885507834307,0.0529478824234632,-0.003452263455805435,0.10932782115066461,0.0728759674821049,0.028753121266768326,23003.49975868734
1685667514471333265,181,1685667514471333265,camera_3,214,0,0.027309446065851024,-0.47355244709702465,2.0596692576517377,0.9927365495870398,0.052760134708400526,-0.0021174076636711623,0.10810193284283101,0.08754556259373203,0.034543864037788134,22999.72112193401
1685667514481405735,182,1685667514481405735,camera_3,215,0,0.027284116145245705,-0.4732130204644311,2.0580756477124487,0.9924900533765526,0.05263158217376795,-0.0017960170870183316,0.11040917004088414,0.07807212235638872,0.03077365373196189,23010.95248625753
1685667514491383075,183,1685667514491383075,camera_3,216,0,0.027298343011119233,-0.4733892846867372,2.0591304829712387,0.9926951757994555,0.052609509118028926,-0.003268615415888253,0.1085257741189211,0.07757286360720173,0.030603095167631118,23007.903071363475
1685667514501399040,184,1685667514501399040,camera_3,217,0,0.027301460540964304,-0.4727638213347288,2.0581809569465204,0.9925466405957022,0.05256215144077529,-0.0029798283847397426,0.10990681098503671,0.05582336091902107,0.022004017756625464,23021.24172483152
1685667514511505603,185,1685667514511505603,camera_3,218,0,0.027321762639933456,-0.47263323454463757,2.0589879728552574,0.992633271192872,0.05285429326294545,-0.0026337280141885645,0.10898933930142081,0.06811853713588789,0.026859154274430013,23017.669183694525
1685667514531456947,186,1685667514531456947,camera_3,220,0,0.02733219734443162,-0.47182802458519485,2.0590737671946444,0.9923738165558659,0.05270417101333006,-0.0021585586898397757,0.11140834437565715,0.09096164256334305,0.03587286225760597,23003.020082361538
1685667514541457414,187,1685667514541457414,camera_3,221,0,0.027345867417636015,-0.470880581961494,2.059322025763143,0.9924060130600728,0.05320325391585655,-0.0035584643503679364,0.11084699520709917,0.09417497488902882,0.037138303220388746,23017.96298160636
1685667514551265239,188,1685667514551265239,camera_3,222,0,0.02737623866975519,-0.47068775933869483,2.0608046661094424,0.9926735152698353,0.05304587988643631,-0.00433433770587578,0.10847414542439822,0.08964679180644453,0.03537997763497353,23016.83439473831
1685667514561269998,189,1685667514561269998,camera_3,223,0,0.0273599511907595,-0.46973262886514877,2.058922705138711,0.9922974289102275,0.05292270907270731,-0.0030513248864222774,0.1119628905441223,0.08536099595949054,0.033638781580164076,23030.110004921684
1685667514571326732,190,1685667514571326732,camera_3,224,0,0.027341766288504363,-0.4691884828269323,2.058682768667099,0.9921899119720766,0.05316693874897587,-0.0029663731245578463,0.1127991836645617,0.11583446827717125,0.0456363401838749,23033.30075361208
1685667514581349849,191,1685667514581349849,camera_3,225,0,0.027355890557699287,-0.46849844130363194,2.059645870738973,0.992532525008589,0.05295993767527311,-0.004499320558850798,0.10979156577813405,0.09568808373296633,0.03770447892833903,23055.079568248933
1685667514591284751,192,1685667514591284751,camera_3,226,0,0.027344688927449932,-0.4679859053171303,2.0590309381068,0.9922599110024615,0.052846073030190385,-0.002360306876463561,0.11234763252567398,0.05300353211350739,0.02087278923082603,23047.40018772333
1685667514601270198,193,1685667514601270198,camera_3,227,0,0.02735668207193587,-0.4679677806884355,2.0602324114586317,0.9925281875417514,0.05276509997224103,-0.0017406095228481183,0.11000277923077366,0.0980904880561866,0.038640505614872596,23048.75612037862
1685667514611292600,194,1685667514611292600,camera_3,228,0,0.027324856906570903,-0.4673474716304658,2.0583932201356134,0.9921631213797332,0.052740442532673605,-0.0018112870081970047,0.11325857819545683,0.10408807551721111,0.04096007856151343,23058.22532449871
1685667514631314277,195,1685667514631314277,camera_3,230,0,0.027351365796558752,-0.46762179383027896,2.0600367999361078,0.9924443881002306,0.052594329400790896,-0.0043266988382478135,0.1107666588843552,0.08181781996972859,0.03224473414739434,23048.59731101315
1685667514641308307,196,1685667514641308307,camera_3,231,0,0.0273591358865748,-0.4678142540482901,2.060239822972576,0.9926007933484968,0.052628781461244244,-0.0037318471410222086,0.10936155504909256,0.0983586537768133,0.03875483822061444,23056.876681087997
1685667514651267290,197,1685667514651267290,camera_3,232,0,0.027335594969918085,-0.4676693216650298,2.0585419585379414,0.9921750486980364,0.0528211332877826,-0.0020565006896132265,0.11311220722873885,0.11868812679313123,0.04671809187728297,23052.762415199773
1685667514671282291,198,1685667514671282291,camera_3,234,0,0.02734218227651868,-0.4687982508925984,2.0585528821174166,0.9922582381806607,0.052925009336732505,-0.0036254590831291855,0.11229153216407084,0.09182039950974286,0.036166209868748474,23046.347398239886
1685667514691320657,199,1685667514691320657,camera_3,236,0,0.027347134138730193,-0.46991946142722524,2.0591133250806153,0.9922845510744245,0.05292631716573535,-0.0021214062567292595,0.11209671844346747,0.08300759230041876,0.032713985380908285,23022.59468855546
1685667514711254835,200,1685667514711254835,camera_3,238,0,0.02734023315207721,-0.47144392030629373,2.0589588494498168,0.9923207085153479,0.0528843657611317,-0.0021571504099138763,0.11179535773792193,0.09551869134884328,0.03766243601294982,23006.85105496388
1685667514731323242,201,1685667514731323242,camera_3,240,0,0.027330496926352935,-0.4723723535651047,2.0590453377298528,0.9925190667232575,0.052883798890047004,-0.0021273908374739494,0.11002127164314915,0.07199252606369555,0.028388883503122107,23009.879429473538
1685667514741272211,202,1685667514741272211,camera_3,241,0,0.027314317792694144,-0.47318710119751706,2.0597081937342816,0.9927598584557092,0.05290026265519686,-0.0017537355308248203,0.10782555384369366,0.08356072101742029,0.0329623486743887,23007.58279597107
1685667514751109600,203,1685667514751109600,camera_3,242,0,0.027299869002641093,-0.47325145474704744,2.0590729091672113,0.9926058065925757,0.053171492737208455,-0.002683911868295673,0.10908392042772579,0.07223359687486663,0.028494241605870736,23005.46937143965
1685667514761270999,204,1685667514761270999,camera_3,243,0,0.027297744956741046,-0.4734446090437574,2.0593424486983345,0.9926270480816668,0.05287268755548252,-0.0027144217100123955,0.10903510554916293,0.07870796817587689,0.031058086592795877,22997.897098167334
1685667514771295070,205,1685667514771295070,camera_3,244,0,0.027299651672591234,-0.47332281215572275,2.0586713487085406,0.9925313117670831,0.05286880592743543,-0.0020947843368686143,0.10991858987588207,0.06402325653471053,0.025249063235469802,23003.217333825305
1685667514791336297,206,1685667514791336297,camera_3,246,0,0.027312222936361118,-0.4729303724420249,2.058733179023029,0.9926642162137423,0.05280567382463536,-0.003206004868645667,0.10871539078467672,0.08865992311621085,0.03495818108262268,23020.53264241665
1685667514801208019,207,1685667514801208019,camera_3,247,0,0.02732493530543254,-0.4728579300272937,2.0597527111401637,0.9926299751880951,0.05309745770380162,-0.0029076473032817528,0.10889415930450284,0.07147958583664149,0.02820770034574462,23000.790544488234
1685667514811202764,208,1685667514811202764,camera_3,248,0,0.027314251173356785,-0.4721550621133907,2.0582991915975755,0.9923273342090927,0.052686994903488424,-0.0033121844577957468,0.11180148381677699,0.0842692861915566,0.033228586495333924,23008.374321447678
1685667514831322193,209,1685667514831322193,camera_3,250,0,0.02733775504268215,-0.47076665697905734,2.0584414954534274,0.9923615284249443,0.053094485168825346,-0.0024424561867593133,0.11132657793421097,0.08218755904817954,0.03238073927113544,23031.464018984225
1685667514851281166,210,1685667514851281166,camera_3,252,0,0.027351514153559173,-0.46980429399262497,2.0588751910261993,0.9922497589637244,0.05294381842216242,-0.0023738515586795685,0.11239098164928374,0.06453645695000888,0.025431310257819528,23025.62001057319
1685667514871384143,211,1685667514871384143,camera_3,254,0,0.02733761701467854,-0.46834926432849205,2.0587814586810183,0.9923622682886518,0.05260428633198618,-0.0036014809897319897,0.11152106021368832,0.0488663773285225,0.019243653728619352,23056.100398937466
1685667514891397476,212,1685667514891397476,camera_3,256,0,0.027343783605751272,-0.4677458239100153,2.059026944680977,0.9923863265797044,0.05276978853151953,-0.0035722873210044205,0.11122934414656716,0.09437500487547368,0.03716072349864349,23062.04252232681
1685667514901395559,213,1685667514901395559,camera_3,257,0,0.02734515105603711,-0.46771018115241614,2.060473390993935,0.9925434880028552,0.05306900051146204,-0.004230710201790603,0.10965038394382882,0.10963045340031384,0.04321190849766617,23050.565293434312
1685667514911233425,214,1685667514911233425,camera_3,258,0,0.0273290875861883,-0.46728927331991016,2.0587580605314857,0.9923695260842859,0.052922435775839445,-0.0025187590870934355,0.11133550800828729,0.10284037073142827,0.040468194985665326,23072.095943543594
1685667514931276798,215,1685667514931276798,camera_3,260,0,0.02733320405371059,-0.46752451908824966,2.0589840952581198,0.9922672206296287,0.05275382509010128,-0.0023974732972492246,0.11232563787534752,0.10837031883420423,0.042666284352636356,23054.33319225024
1685667514951275348,216,1685667514951275348,camera_3,262,0,0.02736229867322055,-0.4686635088025074,2.060092278677898,0.9924940402943424,0.05289262720003962,-0.0023577048034287692,0.110237884577625,0.08227284532040358,0.03242148829965652,23040.099201778175
1685667514961336851,217,1685667514961336851,camera_3,263,0,0.027341606507935726,-0.4687745137544351,2.058712435842457,0.9922858430978655,0.0527906871137418,-0.0026255496656138757,0.11213855461245564,0.06869382463628426,0.02705343864963016,23045.41795030701
1685667514971311807,218,1685667514971311807,camera_3,264,0,0.027327465666470378,-0.4690396002320271,2.057753455979606,0.992003234792246,0.052748917339652104,-0.0033278483622157214,0.11461264898122153,0.08341129997279495,0.03285173829808344,23033.726108357085
1685667514991273880,219,1685667514991273880,camera_3,266,0,0.027345358044880207,-0.47090397292805464,2.0591543022881846,0.992241747766414,0.05276297992541493,-0.0028546908967368744,0.11253547297952911,0.08025463350350037,0.03165308699876417,23003.10016852454
1685667515001127719,220,1685667515001127719,camera_3,267,0,0.02734414092883338,-0.4714575043919632,2.059357822354289,0.9925626275616759,0.052972897536521124,-0.002005470450445996,0.10958686318496216,0.058772942575160414,0.023169282498594304,23022.253786207646
1685667515011115312,221,1685667515011115312,camera_3,268,0,0.027327287158270198,-0.47178132185022387,2.058629789370905,0.9923839201809649,0.052620009029929866,-0.0023380745927713245,0.11135449260424786,0.09369141736533493,0.03693571684097785,23012.629529064754
1685667515021104097,222,1685667515021104097,camera_3,269,0,0.027323683239130044,-0.4728028145147839,2.0595382764709913,0.9927215238177644,0.05284634136349096,-0.004103355699871929,0.10814066222022936,0.0568650693167001,0.022437492517817313,23013.20637743082
1685667515031108379,223,1685667515031108379,camera_3,270,0,0.027311999915128823,-0.47297647533008613,2.0590208402785395,0.9925819280339607,0.05295508995299492,-0.0034433663695208087,0.10938472387175835,0.06890579179162158,0.02718274677995124,23007.51106908312
1685667515051112890,224,1685667515051112890,camera_3,272,0,0.027306984020743087,-0.47344971163542043,2.0594583866953573,0.9928504140930954,0.052797621102038214,-0.001165075242459577,0.10704722808561765,0.07334645465016365,0.028921512020395404,23016.08540892719
1685667515061094999,225,1685667515061094999,camera_3,273,0,0.02731742190916018,-0.47358764097635836,2.0600170403889893,0.9928170769100102,0.05290814317712225,-0.00215737311155539,0.10728618700778685,0.09161890839459375,0.03615523926881234,23001.006796397025
1685667515071324348,226,1685667515071324348,camera_3,274,0,0.02731591113794842,-0.473292941773457,2.059280811921913,0.9926399772768522,0.052569400745322056,-0.0013881755508772854,0.10908898471306777,0.08328207029262558,0.03284885815614985,23000.893679617668
1685667515081403970,227,1685667515081403970,camera_3,275,0,0.027308845606669567,-0.4729561316353143,2.0588173876797926,0.992629239748035,0.05280169021549602,-0.003008471158258721,0.10904184063429509,0.07023285364266485,0.027695842270513492,23015.270070474126
1685667515091141462,228,1685667515091141462,camera_3,276,0,0.027308585311818158,-0.4726016591759689,2.0585441046250437,0.992519419038451,0.053006875262351115,-0.002108972392113922,0.10995920262509423,0.048897642525844276,0.019275683359291487,23016.491595664294
1685667515101163864,229,1685667515101163864,camera_3,277,0,0.027353152482464407,-0.47224323437617055,2.0603785509660106,0.9927346586224789,0.05270690866199392,-0.0021972524815248506,0.10814366107423584,0.11580933537334204,0.04569617160133183,23006.043599016488
1685667515111201047,230,1685667515111201047,camera_3,278,0,0.02734692330697105,-0.47174924751606967,2.060245869896853,0.9926375719440395,0.05285528920290524,-0.002653057968915892,0.10894921042271356,0.09073412680299953,0.035800313715782815,23007.655527067363
1685667515121364116,231,1685667515121364116,camera_3,279,0,0.027340512335809843,-0.47084259197430717,2.0584926235028647,0.9922100142138615,0.05293323392024961,-0.0014023879770797506,0.11276255472644567,0.1098950817831792,0.043305030246876965,23014.183761724034
1685667515131539821,232,1685667515131539821,camera_3,280,0,0.027353250099556626,-0.47061236248313243,2.0597304398785727,0.9923434354917381,0.05303955065256203,-0.00247721987368575,0.11151311799392198,0.09771636396180838,0.038540853383196336,23007.177702965906
1685667515140762567,233,1685667515140762567,camera_3,281,0,0.027347768235041786,-0.46914834965009183,2.057803254149591,0.9920787593333781,0.05263320328989624,-0.0018303462510550032,0.11404442565768445,0.1264985441812314,0.049800593395057824,23037.464467527112
1685667515161405801,234,1685667515161405801,camera_3,283,0,0.027363111105762634,-0.468907112714911,2.0607696623157006,0.9926469341203484,0.052678276756501226,-0.0019368107043863378,0.10896472871408289,0.10326001729117706,0.04070394225844257,23036.976900718877
1685667515181337833,235,1685667515181337833,camera_3,285,0,0.027360705019942262,-0.46789423933025936,2.0604255233718103,0.992631570020144,0.05277826425336015,-0.002663159769086869,0.10904094919703593,0.1095024073147215,0.04314083239123039,23055.717128342727
1685667515191290378,236,1685667515191290378,camera_3,286,0,0.02734671429765733,-0.46757563899127974,2.0596593846587385,0.9922357167417488,0.05287212615868642,-0.003636313635983339,0.11251487866317378,0.11416733881924301,0.044990638882531325,23038.31093622838
1685667515201227426,237,1685667515201227426,camera_3,287,0,0.027335582772527116,-0.4672416730161941,2.0584430720813263,0.9921222611593549,0.05262536929824886,-0.0015188466307352441,0.11367357882632195,0.08979576948331669,0.03533697996062501,23054.13901658635
1685667515231367111,238,1685667515231367111,camera_3,289,0,0.027326411563076795,-0.46781275525305627,2.058087526870916,0.9922117903761243,0.052825568898893914,-0.0047738961351081605,0.11270506743179522,0.06240352598251775,0.02456812841601619,23063.674665903447
1685667515241329193,239,1685667515241329193,camera_3,290,0,0.027326099616828064,-0.46829332174268334,2.0586014062119027,0.992215134816717,0.052858593049381036,-0.003152377427423644,0.11271715884477969,0.062481214583385736,0.024606031067200197,23047.763926296488
1685667515251314878,240,1685667515251314878,camera_3,291,0,0.027352477782531498,-0.4689184489374258,2.0594909909364048,0.9925117767562486,0.05273998593792263,-0.0032534444741732353,0.11012847943414093,0.09407580748666078,0.03706338746458693,23049.38836806362
1685667515261276006,241,1685667515261276006,camera_3,292,0,0.027359800406973802,-0.46990154575116255,2.0596145411484423,0.9924062243803725,0.0528305389596648,-0.002139079830448572,0.11105964299332255,0.07640523300506175,0.03011712313952011,23024.15684296027
1685667515271272897,242,1685667515271272897,camera_3,293,0,0.02738371171338963,-0.47080990505035714,2.0613274686036522,0.9927268503342065,0.053194634551639364,-0.00235563350732801,0.10797306363729252,0.12116682046325877,0.047817374814487806,23010.549402061377
1685667515281390666,243,1685667515281390666,camera_3,294,0,0.027362309197116203,-0.47098304175600253,2.0598720637064054,0.9924651998990557,0.05293797286688351,-0.0037238161212303136,0.1104379065881263,0.11048243660479784,0.043588693392410297,23010.220959117407
1685667515301316499,244,1685667515301316499,camera_3,296,0,0.027310019103630765,-0.4719954205022469,2.0580968665214963,0.9924112403584844,0.05288057623789059,-0.0026163136119377916,0.11098076216158873,0.07771626027533785,0.030626128828624748,23023.400635299276
1685667515311300277,245,1685667515311300277,camera_3,297,0,0.027295901235852404,-0.47212455546640303,2.057016088218895,0.9921215531506409,0.0526493604870869,-0.002483918589131848,0.11365165534519814,0.06647911627078429,0.02619161389869502,23013.30929574532
1685667515321287393,246,1685667515321287393,camera_3,298,0,0.027309994651709708,-0.4728976752915062,2.0590341607126295,0.9925865305087666,0.052971220446202213,-0.0031541476585098443,0.10934386406908206,0.053619568003341556,0.021150541010616707,23009.000693335423
1685667515331356763,247,1685667515331356763,camera_3,299,0,0.027294722948147384,-0.47283305447477664,2.0577159470508226,0.9923847420318008,0.05266870958958552,-0.0022961264188983213,0.11132501343414473,0.0692877015681006,0.027307086403275543,23013.98385535647
1685667515341307401,248,1685667515341307401,camera_3,300,0,0.027296891595731784,-0.4733971417376228,2.059123200189184,0.9926822809136658,0.05316135793586638,-0.0028372113277524763,0.10838685074462834,0.08696425548987463,0.034303863415931744,23009.39036876941
1685667515361255645,249,1685667515361255645,camera_3,302,0,0.02732068364868935,-0.4734204327947055,2.05977621645248,0.9928482560418073,0.05285979219800775,-0.0026885121601607502,0.1070091339367345,0.08140326850116253,0.0321166799790917,23010.88644854119
1685667515371280431,250,1685667515371280431,camera_3,303,0,0.02729927980870292,-0.4730378006604243,2.0589541127977435,0.9927494250407815,0.05293628017216375,-0.0029512772554427555,0.10787779792567918,0.04921075527090579,0.01940361153991788,23023.488600202363
1685667515381361484,251,1685667515381361484,camera_3,304,0,0.027291985806692044,-0.4720435294497543,2.0574338096392477,0.9921947825099491,0.052994781052588175,-0.0033054589531155303,0.11282792509982832,0.0399491740972735,0.015744432734550333,23015.540308513224
1685667515391370773,252,1685667515391370773,camera_3,305,0,0.02734000505239253,-0.47210361872490997,2.059427855822745,0.992531060383327,0.052814179179871315,-0.0030416045073050854,0.10992499849409201,0.09465577499940991,0.03733962683896579,23007.62454988737
1685667515401687860,253,1685667515401687860,camera_3,306,0,0.027344018473406506,-0.4716040362403674,2.0593008877135164,0.9923834083804993,0.052828501129332045,-0.0025428938490282683,0.11125580403018927,0.06899935175897554,0.027215550333730656,23003.663379624028
1685667515421265363,254,1685667515421265363,camera_3,308,0,0.027351654468080605,-0.4700045885394661,2.059027000131428,0.9922636062157749,0.05253296917317973,-0.002202458023344924,0.11246498169728604,0.06473285175161436,0.025513453332181694,23019.16993262898
1685667515431415557,255,1685667515431415557,camera_3,309,0,0.027352330834794103,-0.4694666622651214,2.058873197519472,0.9922836619954829,0.052890234368560905,-0.0034918370018646354,0.11208730668378702,0.10369156609522179,0.04086125791421735,23033.30950829712
1685667515451591968,256,1685667515451591968,camera_3,311,0,0.027362894259404264,-0.46878328531466457,2.0599208681193253,0.9925020201906459,0.05272174085663146,-0.0031510746121572847,0.11022807576711806,0.06746667274273932,0.026588654837547812,23041.871418930357
