%time,field.header.seq,field.header.stamp,field.header.frame_id,field.image_seq,field.transforms0.fiducial_id,field.transforms0.transform.translation.x,field.transforms0.transform.translation.y,field.transforms0.transform.translation.z,field.transforms0.transform.rotation.x,field.transforms0.transform.rotation.y,field.transforms0.transform.rotation.z,field.transforms0.transform.rotation.w,field.transforms0.image_error,field.transforms0.object_error,field.transforms0.fiducial_area
1685421847264405727,30,1685421847264405727,camera_1,33,0,0.2025855872484788,-0.03815922515423466,0.4758648750470099,0.9813629085015626,-0.03369045229253819,0.18824127273832134,-0.0188949326417085,1.1049926149426028,0.08184560185565726,40272.77264476406
1685421847274320125,31,1685421847274320125,camera_1,34,0,0.2024628373877163,-0.03740819990109406,0.4755516040981848,0.9811168164030035,-0.0332946470504115,0.18973050802025948,-0.017423931112056278,1.0888054734678008,0.08056087961068274,40283.49769297872
1685421847284577846,32,1685421847284577846,camera_1,35,0,0.20234159912867727,-0.03672259537147819,0.47523399075052564,0.980920664890864,-0.03330174433849936,0.19081393891054815,-0.016603726434753475,1.2806710138102062,0.0946720776896609,40305.00248252301
1685421847293740510,33,1685421847293740510,camera_1,36,0,0.20231799828124467,-0.036093753332439985,0.4751786072761349,0.9809871679400409,-0.03320555479973708,0.19057938359764728,-0.015526300749384143,1.2976281081791967,0.09586555982632944,40328.809319096144
1685421847303781986,34,1685421847303781986,camera_1,37,0,0.20241199025017273,-0.03526260580122312,0.47482712598283827,0.9754495460089794,-0.03703286521860775,-0.21345035615423935,0.03956887087351298,1.4615132557810284,0.10792186492536984,40353.23140526145
1685421847313452005,35,1685421847313452005,camera_1,38,0,0.20238322792431415,-0.03506182176403223,0.47478127395631986,0.9755282032162044,-0.03707002992091679,-0.21313342285569467,0.03930243851521024,1.4142037008423358,0.10436789814439217,40376.22542695351
1685421847323542594,36,1685421847323542594,camera_1,39,0,0.20240275148294554,-0.035054518918510434,0.47484046784090994,0.975713741832423,-0.03709387648339271,-0.2121907398857055,0.03977220428343635,1.3470452077453956,0.09941010217614721,40397.65063486413
1685421847333498954,37,1685421847333498954,camera_1,40,0,0.20231609272844872,-0.03521044596836581,0.4746692365816815,0.9755225377636948,-0.03687732034047175,-0.2131935247964989,0.03929837839442496,1.3739754345733672,0.10135783471081446,40392.968759427305
1685421847343776464,38,1685421847343776464,camera_1,41,0,0.20248363841577185,-0.036078697398744475,0.47512596416542513,0.9758043289133308,-0.03691769543633397,-0.2119604450625012,0.03893282890544774,1.4070925610139966,0.10396140871230018,40353.82630488183
1685421847354370594,39,1685421847354370594,camera_1,42,0,0.20232765708010486,-0.03667014815471574,0.4753566214003297,0.9811272232786458,-0.0330952228903398,0.18976204862243864,-0.016865434058705386,1.2216130553861149,0.09031042434926567,40320.92388319108
1685421847363852739,40,1685421847363852739,camera_1,43,0,0.20231228956871608,-0.03737294311633433,0.4753628318612324,0.9810934230068826,-0.033550843251493594,0.18981782843744338,-0.017298215429499112,1.2126338887610473,0.08964761652803699,40314.19526510991
1685421847373845577,41,1685421847373845577,camera_1,44,0,0.20228072040404058,-0.038108405869218646,0.4753184465939012,0.9810695046320083,-0.03362465925978759,0.18977973122311476,-0.01885902934011644,1.0892851054668427,0.08055171565395247,40312.30269627947
1685421847384123802,42,1685421847384123802,camera_1,45,0,0.20218648223258145,-0.03950884508184491,0.47511540912172395,0.981028747074151,-0.03383450773254349,0.1898492099260705,-0.019877147457941082,1.2381045831134543,0.09148509955500798,40331.169259659946
1685421847394051074,43,1685421847394051074,camera_1,46,0,0.20206810241771475,-0.04005467667875826,0.4748756385765348,0.9809636783685881,-0.03382367681009737,0.19015379242408254,-0.020192964996612,1.159229253535159,0.08558097795320446,40354.962185194716
1685421847404305458,44,1685421847404305458,camera_1,47,0,0.20204534635834123,-0.040484053558757616,0.474821577579687,0.9809817645284965,-0.033782583199756785,0.19007063218781742,-0.020166048562680908,1.251580802781973,0.09235960407763924,40363.62005086198
1685421847413555383,45,1685421847413555383,camera_1,48,0,0.20214341626481078,-0.040764849211029186,0.47447348761528235,0.9758964173202512,-0.035701781210070886,-0.2125940344092918,0.03399032235073583,1.322901999403257,0.09753639622038861,40395.32843267126
1685421847423538923,46,1685421847423538923,camera_1,49,0,0.20216466660421087,-0.040760738267105884,0.47448991295956083,0.9758403947582232,-0.03570601195373023,-0.2128190208276492,0.03418580176675551,1.3762763438862748,0.10149970751185264,40382.684518887894
1685421847433492422,47,1685421847433492422,camera_1,50,0,0.20211760211946544,-0.040474777857388206,0.47490145725902116,0.9810476080931113,-0.033941653337269555,0.1896408099677751,-0.020734464504392532,1.2756411031004975,0.09417960255059252,40362.187568176305
1685421847444306612,48,1685421847444306612,camera_1,51,0,0.20213895740856108,-0.04003745592915071,0.47490944493171433,0.9809071451017818,-0.033832458415506556,0.190442330327166,-0.020205352394692483,1.3066931944922544,0.09650223745989593,40338.86030909465
1685421847454160690,49,1685421847454160690,camera_1,52,0,0.20223021073059264,-0.039481192113757106,0.4750924894120963,0.9810577111916834,-0.033887255688808404,0.1896535168592716,-0.020222877048706137,1.2529335234430616,0.09258426697929907,40339.872105745606
1685421847464530467,50,1685421847464530467,camera_1,53,0,0.20246362338561247,-0.038145851737643593,0.47557178932155214,0.9812039791158755,-0.03360940512558297,0.18910890718013568,-0.0186274120427839,1.1013964256853797,0.08150317626912912,40293.137429418755
1685421847474260568,51,1685421847474260568,camera_1,54,0,0.20248405397395644,-0.03741560558435066,0.4756049872711287,0.9811858530175,-0.033159127039562857,0.1893924129699652,-0.017473066179377248,1.1981369145796634,0.0886580795722477,40286.21658468715
1685421847484266757,52,1685421847484266757,camera_1,55,0,0.20226657492413191,-0.03670406190293994,0.47507918009755606,0.9809246760732627,-0.0333793312312677,0.19072647368525578,-0.017205009523551206,1.3589493390754797,0.10041875962775583,40331.76626512919
1685421847493919372,53,1685421847493919372,camera_1,56,0,0.202431211094177,-0.03610760675666305,0.47543615616264306,0.9812172751056868,-0.03316049957647702,0.18933829751345685,-0.01624959681700035,1.3026579018332995,0.09631548332865644,40325.51725336815
1685421847504520177,54,1685421847504520177,camera_1,57,0,0.20240953980617724,-0.035260647676612564,0.47482409670600034,0.9755119567837912,-0.03713961295077106,-0.21319675381332584,0.03929650728990791,1.3837324226042256,0.10215116402929028,40364.07718319889
1685421847513737440,55,1685421847513737440,camera_1,58,0,0.20235258308130968,-0.03505894167796653,0.47469887342941913,0.9754790426351935,-0.03707373443529077,-0.21340280564333547,0.039056601722383434,1.516461197170429,0.11187603184558564,40381.518219217425
1685421847523798227,56,1685421847523798227,camera_1,59,0,0.20239212344693192,-0.03505202781896388,0.4748198927986266,0.9756708765692342,-0.037120948826131525,-0.21246171571054018,0.03934965222468349,1.3482276057475246,0.09948164979594903,40393.79101791093
1685421847533806800,57,1685421847533806800,camera_1,60,0,0.20238039078386905,-0.035221079288345634,0.4748067311692417,0.9756693285226108,-0.037089869411326574,-0.21249357602832,0.03924516675955469,1.4124837937415577,0.10422125352790193,40394.21877654456
1685421847544056653,58,1685421847544056653,camera_1,61,0,0.20238960318688434,-0.03605995486980195,0.4754457646481794,0.9812121193971627,-0.03318643375092733,0.18937026750271382,-0.016135028632579988,1.2298357338295318,0.09092778921936413,40323.862002996044
1685421847554255962,59,1685421847554255962,camera_1,62,0,0.20237542648507204,-0.03668116244528108,0.4754682365297335,0.9812491011654938,-0.033344130630006616,0.1890273769315204,-0.01752201999852359,1.2031274911132641,0.0889846338082368,40324.59183922991
1685421847564253091,60,1685421847564253091,camera_1,63,0,0.20262510378810678,-0.037420533228730846,0.4755328914887301,0.9760134711719729,-0.0363996757961667,-0.21128206413455616,0.037850456639405596,1.249416330421809,0.09245344599104079,40299.70827213464
1685421847573287487,61,1685421847573287487,camera_1,64,0,0.20245889765429986,-0.03814474114714561,0.4751882119582614,0.9758857439959148,-0.03629815396403025,-0.2120569362056933,0.03689599560111896,1.3539874503621832,0.10007783030906944,40325.89108737302
1685421847583514928,62,1685421847583514928,camera_1,65,0,0.20234083828555002,-0.039525679706487266,0.4749323748537556,0.97585655601036,-0.035802758730434876,-0.21257117155788502,0.035151693862424414,1.321947482705582,0.09762593899494947,40336.93944061431
1685421847593334197,63,1685421847593334197,camera_1,66,0,0.20233133603612416,-0.04010582548912023,0.47491807778993755,0.9758881122649047,-0.035756284063930825,-0.2124626210537879,0.03497878135291178,1.4249797713127919,0.10525126444058482,40333.590491337454
1685421847603379487,64,1685421847603379487,camera_1,67,0,0.20199467083451084,-0.04047166900844477,0.4746944060471409,0.9808397121759235,-0.03387995414404972,0.19075374760406316,-0.02046009532856931,1.2749902590294369,0.09408357406581526,40359.719614023794
1685421847613600730,65,1685421847613600730,camera_1,68,0,0.2022640356872856,-0.04079469652373054,0.47475986069011256,0.9761290072409675,-0.035754648640474,-0.21140896430473322,0.03464124903867482,1.399936926085502,0.1033107423465175,40385.28953331453
1685421847623773097,66,1685421847623773097,camera_1,69,0,0.2021826899828353,-0.04076347418683502,0.4745277763237301,0.9759148078473519,-0.035607208395140776,-0.2125093803475229,0.03409072892859943,1.3625554086174816,0.10048261249290467,40387.54532803875
1685421847634040594,67,1685421847634040594,camera_1,70,0,0.20202223203218853,-0.040462080226657635,0.47468496371313285,0.9809188136494658,-0.03388678923477955,0.19031031719530633,-0.02078339993611366,1.2819292320054956,0.09458922207523598,40375.16268699269
1685421847644125223,68,1685421847644125223,camera_1,71,0,0.20212906718766782,-0.04003810606536597,0.47488672954559813,0.9809625534986505,-0.03359389107708038,0.19024003726022604,-0.019815330906562102,1.283045108197257,0.09471758890361,40351.51509131516
1685421847653778791,69,1685421847653778791,camera_1,72,0,0.2022393081154826,-0.03948324373172438,0.47511981645157436,0.9810597953778822,-0.03359702902558153,0.18974509297887057,-0.01974125690532371,1.186300951638259,0.08764985202835165,40334.26910425305
1685421847663887023,70,1685421847663887023,camera_1,73,0,0.20239395312985975,-0.03811983015570361,0.4754110233824588,0.9810892307671685,-0.03367413847481233,0.18969653752110074,-0.01857948662289893,1.0633187294588424,0.07865243850912619,40300.086223356906
1685421847674373388,71,1685421847674373388,camera_1,74,0,0.2024389328623899,-0.03740693245830732,0.47549298730327355,0.9810937768096328,-0.03316708158351714,0.18987310194757315,-0.017411230899888303,1.2464139061630704,0.09220663409459155,40288.65861134535
1685421847684266328,72,1685421847684266328,camera_1,75,0,0.2026177586583918,-0.036762484849375665,0.47532681795148013,0.9757961264411789,-0.03667221689540485,-0.21206407640528818,0.038805871060182004,1.3236041528289206,0.0979179054888897,40305.08697260404
1685421847694303035,73,1685421847694303035,camera_1,76,0,0.20233978740507194,-0.03609768567364243,0.47522513163247965,0.9810259009744444,-0.0333902815985872,0.19028741870777902,-0.016247122624551087,1.1584946676739492,0.08562145485025954,40327.63720220885
1685421847704785346,74,1685421847704785346,camera_1,77,0,0.20242439965395514,-0.03525129818732015,0.4748535843104815,0.9754998744694855,-0.0371181155684209,-0.21327906566184132,0.039169893503549214,1.3000025309738703,0.0959821610777802,40356.73416134527
1685421847714923620,75,1685421847714923620,camera_1,78,0,0.20239394105602806,-0.03506698923327738,0.4748069442233574,0.9755908714575449,-0.036983406287538656,-0.2128374753550312,0.039432071624194556,1.4800285455421545,0.10922666055599321,40381.78929111734
1685421847724691152,76,1685421847724691152,camera_1,79,0,0.20240725894795963,-0.03505996169598293,0.47483281560789464,0.9756029557788688,-0.03716186377182633,-0.21281562145667043,0.03908170698101681,1.340846429229714,0.09894964381782657,40379.60877540242
1685421847734174728,77,1685421847734174728,camera_1,80,0,0.20237243700871563,-0.0352221514997781,0.4748037400850356,0.9755935711930431,-0.036838568575577914,-0.21294068659863993,0.038940566290270116,1.4081985336961225,0.10390948047996205,40380.983606321024
1685421847744565963,78,1685421847744565963,camera_1,81,0,0.2024796780778465,-0.03607605090566571,0.4751313946006125,0.9757438144360763,-0.03676266944791352,-0.21236947412611817,0.03836301844479108,1.3646791007486172,0.10082149821866365,40341.839961457525
1685421847755093812,79,1685421847755093812,camera_1,82,0,0.20234240223128636,-0.036672324086761826,0.4753873185292865,0.9811810253657606,-0.03318948014230709,0.18946098584904963,-0.01693483720572318,1.2291516345576383,0.0908694414333475,40326.02525375411
1685421847764746665,80,1685421847764746665,camera_1,83,0,0.20230077936218063,-0.037361624512196843,0.47532223727982326,0.9810649479254682,-0.03341531490285406,0.19001543040820082,-0.017003555179078186,1.2356264542322606,0.09132749824731327,40315.459514374146
1685421847774276494,81,1685421847774276494,camera_1,84,0,0.2023504882014352,-0.038121059089529785,0.4754767309968065,0.9811562654627475,-0.03340032880051728,0.1893915248246714,-0.018645404361337117,1.1256044949986972,0.08326726548585649,40300.16099170501
1685421847784532546,82,1685421847784532546,camera_1,85,0,0.20224449839496594,-0.03950566109306103,0.4752693054292773,0.9811550328937725,-0.03378271170923592,0.18923178963034804,-0.019617839077908934,1.1737151044071652,0.08674440776807768,40328.124406481846
1685421847794596910,83,1685421847794596910,camera_1,86,0,0.20210741350264194,-0.04006123059475606,0.4749565142886171,0.9809505665073227,-0.03370647138384356,0.19027013064015397,-0.01992830253663187,1.2464269791380502,0.09204213851289725,40338.60941493814
1685421847804954528,84,1685421847804954528,camera_1,87,0,0.2018787701679443,-0.040447137528339686,0.4744302646272148,0.9807931381794143,-0.03387447778629096,0.1909683982906247,-0.02069808467457793,1.2031433960655704,0.08870219033858226,40395.70689843083
1685421847814209461,85,1685421847814209461,camera_1,88,0,0.20220345804531692,-0.040780465656786405,0.47461736918908165,0.9759969709144534,-0.03584274376308568,-0.21204592105052045,0.03437641416992214,1.394671471090987,0.10288048546849074,40388.36834151369
1685421847823726892,86,1685421847823726892,camera_1,89,0,0.20214701523066161,-0.040757054021722645,0.4744575973732786,0.9757725865405725,-0.035791974750427016,-0.2131275640176753,0.03410916819972712,1.337796806707047,0.09866065787548887,40377.87481161229
1685421847833994865,87,1685421847833994865,camera_1,90,0,0.20195477817754148,-0.04044458081674009,0.47453117452712124,0.9807746218521767,-0.03381857882583327,0.19107677155866132,-0.02066669367944155,1.3034014742006548,0.09614129528002409,40374.85522039374
1685421847844005107,88,1685421847844005107,camera_1,91,0,0.20228253890425063,-0.04006598928201764,0.4752605596444967,0.9811552616364583,-0.03351363838170066,0.18927637313315268,-0.01963779975133482,1.2825071199331433,0.09477326697846752,40322.93263796298
1685421847854435920,89,1685421847854435920,camera_1,92,0,0.2022372884607346,-0.03948961270130584,0.47510601590090795,0.9810644543410783,-0.033706826810456,0.1897415055398573,-0.019353225319845888,1.201083139050752,0.08872188191133688,40338.46714304597
1685421847864934444,90,1685421847864934444,camera_1,93,0,0.20262673104881462,-0.03817412984355696,0.47594754465334627,0.9813761825310167,-0.033438962295518376,0.18824563644679543,-0.018606571962306792,1.19080319639761,0.08821973985276749,40260.006072756136
1685421847874370813,91,1685421847874370813,camera_1,94,0,0.20277557800257384,-0.0374688510021607,0.4757107066675554,0.9761441721929048,-0.036144084319360004,-0.21085058005138055,0.03712402395403665,1.2418673856300302,0.09192043486793183,40282.51935131034
1685421847884387731,92,1685421847884387731,camera_1,95,0,0.20233886241144797,-0.03671203048120038,0.4752384428225995,0.9810120609839372,-0.03314441226004002,0.19034307527630523,-0.01692033789092795,1.2203531473642215,0.09020450334187541,40319.3817919679
1685421847894057989,93,1685421847894057989,camera_1,96,0,0.2025368864118936,-0.03612836527815801,0.4751226195455892,0.975730477414288,-0.03657269133142661,-0.21250365619562095,0.038140133680354,1.2765275809215382,0.09431190324954376,40334.61442485871
1685421847904450893,94,1685421847904450893,camera_1,97,0,0.202399616577352,-0.03525781595770688,0.47479355966738124,0.9755297552951182,-0.03706131335345141,-0.21319231505560893,0.03895115386729801,1.4347590383258648,0.10588749268425092,40371.00487837521
1685421847913969993,95,1685421847913969993,camera_1,98,0,0.2024245692848174,-0.03507053298636069,0.4748558408352077,0.9756826110271537,-0.03714207288379144,-0.21243501103318768,0.03918258603589933,1.3698627087869681,0.10108817161761628,40388.092593592126
1685421847923990011,96,1685421847923990011,camera_1,99,0,0.20237897099614566,-0.03505534675152082,0.4747796012795867,0.9755772886444792,-0.0369403459913427,-0.212906231592477,0.039437308075184266,1.353039721143432,0.0998464199512462,40384.200897103176
1685421847933888673,97,1685421847933888673,camera_1,100,0,0.20223296742138458,-0.03520031294848767,0.4750291247992982,0.9810432355306952,-0.03312033215660803,0.19034905914519024,-0.014981632082050483,1.4188539610477164,0.10475296053334063,40365.721810530624
1685421847944484949,98,1685421847944484949,camera_1,101,0,0.2022944552619552,-0.03603916691107255,0.47523235414103526,0.9811130451190603,-0.03314704538686568,0.1899207706437966,-0.015766006386915526,1.2747048017336056,0.09416984298678087,40342.464487983394
1685421847954330205,99,1685421847954330205,camera_1,102,0,0.2022583296251519,-0.03665433629829752,0.4751877160796267,0.9809801678505421,-0.03318975557808171,0.1905016676747047,-0.016895710158089328,1.2088148676557466,0.08933568095950715,40323.31762223692
1685421847964447259,100,1685421847964447259,camera_1,103,0,0.20220698577226495,-0.037347856010056246,0.4751102439250613,0.9809262919440416,-0.0334081755541435,0.1907250816906225,-0.01707181282588399,1.1920172194950283,0.08805823195882591,40325.98331373419
1685421847974170684,101,1685421847974170684,camera_1,104,0,0.20235371985684814,-0.03811733580743039,0.4754904417129516,0.9810939833309028,-0.03354172111478421,0.18972352814748245,-0.018290207320640003,1.202659496862907,0.088973569786649,40288.15076798688
1685421847984308004,102,1685421847984308004,camera_1,105,0,0.20220558977353104,-0.039495449661784504,0.4751822065251076,0.9811149415519167,-0.03368657407231418,0.18946768499518102,-0.019511087448330567,1.161803208582569,0.08583895283143764,40334.97004884855
1685421847994526624,103,1685421847994526624,camera_1,106,0,0.20228188399754343,-0.04009065070310218,0.4748060317928046,0.9759185988067807,-0.035801769151640274,-0.21236024371752127,0.03470228691106063,1.3840843309881166,0.102164486078304,40357.76393613521
1685421848004398345,104,1685421848004398345,camera_1,107,0,0.20218026546860102,-0.04050726670071669,0.47455433634563576,0.9757820237345284,-0.03580563654153339,-0.21301281003477351,0.03453898246175993,1.3700474645593204,0.10107543535008094,40369.16017631836
1685421848013968467,105,1685421848013968467,camera_1,108,0,0.201931286304038,-0.04073236520681848,0.47452690972646533,0.9807896878745477,-0.03405474232494924,0.1909795346708472,-0.02046167199999445,1.328681493003387,0.09798419200898896,40377.41358699742
1685421848024135112,106,1685421848024135112,camera_1,109,0,0.2022284765680197,-0.04076853247725529,0.47462711359988563,0.9759710333776072,-0.03586363728581487,-0.21224892125584005,0.03383396155062854,1.3522772582946345,0.09974591847610602,40381.013167016674
1685421848034228086,107,1685421848034228086,camera_1,110,0,0.20223401402978694,-0.04049147077778616,0.47462056936834374,0.9758827614877779,-0.035650817182156284,-0.21264827170131306,0.034096445675145186,1.3463941850350238,0.09932307981544879,40371.717302641606
1685421848044205904,108,1685421848044205904,camera_1,111,0,0.2023365313385501,-0.04006742831642571,0.4748336850978977,0.9759418948941225,-0.036053182508699363,-0.21220995619975158,0.03470619989517252,1.3575517661520278,0.10021899837578296,40355.72776543907
1685421848054153203,109,1685421848054153203,camera_1,112,0,0.20228982857700312,-0.0394940268862299,0.4752506380056058,0.981078958447143,-0.033687472332877284,0.18969966925370965,-0.01905956413782976,1.24700752022909,0.09215576022933948,40317.02754800649
1685421848063917636,110,1685421848063917636,camera_1,113,0,0.2024841574010092,-0.03814701665767888,0.47562267132381675,0.9811985497667676,-0.03376872806074767,0.18902444515167688,-0.019463763147250242,1.1030561791849323,0.08167270849112329,40283.63207010344
1685421848074826955,111,1685421848074826955,camera_1,114,0,0.20240433497692684,-0.03739823751398281,0.47540697638449236,0.9810188083345369,-0.03341697205362221,0.19019623216317597,-0.0176294340120151,1.181596376991365,0.0874025936424338,40290.901807495145
1685421848084741115,112,1685421848084741115,camera_1,115,0,0.2025498307699737,-0.03674859683908176,0.47573573929540414,0.9813422712003396,-0.03347487900139286,0.18853202683624076,-0.01739120720997809,1.1503009736770764,0.0851509184466887,40296.38620669326
1685421848094396829,113,1685421848094396829,camera_1,116,0,0.2023246591870894,-0.03609591471441992,0.4752056888709813,0.981010782593376,-0.03306378485898011,0.1904989897222304,-0.015322058645641946,1.2482865637284704,0.09221450291173587,40328.0198720286
1685421848104723930,114,1685421848104723930,camera_1,117,0,0.2023932710134341,-0.0352528554403406,0.47477673057942027,0.9754741356327861,-0.03707344229804259,-0.21333803539708135,0.03953040906133316,1.4208185668685474,0.10488874256620374,40365.79636387198
1685421848114838123,115,1685421848114838123,camera_1,118,0,0.20238448796852687,-0.03505977291810229,0.4747798224176191,0.9755278748726631,-0.03716050545514937,-0.21307668988016337,0.03953209342365018,1.3522464745328762,0.09980577914675276,40377.18101145467
1685421848125003576,116,1685421848125003576,camera_1,119,0,0.20241408503316857,-0.03506275742570026,0.4748609787873212,0.9756712599288332,-0.03709786928810696,-0.21249670825087885,0.0391725621539691,1.3250717870541848,0.09778446947993945,40386.04856997471
1685421848134744405,117,1685421848134744405,camera_1,120,0,0.20217189453461254,-0.0351817871410051,0.4749042168222278,0.9810273573749203,-0.03311508006577207,0.19040718604070186,-0.015291143131875908,1.2389120865263976,0.09143223576872778,40383.297651190085
1685421848144783496,118,1685421848144783496,camera_1,121,0,0.20253771829131742,-0.036080873962228505,0.47524478803283077,0.9757056699964073,-0.03697856286326347,-0.21241980317207945,0.038844029731282696,1.348912263812963,0.09973403190867312,40317.78976853566
1685421848154421567,119,1685421848154421567,camera_1,122,0,0.2022908298032854,-0.036661459713415,0.47526153070866267,0.9810512497035415,-0.03333194537677421,0.19009131367016888,-0.017109042628635066,1.248142565251328,0.09226396535203417,40324.31837654323
1685421848164474964,120,1685421848164474964,camera_1,123,0,0.20244748110771363,-0.037383279505863135,0.47510976285779244,0.9757634471898171,-0.03640466834567741,-0.2124757339235811,0.03760927737303943,1.3163376842276193,0.09727826655541112,40330.38374066727
1685421848174224376,121,1685421848174224376,camera_1,124,0,0.20214938738779736,-0.038075357877425824,0.4749899917028978,0.9808511570880085,-0.03343624215969441,0.19104009572555472,-0.01779626855618997,1.2772359632654116,0.09432922682908486,40328.9066880932
1685421848184085130,122,1685421848184085130,camera_1,125,0,0.2021639443699185,-0.03948973768877923,0.47508166132118906,0.9809828169408451,-0.0338204973724799,0.19011517583589968,-0.019624136698654503,1.202938593691215,0.08887384428544268,40328.902984626344
1685421848193908691,123,1685421848193908691,camera_1,126,0,0.20206916959542529,-0.040053537278967356,0.47486554676848214,0.9808548373887134,-0.03371743427965472,0.19081009288943415,-0.019453304302446545,1.2993056495324709,0.09591434794989386,40337.274510018775
1685421848204128026,124,1685421848204128026,camera_1,127,0,0.2022391598781427,-0.04051622479976507,0.4747099249691704,0.9760007118221266,-0.03583314185379746,-0.21197731769159062,0.03470177591804648,1.3194640162400901,0.09736578295840811,40379.20897253463
1685421848214036941,125,1685421848214036941,camera_1,128,0,0.2019354272418746,-0.040730305550545104,0.4745486601969915,0.9808246240366029,-0.033973725051217214,0.19080189671326747,-0.020578607829990707,1.2935728883603588,0.09539786387188523,40379.59774962881
1685421848224565029,126,1685421848224565029,camera_1,129,0,0.20199366515438882,-0.04072871083398995,0.47464653540694923,0.9809545187212262,-0.033904269486868026,0.19017817084909003,-0.020273037351706102,1.2748762471601367,0.0940159869674153,40386.292277375
1685421848234834909,127,1685421848234834909,camera_1,130,0,0.20232580320527407,-0.04051135296157158,0.4748255609110468,0.9760282296330153,-0.03593238081201422,-0.21187541752773734,0.03444657335743847,1.394044449320063,0.10290544736174738,40362.060776889775
1685421848244892597,128,1685421848244892597,camera_1,131,0,0.20213669246716381,-0.040034386102040305,0.47492756608447784,0.9809760346028443,-0.03383874091093008,0.1901390909461041,-0.01969987925422872,1.1418716752086766,0.08430105854076125,40348.6825736512
1685421848253902435,129,1685421848253902435,camera_1,132,0,0.2022447444214604,-0.03948009233147071,0.4751455044356376,0.9810377205917074,-0.03362296547270197,0.18990603790475455,-0.019240159468326613,1.1094826421467587,0.08196988990674585,40326.51296980423
1685421848263801336,130,1685421848263801336,camera_1,133,0,0.20240229775605412,-0.03811890817741598,0.47542887498425734,0.9811062259977018,-0.03360991652913075,0.18962877569095096,-0.018489841789542712,1.1306616042857058,0.08363278198920472,40300.069883556585
1685421848273772954,131,1685421848273772954,camera_1,134,0,0.20256995989180862,-0.037424066678412804,0.475791549974277,0.981343542797248,-0.03303969493004454,0.18864103818596675,-0.016964323776564347,1.2603955111117102,0.09328168289942991,40283.31445973134
1685421848283650636,132,1685421848283650636,camera_1,135,0,0.20250439751400795,-0.03674036908408822,0.47562919359903333,0.9812285020311526,-0.03313817103884338,0.1892206326838493,-0.016971758560160453,1.223102837917395,0.0905100063599238,40292.37948412704
1685421848293793678,133,1685421848293793678,camera_1,136,0,0.20240993855523773,-0.03610801495189336,0.47538741078151914,0.9811361805904688,-0.03338024934887164,0.18974381677034044,-0.015963648930538598,1.2490164192859083,0.0923371945928448,40320.86095935061
1685421848303845882,134,1685421848303845882,camera_1,137,0,0.20237901830176533,-0.03524954146716111,0.47474081399743545,0.9755666713976536,-0.03713547470697983,-0.21301745804140715,0.03891257824877533,1.3793122783536091,0.1017652336482766,40386.22642145725
1685421848313747644,135,1685421848313747644,camera_1,138,0,0.20241351447406128,-0.035066818737030575,0.4748347203203309,0.9757059843933878,-0.03713198587966031,-0.21226813592213736,0.03951311321199438,1.4129227381199598,0.10426402725704552,40396.16848760657
1685421848324248552,136,1685421848324248552,camera_1,139,0,0.20238100705561202,-0.03505608205950508,0.4747913993704543,0.9756723919674691,-0.03710979379560862,-0.21240683217342285,0.03961798080387487,1.3670526696951129,0.10087033760649224,40399.15712767421
1685421848333656549,137,1685421848333656549,camera_1,140,0,0.2021583737334241,-0.03518049341983944,0.4748559338447752,0.9809635955450069,-0.033006897764236404,0.19077512522224108,-0.01502732550495446,1.2198981417459436,0.09001454063818752,40379.590693966005
1685421848343595266,138,1685421848343595266,camera_1,141,0,0.20223951610693286,-0.03602436447875253,0.47509628175288654,0.9809902213645048,-0.03322434575154968,0.19048145051755164,-0.0164664946279102,1.2630358206806704,0.09331172063381281,40342.51928292541
1685421848353590726,139,1685421848353590726,camera_1,142,0,0.20229728825630336,-0.03665921150462406,0.4752859587730698,0.9811064736816538,-0.03323093865191583,0.18985152680399633,-0.01679850548277258,1.1958936327719127,0.08838415572664851,40330.10538788511
1685421848363571882,140,1685421848363571882,camera_1,143,0,0.20233053140693943,-0.037370226577567785,0.47541340149407524,0.9811492316435523,-0.03334706639405438,0.18950630551539724,-0.017930939129962048,1.1547066997736692,0.08539708222402327,40313.246921989135
1685421848373576641,141,1685421848373576641,camera_1,144,0,0.20240764066248615,-0.038132719533025404,0.4750596371500022,0.9757832894674598,-0.036343249475541496,-0.2123969896372147,0.037598656979617937,1.416113924991805,0.10466581863450487,40331.89362483844
1685421848383579492,142,1685421848383579492,camera_1,145,0,0.20220657159954894,-0.039499235666329874,0.4751728907290426,0.9810780116374809,-0.03359455551769472,0.18965607572557824,-0.01969552896952391,1.1605450561037287,0.08575652568749188,40329.051649995614
1685421848393672943,143,1685421848393672943,camera_1,146,0,0.2023576593453463,-0.040101359851538176,0.47498180390194394,0.9759683949659506,-0.03589220864823456,-0.21215003553622763,0.03449353284190228,1.3801565755275078,0.1019286098614894,40336.38947431649
1685421848404409885,144,1685421848404409885,camera_1,147,0,0.20228392099799816,-0.04052201922227496,0.4748211303928665,0.9760027647755275,-0.0356654849662279,-0.2120356583713842,0.0344594821734743,1.3008996241842397,0.09603069648231614,40359.7969328733
1685421848414033174,145,1685421848414033174,camera_1,148,0,0.20218895520357344,-0.040775895592095684,0.4745784379296961,0.9759566475102579,-0.035856200036174186,-0.21237132323018407,0.03348695520594302,1.2721766860922799,0.09380492639355599,40387.609327658065
1685421848424195528,146,1685421848424195528,camera_1,149,0,0.2019805055762455,-0.04073250613676574,0.4746179181491857,0.9808658953338798,-0.03394692233169329,0.19066435905834758,-0.019919940259506035,1.2845709620742127,0.09472665025760565,40375.5687731474
1685421848433835506,147,1685421848433835506,camera_1,150,0,0.20205420330292034,-0.04046331076948598,0.4747561188510428,0.9809801053952764,-0.034121818639624345,0.19001152421548137,-0.020232522746969066,1.2195491226157174,0.08997813516813664,40376.14932000916
1685421848443474531,148,1685421848443474531,camera_1,151,0,0.2023986014926457,-0.04007467031176706,0.47496504527535155,0.9760422552756246,-0.035814441508054295,-0.21174595265594556,0.03496417065747534,1.252763760392554,0.092526582665149,40348.24309095928
1685421848453446865,149,1685421848453446865,camera_1,152,0,0.20221439645270028,-0.039481902034920455,0.4750542481839057,0.9810197940124747,-0.03354326510417657,0.19000120542958326,-0.019353424946970565,1.1496896232129075,0.08491597700373403,40338.02566310532
1685421848464131355,150,1685421848464131355,camera_1,153,0,0.20245117638563181,-0.0381309955479102,0.47554728512280364,0.9811768613494785,-0.033550711397558025,0.18925221092171035,-0.01870607330116547,1.0601603654795326,0.0784511814800942,40291.91471061089
1685421848474369525,151,1685421848474369525,camera_1,154,0,0.20249058976909506,-0.03741582995188487,0.47562990424915463,0.9812378256365694,-0.03336377157729046,0.18907413050288796,-0.01761140144147137,1.0694821715005671,0.07914043809262573,40292.24688348944
1685421848484134912,152,1685421848484134912,camera_1,155,0,0.2023699019789281,-0.03672139100164249,0.4752922795801908,0.9810130219517974,-0.03336924438820925,0.19031465751919063,-0.0167414283535013,1.2602090777363628,0.09316430912460208,40312.20246889884
1685421848493941307,153,1685421848493941307,camera_1,156,0,0.20248093404575143,-0.036116577991678354,0.47500061828053175,0.9755900961809133,-0.036855736009961546,-0.2130503676259661,0.038407809249176444,1.3655302169499919,0.10087740699601064,40334.912761559484
1685421848504071712,154,1685421848504071712,camera_1,157,0,0.20243065287443152,-0.035256169941057985,0.47487303871245673,0.9755732746436466,-0.03714079468491378,-0.2129789472532319,0.03895273030417972,1.4113433026359417,0.10418334771904753,40365.33480021685
1685421848524441242,155,1685421848524441242,camera_1,159,0,0.2024558454413885,-0.03506636072459459,0.47496176789027167,0.9756861736949629,-0.037191807786092254,-0.2123515132877832,0.03949803410897136,1.332551353261806,0.09838763676543447,40372.6218633619
1685421848534255027,156,1685421848534255027,camera_1,160,0,0.2023863073603313,-0.03522252928940412,0.4748238911932749,0.9755802181325903,-0.037061138282761,-0.2128708263094377,0.03944263332855335,1.3768167768721469,0.10162882816030985,40377.15675044547
1685421848544765233,157,1685421848544765233,camera_1,161,0,0.2022667302938314,-0.036039568286844986,0.4751785096414384,0.9810959808099141,-0.03341540366536231,0.1898907783599245,-0.016600588253909802,1.3170573271927424,0.09731815455560097,40348.826338556595
1685421848554355859,158,1685421848554355859,camera_1,162,0,0.20234767546923177,-0.03667249117994179,0.4753998665893823,0.9811436728115033,-0.03325206777137537,0.18964089395931252,-0.01696244761803864,1.2056786523316987,0.08914972715046045,40317.337642597035
1685421848564239025,159,1685421848564239025,camera_1,163,0,0.20220705980551462,-0.03734547068979489,0.47511286578802153,0.9809801532204554,-0.03324116405056065,0.1904806397096641,-0.017032025596877817,1.2411344925058074,0.09167557955643597,40334.303476343164
1685421848574049711,160,1685421848574049711,camera_1,164,0,0.20239487810512716,-0.0381152998295403,0.47501270450305155,0.9757036024797017,-0.036313970177898766,-0.212865716604477,0.037040010428095085,1.3436191832297482,0.09928631858949143,40325.777941568755
1685421848584247827,161,1685421848584247827,camera_1,165,0,0.20238843272788523,-0.039525470941340735,0.47503489294302603,0.9759605684073717,-0.0356796646407792,-0.21210966902536071,0.03517696335719422,1.3170621159952134,0.09728523668726492,40335.64616032295
1685421848594554662,162,1685421848594554662,camera_1,166,0,0.2020963773565585,-0.0400570637651271,0.47493262242770096,0.9810276933488528,-0.03380342757807369,0.18982259458326475,-0.02023303616072087,1.2771041330415756,0.09429280129082811,40357.02444769257
1685421848604373455,163,1685421848604373455,camera_1,167,0,0.202230273949036,-0.04051323261813228,0.4747046452950181,0.975900029873602,-0.03552576908993806,-0.21252876616635322,0.03447571572975553,1.3912567753577605,0.1026730793365034,40362.39161293302
1685421848613935470,164,1685421848613935470,camera_1,168,0,0.2021578903268047,-0.04076827752330565,0.47451589009258205,0.9758793114361733,-0.035703819142718626,-0.2126415201908451,0.03418173050638139,1.3817082692985423,0.10190003728765018,40385.781132886426
1685421848623823881,165,1685421848623823881,camera_1,169,0,0.20217715037131007,-0.04076575366819218,0.47450922466030715,0.9759237012926935,-0.035834589971144755,-0.2125010063380375,0.03364719486214365,1.370788553613238,0.10106239528281347,40392.87615111053
1685421848633999347,166,1685421848633999347,camera_1,170,0,0.20214265601334452,-0.04048629941638708,0.47496152335948955,0.981142758094386,-0.03415965975618734,0.1891424693555249,-0.020423813805869214,1.256055757694412,0.0927217440134255,40370.91237762152
1685421848643803596,167,1685421848643803596,camera_1,171,0,0.202188712492486,-0.04005515728893531,0.47504074307551647,0.9809490916624898,-0.03407342117417341,0.19019128299280186,-0.020128522289913003,1.281985983310733,0.09471701499262915,40325.75410631973
1685421848653831243,168,1685421848653831243,camera_1,172,0,0.20227465732597552,-0.03949345735630033,0.47519626984741103,0.9810602830399192,-0.03369163159507832,0.18976869735562035,-0.019324505324744643,1.1661750373896211,0.08617736256681867,40322.19970725104
1685421848664032697,169,1685421848664032697,camera_1,173,0,0.20250927189334894,-0.038141734538495224,0.47568453705954444,0.981258750293838,-0.033259465457775535,0.18896140246061116,-0.017851087063741947,1.095811385952402,0.08108773682731989,40283.04942524037
1685421848674299716,170,1685421848674299716,camera_1,174,0,0.20260506047192917,-0.037426687326686435,0.47531899428344365,0.9757987067124223,-0.0363453993474502,-0.212316388030434,0.03765165731210838,1.3363070813938975,0.0988461982536748,40295.118431986295
1685421848684715509,171,1685421848684715509,camera_1,175,0,0.20265953656461294,-0.03676297109508581,0.4754248186165332,0.9758402072154966,-0.036944708107956054,-0.21193318228392904,0.038148456999484756,1.3795957439579072,0.10206549492899968,40296.51625381129
1685421848694480180,172,1685421848694480180,camera_1,176,0,0.2024071437471809,-0.036098383675523614,0.47538953675955403,0.9810896445339246,-0.033130762981393364,0.19003219591022677,-0.015913090526530636,1.1983016069279984,0.0885957156238653,40310.5634502098
1685421848704100608,173,1685421848704100608,camera_1,177,0,0.20238104201057508,-0.035246560575815794,0.4747427160552306,0.975482427607545,-0.037012670119993825,-0.2134592500559423,0.03872007547815584,1.3201089581125416,0.09740697011301605,40371.00350411075
1685421848714148283,174,1685421848714148283,camera_1,178,0,0.20234712658662093,-0.03505769798426199,0.47469468868849507,0.9754761253168533,-0.037197547260548684,-0.21340907766837258,0.038977390668853015,1.436667491972912,0.10598490062862385,40382.555128037464
1685421848723896265,175,1685421848723896265,camera_1,179,0,0.20237374717399342,-0.035048507781318246,0.47477024951605007,0.9756180940058699,-0.037197820587214346,-0.21271070202986975,0.03924046424133377,1.3068712354288436,0.09641931157354795,40393.700500050334
1685421848733750581,176,1685421848733750581,camera_1,180,0,0.2021452779495357,-0.03519203100101657,0.474830731912325,0.9809651054537086,-0.03306972664665483,0.1907366366168927,-0.01527712387151105,1.4563114597112872,0.10746391686935668,40384.3774430093
1685421848744470596,177,1685421848744470596,camera_1,181,0,0.202475890012905,-0.036073676219306836,0.47510374088302704,0.9756955271325946,-0.03693380476023803,-0.21247179479181064,0.038857030474903326,1.236918437643908,0.09140111167615508,40339.69792192544
1685421848754396438,178,1685421848754396438,camera_1,182,0,0.20251695273088854,-0.03669798755696412,0.4752354873185015,0.9757205281953261,-0.03688259618544611,-0.21239202728878717,0.03871371463725021,1.2574017904698849,0.09298649683210486,40314.5493364418
1685421848764210700,179,1685421848764210700,camera_1,183,0,0.20230809737355354,-0.03736655673433847,0.4753419762705406,0.9810524519879871,-0.033316409070792835,0.19002072213523016,-0.017838960008691503,1.2556463864748366,0.09285201767931622,40308.010378443636
1685421848773914098,180,1685421848773914098,camera_1,184,0,0.202362249876516,-0.03812603228907262,0.4755136772082471,0.9811740800505558,-0.03341646530494211,0.18925346357344838,-0.019075927472147557,1.117891134112142,0.08272408804605867,40296.380437251166
1685421848794006824,181,1685421848794006824,camera_1,186,0,0.20220926440069903,-0.04007229690020372,0.47462956038663584,0.9757601986688075,-0.03567444543119935,-0.21312042860866728,0.03462732370028178,1.3050037802313454,0.09628769820795717,40360.95845297538
1685421848804296731,182,1685421848804296731,camera_1,187,0,0.20194352631999374,-0.04045793421041632,0.474574066028917,0.9808367785318646,-0.03377689260404085,0.19078351744529332,-0.020493532551775353,1.236604235949926,0.09120626843330218,40378.872306556674
1685421848814185619,183,1685421848814185619,camera_1,188,0,0.20210006793769644,-0.040760154674083116,0.4743806257341923,0.9757126713374422,-0.03564609530704049,-0.21337113715074824,0.034451367344571805,1.3658532545086928,0.10072157043149879,40381.40086625772
1685421848824000835,184,1685421848824000835,camera_1,189,0,0.20208800638309893,-0.040748861632900826,0.47431252864259976,0.9756965769012461,-0.03576766157143842,-0.2135655325822284,0.03356527225825568,1.4233623520703986,0.10489977352932921,40389.285404900096
1685421848834472894,185,1685421848834472894,camera_1,190,0,0.20203873180424425,-0.040458957327178226,0.4747328989405137,0.9809194712203484,-0.033831268646218035,0.19036920079848443,-0.020297872546795524,1.2362649763235822,0.09121885586193147,40367.2389926645
1685421848844386577,186,1685421848844386577,camera_1,191,0,0.20212117278996128,-0.04003690547288206,0.47487923840138263,0.9808420549208321,-0.03388744591820645,0.19077312062933538,-0.020152437896318796,1.2200131810386665,0.09010096003549665,40332.44025556464
1685421848854147672,187,1685421848854147672,camera_1,192,0,0.20214015125351503,-0.03946407735856444,0.4748937333223232,0.9808463906933979,-0.03375391559378369,0.19084520479849065,-0.019471488162035554,1.2125688763917424,0.08954432033206018,40335.16408275653
1685421848863824129,188,1685421848863824129,camera_1,193,0,0.2025715275022641,-0.03815511943927316,0.4758166357343221,0.9813479354627642,-0.03343299727201645,0.1883815504840216,-0.018731142346790353,1.205597901775036,0.08927717131394182,40276.92202510359
1685421848874456167,189,1685421848874456167,camera_1,194,0,0.20260789474904953,-0.037424619379978395,0.4753167146511178,0.9758174497776698,-0.03614716319760323,-0.21244996985588113,0.03658821682462517,1.3508378058322705,0.09987269145203598,40295.77401859335
1685421848884147882,190,1685421848884147882,camera_1,195,0,0.2023277321660857,-0.036706629310655825,0.4752172886556764,0.9809369765790369,-0.03323413081091947,0.19070859171659302,-0.016981565731534684,1.2760304867988452,0.09433238725857233,40309.978783990024
1685421848894168138,191,1685421848894168138,camera_1,196,0,0.20254536219830443,-0.0361243463570927,0.47514904148971066,0.9757251349117768,-0.036846416578136185,-0.21249172011390163,0.03807980527498235,1.4199463273980655,0.10491632510205257,40331.161432347726
1685421848904341459,192,1685421848904341459,camera_1,197,0,0.20252118827767643,-0.0352762274696692,0.475088397303268,0.9758074222386335,-0.03700090866808621,-0.21187560235289227,0.03923692889776229,1.3900632355944254,0.10266358249136805,40366.56378366286
1685421848914587736,193,1685421848914587736,camera_1,198,0,0.20239281302931972,-0.035069819591115846,0.4747862613624209,0.9755512049753008,-0.036923114952704686,-0.21306022757322907,0.039266645895367575,1.3302461756393313,0.09816778746284323,40377.46136195513
1685421848924686670,194,1685421848924686670,camera_1,199,0,0.20239512426845033,-0.035059435763924646,0.4748077519779862,0.9755365949479746,-0.036837303801045884,-0.21305774890725548,0.039721034686345934,1.3405725040938705,0.09895872109875238,40372.343128515895
1685421848934240341,195,1685421848934240341,camera_1,200,0,0.20239627653626735,-0.03522496795909981,0.4748500107983714,0.9755567186176218,-0.03686449514192069,-0.2130036574652803,0.03949100738602836,1.3755906259757467,0.10155620925582592,40367.92039847933
1685421848944021701,196,1685421848944021701,camera_1,201,0,0.20247614480240195,-0.0360682930532653,0.4750976972167383,0.9756437710203534,-0.03654893195141025,-0.21287972708726172,0.03828354003548301,1.2993566339137033,0.09600386851487935,40329.230443699744
1685421848954420566,197,1685421848954420566,camera_1,202,0,0.2022893030565049,-0.0366585507905665,0.4752582945439816,0.9810729037240727,-0.03333250805991512,0.18995551490184673,-0.017372502503279638,1.192461724160239,0.08815168437280485,40328.28185236991
1685421848964242458,198,1685421848964242458,camera_1,203,0,0.20253769238926989,-0.03740423376632534,0.4753238376121643,0.9758700314854991,-0.036507367416534174,-0.21192813488871293,0.03783331092300414,1.340894773718901,0.09916621932669828,40312.34542677692
1685421848973989725,199,1685421848973989725,camera_1,204,0,0.20239739883200053,-0.03811518317910833,0.47501987769840043,0.9756631972211917,-0.036150367396470116,-0.21307755495439876,0.03704635069581846,1.334298298752401,0.09861039118999373,40317.13937536535
1685421848984137535,200,1685421848984137535,camera_1,205,0,0.20220544745156105,-0.03949677209919053,0.47517813062784586,0.9811002069521838,-0.033651148312770295,0.18955062516370835,-0.01950755329766575,1.1632299211923964,0.08594426766964794,40332.87132232357
1685421848994368553,201,1685421848994368553,camera_1,206,0,0.20231814455513086,-0.040099919102694934,0.4749050767859752,0.9759334105325628,-0.03573400503009143,-0.21221995348799788,0.03521008992237513,1.4053746006102301,0.10379468785979412,40343.819994068486
1685421849004295587,202,1685421849004295587,camera_1,207,0,0.20218632551430027,-0.04049607612405764,0.47458538697450947,0.9758887168890067,-0.03576677969129244,-0.21258257067013678,0.03421403756529014,1.2828449205262586,0.09462014257339635,40381.55981929158
1685421849014208793,203,1685421849014208793,camera_1,208,0,0.2021208096444894,-0.04076560151834979,0.4744230706506435,0.975835620604838,-0.03584221708557387,-0.21276322837366288,0.034525145693796354,1.2643001190153884,0.09322850534828848,40395.099811906686
1685421849024655342,204,1685421849024655342,camera_1,209,0,0.20214746698524763,-0.04076462364880111,0.4744524475821553,0.9757908582769893,-0.0356497377891506,-0.2131362004576808,0.03367873443412861,1.3926091552712023,0.10267701014513268,40380.18436612981
1685421849044652462,205,1685421849044652462,camera_1,211,0,0.2021104458592624,-0.040032988148165305,0.47484525561467245,0.9808850499331049,-0.033897701237480767,0.19056000462299608,-0.020058646679889453,1.305591190524865,0.09639401767767945,40346.29226237256
1685421849054067134,206,1685421849054067134,camera_1,212,0,0.20234268362313598,-0.03950416400666018,0.47537537732218604,0.9811408618801182,-0.033549005499851306,0.18941152081251747,-0.018982864973416537,1.1793478992767632,0.08718551680386545,40306.11909022786
1685421849064144134,207,1685421849064144134,camera_1,213,0,0.2024721285514222,-0.03813236450017781,0.4756068519378774,0.9811670484904733,-0.03337965619397816,0.1893571187358204,-0.018463561220237196,1.074150225496851,0.07949913403272366,40279.45179085526
1685421849074511051,208,1685421849074511051,camera_1,214,0,0.2023367784008575,-0.037374153267184615,0.4752401880927706,0.9809630237624245,-0.033080536440715416,0.19058077034553725,-0.01721029035714094,1.1904463430983014,0.08799126381379042,40307.516745085835
1685421849084392547,209,1685421849084392547,camera_1,215,0,0.20224239869469807,-0.036680854945706234,0.4750081080134509,0.9807959651906067,-0.03345068394198976,0.1914157557728356,-0.016743203144964414,1.1695762293529697,0.08640853074084578,40321.30955260036
1685421849094198465,210,1685421849094198465,camera_1,216,0,0.20253282041248158,-0.036128818217218056,0.47566925558886486,0.9813655232180375,-0.033111251106996795,0.18857376496608286,-0.016287727147571086,1.273857431486249,0.0942439998493246,40312.53874329616
1685421849104514360,211,1685421849104514360,camera_1,217,0,0.20247857287487983,-0.035272999688532876,0.47497358493486297,0.9756873023952207,-0.03698038736833371,-0.21241928768794016,0.039303754438643805,1.3546330410172231,0.10002810355872031,40365.90676141973
1685421849114670038,212,1685421849114670038,camera_1,218,0,0.2024267571969443,-0.03507248157929126,0.47486531398158827,0.9755895031974375,-0.037205351525231294,-0.21279871480322513,0.03946631534558209,1.3975014368188567,0.10316500456743945,40372.355026936646
1685421849124509811,213,1685421849124509811,camera_1,219,0,0.20239921813242776,-0.03505961809039491,0.47482792072955377,0.975576777506204,-0.03701368536549131,-0.21293321912090946,0.039234965032246,1.3255515712080523,0.0978308429643747,40376.02852743842
1685421849134208440,214,1685421849134208440,camera_1,220,0,0.20232693780702457,-0.035213931125684106,0.47468760646239944,0.9755149469486211,-0.036946914968480245,-0.2132508971790778,0.03910969964675543,1.4211923841503449,0.10484421103081293,40388.54100393341
1685421849144528865,215,1685421849144528865,camera_1,221,0,0.20245710988061805,-0.03607090671452425,0.475060428548057,0.9756668009354834,-0.03669224741294211,-0.21269746899759923,0.03857148187615716,1.3841337723424658,0.10225507438922381,40340.70410692063
1685421849154707193,216,1685421849154707193,camera_1,222,0,0.20239016693469417,-0.03667909749182579,0.47550207697564545,0.9811763548907607,-0.03319755366281028,0.18944932480347845,-0.017315783712868318,1.2078030773554929,0.08935114491903844,40305.123717268696
1685421849164264440,217,1685421849164264440,camera_1,223,0,0.20234673842777753,-0.037374487330485776,0.47544260208023575,0.981146654731832,-0.033448806054766876,0.1895589451344021,-0.017315472895031464,1.2403262293664739,0.09171536294230785,40309.673356229905
1685421849174111843,218,1685421849174111843,camera_1,224,0,0.20234393670699302,-0.03811061548793816,0.4754707466416478,0.9811787015211141,-0.03367321260045662,0.189142862198945,-0.019479427961203832,1.0884048366569914,0.08053648004059949,40306.0055309087
1685421849184530735,219,1685421849184530735,camera_1,225,0,0.20229968046757904,-0.03951797443105336,0.4753854159068934,0.9812293414986103,-0.03359985262516482,0.18891280263668322,-0.019286842295319722,1.2182790695806034,0.09005453476360979,40321.02527783111
1685421849194275856,220,1685421849194275856,camera_1,226,0,0.20209776190571543,-0.04004948253111288,0.4749185037339456,0.9810318150543409,-0.03372749875629759,0.1898265795542609,-0.02012221095107013,1.2907421931740828,0.09528904626116634,40359.81094416976
1685421849204300403,221,1685421849204300403,camera_1,227,0,0.20198631212181065,-0.04047065555294729,0.4746934931443964,0.9809393393909291,-0.03394318884104123,0.19022094051987073,-0.020539380573056404,1.1743602713104337,0.08663762571428761,40378.18169280051
1685421849213943243,222,1685421849213943243,camera_1,228,0,0.20210244273582573,-0.040759198749371416,0.4743953903247636,0.9757701660821851,-0.035528968005100435,-0.21316425464520614,0.03422390915706539,1.3588311251369305,0.10018833677658365,40387.778104651734
1685421849224223375,223,1685421849224223375,camera_1,229,0,0.20222703060608208,-0.040780298462826645,0.4746352892130885,0.9759959816647029,-0.03569214280723878,-0.21211283335267914,0.034147630126836345,1.3832606736104935,0.1020392011231106,40382.98429308623
1685421849234452962,224,1685421849234452962,camera_1,230,0,0.2022665395074838,-0.04049709678358182,0.4746826052633536,0.9759752033913688,-0.03580967838547622,-0.21219773842571113,0.03409089476852644,1.3249353162245823,0.09774665067613737,40376.677752855234
1685421849244116783,225,1685421849244116783,camera_1,231,0,0.20208021422036454,-0.04002679958994272,0.4747889313123291,0.9808379165179539,-0.03385902664083474,0.19087070874913822,-0.019465877253708554,1.213320754293818,0.08954689085837146,40347.519955704454
1685421849254119634,226,1685421849254119634,camera_1,232,0,0.20221125935544623,-0.03948008554618776,0.4750544373270269,0.9808946105466314,-0.03359692114388342,0.1906770099934189,-0.01895488723768958,1.1925860280753113,0.0880987414916107,40316.092333903754
1685421849264356374,227,1685421849264356374,camera_1,233,0,0.20253414549043766,-0.03814617287982482,0.47572030797247195,0.9812435919703827,-0.033312196434937984,0.18899024787190777,-0.018275584670709655,1.2176139065995812,0.0901359277795417,40274.179726778064
1685421849274177312,228,1685421849274177312,camera_1,234,0,0.20244870683632468,-0.03740513216345875,0.4755278873019628,0.9811549301687634,-0.03324601134524897,0.1895427077482389,-0.017414582240939974,1.116700054029934,0.08260982718200706,40294.08723864914
1685421849284183740,229,1685421849284183740,camera_1,235,0,0.20243633953354614,-0.03671642698309484,0.4754706322080346,0.9810492454424337,-0.03344026177143679,0.19011058688270036,-0.01679558467587729,1.0828909287811257,0.08011000348072196,40288.695818505235
1685421849293997049,230,1685421849293997049,camera_1,236,0,0.20245704850429122,-0.036102882888796574,0.4749421462502818,0.9755098260226794,-0.03667116649717264,-0.21356914618353273,0.037736251527877476,1.3312587111722678,0.09831312168310367,40329.72665356098
1685421849304087877,231,1685421849304087877,camera_1,237,0,0.2023843251160629,-0.035253306534193056,0.47476485283303366,0.9754519123352755,-0.03717268250354277,-0.21359678291114978,0.03857684184782148,1.4079469766002148,0.10389844690978435,40363.48406919278
1685421849314266204,232,1685421849314266204,camera_1,238,0,0.20241949130676223,-0.035072291085041535,0.47485404748713017,0.9757088449499989,-0.03718766029616275,-0.2122679955646936,0.039390682489436085,1.3563046788913198,0.1000901518852627,40393.58827153965
1685421849324287176,233,1685421849324287176,camera_1,239,0,0.20236428339611726,-0.03505588682895236,0.4747556145406406,0.975592935532742,-0.037160176907593906,-0.21282759777164542,0.03926778600270454,1.4381776176160201,0.10610499876088147,40392.146034658435
1685421849333989858,234,1685421849333989858,camera_1,240,0,0.20213722154813576,-0.035183099856256714,0.47481048134243176,0.980963584198518,-0.033223203439908554,0.19069879432969342,-0.015512416665014359,1.2613734435872175,0.09307811317661867,40387.8549407031
1685421849354450225,235,1685421849354450225,camera_1,242,0,0.20232278372681445,-0.036672542856886384,0.47533391149669274,0.9810880743209188,-0.033170645361357345,0.18989793530068602,-0.017454881269113133,1.196494523086585,0.08847754747185521,40317.04027744592
1685421849364355325,236,1685421849364355325,camera_1,243,0,0.20233919955569804,-0.037360529416960116,0.47542626049355996,0.9810863808092294,-0.03351167068419174,0.18978504982478886,-0.018113977520260713,1.1248718880233355,0.08321309072463637,40300.60200445354
1685421849374527215,237,1685421849374527215,camera_1,244,0,0.20243014362037598,-0.0381132208326115,0.47511394867505086,0.9757330136174005,-0.03630032712905422,-0.21274565482835808,0.03696834780028284,1.3043320145225152,0.09641400465887055,40313.967278545475
1685421849384518623,238,1685421849384518623,camera_1,245,0,0.2022231823762034,-0.03949901375736806,0.4752031216630503,0.9810684552657896,-0.033803374965334636,0.18969022678899908,-0.019484244509052902,1.178742297925055,0.08710712796615665,40323.78726762626
1685421849394416570,239,1685421849394416570,camera_1,246,0,0.20208201386918548,-0.04004935563231732,0.4748935453289726,0.9809535286950191,-0.03371434165896182,0.19022354556322016,-0.02021188810207746,1.2678252438199706,0.09360820114948414,40349.69808082329
1685421849404358863,240,1685421849404358863,camera_1,247,0,0.2020329239679854,-0.04047036411036912,0.47477583032132775,0.9809253562681324,-0.03389071190675795,0.19028483351000425,-0.02070138190461487,1.228972249722574,0.09070814093344823,40361.313929169446
1685421849414012432,241,1685421849414012432,camera_1,248,0,0.2019941542135765,-0.04074381023121844,0.47470044895372354,0.9809604037625488,-0.03399404936720529,0.19007944373567912,-0.020758032825205008,1.2689576755510645,0.09361697661134707,40378.48718485885
1685421849423918247,242,1685421849423918247,camera_1,249,0,0.2021477665924606,-0.040760094127213584,0.47444245211929525,0.9757392474958047,-0.03568391380372523,-0.21336241446730936,0.033705478555414,1.323168661503587,0.09756820699101441,40373.468196003945
1685421849433910608,243,1685421849433910608,camera_1,250,0,0.20223824186564562,-0.04050012838993246,0.4746280061512002,0.9759059724933116,-0.03581106432391205,-0.21245249775061917,0.03448241179784,1.2882380411028862,0.09504693904977023,40375.17418331932
1685421849443815708,244,1685421849443815708,camera_1,251,0,0.20212696778900174,-0.040039144760044325,0.47488729344997016,0.9810156936643982,-0.03387512044069716,0.18992121010988722,-0.019764082313226072,1.2769813528866507,0.0942533624430564,40363.07563236449
1685421849453628301,245,1685421849453628301,camera_1,252,0,0.20228952528904898,-0.03949531056026086,0.4752402498580184,0.9810568922797531,-0.033393420934453,0.18990680780764915,-0.01864558652861204,1.2999503946630284,0.09605454939902787,40313.27544780474
1685421849463586091,246,1685421849463586091,camera_1,253,0,0.20230621255717526,-0.03810726186122733,0.47522341884364616,0.9809625794484601,-0.033411144341342694,0.190390307660942,-0.01864521129935441,0.9988449705415405,0.07385164495646475,40306.8182336178
1685421849473557233,247,1685421849473557233,camera_1,254,0,0.2024674394829517,-0.03739702562755062,0.47498987676551957,0.9756574428051455,-0.03650854578978316,-0.2130837710755997,0.03681014652838101,1.1618309650220908,0.08582114044910172,40327.41796500076
1685421849483859777,248,1685421849483859777,camera_1,255,0,0.20233699848340317,-0.03670252162446094,0.4752373120826712,0.9809624514164788,-0.033317750099862785,0.19054119461244684,-0.017223518656695778,1.1878559159813449,0.08782332689690973,40311.29099163878
1685421849493800401,249,1685421849493800401,camera_1,256,0,0.20257776070325348,-0.036120801136435454,0.475230317432685,0.975743812609534,-0.03680194695074801,-0.2123559277560654,0.038400375020376305,1.3451966595021077,0.09943721258361395,40320.928825291776
1685421849504205226,250,1685421849504205226,camera_1,257,0,0.20239652623729495,-0.035253401780368454,0.47478222769452033,0.9755039474497136,-0.037002293763452515,-0.213326368248583,0.03891965282655763,1.3812059329356998,0.10193446438598806,40368.17232061016
1685421849514168977,251,1685421849514168977,camera_1,258,0,0.2023729192621208,-0.03506323045463783,0.47474111295275023,0.9755188922651254,-0.03694466220102394,-0.21318570449599197,0.039367984038078785,1.343021692300681,0.09910383907527566,40380.284175787565
1685421849524300813,252,1685421849524300813,camera_1,259,0,0.2024433746921702,-0.03506867472963588,0.47494622093311845,0.9757349005216863,-0.03702695786454127,-0.21219670804605437,0.039280598132538334,1.395361712493468,0.10299789434832456,40382.32158464311
1685421849533881187,253,1685421849533881187,camera_1,260,0,0.2023973438959399,-0.03522786866452464,0.47485557400830986,0.9756423415395704,-0.03697928372142927,-0.21258834876860574,0.03950630251582828,1.3742953581968322,0.10144390827693266,40381.63971411066
1685421849544242382,254,1685421849544242382,camera_1,261,0,0.20222887289579092,-0.036026787624181225,0.47507913475770375,0.9809048405250995,-0.03325337692319349,0.19092048876133577,-0.016409562113765454,1.2109967086580582,0.08947754212085121,40330.101114003
1685421849554148912,255,1685421849554148912,camera_1,262,0,0.2022934459975208,-0.03666088977914566,0.4752648400460445,0.9810539102638817,-0.03334854780924685,0.1900835647539617,-0.017009936078326595,1.2359451058437116,0.0913588129493172,40324.48518894148
1685421849564160346,256,1685421849564160346,camera_1,263,0,0.20224816788034,-0.0373508134024324,0.47519976111000356,0.9809444942168117,-0.033348185469375756,0.19057341627195576,-0.017820516324159198,1.1417034834157676,0.08439825293979596,40312.43220516901
1685421849573816537,257,1685421849573816537,camera_1,264,0,0.20226636773397186,-0.038092571807582055,0.47528170300858547,0.9810509704339225,-0.033420538556851835,0.18995657585704487,-0.01840000820368112,1.2278054752387106,0.0907678037826895,40314.86240129453
1685421849584064006,258,1685421849584064006,camera_1,265,0,0.2022406485112623,-0.039500198707957915,0.47526367628266525,0.981169816921523,-0.033491551198833354,0.18921617193801651,-0.019528098668428813,1.1991241160430945,0.08861389147248737,40330.06459689374
1685421849594000101,259,1685421849594000101,camera_1,266,0,0.20209131582774112,-0.040051881809393564,0.47492162380356717,0.9809129883330756,-0.033785209767120704,0.19045627576184265,-0.019866452712956093,1.3195787640288472,0.09743891045591684,40338.34565932582
1685421849603903293,260,1685421849603903293,camera_1,267,0,0.20195297991111358,-0.04046990095589336,0.47460122992036435,0.980900082114492,-0.03390502552889431,0.19047227987527043,-0.0201441989362836,1.2319802474812604,0.09084841320389338,40386.730567246224
