%time,field.header.seq,field.header.stamp,field.header.frame_id,field.image_seq,field.transforms0.fiducial_id,field.transforms0.transform.translation.x,field.transforms0.transform.translation.y,field.transforms0.transform.translation.z,field.transforms0.transform.rotation.x,field.transforms0.transform.rotation.y,field.transforms0.transform.rotation.z,field.transforms0.transform.rotation.w,field.transforms0.image_error,field.transforms0.object_error,field.transforms0.fiducial_area
1680662061051582098,0,1680662061051582098,camera_1,0,0,0.2986112615576944,0.2896376985212834,3.7939080677972874,-0.9996111843421035,0.02362876355304592,-0.0029423397604660404,0.014508766586636346,0.008842898274451727,0.003078960640805752,5912.748150494185
1680662061061506032,1,1680662061061506032,camera_1,1,0,0.29863361018005047,0.28960567553763145,3.7939996465056676,0.9996446544011448,-0.023790860104814588,0.002218436910054572,-0.011816871005689305,0.015416703656228492,0.005368377833446733,5914.209641386933
1680662061071660280,2,1680662061071660280,camera_1,2,0,0.29862901189677565,0.2896317801954543,3.7943168186893494,0.9996113288946121,-0.02348093432401576,0.004328408640062854,-0.014391030104317776,0.013233042529464,0.0046085306895263705,5912.863972238847
1680662061081704139,3,1680662061081704139,camera_1,3,0,0.29870171787530814,0.2896859696575804,3.795168299442262,0.9996673223523449,-0.023832085892439136,0.0010048560359495642,-0.009811552744361228,0.009913012461765902,0.003453974580145107,5911.1421670941645
1680662061091560125,4,1680662061091560125,camera_1,4,0,0.2986392369626598,0.2896953784259512,3.794714324377034,-0.9996527624242141,0.023635584154716224,-0.002481063865891956,0.011382357462168303,0.009441392285225447,0.003288762824852352,5912.633160259338
1680662061101572275,5,1680662061101572275,camera_1,5,0,0.2986931142391927,0.2897159730958254,3.795062176955148,-0.9996032248823203,0.023638637025818567,-0.006016187212296174,0.014085919773079299,0.012115445355448173,0.004221227999110072,5912.23474939936
1680662061111430883,6,1680662061111430883,camera_1,6,0,0.2986336208844176,0.2896792470551528,3.794490035730474,0.9996242345421139,-0.02361658197088221,0.004828522505048065,-0.013051135679459022,0.008521024781657616,0.002967746077633976,5913.9576921511925
1680662061121616363,7,1680662061121616363,camera_1,7,0,0.2986372975489446,0.28966617518481663,3.7942929099876217,-0.9996570898479706,0.02390829403317676,-0.0017171022657159792,0.010542663464165849,0.012401097719703102,0.00431898393150413,5913.903333676978
1680662061131533622,8,1680662061131533622,camera_1,8,0,0.2985859446706861,0.289637719204076,3.7938397293445956,-0.9996353932777653,0.023941507684368816,-0.00037354237904962733,0.01247979095569116,0.01032175150612602,0.003593864263336392,5912.40058879071
1680662061141567468,9,1680662061141567468,camera_1,9,0,0.2985852176532372,0.2896507701390742,3.7939996660136286,0.9996051932692287,-0.02351760473568366,0.005285735519635753,-0.014437480967977118,0.012951747881743358,0.004509763384730115,5914.631665988534
1680662061151420354,10,1680662061151420354,camera_1,10,0,0.29867487623886513,0.2897411488254168,3.7949130270832865,-0.9996211731648988,0.023475660488723408,-0.004959518605403027,0.013483571494680243,0.011543105152668431,0.004021362173630828,5912.3325023466
1680662061161192178,11,1680662061161192178,camera_1,11,0,0.2986742555643306,0.2897364818138709,3.794861502744957,-0.9996418623995673,0.023938168271567785,-0.0017225964242194769,0.011838230428829297,0.012048761353071313,0.0041974659795299026,5911.036579630684
1680662061171428680,12,1680662061171428680,camera_1,12,0,0.2986580670390286,0.28971280679907874,3.7945495309333266,0.9996358816686598,-0.023524103820086316,0.0031118176202156226,-0.012846680936391379,0.012911172576423269,0.0044970874557579196,5912.39168599597
1680662061179631710,13,1680662061179631710,camera_1,13,0,0.2985953381865041,0.28969152217044697,3.7940599577715735,0.9996364379171275,-0.02378948854628901,0.0033808442312111093,-0.012232011909209748,0.009210561594954925,0.003207168757637878,5914.722190692731
1680662061188432455,14,1680662061188432455,camera_1,14,0,0.2985458186952826,0.28968888190117514,3.793617046715457,-0.9995912847702094,0.023613013910956836,-0.003013768925365589,0.015830545863851485,0.008180156830349006,0.0028478145861749616,5912.475925790963
1680662061198541402,15,1680662061198541402,camera_1,15,0,0.2986394797604329,0.28975846416556905,3.794534388657081,0.999606643850814,-0.023403386410021567,0.0048792628867444605,-0.014663964932350388,0.009838422934990376,0.0034267197101767915,5912.340711619472
1680662061208863735,16,1680662061208863735,camera_1,16,0,0.29862620539920287,0.28973636601250585,3.7941862562658244,0.9996285738569805,-0.023776858623073605,0.0042315554539826515,-0.012628113917669185,0.009385214827489108,0.0032682361826113903,5914.6866806962025
1680662061220388412,17,1680662061220388412,camera_1,17,0,0.29854892140523137,0.2897157325265932,3.793492473699644,-0.999597447228119,0.023739805183275686,-0.0020214095300987722,0.015403864722838305,0.010481759221875109,0.003648795140111935,5912.325044832656
1680662061231637239,18,1680662061231637239,camera_1,18,0,0.298569374581349,0.28975589077339386,3.79356693615546,0.9996402839617149,-0.0236478286259956,0.0026661223817613143,-0.012368293077981814,0.011626244482613401,0.0040473293884022285,5915.40592574165
1680662061241601228,19,1680662061241601228,camera_1,19,0,0.2985859136872586,0.2897629551754098,3.7933947996316997,0.9996183670846867,-0.023746804372173542,0.0012172751110544927,-0.014061568559685962,0.013750855083344504,0.004786535018953435,5913.03247633751
1680662061251508474,20,1680662061251508474,camera_1,20,0,0.29863870487466615,0.2898398150513523,3.794139610107026,0.9996450220035971,-0.02375882581343353,0.0015656068100960202,-0.011953955609393583,0.01194860715258983,0.004160928880810163,5912.903579554575
1680662061261543273,21,1680662061261543273,camera_1,21,0,0.2987213825338282,0.28993126840897765,3.7952500704849923,0.9995975626846191,-0.023445931130967324,0.0036523908243273093,-0.015545450448202627,0.013641310943057762,0.004753152363214867,5908.102476675998
1680662061271204948,22,1680662061271204948,camera_1,22,0,0.2986238712129564,0.28984368681917627,3.7940531956187113,0.9996215173306888,-0.02365583548771712,0.002119572574267899,-0.01388275725394333,0.012349358865321847,0.004300197995874401,5911.984038202152
1680662061281357765,23,1680662061281357765,camera_1,23,0,0.29869258281406136,0.28992343749878324,3.794898567698487,0.9995972650384417,-0.02356456100112884,0.0031666955938441897,-0.015491650380358202,0.010734500261605717,0.0037395005081579283,5908.803805398989
1680662061291538238,24,1680662061291538238,camera_1,24,0,0.2986281500347764,0.2898486928191471,3.7940053754323793,0.9996310661471298,-0.023704778759103623,0.00017932882508698485,-0.01325831432373783,0.008310485358379083,0.0028936836673393224,5910.838446745185
1680662061301345348,25,1680662061301345348,camera_1,25,0,0.29867046771506073,0.28990205393223323,3.794515977667397,0.9996050416546017,-0.02346446738427888,0.005758083156989008,-0.014353534318451856,0.010419229398394236,0.0036289164004169455,5913.299431848803
1680662061311202764,26,1680662061311202764,camera_1,26,0,0.29848202364876303,0.2897200407639781,3.7919976465343623,0.9996405648411243,-0.023742666093845198,-0.0009331818505585434,-0.012415961602221056,0.01001458185055526,0.003483378170721533,5916.712921573894
1680662061321268796,27,1680662061321268796,camera_1,27,0,0.2986833322401735,0.28985705851471866,3.79421640615604,0.9995811064880354,-0.023536482934598927,0.003975982670621366,-0.016365728979403964,0.013529976691643242,0.004711735696017439,5910.769691369733
1680662061330940961,28,1680662061330940961,camera_1,28,0,0.29863685881471896,0.28985155857922673,3.793871194375133,0.9995923087893922,-0.023515594215655244,0.005008272733637644,-0.01539968317864764,0.01311299241569941,0.004565753502000792,5913.674159433112
1680662061340951204,29,1680662061340951204,camera_1,29,0,0.29873954069152997,0.2899661030645527,3.795186832909736,0.9996354321577355,-0.02381740258212524,0.0019226690888839086,-0.012571294787451441,0.01353508416650584,0.004716001139688129,5909.388233805366
1680662061351104736,30,1680662061351104736,camera_1,30,0,0.2985934328557891,0.28987646702928505,3.793487108495548,0.9996215281427091,-0.023473413794634915,0.0032711992846470458,-0.013967769102513393,0.009896833733364474,0.003444971886432285,5914.655022535531
1680662061361324071,31,1680662061361324071,camera_1,31,0,0.29863474231774567,0.28993955891251955,3.7937476882993093,0.9996432641143296,-0.023648484318809605,0.0008185395476610346,-0.01238643182198574,0.010045883176644566,0.0034973578311748897,5912.924731225765
1680662061371384382,32,1680662061371384382,camera_1,32,0,0.298563570359526,0.28992995091302043,3.7929866787796938,-0.9996092788700175,0.023510152996963213,-0.002714618906546922,0.01487256357240182,0.007316503055335488,0.0025461975328980677,5914.795135867489
1680662061381200075,33,1680662061381200075,camera_1,33,0,0.29855063268818566,0.2899182750849931,3.792663859213585,0.9995943024290285,-0.023467404155615233,0.002655840594525467,-0.015920364454291305,0.012255692581675248,0.004264461508822412,5914.73310803663
1680662061391308546,34,1680662061391308546,camera_1,34,0,0.2986487160973335,0.2899892239023967,3.7937139508603797,0.9996543362179084,-0.023696175978242404,0.0011330027102132215,-0.011332062018883041,0.012223082248965513,0.0042554811951856985,5914.178944590329
1680662061401399612,35,1680662061401399612,camera_1,35,0,0.2985807974046278,0.28996771872851157,3.793125119814877,0.9996201245906654,-0.023670944467774097,0.001324906287963136,-0.014054804327150183,0.011610687019128816,0.004041004544545777,5913.804205427879
1680662061411406040,36,1680662061411406040,camera_1,36,0,0.29858897412772545,0.28997186980498446,3.793001633148646,0.9996404832991008,-0.02359507188768175,0.0017625396318451077,-0.012612302969786948,0.013476191266818205,0.004690128806863699,5915.859935933082
1680662061421656847,37,1680662061421656847,camera_1,37,0,0.2985742420636649,0.28998037622302697,3.792724475586096,0.9996320314151641,-0.023512993985408615,0.0017857592264234315,-0.013407160274260905,0.015619765203155112,0.005435205704294354,5916.013093582763
1680662061431592702,38,1680662061431592702,camera_1,38,0,0.2985271081548084,0.2900105531216557,3.7926002582293177,0.9996240102434171,-0.023409047553522928,0.0025095309261819907,-0.014055493304617278,0.006227247944480041,0.00216664722354585,5916.498019825204
1680662061441467285,39,1680662061441467285,camera_1,39,0,0.29853443731068563,0.28995098498019145,3.7921508805779442,0.999629793014473,-0.023579335287718547,0.0006729958942386328,-0.013558721980973302,0.012877782010036753,0.004479597459690959,5916.595460561572
1680662061451436042,40,1680662061451436042,camera_1,40,0,0.2985539952910997,0.2899894271273318,3.7925640471130944,0.9996203855207385,-0.023620340722362358,0.0028487919642222375,-0.013894198065173726,0.00845077938720351,0.0029402144186194672,5917.051223699763
1680662061461409330,41,1680662061461409330,camera_1,41,0,0.29855438636141945,0.289981640320139,3.792598483868252,0.9996124176784101,-0.023739179806580663,0.00029825714426881967,-0.014538803524035828,0.010185516937781358,0.0035439954674406624,5913.961140188036
1680662061471270799,42,1680662061471270799,camera_1,42,0,0.29853275803979573,0.28996002211347244,3.792241665055775,0.9996254667848424,-0.023587305787843425,0.0019401743305378194,-0.013740483413036571,0.01101104900953942,0.0038304816263850594,5917.354309731568
1680662061481403827,43,1680662061481403827,camera_1,43,0,0.29860508931394053,0.2900819204967497,3.793398549030753,0.9996225498702087,-0.023534275824434996,0.004513156520069165,-0.013436036269196573,0.007219605700811372,0.002513032121659541,5916.3385274686725
1680662061491744518,44,1680662061491744518,camera_1,44,0,0.2985513105139682,0.2900157867019534,3.792446198711233,0.9996446745663855,-0.02370618250256861,0.000806461177187252,-0.012161050225620071,0.011983703418081859,0.0041694715416543985,5917.015993156701
1680662061501554727,45,1680662061501554727,camera_1,45,0,0.29860580276438775,0.29009965386150705,3.7934295474150064,0.9996134422703561,-0.023462142277048445,0.0045217575256198995,-0.01421434560788842,0.01012696341786068,0.003525153428203308,5915.534034366485
1680662061511570215,46,1680662061511570215,camera_1,46,0,0.2985099885061657,0.2899448599381828,3.791812849865135,0.9995996026963149,-0.02358025203820415,0.00011301326787008256,-0.015639476691551055,0.009569170888426015,0.0033281059339525247,5915.157623561158
1680662061521481752,47,1680662061521481752,camera_1,47,0,0.298579268040457,0.2900107265476893,3.792892997068437,-0.999603336089413,0.023556016067567374,-0.002095045488447147,0.015293638231048236,0.010724385356297716,0.0037321224023768255,5914.032205229043
1680662061531583070,48,1680662061531583070,camera_1,48,0,0.29858741026438235,0.28997749757467484,3.7930027832587303,0.999616543542837,-0.023598651811191435,0.002060453441327469,-0.014339596918387992,0.0092633254462271,0.0032237338233702295,5914.580979580058
1680662061540998220,49,1680662061540998220,camera_1,49,0,0.29868729874624966,0.2900819037818324,3.794117452703858,0.999626958138341,-0.023913585781656754,0.0010020164879583275,-0.01315602299741921,0.013370025015319698,0.0046557884603172376,5911.162471284507
1680662061551037073,50,1680662061551037073,camera_1,50,0,0.2985706487565125,0.2900082759007322,3.79255426367046,0.9996455258218738,-0.023528579517780077,0.0008397185748093913,-0.012430749088447766,0.015772683753311867,0.005488055574584957,5916.472760849048
1680662061561171770,51,1680662061561171770,camera_1,51,0,0.29865716481475757,0.290144702652028,3.793687378124883,-0.9996180741713383,0.023655824566697944,-0.00356417914703539,0.01383489721907516,0.011128765465400647,0.0038745647226182205,5914.176499942665
1680662061571157217,52,1680662061571157217,camera_1,52,0,0.29865080888853146,0.2901531860609088,3.7935978109019293,0.999640684454259,-0.023899140904938804,0.0004972252956412866,-0.012127894080657606,0.010154289851925569,0.0035350205770323753,5913.119062189597
1680662061580907821,53,1680662061580907821,camera_1,53,0,0.2986292945526509,0.29012535975101816,3.7934207872875603,0.9996314328458259,-0.023666813165953093,0.002805184572584967,-0.013000436941984975,0.005801480339869158,0.0020193895306829628,5915.084888942541
1680662061591512203,54,1680662061591512203,camera_1,54,0,0.29857519212910494,0.29002343099039046,3.7925268710594344,0.9996125816701044,-0.023620043043674023,0.0025676208199178793,-0.014497843176446205,0.01697613756186911,0.005906772840112934,5916.297545111098
1680662061601586103,55,1680662061601586103,camera_1,55,0,0.29858967718943796,0.2900693845779864,3.79322725265942,0.9996396242872974,-0.02377871119780115,0.00316941445488183,-0.012047790691069595,0.011586175191041548,0.0040327705568719615,5916.912501956045
1680662061611445903,56,1680662061611445903,camera_1,56,0,0.2985564653528274,0.2900220770303219,3.7924485409917574,0.9995922296841937,-0.023341388490517388,0.003926559924485342,-0.015972979229818832,0.015478281482501188,0.005385374462057903,5916.3833150352
1680662061621660947,57,1680662061621660947,camera_1,57,0,0.29854520567048226,0.2900270855282647,3.7922793415053935,0.9996427515333369,-0.023784765367105467,-0.0010582234204603175,-0.012146374211403868,0.013227426301455125,0.004601843905388688,5915.696772308493
1680662061631439685,58,1680662061631439685,camera_1,58,0,0.2986276003781807,0.2901673730003877,3.7934616809218635,-0.9996488275791189,0.023812030920492222,-0.0014464477757514921,0.011537612056514815,0.008988510646304348,0.0031290247514072726,5914.951188823326
1680662061641595125,59,1680662061641595125,camera_1,59,0,0.2986218368276755,0.2901772363037504,3.793152554363138,0.9996545614316706,-0.023739150438120225,0.0019345849188931261,-0.01111161223774483,0.010570345784799429,0.0036790867216655527,5916.689020177118
1680662061651150226,60,1680662061651150226,camera_1,60,0,0.29865020112271956,0.29024177855333455,3.793346309587483,-0.9996346213947249,0.023603197586623412,-0.002648866137735887,0.012903343787410974,0.01342682166796294,0.004673913588827923,5915.138621575898
1680662061661040306,61,1680662061661040306,camera_1,61,0,0.29866432990184466,0.2902910826184346,3.793778790364264,0.9996327416148684,-0.023736868114041933,0.002792617884911408,-0.012772794096336058,0.012972003940376453,0.004516526654362747,5914.055755499863
1680662061671526908,62,1680662061671526908,camera_1,62,0,0.29860138679975834,0.29019933605347253,3.7930014254940887,-0.9996332255408547,0.02358423122918998,-0.0014500200397391764,0.013232379755708243,0.010096022670040838,0.003513750314654398,5914.842849253559
1680662061681329488,63,1680662061681329488,camera_1,63,0,0.2986104513372654,0.29019528842342973,3.7933028066078593,-0.9996767689906735,0.02403362850349051,-0.00013571006089057452,0.008289983359651481,0.010485397695447318,0.003650145613204982,5916.818290042573
1680662061691610097,64,1680662061691610097,camera_1,64,0,0.2986141364122359,0.2901902333379724,3.7934051863918654,-0.9996395908794075,0.02360236349195132,-0.002186583016795487,0.012603001180490792,0.009708200690511148,0.003379445649930048,5914.883954758461
1680662061701465845,65,1680662061701465845,camera_1,65,0,0.29866219607691524,0.2902848047465746,3.7941442124889053,-0.9996283209265597,0.023585513327767663,-0.004502173052388459,0.01291022851923177,0.00923222769779386,0.0032150086283111706,5914.375055936163
1680662061711463212,66,1680662061711463212,camera_1,66,0,0.29857425472261184,0.2902258380322768,3.7928021197199455,0.9996260919725851,-0.02369594633748542,0.004049966926416914,-0.013029817446252666,0.011659070998575771,0.00405722862650174,5918.009490405619
1680662061721429824,67,1680662061721429824,camera_1,67,0,0.29866202785887563,0.2903333014266236,3.7940128059201155,0.9996197116119542,-0.023685975239799668,0.0035871621068925617,-0.013657928166168273,0.010610873127006926,0.003694823292063468,5913.259746459953
1680662061731546878,68,1680662061731546878,camera_1,68,0,0.29872401270928783,0.29038960405582787,3.7946253226864526,-0.9996439778250535,0.023724143016514154,-0.0035691344509636964,0.011676639735251428,0.01188710438873386,0.004140695044093632,5913.057316616001
1680662061740637540,69,1680662061740637540,camera_1,69,0,0.2987208727617374,0.2904079753905314,3.794530583995339,0.9996335475985878,-0.023621090720393992,0.004658288137695971,-0.012373962189489614,0.01460379826312419,0.005086799573008141,5913.683784013904
1680662061750932693,70,1680662061750932693,camera_1,70,0,0.2987546634349188,0.2904958370502385,3.7949182826469023,0.999671110111204,-0.02404042100462185,0.0023271893587464027,-0.008620554311764422,0.008244437827670481,0.002872285852995704,5913.467745824833
1680662061760868787,71,1680662061760868787,camera_1,71,0,0.2986520480012172,0.2904134181466628,3.7937678863950914,0.9996570610611356,-0.024030647341671006,0.0021171667005412008,-0.01018851628625462,0.010870174333831528,0.0037846526097098676,5915.610825830839
1680662061771445751,72,1680662061771445751,camera_1,72,0,0.2987190521924173,0.2905101319710965,3.7945142170628823,0.999645361271687,-0.023754203130055208,0.0036517013965451546,-0.01146972530467538,0.009193782392685534,0.0032022091591445024,5913.56461002014
1680662061781581640,73,1680662061781581640,camera_1,73,0,0.2987025013028385,0.29044711185307764,3.794321116563477,0.999685609448553,-0.023866392687636948,0.0029355492320023943,-0.007103528155869889,0.007568055243609706,0.002635733747874058,5917.058336805436
1680662061790739536,74,1680662061790739536,camera_1,74,0,0.29862201583832365,0.2903789484862044,3.7934655874176233,0.9996652163469415,-0.02379907983752233,0.0009858002420486363,-0.01010382218729971,0.00979194628962432,0.0034087154591999473,5915.570335299707
1680662061802313804,75,1680662061802313804,camera_1,75,0,0.2987240326654885,0.29052993161152674,3.7947490884381647,0.9996587030663493,-0.023757671304423748,0.005174012750967996,-0.009554058297298348,0.009350085776532069,0.003257101706878983,5915.7666556790955
1680662061811190366,76,1680662061811190366,camera_1,76,0,0.29863085136337225,0.2905061365972752,3.7938650947377996,0.999666138076803,-0.023961860958645192,0.0019290442116802434,-0.009472084798935703,0.005123918210301782,0.0017840373973177675,5915.692194558445
1680662061821873426,77,1680662061821873426,camera_1,77,0,0.2987156614076984,0.2905878405984652,3.794850495286165,0.9996632081398714,-0.023584405945933945,0.0031461665654983575,-0.010360874655148913,0.008216812977480004,0.0028623597529350616,5912.997226227248
1680662061830974578,78,1680662061830974578,camera_1,78,0,0.29874644847253884,0.2906279088187657,3.794927663955607,0.9996517279640914,-0.023774499567046605,0.00479163763509131,-0.010403660774780301,0.010370741445512976,0.0036129910553364397,5914.121022276342
1680662061840904474,79,1680662061840904474,camera_1,79,0,0.2986948561435933,0.2906260013972992,3.794562876578593,0.999657081844944,-0.02390540949303365,0.003716503376791255,-0.010021861946353702,0.00868715573233203,0.003025808164560934,5914.64290130278
1680662061850954294,80,1680662061850954294,camera_1,80,0,0.2987515437932038,0.2906773205354885,3.795001376801274,-0.9996657636760589,0.023838784680091568,-0.004527699836346012,0.008920381893755751,0.009505116951913806,0.0033116770406179338,5914.8335795289
1680662061860908031,81,1680662061860908031,camera_1,81,0,0.29876487375159755,0.2906786082362413,3.7952378849036523,-0.9996637917819124,0.02390217243033819,-0.005525201805656862,0.008394146670530693,0.007646806454431498,0.0026644979275814848,5915.385352958228
1680662061871531248,82,1680662061871531248,camera_1,82,0,0.29872584244577965,0.2906399765234285,3.794792135754325,0.9996822086908465,-0.023921440411137383,0.0015551276074234662,-0.0077992239211282675,0.008635782218334498,0.003008433565865698,5913.700087398469
1680662061881438732,83,1680662061881438732,camera_1,83,0,0.2987257547300187,0.2906198819411868,3.7946957602900806,0.999645571974901,-0.02356136585172418,0.003990646316416584,-0.011733167183318434,0.007204840723716188,0.002509620503675068,5913.016548289626
1680662061891582012,84,1680662061891582012,camera_1,84,0,0.2987589484577657,0.29069218298676736,3.7953828031337955,0.9996393617490745,-0.023670663756473954,0.006816388174701982,-0.010694997498030913,0.008009201224922435,0.0027908973509202825,5914.166601522009
1680662061901519775,85,1680662061901519775,camera_1,85,0,0.29881532337926964,0.2907621437480316,3.795856858675488,0.9996647796936721,-0.023675444548980903,0.005142125533757425,-0.009130175814587365,0.008387995349039556,0.0029236478921210937,5912.524884572428
1680662061911632537,86,1680662061911632537,camera_1,86,0,0.29881963904559544,0.2907779835352867,3.79579005080146,0.9996808733712778,-0.023804030057144866,0.003858516593537645,-0.007525384932040487,0.006979915346164489,0.0024327620231834064,5912.843284452039
1680662061921433448,87,1680662061921433448,camera_1,87,0,0.2988448472083556,0.29085700981484514,3.796413310172343,0.9996456882979119,-0.02377453369177788,0.0067490437541404,-0.009885333759524322,0.007543441464804346,0.002629958409912647,5911.512167071924
1680662061931623220,88,1680662061931623220,camera_1,88,0,0.2986918718276349,0.29071487798803963,3.7943612739549395,0.999645922011517,-0.023747593084108887,0.0036988981734255733,-0.011419307367711297,0.006696844418911495,0.002332275552238529,5913.997940944506
1680662061941447257,89,1680662061941447257,camera_1,89,0,0.2987663777447293,0.2907815305193179,3.795239643866895,0.9996620121695946,-0.02378641755250835,0.003172296519709944,-0.01000021498999908,0.006478320057794917,0.0022572152411448687,5911.9725577860945
1680662061951567411,90,1680662061951567411,camera_1,90,0,0.2987843873267152,0.2907930186732162,3.795362310857783,-0.9996508942201817,0.023661180940018924,-0.004305432718892235,0.010940815802204025,0.005398307494033361,0.0018810298222044616,5911.800629326608
1680662061961201906,91,1680662061961201906,camera_1,91,0,0.2987089798923923,0.29070078765034413,3.7944252978921282,0.9996454293200254,-0.023757018839759836,0.004666045243376283,-0.011083668942017606,0.008438603319518734,0.0029390144036298693,5914.930968384315
1680662061971343040,92,1680662061971343040,camera_1,92,0,0.2988255050947829,0.29078252417344624,3.7956699141446,0.9996524239707888,-0.023688608829805897,0.004531089999234424,-0.010646609058925914,0.007479063966457034,0.0026065449723693297,5911.289519780199
1680662061979885101,93,1680662061979885101,camera_1,93,0,0.29879982290892904,0.29079044260194664,3.795493895296736,0.9996419344075371,-0.023840889017677506,0.005893558224699076,-0.01062454499054513,0.008493878198351013,0.0029599507630325957,5913.021443064557
1680662061988751888,94,1680662061988751888,camera_1,94,0,0.29876876588113,0.29073979469843914,3.7951725011936146,0.9996634275106917,-0.023830647793151062,0.004922183481356262,-0.008994666926053663,0.0059535995715123136,0.00207430621482903,5914.549372105279
1680662061998682022,95,1680662061998682022,camera_1,95,0,0.29874466565135555,0.29076814894405784,3.7949705373228793,0.9996447058492435,-0.023556604033801474,0.004798278637307347,-0.011511950142915792,0.005462511388031999,0.0019029932107874124,5912.970453340678
1680662062008652210,96,1680662062008652210,camera_1,96,0,0.2987670032493239,0.29079798967822124,3.7953285000410197,-0.9996589213411574,0.023842187543051986,-0.0031932042756649508,0.010168309724306693,0.006747254959918791,0.0023511560749831808,5911.573152264
1680662062018596887,97,1680662062018596887,camera_1,97,0,0.29872989437136865,0.29073632863032,3.794630646815545,0.9996581766524668,-0.023590207847336342,0.003920088017160149,-0.01056715929295431,0.00512809379506507,0.0017861654020672189,5914.049538447348
1680662062028604507,98,1680662062028604507,camera_1,98,0,0.2987855191719032,0.2907700049850426,3.7951766340312796,0.9996774713689502,-0.023922968210467802,0.0030121809034298164,-0.007973179766418566,0.006991419460973702,0.002435982058970942,5913.611372998681
1680662062038575172,99,1680662062038575172,camera_1,99,0,0.29875854938219115,0.2907366840502147,3.794987148915924,0.9996620210646274,-0.02381303002366026,0.0027202399239970427,-0.010068939210888308,0.008055055488512153,0.0028062746781251716,5912.294896272071
1680662062049077749,100,1680662062049077749,camera_1,100,0,0.29875236818009865,0.29073395520363154,3.794862372115646,-0.9996324720325301,0.023566810617554883,-0.006364303401147455,0.011790756450169098,0.00492738650427782,0.0017165070508833803,5914.3852771705115
1680662062060042142,101,1680662062060042142,camera_1,101,0,0.2988431812018578,0.29079697612536576,3.79599339127782,0.9996624347323908,-0.023849683759774164,0.006337920876138562,-0.00812649545838209,0.007872616424720036,0.0027440970930528376,5913.8625778011055
1680662062071262359,102,1680662062071262359,camera_1,102,0,0.29874414047079406,0.29072062820107397,3.794864894695116,0.9996700887965323,-0.023877162901604174,0.0028055399535275795,-0.009040110777682877,0.008142377198964823,0.00283651272671354,5913.596743400326
1680662062081407308,103,1680662062081407308,camera_1,103,0,0.2987582743567522,0.2907613438291522,3.795005192890098,0.9996444872995804,-0.023653939602402047,0.0040996569097194535,-0.011600989874473366,0.0077869870874565095,0.0027128882457535014,5912.172986872027
1680662062091622352,104,1680662062091622352,camera_1,104,0,0.2987013908573582,0.29073259980390287,3.794485700491457,-0.9996608659767723,0.02364314343671929,-0.003509777427480368,0.010336162992623178,0.0049086747494584415,0.0017096583621432709,5914.341473208802
1680662062101460695,105,1680662062101460695,camera_1,105,0,0.2987556265849499,0.29075710635854995,3.7950746254501104,-0.9996567354190344,0.0236963943960684,-0.00318927634020407,0.010710776835066644,0.006089242324378574,0.0021215137408976074,5911.914374184329
1680662062111612319,106,1680662062111612319,camera_1,106,0,0.2987553447984791,0.29076326205850755,3.7951624451334722,-0.9996504174546686,0.023686816178743644,-0.003559555810733357,0.011194069164133744,0.00680372088754666,0.002370607467142614,5911.572625578381
1680662062121461868,107,1680662062121461868,camera_1,107,0,0.2987611047464773,0.2908069147000609,3.795183075509162,-0.9996313642085956,0.02351258110974197,-0.00549644109208134,0.012413031674067009,0.0052762154809897766,0.001838333258383591,5912.107086650096
1680662062131660699,108,1680662062131660699,camera_1,108,0,0.29874772045383463,0.2907930954852984,3.7949365407608595,-0.9996419005830606,0.023576127656244863,-0.003768913608802927,0.012084373944572919,0.003936874978535343,0.001371467821008304,5911.655699191208
1680662062141528129,109,1680662062141528129,camera_1,109,0,0.29882383177421257,0.2908649631227724,3.7960500175746503,0.9996432822675245,-0.023714110749343417,0.0057789883100184515,-0.010842161356984445,0.007350293137278641,0.0025621192583287944,5911.01402391202
1680662062151655197,110,1680662062151655197,camera_1,110,0,0.2987309800278485,0.2907815565834263,3.794747685142873,-0.9996595278791998,0.023454960227186485,-0.0045588382646748705,0.010483804402651922,0.006871928857435705,0.0023938615139196336,5914.2919613973345
1680662062161519765,111,1680662062161519765,camera_1,111,0,0.2988353729116924,0.2908486512562486,3.7957640228034064,0.999649303953926,-0.023744810819917903,0.004802917968739628,-0.010695094321377384,0.006322083390841726,0.002203365203647001,5911.151526277243
1680662062171605825,112,1680662062171605825,camera_1,112,0,0.2987958852518988,0.2908384223833187,3.7956035802543275,-0.9996561918808882,0.02373595944726045,-0.0033080755747995345,0.010637617181987214,0.005426510575489374,0.0018911963331080842,5910.406276764699
1680662062181536197,113,1680662062181536197,camera_1,113,0,0.2988300346846145,0.29088197156095974,3.7961410292840663,0.9996540836023623,-0.02367873069044988,0.0050502981161422164,-0.010272552698742601,0.003992240846855566,0.001391611406612066,5910.579417207045
1680662062191674470,114,1680662062191674470,camera_1,114,0,0.29868725238772786,0.2907390904332714,3.794216503118871,-0.9996443662142108,0.023591157096144257,-0.002481018629176385,0.012183716576466509,0.0067107484937878326,0.002336988372126221,5912.652384240297
1680662062201426744,115,1680662062201426744,camera_1,115,0,0.2988168050965674,0.29084366800068057,3.7956526721983797,0.9996702549009722,-0.023924326678568773,0.0028953232173677206,-0.008867083098148841,0.006098768037190894,0.002125513307648897,5911.305431695131
1680662062211578369,116,1680662062211578369,camera_1,116,0,0.29873360536581306,0.29077292024843415,3.794718262947736,0.9996385890802245,-0.023491860512991486,0.005781411953994782,-0.011721731406001957,0.005096325785416411,0.0017751582058544264,5914.386490382429
1680662062221433401,117,1680662062221433401,camera_1,117,0,0.29885117519119847,0.2908571858118001,3.7961127580655285,0.9996728964464108,-0.02383539987990917,0.003698022830421672,-0.00850284953143701,0.007039794527372578,0.0024540458007265326,5910.898634761803
1680662062231544017,118,1680662062231544017,camera_1,118,0,0.2988058594503717,0.2907756016606927,3.795373090444056,0.9996753716406399,-0.023781741288279628,0.002904093969032275,-0.008668699710156616,0.006151913468784187,0.0021436789076508186,5912.3582909846455
1680662062241477966,119,1680662062241477966,camera_1,119,0,0.29878700047258605,0.29078446676110814,3.7954741749441583,0.9996234933456931,-0.02341873809258609,0.00787841324584552,-0.011931674745468687,0.00568773050326854,0.001982014462937099,5913.595465885475
1680662062251578330,120,1680662062251578330,camera_1,120,0,0.29877942562813825,0.2907607816164998,3.7950040341869427,0.999658176417066,-0.02374781846181305,0.0031697434193771515,-0.010465379470722949,0.0061682470914092855,0.00214895171852467,5912.280617309381
1680662062261477947,121,1680662062261477947,camera_1,121,0,0.2987735221342814,0.2907772288478649,3.7952488890121066,-0.9996577234368713,0.023584511602448056,-0.004742408819788435,0.010281845363159764,0.0057846998097375035,0.0020155888450705773,5913.086999828924
1680662062271639585,122,1680662062271639585,camera_1,122,0,0.29881034775946924,0.2907795240693874,3.795564239601579,0.9996668275916495,-0.0237498303632681,0.0032282615914404713,-0.009579023836518817,0.005746261558670085,0.0020025252772892573,5911.348206998957
1680662062281377553,123,1680662062281377553,camera_1,123,0,0.2988366156297211,0.2907751178297835,3.7955455003414014,0.9996454063800408,-0.023849859655864083,0.005773248296114284,-0.0103399855797722,0.008034916936594527,0.0028000464829002736,5912.970755577437
1680662062291499853,124,1680662062291499853,camera_1,124,0,0.2987446028757985,0.29068742035032297,3.794631075764677,0.9996519350757291,-0.023733610252632723,0.004171146818716218,-0.010738993339381582,0.00934586435687379,0.003255448862930972,5914.141534501218
1680662062299952745,125,1680662062299952745,camera_1,125,0,0.29878706388741516,0.29071460114798764,3.795065072738651,0.9996579478327888,-0.023896825718686843,0.004241032631753943,-0.009743854346419173,0.007432032434735447,0.0025893803321165284,5913.667383178896
1680662062310136079,126,1680662062310136079,camera_1,126,0,0.29876129041038746,0.29070916147529713,3.7947926224099637,0.9996511466837537,-0.02377211116506959,0.003410185882638398,-0.010992829338146786,0.009690003615105525,0.003375564442185213,5912.741587056256
1680662062323235988,127,1680662062323235988,camera_1,127,0,0.2988629631376179,0.2908158013558018,3.796064335759853,0.9996663992539796,-0.02364998252214568,0.0035780999249131014,-0.009745036183238727,0.0061088921065675095,0.0021294387867594683,5909.95574966405
1680662062331038713,128,1680662062331038713,camera_1,128,0,0.2988759142580608,0.29084322871849294,3.7960296785130603,0.9996494852602812,-0.023660046454253906,0.00543113547843723,-0.010564638567039108,0.006202903477969812,0.00216213617383036,5910.962699367431
1680662062341289520,129,1680662062341289520,camera_1,129,0,0.29878499430958133,0.2907939895993398,3.7952230991993776,0.9996007028954591,-0.023474753532590084,0.0066697944825236275,-0.0142437550894787,0.005114525909448275,0.0017820121220629428,5911.304041435304
1680662062351625919,130,1680662062351625919,camera_1,130,0,0.2987994878428924,0.29079397393005785,3.7952656293033957,0.999659532936705,-0.02360079498909782,0.004020209899878502,-0.010375866084930994,0.008216073074436281,0.0028627237033532226,5912.292291587278
1680662062361656427,131,1680662062361656427,camera_1,131,0,0.2988192322108276,0.2908353721984141,3.7956395437632673,-0.9996571095272047,0.023819252152402364,-0.0036694846802414536,0.01023921289925416,0.008287130360258743,0.00288820186013444,5910.931872616522
1680662062371546506,132,1680662062371546506,camera_1,132,0,0.29881379139517283,0.2908301193753081,3.7953592175392745,0.9996258278381778,-0.02331712883804862,0.0056871555201030355,-0.01312143603717774,0.007219506154797273,0.0025156603611655023,5911.0387941689105
1680662062381542205,133,1680662062381542205,camera_1,133,0,0.29889013114109436,0.2909164238582844,3.796409694064178,0.9996347151062877,-0.0236009986882683,0.0064732612697124365,-0.011468483065414307,0.004801351409696508,0.0016738850577891606,5909.878511045708
1680662062391394853,134,1680662062391394853,camera_1,134,0,0.2987955618675748,0.2907932360948978,3.7952764408758006,0.9996750418139319,-0.023881631696512466,0.0027864928649979173,-0.00846840595031126,0.008857248049025655,0.003086291866300696,5912.697417521558
1680662062401454448,135,1680662062401454448,camera_1,135,0,0.2987919566015475,0.29083582365787936,3.795345596784649,-0.9996207496281455,0.023607602203646542,-0.005431240692406973,0.013097314824042106,0.006989048270042986,0.002435406563407601,5910.908029861921
1680662062411382436,136,1680662062411382436,camera_1,136,0,0.2988184286169955,0.29082057976125814,3.795582347650144,-0.9996656655773443,0.02384871809348455,-0.003014123230652375,0.009524220296338672,0.0062883267273718966,0.002191520929739092,5911.1069806865435
1680662062421386003,137,1680662062421386003,camera_1,137,0,0.29882582600525537,0.2908394622509025,3.7956573779358855,-0.9996459655596759,0.02345588377213542,-0.006544242625146644,0.010720911584126915,0.009582912440237124,0.003339965986311323,5912.918579636026
1680662062431336164,138,1680662062431336164,camera_1,138,0,0.2987289814646503,0.29071986329469085,3.7945643366472304,0.9996353164690168,-0.023640469028453206,0.005235264803169854,-0.011956349545078852,0.0057989876841020305,0.0020197738436375785,5914.222310536423
1680662062441645860,139,1680662062441645860,camera_1,139,0,0.2988018386761583,0.29076793067762585,3.7952887730902485,0.9996712719894483,-0.023949503122922662,0.0022204115891330855,-0.00887913461654047,0.008472498106129933,0.002952229059556652,5911.82860205742
1680662062451572656,140,1680662062451572656,camera_1,140,0,0.2987982312542478,0.290754785070497,3.7953561748999163,0.9996558685510892,-0.023910782335675437,0.0034677719901503815,-0.010217314563423082,0.007139301022107247,0.0024876856710230474,5911.694843990086
1680662062461455583,141,1680662062461455583,camera_1,141,0,0.29888970474076837,0.2908371056049136,3.79637913727637,-0.9996564762969663,0.023700898357102183,-0.006035133787057923,0.009421994203554036,0.006806724155467236,0.0023731590373021532,5911.3531804173235
1680662062471557855,142,1680662062471557855,camera_1,142,0,0.2987608501923165,0.2907847211227762,3.795229178650077,-0.9996238923606036,0.023581075142348886,-0.006737361381012359,0.012272517206707308,0.004900699237623485,0.0017075492747599722,5913.140572741628
1680662062481481313,143,1680662062481481313,camera_1,143,0,0.2987714214052176,0.29077040887117706,3.7951286064380128,0.9996137097732227,-0.023595917716691783,0.005738880290633501,-0.01351773477814191,0.007154400351282673,0.002492652061557721,5911.508629493473
1680662062491334199,144,1680662062491334199,camera_1,144,0,0.29880070558152433,0.2907958919669402,3.7954264853743176,0.999651903735015,-0.023903037031037105,0.003058557043642155,-0.010740642832901907,0.0074662544939201325,0.0026017504127394306,5910.6518092612405
1680662062501386642,145,1680662062501386642,camera_1,145,0,0.2988231900136656,0.29082868650515403,3.795822670654997,-0.9996467412464505,0.023722009758334505,-0.005657556487498635,0.010566504765931491,0.00876981391775189,0.0030567260153359145,5911.8375312397275
1680662062511570215,146,1680662062511570215,camera_1,146,0,0.29876319480099456,0.29076972314626603,3.7950499875622983,-0.9996442211871787,0.02358401147215843,-0.004680971019384518,0.011546166475313119,0.006448645755881444,0.002246691521256686,5912.579242474805
1680662062521563529,147,1680662062521563529,camera_1,147,0,0.2988046576905735,0.29082838236763886,3.7956372588684624,0.9996521984953453,-0.023704857148862425,0.005653427542395685,-0.010079709717920321,0.007153114118409576,0.0024928991896440342,5912.810325760046
1680662062531095027,148,1680662062531095027,camera_1,148,0,0.29887259184210657,0.2908461458598878,3.796249199287507,0.9996908620086266,-0.024090994058420884,0.0018445179472524555,-0.005865336756628587,0.008344783567736158,0.0029093579696533606,5910.772720761304
1680662062540900945,149,1680662062540900945,camera_1,149,0,0.29873241697478475,0.29073526734409505,3.794620487889839,0.9996409421991177,-0.023569973635113706,0.005299794118218509,-0.011591169242349196,0.007881864032242447,0.0027453511350669516,5914.410625280115
1680662062550788879,150,1680662062550788879,camera_1,150,0,0.29874358489339675,0.29076150083335806,3.794633383526465,-0.99968162438448,0.02383568320120895,0.00020741132871106876,0.00827448215175929,0.004660722668631934,0.001623574896415052,5912.002657991074
1680662062560904264,151,1680662062560904264,camera_1,151,0,0.2988207512793035,0.290806355466561,3.795762995186659,0.9996535736749621,-0.02362088555174881,0.006053995580589901,-0.009906338482942558,0.008462598860205617,0.0029493982229442076,5912.912654586951
1680662062571371555,152,1680662062571371555,camera_1,152,0,0.2988333190984669,0.2908651749226021,3.795917530464871,0.9996781988179301,-0.023849843581556902,0.0024890066711500108,-0.008275784860985446,0.006025637252605521,0.0021003396605953446,5910.578044949795
1680662062581474065,153,1680662062581474065,camera_1,153,0,0.29885450073209013,0.29082779031850764,3.795807311409209,0.9996707231028127,-0.02388131347100556,0.004192597378045577,-0.00839942648188913,0.009446900599868968,0.003292693883490316,5912.338242821044
1680662062591457843,154,1680662062591457843,camera_1,154,0,0.2988607527460872,0.2908975306748012,3.7962386261282757,-0.9996507889849946,0.023691419672492133,-0.005562345862610938,0.010299370081923994,0.006931390016688965,0.002416426612039998,5910.652821515745
1680662062601459741,155,1680662062601459741,camera_1,155,0,0.29882545848473835,0.29083310618045755,3.7956357199680557,0.9996340997430578,-0.02365449836812971,0.005965739740220661,-0.011685088240595456,0.007817810812412063,0.0027245216463833185,5911.70174870966
1680662062611647129,156,1680662062611647129,camera_1,156,0,0.2988982191246755,0.2908958294337402,3.7966976039088385,0.9996491745127748,-0.023803549603998612,0.0071352466119865635,-0.009165542971585101,0.007946961020934395,0.002771105221160528,5911.472660485422
1680662062621516227,157,1680662062621516227,camera_1,157,0,0.2988256540966373,0.29083164415217205,3.795753787763406,-0.9996538280443715,0.023700306097367795,-0.004133604227429401,0.01065048746378902,0.007623246303410269,0.002657023361792408,5910.652450006403
1680662062631631135,158,1680662062631631135,camera_1,158,0,0.2988977889054203,0.290913870105143,3.7967507242897387,-0.9996670918097055,0.02381844405373883,-0.005842954083614526,0.008015432811867245,0.005797082794742892,0.0020215376282259946,5911.139504038554
1680662062641471147,159,1680662062641471147,camera_1,159,0,0.29885121498326894,0.2908468463073819,3.7961084606775586,0.9996755840640024,-0.023828595127390363,0.005149770059856428,-0.007375943931544335,0.007059677518554963,0.0024609945584887633,5913.049867991009
1680662062651328325,160,1680662062651328325,camera_1,160,0,0.2988291243444914,0.29080721542590626,3.795701836915825,0.9996831154888579,-0.023979061288285083,0.0026439475232938074,-0.007189072799577825,0.007595748145831749,0.0026473681856889436,5912.23679644044
1680662062661459207,161,1680662062661459207,camera_1,161,0,0.29881965248936626,0.29080703072169195,3.7957755755729647,0.9996519352279704,-0.023737836356827476,0.004497068972959351,-0.010597164277434028,0.007183183541201288,0.0025035665609286816,5910.978793754706
1680662062671526432,162,1680662062671526432,camera_1,162,0,0.2988812706634974,0.29088764700800207,3.796638310196877,0.9996641892499459,-0.023880922474002027,0.005513967925239158,-0.008414655712404892,0.005852660942764487,0.0020407682858271286,5910.925834590282
1680662062681506156,163,1680662062681506156,camera_1,163,0,0.29873725800740103,0.290740080110808,3.7947817790363105,-0.9996350612752195,0.023504145553265344,-0.005849562518726507,0.011961690074510168,0.005759826050052653,0.002006417195693901,5914.062457880413
1680662062691615581,164,1680662062691615581,camera_1,164,0,0.2987847787332514,0.2907702004731885,3.795135648846419,0.9996823209598897,-0.023783366908571916,0.0030550529181671503,-0.007763714987538244,0.00496405069497996,0.0017295675420330254,5913.929760364352
1680662062701464653,165,1680662062701464653,camera_1,165,0,0.2987820144994787,0.2907410221372542,3.7951268353964687,0.9996741050566484,-0.023802445643862743,0.003666018444929626,-0.008466851204635292,0.006881001118017593,0.002397423727026082,5913.9846607891395
1680662062711217164,166,1680662062711217164,camera_1,166,0,0.2986704725374301,0.2906860761948104,3.7940733971157368,-0.9996561263039946,0.02379337352073843,-0.0041026095539317235,0.010230987940697697,0.005771518837718759,0.0020097429413135737,5916.24992091389
1680662062721066713,167,1680662062721066713,camera_1,167,0,0.29873167445534815,0.2907321412402006,3.7947769705903616,-0.9996523262586811,0.023484439985262822,-0.004714718867152955,0.011021756220763396,0.004575902785290964,0.0015939526193168908,5913.92702407192
1680662062730632781,168,1680662062730632781,camera_1,168,0,0.29876769284247984,0.29072272334633015,3.7947744819185525,0.9996823093365425,-0.024107289744909804,0.001742473646704948,-0.007147220879676424,0.007573080612928607,0.0026381453897215646,5914.320145790056
1680662062741374969,169,1680662062741374969,camera_1,169,0,0.29884579590935934,0.2907903628474342,3.7959045668020583,0.9996661487027372,-0.02367646426166438,0.005661482452597887,-0.00865816345088922,0.01092983344278764,0.00380948514486954,5913.150043696282
1680662062750785827,170,1680662062750785827,camera_1,170,0,0.2988193345689868,0.29076925581120205,3.7956507035038123,0.9996860148084687,-0.023955820278040045,0.003611623543760011,-0.006398956676401918,0.009292538423324004,0.003238672546048034,5913.886437285164
1680662062760913372,171,1680662062760913372,camera_1,171,0,0.2986908423818829,0.2906714657973851,3.7942505141940224,-0.999664084237812,0.023821178517099532,-0.0007304150915302554,0.010185118203902964,0.004742496650578687,0.0016515889358804604,5912.647328801221
1680662062771206617,172,1680662062771206617,camera_1,172,0,0.2988099711659691,0.2907584968034242,3.795418733502522,-0.9996661772292742,0.023904985804334773,-0.004054900666066911,0.00892432283661803,0.0067762908329314095,0.0023613904688307786,5913.053845381189
1680662062781536102,173,1680662062781536102,camera_1,173,0,0.2987957432732121,0.2907291839805005,3.7951416589183764,0.9996856769185558,-0.024035060663745698,0.0009903943272445543,-0.007062743224498698,0.009392192383529618,0.0032726495672438564,5912.542310132236
1680662062790411710,174,1680662062790411710,camera_1,174,0,0.29886270429467493,0.2908116011849876,3.7961683942839395,0.9996594569846716,-0.023793134441027083,0.006307717431041289,-0.008664266581363794,0.007429988898365991,0.00259010455158979,5912.862217966235
1680662062799741268,175,1680662062799741268,camera_1,175,0,0.2988198213701905,0.29075230783042944,3.795429764979282,0.9996718883066421,-0.023656335551768506,0.0052979926319507336,-0.008271927935283441,0.006575890089152381,0.0022914913438202827,5914.601772761901
1680662062811088562,176,1680662062811088562,camera_1,176,0,0.2987761910879489,0.2907334973566248,3.795147565402176,-0.9996617630182939,0.023691230737896918,-0.004625612650398594,0.009679300227225717,0.0051893947274948005,0.001808082350632325,5913.806102308561
1680662062821447134,177,1680662062821447134,camera_1,177,0,0.29866139515043855,0.29065349647224037,3.79376340356822,-0.9996645768776167,0.02365770227714555,-0.001866014467184129,0.010371347505021741,0.005020033539040014,0.0017478139159082847,5915.056538870093
1680662062831815481,178,1680662062831815481,camera_1,178,0,0.29878903706981064,0.290762127495128,3.7951530925775483,-0.9996610357399092,0.023790111804292382,-0.005369052821236366,0.009111392624294784,0.00659230394376209,0.002296925280115002,5914.85172440013
1680662062841415405,179,1680662062841415405,camera_1,179,0,0.2987713800278161,0.2907218479965629,3.7948809498431664,-0.9996731618072539,0.023660625051049867,-0.0036230831421890084,0.008978733375401957,0.006141991776530631,0.0021397021086615293,5914.293584625876
1680662062851350069,180,1680662062851350069,camera_1,180,0,0.2987405662539139,0.2907127856238351,3.794542946566624,0.9996470973270231,-0.02366286732027774,0.004349527505838478,-0.011261932619063051,0.008904230875486974,0.0031013175178384697,5914.110070393712
1680662062861204624,181,1680662062861204624,camera_1,181,0,0.29869996423422596,0.2906888017390796,3.794154935155389,-0.999665109357587,0.02375885789130213,-0.001706717436676418,0.01011300748421511,0.004459371179109439,0.0015528943116114983,5913.89182800619
1680662062871279478,182,1680662062871279478,camera_1,182,0,0.29876211734242597,0.2907882178809043,3.7951930142889085,-0.9996494617840437,0.02354188410746466,-0.006388492674277437,0.010291764129305369,0.005123305458255345,0.001785060797632574,5914.640783379261
1680662062881413459,183,1680662062881413459,camera_1,183,0,0.2987211899050411,0.2907183578364624,3.7944499119382646,-0.9996612032499875,0.02370485217772763,-0.0015757481200385762,0.01063370668588837,0.004914210268907482,0.00171153985935304,5912.416927243578
1680662062891562938,184,1680662062891562938,camera_1,184,0,0.29871652208166866,0.2907407858731579,3.7945730585549553,0.999645880839849,-0.023582201303929285,0.0048823073345213505,-0.011320590827105943,0.006507648889964912,0.0022666521832394597,5914.438099656431
1680662062901477098,185,1680662062901477098,camera_1,185,0,0.2987084860001093,0.2907494317434004,3.7945475734961973,0.9996309270490891,-0.02361317121554878,0.006605262573898057,-0.011696082183955127,0.005726373856305145,0.0019944740566328225,5915.646506834077
1680662062911635160,186,1680662062911635160,camera_1,186,0,0.2987917681323034,0.2908418296512049,3.79561160059113,-0.9996427419170991,0.023617330025152327,-0.005910853468139721,0.011030506163605552,0.005968789431790356,0.0020801142818563574,5912.315387081644
1680662062921340942,187,1680662062921340942,camera_1,187,0,0.2988179805101969,0.29087376485279454,3.7960120788554925,-0.9996423250831549,0.023801965846935752,-0.005147711163825965,0.011053931153182353,0.004240160302288132,0.0014779810057338587,5910.411601980101
1680662062931366443,188,1680662062931366443,camera_1,188,0,0.29868564047559787,0.29073206047937505,3.7941514040520645,-0.9996439715344918,0.023633462508306953,-0.004259352222070728,0.01162959772584523,0.005710819277737755,0.0019886884202507827,5914.926350596998
1680662062941531419,189,1680662062941531419,camera_1,189,0,0.29881383517113935,0.2908356534364632,3.7956420362637013,-0.9996652720157917,0.02383154865760965,-0.0021287066112646268,0.009842246813430263,0.006141273392131552,0.002140328770875293,5909.857609292726
1680662062951619863,190,1680662062951619863,camera_1,190,0,0.2987285384338662,0.2907623956943137,3.7945524577536927,-0.9996579509275162,0.02377253045333858,-0.0028569326005210634,0.010520735685349314,0.006490066840342479,0.0022605948377885593,5913.349480586126
1680662062960065603,191,1680662062960065603,camera_1,191,0,0.2988003777005995,0.29086061310352407,3.7956439400236395,-0.9996580845204596,0.0237640136550994,-0.004636147123519677,0.009873796014468698,0.005015109058149392,0.0017477867938581924,5912.072245603137
1680662062970929622,192,1680662062970929622,camera_1,192,0,0.2987510372401938,0.29080227388527513,3.795141828399406,-0.999609150669778,0.02352058969548057,-0.007497973941131686,0.013118999367351124,0.005680813723301981,0.001979280050768578,5913.267897929937
1680662062981210470,193,1680662062981210470,camera_1,193,0,0.29868774002849074,0.2907408460010428,3.7942838747575873,-0.9996466019349588,0.02372772373653141,-0.005285196736797803,0.010757930173893175,0.004927728383336216,0.0017161639928471551,5916.145882906278
1680662062991356134,194,1680662062991356134,camera_1,194,0,0.29877051535723625,0.29084277301053285,3.7955096683874876,0.999618794368873,-0.023383038516963824,0.006748092227800998,-0.013036974553938768,0.00585177244283841,0.002039201799450671,5911.592557389754
1680662063001995801,195,1680662063001995801,camera_1,195,0,0.2987443730232826,0.2907722779739058,3.7950024763158012,-0.9996449831553784,0.023727752052588178,-0.004371125861446332,0.011304631507382906,0.005835739058966283,0.002033081066887663,5912.680861730826
1680662063011385679,196,1680662063011385679,camera_1,196,0,0.298785194923501,0.29079061227047737,3.7951184032435537,-0.9996579807398028,0.02367665225166829,-0.004359878540299631,0.010214163719446336,0.00755724164264393,0.002633094446367667,5913.175255445591
1680662063021184682,197,1680662063021184682,camera_1,197,0,0.2986873229950289,0.2907137789572656,3.794099033105877,-0.9996635798901179,0.02388306525128163,-0.0009841130998767722,0.010067658957453623,0.008984570325992536,0.003128919510169896,5913.406466543383
1680662063031320095,198,1680662063031320095,camera_1,198,0,0.2987090666595222,0.2907743874988215,3.7947146377453858,-0.999630666832279,0.023543118517254373,-0.005766947949665235,0.012287953868800053,0.005693497387255775,0.001983306917202563,5913.915074760445
1680662063041474819,199,1680662063041474819,camera_1,199,0,0.29883022088383543,0.2908716511859387,3.7960142500635707,-0.9996356304390944,0.0234974861485702,-0.006865371564278244,0.01137282614905154,0.00678523710303125,0.0023651913117251054,5911.549376749317
1680662063051600456,200,1680662063051600456,camera_1,200,0,0.2987655976420345,0.2907915060309273,3.7950598630213688,-0.9996682585643678,0.023906224643585734,-0.0034484173120509997,0.008942799350133668,0.0055855241662357,0.0019460209362825455,5913.598708075413
1680662063061618089,201,1680662063061618089,camera_1,201,0,0.29876583052785205,0.2907940798398102,3.795305644815064,-0.9996544734833182,0.023640255774281724,-0.004991591378340259,0.01035161664806429,0.004788865207956405,0.0016686207222413386,5913.075104214483
1680662063071664333,202,1680662063071664333,camera_1,202,0,0.29865782691532866,0.2907097787918538,3.7941473361997105,-0.9996553416287008,0.023864353238564198,-0.0013479878900809962,0.010856957509288289,0.005813465457322309,0.002024520014810377,5912.993079306328
1680662063081501960,203,1680662063081501960,camera_1,203,0,0.2987990479509597,0.2907990867735425,3.795516641590575,-0.9996720310502446,0.023870311387426516,-0.0034853497031052966,0.008595982061009852,0.00709409795308602,0.00247227243483349,5912.503698246436
1680662063091625452,204,1680662063091625452,camera_1,204,0,0.29870330519735916,0.2907320887077849,3.794396641792884,0.999616804868171,-0.023567514011297072,0.004973678356399495,-0.013641049522800004,0.006559653909789632,0.00228445214085156,5913.03019730159
1680662063101512908,205,1680662063101512908,camera_1,205,0,0.29878563160519905,0.2908335049735789,3.7955685386257394,0.9996244083776675,-0.023378822906157774,0.007615483671518979,-0.012102777514660962,0.005882692250452237,0.0020500439351506076,5912.927243264565
1680662063111560344,206,1680662063111560344,camera_1,206,0,0.2987976096734612,0.29082481716712755,3.795666833940573,0.9996692294602243,-0.023875933575122903,0.004140582244339592,-0.008615511882402236,0.007471786098903976,0.0026039865611213004,5912.612217418096
1680662063121536016,207,1680662063121536016,camera_1,207,0,0.2987455657965701,0.2907912716712735,3.795029724305863,-0.9996464359764025,0.023658750646207444,-0.005438705957409921,0.010848365547200879,0.006364750333887059,0.002217459947523795,5913.886689089937
1680662063131460428,208,1680662063131460428,camera_1,208,0,0.2987453888914266,0.29077957456861114,3.7949463730959057,-0.999636223559572,0.02362311882902478,-0.00624714545401376,0.01141674112973934,0.0068447124685917515,0.002384576700030709,5914.339040867459
1680662063141528844,209,1680662063141528844,camera_1,209,0,0.29874155627623034,0.29076904453990987,3.7948105511128563,0.9996492786939168,-0.023705212492540536,0.005066768171525411,-0.010663506351626781,0.006518306930956896,0.0022706442124590847,5914.398399411411
1680662063150257110,210,1680662063150257110,camera_1,210,0,0.29875890695632756,0.2908171569719654,3.795192992608246,-0.9996488794270886,0.023762921033409972,-0.004984717555813762,0.010611033644983095,0.005500324248714605,0.001916437055834445,5913.181874299484
1680662063159043312,211,1680662063159043312,camera_1,211,0,0.2987435282567038,0.2908330498333646,3.795116293241389,-0.9996182706484242,0.02349791438085082,-0.007724466926145457,0.012308274302715224,0.004025698366604047,0.0014025992947763186,5914.223008337432
1680662063171034574,212,1680662063171034574,camera_1,212,0,0.2987823116758411,0.29085484826866026,3.795427412507471,-0.99967753762761,0.023709228361486912,-0.004146612939329598,0.00809313625442309,0.006924340941623086,0.0024129876707853514,5913.727732621133
1680662063181376457,213,1680662063181376457,camera_1,213,0,0.298801766388319,0.2909184251011623,3.795962575664192,-0.9996116852613831,0.023282995537068932,-0.008547676101668735,0.012701103927592688,0.004152332054218277,0.0014473494087053848,5911.883137755563
1680662063191409111,214,1680662063191409111,camera_1,214,0,0.2987710803361371,0.29087699933128874,3.795348817096477,0.9996545721088891,-0.023752284177960697,0.005829295191414511,-0.009622098299992327,0.005661178995069349,0.0019726083224730906,5914.19598487986
1680662063201290607,215,1680662063201290607,camera_1,215,0,0.29880309091848806,0.29089535905969194,3.795693529178239,0.9996667369288892,-0.023811019146915236,0.004300096133826172,-0.008997756296566172,0.0054888625963940285,0.001912892592801017,5912.31613449997
1680662063211350440,216,1680662063211350440,camera_1,216,0,0.29874492439141004,0.2908701436153933,3.7950499638229016,-0.999598420235599,0.023459210579497007,-0.004986785148723731,0.015092901489186608,0.0048087222276080865,0.0016753297458183788,5909.6094477041615
1680662063221269130,217,1680662063221269130,camera_1,217,0,0.29876164979545733,0.29087420571617223,3.795160577554542,0.9996317231266449,-0.02350472466573451,0.006146470662222476,-0.012089951846111375,0.007989325229573296,0.0027835810127010293,5912.959452829728
1680662063231353998,218,1680662063231353998,camera_1,218,0,0.2987908081928513,0.2909232768840736,3.7956477737495438,-0.9996500079517445,0.023743642877629863,-0.006179501634401438,0.009895189969233541,0.005160940756468335,0.001798602784419583,5913.3220242903935
1680662063241373538,219,1680662063241373538,camera_1,219,0,0.2987363211815659,0.2908914225807872,3.7950613581792645,0.9996525379402285,-0.0234741148919077,0.005707791451520571,-0.010544687593647155,0.00585653438247391,0.0020403331742068695,5914.2192474845215
1680662063251196622,220,1680662063251196622,camera_1,220,0,0.2988080427635711,0.2909323831935597,3.7957374158539063,-0.9996388223951118,0.023707199566440233,-0.006288356298729808,0.010984080493672159,0.004691247046139324,0.001634975185586152,5912.215813462388
1680662063261218070,221,1680662063261218070,camera_1,221,0,0.2986470832392862,0.29078916958603196,3.7938839439405023,0.9995999090839207,-0.023422954212448357,0.00721535714878178,-0.014118271728318149,0.005005114278901601,0.0017426410723277981,5916.005760177504
1680662063271715641,222,1680662063271715641,camera_1,222,0,0.29875299457095406,0.290913382923373,3.795216435251796,-0.9996220034104979,0.02334581595465731,-0.0056936125346007185,0.013356869068001495,0.0018779502133838832,0.0006542787827056444,5911.273138121931
1680662063281482696,223,1680662063281482696,camera_1,223,0,0.29876491834608565,0.29090700280267046,3.7952716646718727,0.99964364983816,-0.023602078656548387,0.0052589583911090395,-0.011307456742026241,0.0046486504943459295,0.0016196766138587733,5912.530607515368
1680662063291542053,224,1680662063291542053,camera_1,224,0,0.2987267681418059,0.2908950782717056,3.794964395666852,-0.9996271684829336,0.02345430688117724,-0.006242451000300057,0.012508050408629465,0.0051368842578085605,0.0017895544745252022,5913.279500861651
1680662063301527261,225,1680662063301527261,camera_1,225,0,0.29879055587835196,0.2909571290193446,3.7956442775890227,-0.9996067210088689,0.023209909374408637,-0.00709135299395163,0.014050485167576078,0.004125040639337385,0.0014375573383902948,5910.451056136515
1680662063311596632,226,1680662063311596632,camera_1,226,0,0.298748658940756,0.2909122183489212,3.795236166377207,-0.9996205678671473,0.023417852834019322,-0.007105138880299921,0.012642842524446484,0.003112325404799776,0.0010844008025803458,5913.0185069119325
1680662063321391344,227,1680662063321391344,camera_1,227,0,0.29875758185213613,0.29092647892028217,3.7952411464611266,-0.9996524780744659,0.023600139690961742,-0.0038564950450323252,0.011094319813055453,0.002880787433241494,0.0010037333148789792,5911.5737542053685
1680662063331397056,228,1680662063331397056,camera_1,228,0,0.2986672228050675,0.29080490682481397,3.7941658211972116,-0.9996123755700355,0.023287535865360462,-0.005471262074367998,0.014242702407325416,0.004896792339422973,0.0017052023523206564,5913.571800194215
