%time,field.header.seq,field.header.stamp,field.header.frame_id,field.image_seq,field.transforms0.fiducial_id,field.transforms0.transform.translation.x,field.transforms0.transform.translation.y,field.transforms0.transform.translation.z,field.transforms0.transform.rotation.x,field.transforms0.transform.rotation.y,field.transforms0.transform.rotation.z,field.transforms0.transform.rotation.w,field.transforms0.image_error,field.transforms0.object_error,field.transforms0.fiducial_area
1680662686815123558,0,1680662686815123558,camera_1,1,0,0.27445363247388216,0.2933773226602711,3.7954705357131457,0.9996114249986219,-0.02300411048215496,0.006096437763381319,-0.01451355779078972,0.006873399095638888,0.0023930811120563885,5914.042095143757
1680662686824230909,1,1680662686824230909,camera_1,2,0,0.27448404017874733,0.2934176844107125,3.7958083508955753,0.9996429394405197,-0.02317060292418185,0.004241397939474623,-0.012614568179941785,0.006060053368855733,0.0021101797410178974,5913.121338759552
1680662686835085868,2,1680662686835085868,camera_1,3,0,0.2744894694546686,0.29342504182322265,3.795873360255289,-0.9996316832204645,0.023183295916643167,-0.004883928018566664,0.013235555876951816,0.00501921175600728,0.0017478809364399597,5912.912774091001
1680662686845516204,3,1680662686845516204,camera_1,4,0,0.2745171039224364,0.29346688447654473,3.79636261993284,-0.9996427993611274,0.023033249376403053,-0.005484453197359484,0.012396123657792302,0.004987972446542698,0.0017374647928217074,5912.653310290425
1680662686855311632,4,1680662686855311632,camera_1,5,0,0.2744623833400285,0.29338227082508606,3.795526227378194,0.9996714554736366,-0.023407259328082946,0.0012704990343808894,-0.010366636589213928,0.0051735105698753605,0.001801271996979919,5913.237734487749
1680662686864759445,5,1680662686864759445,camera_1,6,0,0.27451234314552475,0.2934331034896085,3.796110889824563,0.9996406003540772,-0.02303565513334981,0.004395471742192947,-0.012988785335095369,0.0071563539386261255,0.002492305497266679,5911.978502592302
1680662686875246524,6,1680662686875246524,camera_1,7,0,0.2744760929482068,0.29342223115508015,3.7957899859644786,0.9996368736266252,-0.023151172445622828,0.0032086588522894136,-0.013410764659382284,0.004706070936663309,0.0016386788070686718,5911.550250032335
1680662686885276556,7,1680662686885276556,camera_1,8,0,0.2744367133576391,0.29337982209978025,3.795209806761087,0.999629248796853,-0.02309586135875472,0.004832624144619719,-0.013586459502512912,0.0057578122650738806,0.002004345101958679,5914.620925039053
1680662686895398378,8,1680662686895398378,camera_1,9,0,0.2744593250196007,0.2933573998018574,3.7955973413846644,0.9996520944556979,-0.023138293990946832,0.003842165513167765,-0.01206429300432991,0.0066054754752258305,0.0022999168076046875,5913.949155378617
1680662686905303478,9,1680662686905303478,camera_1,10,0,0.274508261409179,0.2934152152800303,3.796092226050347,-0.9996525730678997,0.023111319827600778,-0.004611590809198723,0.011803952082347472,0.0047850893388385884,0.0016665059178847005,5913.278520112743
1680662686915332317,10,1680662686915332317,camera_1,11,0,0.2745459269259221,0.2934173070067794,3.796525508404079,0.9996582056830816,-0.023339229476093775,0.004797039234537609,-0.010758280184408442,0.008269163143268088,0.002880469433689205,5913.009557338664
1680662686924705028,11,1680662686924705028,camera_1,12,0,0.27443911905655166,0.2933686469088261,3.7952561745131033,0.9996431713805488,-0.023346986039212172,0.0011920751625857282,-0.0129238969328282,0.0028709267571684904,0.0009993833654361969,5911.795123594757
1680662686935089826,12,1680662686935089826,camera_1,13,0,0.27442797920434453,0.2933859923428477,3.795131489589158,0.9996268039253302,-0.023169141921706708,0.002770027354811434,-0.014204600842505332,0.004294936941732885,0.0014949966897311816,5912.46690202481
1680662686945361375,13,1680662686945361375,camera_1,14,0,0.2744676214994016,0.29340679759232374,3.795673180503697,-0.9996316581639382,0.02321774200762085,-0.00346287643341079,0.013619579262593348,0.005176582279091235,0.0018024701585959556,5911.953796388815
1680662686955391645,14,1680662686955391645,camera_1,15,0,0.27448499834193507,0.29338340348055214,3.7957255382583814,0.999599049608513,-0.023062756850755702,0.0059971750367681645,-0.015293239021840006,0.0067898322486144025,0.002364278246739645,5912.429159316408
1680662686965201616,15,1680662686965201616,camera_1,16,0,0.2745404876240391,0.293441216707232,3.796372890051899,0.9996596375925451,-0.023324526189257528,0.003723499873025321,-0.011077499495998814,0.006777227186830714,0.0023605958461026338,5912.241143609808
1680662686974360227,16,1680662686974360227,camera_1,17,0,0.27446343360414494,0.2933928657535838,3.7953330469831754,0.9996308773933134,-0.02317417065495201,0.0021807702276359993,-0.014011103366414191,0.0060024142294423655,0.0020896206155329076,5911.456854759252
1680662686984611034,17,1680662686984611034,camera_1,18,0,0.27450657223473995,0.2934687795287818,3.7962866063670924,-0.9996208134745793,0.022938423238256064,-0.0047513622907691426,0.014473512501977493,0.005240613179921638,0.0018253723272444588,5910.381740372862
1680662686994657278,18,1680662686994657278,camera_1,19,0,0.27451359570159106,0.2934409594615416,3.7961505414152357,0.9996032070409794,-0.02298448376179999,0.006249857854153141,-0.015035998683008126,0.007652550211787457,0.002665318192841206,5911.54324579088
1680662687004714727,19,1680662687004714727,camera_1,20,0,0.27452773517964046,0.29342161118465704,3.7962043135221393,0.9996671928428728,-0.023288732040773842,0.0022528508132491766,-0.010865688049860106,0.004655733639083336,0.0016215424064417,5911.614519032183
1680662687015281438,20,1680662687015281438,camera_1,21,0,0.2745485847771433,0.29350046874902375,3.796989392048296,-0.999674467911047,0.023356734554999453,-0.003285318172718064,0.009727684318288904,0.0038017287624825258,0.0013246745885470282,5911.086304857743
1680662687023408889,21,1680662687023408889,camera_1,22,0,0.27449620689686616,0.293441011792048,3.7962349294293136,0.9996455583444087,-0.02335859480047228,0.0032690443072399154,-0.012346946203821513,0.004171246611804236,0.001452798249280592,5911.197062320773
1680662687032505035,22,1680662687032505035,camera_1,23,0,0.2744712514918183,0.2934140427914732,3.7956329018698214,0.9996203192770585,-0.023018408298085345,0.0037853536960636026,-0.014664285364444704,0.005447610488772625,0.0018967535597319543,5911.387499020375
1680662687042346477,23,1680662687042346477,camera_1,24,0,0.27447318360817574,0.2933829762329419,3.7956398101049995,0.9996617529156708,-0.02323233691670572,0.00211323617249683,-0.011496630455762605,0.007078652055497514,0.0024646601703364594,5912.719892752064
1680662687052394866,24,1680662687052394866,camera_1,25,0,0.27451061042228253,0.29343071668142306,3.796311698039777,0.9996313474834149,-0.023251466990798594,0.005939291816455467,-0.01269894578251939,0.0074475962355791125,0.002594084162098948,5912.963801089034
1680662687062683343,25,1680662687062683343,camera_1,26,0,0.27451105526950254,0.2934556927918468,3.796177106775268,0.9996267415326964,-0.023099945909520074,0.0033537589905142384,-0.01419585898543949,0.005974592779239174,0.0020808393160153815,5909.746134649203
1680662687073146343,26,1680662687073146343,camera_1,27,0,0.27446744423672875,0.2934258360764794,3.795536333411141,0.9995926952027305,-0.02301035388342148,0.004942729385461001,-0.016141150446081217,0.005704835439246381,0.001986241355526265,5911.274498584973
1680662687083441257,27,1680662687083441257,camera_1,28,0,0.2745042300322622,0.29346101349846315,3.795977100552216,0.9996429438058414,-0.023046169380831698,0.004346076592427217,-0.012805100324247027,0.0059234159416519105,0.002062806386929174,5912.484269035983
1680662687094657421,28,1680662687094657421,camera_1,29,0,0.2744986800399358,0.2934332226783868,3.796073553282918,-0.9996492419660725,0.02324834210198413,-0.0024208757829995865,0.012451786482622145,0.005142311656527453,0.001790909109401914,5910.812102904778
1680662687105435848,29,1680662687105435848,camera_1,30,0,0.27451801257434727,0.29346106216518564,3.7964240927554003,0.9996540394880472,-0.023275255302540345,0.003779783427592314,-0.011652341527424231,0.005894275080208899,0.0020531313129093093,5911.65651739243
1680662687115270376,30,1680662687115270376,camera_1,31,0,0.27445470494538143,0.2934088444166474,3.7955958103768457,0.9996432708816991,-0.023247413677792934,0.003297559885155549,-0.012728504901807484,0.004633392894902499,0.0016132331510209281,5912.854236516405
1680662687125116348,31,1680662687125116348,camera_1,32,0,0.27448015637529743,0.2934391207175535,3.7959464183115528,0.9996309480556453,-0.02304262503515205,0.006274216652664344,-0.012947560629582149,0.006628364651987796,0.002308299823221329,5914.1323311524475
1680662687135150671,32,1680662687135150671,camera_1,33,0,0.2744462445226106,0.2933798787378925,3.795449093625778,0.9996471070597847,-0.023012308724247633,0.002938559312277326,-0.012940628398638902,0.006823616658948595,0.0023756261638923234,5912.806308041036
1680662687145144224,33,1680662687145144224,camera_1,34,0,0.27447298668090964,0.29340696408077865,3.7957136298073086,-0.9996520284965147,0.02339140258419157,-0.0014135839887518037,0.01211057340733285,0.005140069017215865,0.0017897964104303598,5911.295315646161
1680662687154648542,34,1680662687154648542,camera_1,35,0,0.27443668918712305,0.2933863885864869,3.7953986782018783,0.999630166008277,-0.023120812891973933,0.003358882163157636,-0.013916793024720799,0.006137642270914512,0.0021367891816879985,5912.456291101931
1680662687164787292,35,1680662687164787292,camera_1,36,0,0.2744537635233444,0.29338483411709965,3.7954646840945263,0.9996558712857968,-0.023471654614577026,0.0027565077264860957,-0.01138517011917486,0.008167665964720072,0.0028436406309266015,5913.951397692783
1680662687174764633,36,1680662687174764633,camera_1,37,0,0.27447385119008755,0.2934259915036155,3.7957693859269415,0.9996327501595489,-0.02299976529745547,0.004441761555113019,-0.01362521042063125,0.005013937305193394,0.0017458931231330653,5912.504639422171
1680662687185412406,37,1680662687185412406,camera_1,38,0,0.27443076920654597,0.2933799082384748,3.795218518110972,0.9996353828934971,-0.023164567149873087,0.0012163500293643152,-0.013821164521725143,0.0038542223810509313,0.0013416155946480994,5911.121140755072
1680662687195193767,38,1680662687195193767,camera_1,39,0,0.27450453009084924,0.29342427083581635,3.7960546899451066,0.999633243684544,-0.023232179842122835,0.004011550361500068,-0.013324841619981041,0.004959694113495061,0.0017272026773753333,5911.524905066122
1680662687205063104,39,1680662687205063104,camera_1,40,0,0.27451464040998164,0.29344289680119773,3.796102362567755,-0.9996363336676206,0.023102996499365824,-0.005989331529059828,0.012553082177018894,0.00677561294651241,0.002359849473504792,5913.736153517446
1680662687215558290,40,1680662687215558290,camera_1,41,0,0.27444281856580477,0.2933985966076631,3.7953736165882987,0.9996410841318609,-0.023196787331581824,0.0019206122506382896,-0.013263605156735657,0.003909712868335191,0.0013610834833637125,5911.797802480753
1680662687225619316,41,1680662687225619316,camera_1,42,0,0.2745144626703207,0.29345194173797273,3.79617935377177,0.9996465091467712,-0.023180500141468448,0.0050136561292523606,-0.012016006661248387,0.005501689258380793,0.0019160958358779526,5913.155345662846
1680662687235636949,42,1680662687235636949,camera_1,43,0,0.2744539279040658,0.2933931086233091,3.795424658044621,-0.9996358854957537,0.023249205651065155,-0.0032885566725328096,0.01329497125708141,0.005639635834086221,0.0019634439258085726,5912.858026854171
1680662687245193481,43,1680662687245193481,camera_1,44,0,0.27438540987517424,0.29329913604119934,3.7944347274065686,0.9996689910851494,-0.02336263194709359,0.0008445609686524748,-0.010741620365400302,0.00669775269125239,0.0023305455990058,5915.918711342618
1680662687255374193,44,1680662687255374193,camera_1,45,0,0.27433735862132674,0.29328650957302504,3.7937485499000654,-0.9996103823166437,0.02306180413603301,-0.001549455047729756,0.015647234382461354,0.005593644400505582,0.0019456887419815152,5914.264495249954
1680662687265172719,45,1680662687265172719,camera_1,46,0,0.27449691835130496,0.2934454383687504,3.7958641353532916,0.9996221923083106,-0.023032620854633035,0.0054147750556564605,-0.01398753846787268,0.00617796711230767,0.0021513868662682155,5912.686388114528
1680662687275509834,46,1680662687275509834,camera_1,47,0,0.2744372723732424,0.29338144205760164,3.794956144225507,0.9996320080754943,-0.02316715350213492,0.0034876505902486023,-0.013673614113455865,0.0060521277991938405,0.002106527356544226,5914.113663030845
1680662687285377264,47,1680662687285377264,camera_1,48,0,0.2744199561484266,0.2933563084383749,3.794713205553669,-0.999644256493745,0.02321826209813089,-0.0011426181448759465,0.01307544217170478,0.005751410153607139,0.00200161360220072,5913.253923679762
1680662687295455455,48,1680662687295455455,camera_1,49,0,0.274497892670257,0.2934623723406654,3.796243097409793,0.9996447084310168,-0.023137348899438394,0.004586283955932023,-0.01241313784861506,0.0044449209672166035,0.0015481265372862423,5912.2573296533665
1680662687305571079,49,1680662687305571079,camera_1,50,0,0.2745382019556254,0.29347369328574824,3.7964329358411524,0.9996371799224087,-0.02318377346244586,0.0035213991096645714,-0.013252204085588798,0.004790668303030543,0.001668725012143701,5909.952367510181
1680662687315516471,50,1680662687315516471,camera_1,51,0,0.2744910563081691,0.29345483198375,3.7959923145269716,-0.9996718063842681,0.023282194692188975,-0.0023911276429196167,0.010416402417571437,0.004723245612694882,0.00164490061048902,5912.769094399118
1680662687325575351,51,1680662687325575351,camera_1,52,0,0.2745019641471752,0.29344855862370595,3.796001556100746,0.9996398984270254,-0.023068922122230814,0.003236231048498226,-0.013320101858681866,0.005571211124333786,0.0019400873223112522,5910.98200075282
1680662687335195302,52,1680662687335195302,camera_1,53,0,0.27452984572333405,0.29348777551828553,3.79645774942426,-0.9996321487111598,0.02310409444948111,-0.0046110073935564325,0.013435277950076813,0.005330976087861927,0.0018569893751342853,5910.669215447732
1680662687345035314,53,1680662687345035314,camera_1,54,0,0.2745219266032301,0.29346628025029153,3.7963471271492706,0.9996174920186913,-0.022987786664416202,0.00571520083129683,-0.01427472570633029,0.003998604544904082,0.0013927486537696626,5911.196676902704
1680662687355242013,54,1680662687355242013,camera_1,55,0,0.27453477961061523,0.29346877455227327,3.7964471105851954,-0.9996623469310176,0.023278816817150053,-0.002392799715739459,0.01129439354209559,0.004738973315397743,0.0016507878707281267,5910.613205664557
1680662687364828824,55,1680662687364828824,camera_1,56,0,0.27451411691547273,0.29346286555627366,3.79608634182101,0.9996080501573706,-0.023198096332414264,0.0059016409631025,-0.014517748485018609,0.006614669204282109,0.002303687917234915,5911.920046204818
1680662687374765872,56,1680662687374765872,camera_1,57,0,0.2744939165149405,0.29345166815168955,3.796032462139745,-0.9996287474762322,0.02293769697823741,-0.00581786113518465,0.01350487942358025,0.004810592836292926,0.001675380451221417,5912.96058619581
1680662687385075092,57,1680662687385075092,camera_1,58,0,0.2744356418829986,0.29338028997002175,3.7952809465173085,0.9996429339141844,-0.023277184031134875,0.0028916266680709115,-0.012799057552604779,0.004667965629778337,0.0016249804619908248,5913.405686788555
1680662687395059108,58,1680662687395059108,camera_1,59,0,0.27445918865430996,0.29342485798071793,3.7956642129734353,-0.9996396177750411,0.02326725852256933,-0.0039007073837125333,0.012808346392909486,0.005039494895754615,0.0017547198957500955,5913.0997206883
1680662687405508756,59,1680662687405508756,camera_1,60,0,0.27446370094040434,0.29339934613506025,3.7954213682023323,0.9996439001808526,-0.023057746020079296,0.003920963919002637,-0.012846759187949619,0.004555573603283847,0.0015859331048490633,5913.819921918154
1680662687415446996,60,1680662687415446996,camera_1,61,0,0.27453869390921565,0.2934955260683668,3.796541127201285,0.999672042020397,-0.023319745826048843,0.003510951071723221,-0.00998354045167472,0.005380984308430925,0.001874481729282221,5912.428676542595
1680662687425539493,61,1680662687425539493,camera_1,62,0,0.2744711297783089,0.2934299825979511,3.795769534159903,0.9996369422956621,-0.023173467531272855,0.005081372549704279,-0.012773161447635972,0.0044929501818842255,0.0015644625249037457,5913.828328831878
1680662687435041189,62,1680662687435041189,camera_1,63,0,0.27452372247352186,0.29349247734575606,3.79642915531832,0.9996305326966507,-0.023115775690689913,0.005584105458466095,-0.013163463869995711,0.004121505764487665,0.0014355987866446613,5911.839942220251
1680662687444819211,63,1680662687444819211,camera_1,64,0,0.27448386920639317,0.29342724412472854,3.7957211597027163,0.9996381377743967,-0.02302115451426103,0.003235003965019274,-0.013533465968222153,0.005675646742020035,0.001976202398511046,5911.654467227637
1680662687454835414,64,1680662687454835414,camera_1,65,0,0.2745477042044225,0.2934912846695748,3.796529878265082,0.99961973960892,-0.023055289492489986,0.005647832427829891,-0.014033239094365175,0.005555260897381231,0.0019351593229131599,5910.773867392038
1680662687464827060,65,1680662687464827060,camera_1,66,0,0.27449059488639793,0.2934683941738811,3.796061221348118,0.99965371216897,-0.023180972881181885,0.0033282266721705147,-0.012000881230086927,0.004687345808633836,0.0016324084332593838,5912.054952873031
1680662687474847078,66,1680662687474847078,camera_1,67,0,0.27450236134929756,0.2934445270459104,3.796001974552142,0.9995970488351688,-0.022977261458012425,0.005386574194247393,-0.01577245175491991,0.00625622528968961,0.0021787260816482027,5910.573195023752
1680662687485332250,67,1680662687485332250,camera_1,68,0,0.2744714369204698,0.2934575493968112,3.7959374998258206,-0.9996160594930308,0.023024007086613597,-0.005869623920260788,0.014253989488413265,0.005498826561961323,0.0019149977551327349,5912.6238225168745
1680662687495165109,68,1680662687495165109,camera_1,69,0,0.27448925529540263,0.2934281568298841,3.7957936411899427,0.999643037358981,-0.023200441778009177,0.0019451671364266565,-0.01310548304442132,0.006838522593170637,0.002381265073331117,5910.639328499847
1680662687505292654,69,1680662687505292654,camera_1,70,0,0.2744845575802722,0.2934180754362394,3.7956406019279134,0.9996562192340381,-0.023199469020544154,0.001707137731559674,-0.012096018544914358,0.006411868351278827,0.00223252197007519,5911.779398709477
1680662687515348911,70,1680662687515348911,camera_1,71,0,0.2744783411727415,0.2934530366681934,3.7959907514326567,0.9996339305671861,-0.02306468364415275,0.00529523717513024,-0.0131143314908767,0.008255052620370407,0.0028749410527268496,5913.019859293595
1680662687525261402,71,1680662687525261402,camera_1,72,0,0.27445693371461855,0.2934134984875375,3.7954303958064877,0.9996171038599946,-0.023080869153646627,0.0035219251526696803,-0.01484975396726292,0.004691240323154489,0.0016331790556290671,5911.602311993428
1680662687535229444,72,1680662687535229444,camera_1,73,0,0.2744492961243741,0.29336018491791155,3.7949587682828407,0.9996517932723068,-0.02311328396084849,0.0030834086056751872,-0.012351554694736,0.007257326898979954,0.0025259417052384677,5914.9321444365205
1680662687544901609,73,1680662687544901609,camera_1,74,0,0.27447046759594296,0.29342335008955267,3.7957826081366477,-0.9996567225879128,0.023060406531854,-0.003962432263097807,0.011787865198540875,0.0046185164428607095,0.001608230289233129,5913.68383343087
1680662687554824352,74,1680662687554824352,camera_1,75,0,0.27445391468329244,0.2934045554975496,3.7953879574828817,0.9996285259360784,-0.02308225498240055,0.002633180561732899,-0.014250824534740648,0.006949952265131287,0.0024195442768355268,5911.491828614959
1680662687564551591,75,1680662687564551591,camera_1,76,0,0.2744633209530497,0.29339843162921236,3.7954478002109058,0.9996650440765867,-0.02340708068659974,0.002524504429485775,-0.010748725620865793,0.005139746383065357,0.001789395743383635,5914.308299515687
1680662687573392629,76,1680662687573392629,camera_1,77,0,0.27454691233255485,0.2935057427564318,3.796628782654827,0.9996406670565892,-0.023141812518279296,0.002932008485314779,-0.013205930723296774,0.005543245300941635,0.0019310605816832546,5908.850198800557
1680662687583500862,77,1680662687583500862,camera_1,78,0,0.27445979143235677,0.29339396602405077,3.795370594704114,0.9996583942370907,-0.02319743083331076,0.003111323331282181,-0.011631582058490032,0.006453727131884079,0.0022467498494221877,5914.324354760581
1680662687593355894,78,1680662687593355894,camera_1,79,0,0.27446060714164566,0.2933965169479574,3.795585592949735,0.9996376230423302,-0.023226270412257975,0.0030009919193624028,-0.013272415323406854,0.005705400475562784,0.0019864638267917565,5912.132647425749
1680662687602530479,79,1680662687602530479,camera_1,80,0,0.27446637879163877,0.2933798563827161,3.7953027538024147,0.9996676548347112,-0.023257565474743565,0.002206413440991465,-0.010899415818482819,0.00556801664060913,0.00193826398693143,5914.3314029030735
1680662687612403869,80,1680662687612403869,camera_1,81,0,0.2744894191410816,0.29342506523397893,3.7957671623551503,0.9996646933495714,-0.02341945944292563,0.0022698619736026475,-0.010810990534148277,0.0055044515065674204,0.001916650667342864,5913.024961585646
1680662687623148202,81,1680662687623148202,camera_1,82,0,0.2744869802295396,0.29343532857784016,3.7956937452651727,0.9996171698673306,-0.02309127486695757,0.0035107418003066143,-0.014831770745887492,0.006751040233211825,0.002350643916485767,5910.775534588613
1680662687634161472,82,1680662687634161472,camera_1,83,0,0.27441689655310786,0.29334946133783724,3.794814408061472,0.9996555626242388,-0.023384810249092336,-0.0005260340890097087,-0.011900842498233009,0.005374043081246782,0.0018703663753309523,5912.38759720989
1680662687644863843,83,1680662687644863843,camera_1,84,0,0.274506731978606,0.2934291619648157,3.79589928463135,0.999642729653744,-0.023058392690531185,0.0040876885826419684,-0.012884656727761398,0.007619418323884019,0.0026533390906418315,5912.4387377371895
1680662687654752016,84,1680662687654752016,camera_1,85,0,0.2745103200245318,0.29346991766028774,3.796081985187993,0.9996030238070421,-0.02296576857875931,0.005629091036263106,-0.015319321248347832,0.0065177567594219,0.002269917039636309,5910.945596771956
1680662687665361404,85,1680662687665361404,camera_1,86,0,0.27439892666975746,0.29332516486626886,3.7943310274192443,0.9995980895874121,-0.023020811630300463,0.004590232187835446,-0.015894379306539624,0.007746479390334571,0.002695369432016788,5914.94721908768
1680662687675407886,86,1680662687675407886,camera_1,87,0,0.27449979184730366,0.293433526959456,3.795894096497736,0.9996261115642914,-0.02319507069287344,0.006099020221096578,-0.013131173852710272,0.006103811134380521,0.0021255466209310525,5913.961699537582
1680662687685159206,87,1680662687685159206,camera_1,88,0,0.2744772950242446,0.2934456589580445,3.795832328303473,0.9996205763664249,-0.02336491920577063,0.002889279231751204,-0.014298108996836924,0.004663649415306281,0.0016239302061089266,5910.310048584071
1680662687695378541,88,1680662687695378541,camera_1,89,0,0.27443459819288485,0.2933963819362495,3.7953107869666876,0.9996067006680827,-0.023044524962174295,0.005485533509336731,-0.015010088968957948,0.006057848084310535,0.0021088529260437365,5913.553782309347
1680662687705376148,89,1680662687705376148,camera_1,90,0,0.27440012799354335,0.29336863391277024,3.794743756811077,0.9996154953975626,-0.023030007653376275,0.0043004341316259225,-0.01483193766338757,0.00786012098978972,0.002735563646817936,5914.443233163679
1680662687715181112,90,1680662687715181112,camera_1,91,0,0.2744707878971325,0.2934330365211831,3.7957619461369303,0.9996281232983386,-0.023105841252659343,0.00448019440672072,-0.013771821561675833,0.00686881436558906,0.0023917976168129455,5912.4282735426095
1680662687725481748,91,1680662687725481748,camera_1,92,0,0.27444391270558943,0.2934463746839619,3.7957221421886835,-0.9995920682119012,0.022924293730698292,-0.0053877439882059315,0.01616001669307119,0.004279483990103472,0.0014901323280621826,5911.09288737842
1680662687734390497,92,1680662687734390497,camera_1,93,0,0.27439986563913116,0.29334693804151846,3.7944446214841303,0.9996487764210225,-0.023317185763672442,0.0002172497779530645,-0.012593071529579643,0.005078872014564695,0.0017672869462648732,5913.627921069797
1680662687742475271,93,1680662687742475271,camera_1,94,0,0.27444869070317646,0.29338773118725975,3.795308426984372,0.9996220805966407,-0.02296574016283299,0.0037940492246574353,-0.014624498381050588,0.004532888840913074,0.0015779134541085219,5912.446287292987
1680662687753146648,94,1680662687753146648,camera_1,95,0,0.2744295710944326,0.29339394173506284,3.7952412458186426,0.9996370917540509,-0.023183489463077595,0.0034204621592762788,-0.01328574591189532,0.006732787620421732,0.002343795447413748,5913.559082324558
1680662687764619827,95,1680662687764619827,camera_1,96,0,0.27438402133734563,0.2933382906173606,3.7946359992357657,0.9996386204428833,-0.02318654059848904,0.0016388624831577604,-0.013502850953964156,0.005379134618124226,0.0018719055884873904,5913.624885528932
1680662687775271415,96,1680662687775271415,camera_1,97,0,0.27437819482756454,0.2933068088179671,3.7944676795681382,0.9996379799643571,-0.0230948091660752,0.0019679561525122206,-0.013662574828486991,0.006339427767670713,0.0022059484961350086,5914.31219630217
1680662687785337448,97,1680662687785337448,camera_1,98,0,0.2744483634272178,0.29337162611856793,3.7953308750113126,-0.9996593895497803,0.023422263365907366,-0.0022513379155191674,0.011288664286303268,0.004351295057858806,0.001514844512213567,5913.978795569739
1680662687795156955,98,1680662687795156955,camera_1,99,0,0.2744792392780418,0.2934116841792808,3.7958591203399523,-0.9996686846570194,0.02330180403181399,-0.0008871627789496816,0.010897696415815986,0.0053292385455279145,0.0018558502725433848,5911.393843214144
1680662687805680274,99,1680662687805680274,camera_1,100,0,0.2744337252899952,0.2933780374887474,3.7953506505676273,0.99965813931774,-0.023312529455910735,0.0015896363405941691,-0.01173045278180198,0.0038696876872563735,0.0013471499635001921,5912.938482302414
1680662687815382957,100,1680662687815382957,camera_1,101,0,0.27441791774247526,0.2933659518164676,3.7951753962345824,-0.9996515060088944,0.023094726313298834,-0.0025477939968016794,0.01253031908664076,0.0035571852640714496,0.0012382362603649967,5913.671168907195
1680662687825389623,101,1680662687825389623,camera_1,102,0,0.27441965793386114,0.29336741356273244,3.795495430425789,0.9995937154881057,-0.023057994213798352,0.005169557990586146,-0.015937645048832442,0.004612055796314962,0.0016056767634958192,5911.889132590032
1680662687835488796,102,1680662687835488796,camera_1,103,0,0.2744037085983843,0.29335042571874204,3.7952581723725216,0.9996124130002844,-0.023097656462022144,0.004118231950386432,-0.014985399804953711,0.004124342754948884,0.0014356932445394243,5912.622016506966
1680662687845231056,103,1680662687845231056,camera_1,104,0,0.2744973980516995,0.2934349582410981,3.796317655229915,0.9996529070981331,-0.02315736185664817,0.003814486776865087,-0.011968776575773424,0.004915807166980812,0.0017121964033237366,5911.769311035752
1680662687855276346,104,1680662687855276346,camera_1,105,0,0.27444216503269625,0.2933806730904497,3.795623848457292,-0.9996351110618623,0.02338060841437536,-0.0028659732286520244,0.013220366105546917,0.00448510723435902,0.0015616313995509292,5911.97671309882
1680662687865495920,105,1680662687865495920,camera_1,106,0,0.2744384116038836,0.2933578576904363,3.795482353016114,0.9996296426327739,-0.023241248034989975,0.0023446997889783657,-0.0139615308096409,0.006086370667617302,0.002119016414236803,5911.265289557981
1680662687875153303,106,1680662687875153303,camera_1,107,0,0.27443933400868387,0.2933716817076396,3.795627630519006,-0.9996607812866661,0.023284732101664887,-0.002894137059160156,0.011303432176497766,0.003432766883634031,0.0011952301983751237,5913.681704843066
1680662687885305166,107,1680662687885305166,camera_1,108,0,0.2744943798329307,0.2933862226936386,3.7961355758338837,0.9996437488703863,-0.02323530144248679,0.0033901035714116387,-0.012688707933113691,0.004215376255160663,0.0014680903996212025,5911.336776647075
1680662687895287275,108,1680662687895287275,camera_1,109,0,0.2744636259290166,0.2933744183688068,3.795958444780839,-0.9996431815369541,0.023207120203164625,-0.002506242592709749,0.012986836667124375,0.0038365622640412766,0.0013360388666812757,5910.840049101505
1680662687905310153,109,1680662687905310153,camera_1,110,0,0.2745317553628172,0.2934052411803341,3.7965470071506804,0.9996435863582013,-0.02315770208115398,0.004265242940600473,-0.01257890257103051,0.006406860607967246,0.0022318600862538656,5910.927243795826
1680662687915218830,110,1680662687915218830,camera_1,111,0,0.27445534593673276,0.29335366526849327,3.795820358264408,0.999615370373063,-0.022968602919371226,0.005761800436024969,-0.014434550550385504,0.0038718815230822656,0.0013482050811928293,5912.813092827215
1680662687925416946,111,1680662687925416946,camera_1,112,0,0.27454678930471893,0.29345057221741244,3.7969739942404552,0.9996577284962461,-0.02342652145388442,0.0039119244771480014,-0.010969083698354094,0.00712003227090463,0.00248090472509791,5910.696235620764
1680662687935488939,112,1680662687935488939,camera_1,113,0,0.2745160695458054,0.2933898561773014,3.796459954438743,0.9996334838642232,-0.0232235485020545,0.005606073382663595,-0.012733289978508543,0.005157870651601115,0.0017966618148725969,5912.231916445886
1680662687945379257,113,1680662687945379257,camera_1,114,0,0.2745122072580782,0.2934118410985146,3.7965610947899036,0.9996457286818599,-0.02328320861409465,0.003773167255241663,-0.012331769281409234,0.005114410119858803,0.0017816328286042128,5910.689692708837
1680662687955588579,114,1680662687955588579,camera_1,115,0,0.27446221296506385,0.2933075012247066,3.795896881493696,0.9996521950637466,-0.02325036697900413,0.004382775326626361,-0.011649060906834542,0.004419894117745571,0.0015390895376203903,5913.930264390949
1680662687965232610,115,1680662687965232610,camera_1,116,0,0.27440213383740464,0.29326268036400727,3.7949971928257913,-0.9996495552853888,0.023014678882605496,-0.002098341121730523,0.012910776049170397,0.006396707758540288,0.0022265323523837648,5913.536276262835
1680662687975274085,116,1680662687975274085,camera_1,117,0,0.2745245110658825,0.2933890745599216,3.796609908626363,0.9996635909046232,-0.023298232452661573,0.0031501969531527074,-0.010953248075921077,0.0059085357970616315,0.0020582577384014368,5911.1835438015405
1680662687985142707,117,1680662687985142707,camera_1,118,0,0.27447885629578167,0.29334847214257764,3.7958970770379215,0.999638447457794,-0.023280212883865895,0.003223849505693438,-0.013061885262782276,0.00596885715276585,0.0020785391219632163,5911.609576735589
1680662687995241165,118,1680662687995241165,camera_1,119,0,0.27449922254578674,0.2933733107782939,3.7961115811843595,0.9996629807353672,-0.02335780777303232,0.0031571568435272684,-0.010879803490156808,0.004538875760772498,0.0015807152865773067,5912.773870793753
1680662688005033016,119,1680662688005033016,camera_1,120,0,0.27443314972755073,0.29336004066785754,3.7952552095539005,0.9996415451330549,-0.023327216829621897,0.0007578056231962818,-0.01311670422094702,0.005792171290522674,0.002016350233334367,5911.22329347505
1680662688014869451,120,1680662688014869451,camera_1,121,0,0.2744886943559206,0.2934871631555984,3.7962838091792888,-0.999647303126582,0.023433962260970973,-0.0009089378108241713,0.01246164501817486,0.0055905825065565296,0.0019472724199436832,5908.739684318018
1680662688025452375,121,1680662688025452375,camera_1,122,0,0.2743665062831456,0.293440562189835,3.7945361818674717,-0.9996322195608922,0.023306899879240544,-0.0015642962228824093,0.013775594764296387,0.0028431596329028253,0.000989342946984943,5913.552824981857
1680662688034724950,122,1680662688034724950,camera_1,123,0,0.2742478646120793,0.2933717006609393,3.7928092129226143,-0.9996583958525825,0.023377301904854788,0.0034412240143072313,0.011169213686464823,0.0071380064327968284,0.0024819293483625687,5916.181270694593
1680662688045307874,123,1680662688045307874,camera_1,124,0,0.2744000801518436,0.2936076724785067,3.795047312681426,-0.9996244141880957,0.023008346735122035,-0.001216978625879792,0.01483797501841549,0.003453985642408952,0.0012022215100909869,5910.5586165358545
1680662688054932594,124,1680662688054932594,camera_1,125,0,0.2743784775540579,0.2936169899057042,3.794193584816268,0.9996711717663935,-0.023355987699888853,0.0001945362050565195,-0.010583398954651636,0.004172626377112465,0.0014517505102035497,5915.929597983137
1680662688065304756,125,1680662688065304756,camera_1,126,0,0.274382481121117,0.2936624184236801,3.794246757001843,0.9996149198562563,-0.02296684932875497,0.0027630058513538197,-0.015326500949209895,0.006006298754073214,0.0020897239766763083,5913.898554644367
1680662688075158596,126,1680662688075158596,camera_1,127,0,0.2743924328768688,0.29375408668274194,3.7944714602655076,-0.9996655765447872,0.023162443275698826,-0.001293556342463438,0.011426416974161227,0.0050930144388985354,0.0017722890032596929,5915.322152671755
1680662688085021495,127,1680662688085021495,camera_1,128,0,0.27444645955084096,0.2938163789923448,3.7950887085308445,0.9996477720861331,-0.023056241987974145,0.0018253684844055681,-0.013015740413778051,0.005252259743429022,0.0018282150036096356,5912.483365709193
1680662688094868183,128,1680662688094868183,camera_1,129,0,0.2743854652200185,0.29381265827563197,3.794528500840053,-0.9996207966675666,0.023046365462717416,-0.003728335318903174,0.014602308872505803,0.006617247257963754,0.0023027854296826258,5914.498060127723
1680662688104810953,129,1680662688104810953,camera_1,130,0,0.27444936906326683,0.2939017164506855,3.79552345559595,-0.9996112180570172,0.022932245433811987,-0.005668483799685262,0.01481192578101511,0.00596812120420509,0.0020779804519221955,5912.881724579438
1680662688115089178,130,1680662688115089178,camera_1,131,0,0.27439905032249634,0.29381603937479983,3.794920145766715,0.9996123851201946,-0.02298297308232544,0.0045741978369686215,-0.015031273291421014,0.0037308735627448186,0.001298512002343612,5913.65851749177
1680662688125162601,131,1680662688125162601,camera_1,132,0,0.2743512480894054,0.2937407519519503,3.7940468665418616,-0.9996132177939895,0.023053612588698095,-0.0024081291326099015,0.015367064528964294,0.005258382723695831,0.0018293826894591496,5914.10749776749
1680662688134473323,132,1680662688134473323,camera_1,133,0,0.2744732187525414,0.2938650266555612,3.795560209166085,0.9996333460872701,-0.02308595210572001,0.0035802271713593473,-0.013689199360885885,0.007141521462472156,0.002486566405266056,5912.0038511015
1680662688144068002,133,1680662688144068002,camera_1,134,0,0.27444078796322935,0.29392695704483784,3.7955538174843118,-0.999643481256429,0.023107084597029436,-0.0032085393537048313,0.012987620958779549,0.0035503531180438586,0.001236116922963364,5912.322052695208
1680662688154070854,134,1680662688154070854,camera_1,135,0,0.27439396775924074,0.2938894318570603,3.794789019240046,-0.9996553302226238,0.023208187777455917,-0.003594575912785465,0.011733703660423709,0.00489790791834821,0.001704655425733255,5916.13170427887
1680662688164432287,135,1680662688164432287,camera_1,136,0,0.274430300548938,0.2939047907534829,3.7947425089119804,-0.9996615620326263,0.02310201290283785,-0.003072042436729812,0.011559452824143453,0.0051273969329486135,0.0017844899810194755,5915.8962879460905
1680662688174668788,136,1680662688174668788,camera_1,137,0,0.27442098141659627,0.293903950952674,3.7949587800213993,-0.9996285456401575,0.02312902221803885,-0.00213796437302192,0.014256513631360214,0.0050949893484357744,0.0017733985001066148,5911.994553336469
1680662688184811592,137,1680662688184811592,camera_1,138,0,0.27446596074913027,0.2939588822961712,3.7955285004230084,0.9996161945247437,-0.023048085628697965,0.005492667174308552,-0.014355486757136418,0.006037298113369616,0.0021020369907221257,5913.089920816771
1680662688194594860,138,1680662688194594860,camera_1,139,0,0.27440213072263997,0.293830437536862,3.7946183658672763,0.9996197548760837,-0.023034838961065857,0.002670081505968835,-0.014920205101395436,0.0076641474188363645,0.0026670733075777114,5912.954652753542
1680662688204649209,139,1680662688204649209,camera_1,140,0,0.27442483414606744,0.2938404513827208,3.795025608765337,0.9996595674543017,-0.022982640826416875,0.003380870301349623,-0.011879273282818358,0.004049790863064118,0.0014096099527594458,5915.105902126176
1680662688214623212,140,1680662688214623212,camera_1,141,0,0.27446698183856855,0.2938469432953597,3.795513451566354,-0.9996591812909992,0.023239163978765038,-0.0024321943488507386,0.011642463176957748,0.004057740050484426,0.0014127848415335733,5912.945527831034
1680662688224403381,141,1680662688224403381,camera_1,142,0,0.27436956823980124,0.2937305896752712,3.7944044320375885,0.9996209421657031,-0.022824812317493733,0.0022596104337290514,-0.015228069053921042,0.003883198012772482,0.00135116169343543,5913.02363792644
1680662688234434604,142,1680662688234434604,camera_1,143,0,0.2743708950508394,0.2936528792430009,3.794171298435663,0.9996399456837075,-0.023111334907512913,0.0007916191926909814,-0.013609501508897167,0.005611918495560531,0.001952427865104537,5913.903987857862
1680662688244251251,143,1680662688244251251,camera_1,144,0,0.27442322671346825,0.293692578452357,3.7951059780337055,-0.9996609680066508,0.023067034216749664,-0.000887775483292671,0.012044618347649099,0.004118791090149898,0.0014337169998383632,5912.518472819298
1680662688254374504,144,1680662688254374504,camera_1,145,0,0.2743219265516456,0.2935628838002179,3.7938662336672855,0.9996380091402031,-0.02307243375554885,0.0012521160614905522,-0.013782078514345852,0.004919672071991954,0.001711276357772181,5915.214872690094
1680662688264594316,145,1680662688264594316,camera_1,146,0,0.2743870598594714,0.293569986641924,3.794864932098053,-0.9996403044274434,0.02313030053620451,-0.002029276652347962,0.013421363476984681,0.004662688970711315,0.001622832651661809,5913.212436805479
1680662688274802684,146,1680662688274802684,camera_1,147,0,0.27439726404028797,0.2935528621829026,3.7951721268292573,-0.9996344219153195,0.023281360149171666,-6.166302028084591e-05,0.013747617586386922,0.0026708643745223526,0.0009296985350294528,5910.1353603792395
1680662688284759044,147,1680662688284759044,camera_1,148,0,0.2744830358540098,0.29358178806584667,3.7961361761031553,0.9996401136723139,-0.02317101056337539,0.003679263606734455,-0.013008090789491344,0.005275037608953426,0.0018371044259055398,5911.189194684905
1680662688295015573,148,1680662688295015573,camera_1,149,0,0.27441353554612036,0.29348188721021706,3.7952704796591488,0.9996282460027318,-0.02317379144425407,0.0029107726685965903,-0.014066719094088496,0.007627183476870413,0.002655115099555773,5912.262570944149
1680662688305050373,149,1680662688305050373,camera_1,150,0,0.2744516789820421,0.2934697420040522,3.79560611146863,0.9996396817115607,-0.023064989351290456,0.0029093078075424937,-0.013418231698531756,0.005767235023085959,0.00200795866881637,5911.817280887048
1680662688315302371,150,1680662688315302371,camera_1,151,0,0.27442437205045866,0.2933958672202326,3.795342473340245,0.9996499980198431,-0.023477256478859267,0.0019151177820050656,-0.01204293199493618,0.005475784364534775,0.0019062330349658826,5913.000337557983
1680662688325062990,151,1680662688325062990,camera_1,152,0,0.27446537868428156,0.2934358826534231,3.7958493805686677,0.9996715578093527,-0.023457022256365728,0.0014963164871071369,-0.010213013798924218,0.004803450985491509,0.0016727087933220042,5912.577928318582
1680662688335334539,152,1680662688335334539,camera_1,153,0,0.2744673524626858,0.2934116083759505,3.7962020678212713,-0.9996342127418602,0.023341057615829962,-0.0038680785626068843,0.013102431589957051,0.004545992676867172,0.0015833107625621396,5911.210502589823
1680662688344761133,153,1680662688344761133,camera_1,154,0,0.2745139003367087,0.29342404255944704,3.7965585342050314,0.9996304510708824,-0.023173330009153583,0.004624919026070751,-0.013437566450564547,0.0057814639585558325,0.0020139972724372724,5910.44605010649
1680662688355354309,154,1680662688355354309,camera_1,155,0,0.2743775046738105,0.2932427493006658,3.7948956742912405,0.9996321973145142,-0.023257740287625724,0.0038445052981513107,-0.013407736120687637,0.006491555919637904,0.002259365538936997,5915.024535530481
1680662688364755392,155,1680662688364755392,camera_1,156,0,0.27448581879404904,0.2933296455829473,3.7962976365798458,0.999646581318929,-0.023315937635042593,0.004567021021248487,-0.011925679375533108,0.005536519303859677,0.0019284080812177146,5912.6137626499985
1680662688374359846,156,1680662688374359846,camera_1,157,0,0.2744900592037205,0.29330392396820587,3.796279629084248,0.9996388637885403,-0.023200815266342434,0.004177054358793895,-0.012900247726966371,0.005411756064859219,0.0018849101430257022,5911.480072355363
1680662688384135246,157,1680662688384135246,camera_1,158,0,0.274491154479467,0.29329315545833384,3.7963783578662076,-0.9996213945560167,0.023369820337140485,-0.004108885292228713,0.013929684309038935,0.005500962000951404,0.001916164398168167,5910.19872750307
1680662688394139051,158,1680662688394139051,camera_1,159,0,0.2744458469287646,0.2931999766899082,3.7955376272265955,-0.9996255480031748,0.023084101574051035,-0.004116095669461475,0.014104814437326573,0.0046508837986039,0.0016193018859224013,5912.6579759067345
1680662688404420852,159,1680662688404420852,camera_1,160,0,0.27454211643203674,0.29326232401332164,3.796872769777125,-0.9996415754819217,0.023318539043095644,-0.005467667677532655,0.011961225484256023,0.007112242910807254,0.0024780737967293404,5911.623133682242
1680662688414682626,160,1680662688414682626,camera_1,161,0,0.2745042725721274,0.2932089477751764,3.7963630860146025,-0.999667336643115,0.023581018277354548,-0.0011771430577718505,0.010381038487824118,0.006601033546758117,0.0022994339183232946,5910.715030909052
1680662688424625158,161,1680662688424625158,camera_1,162,0,0.2745209729670535,0.2932339934795845,3.7968343863102993,-0.9996601016860336,0.023357946510181124,-0.003308391284172045,0.01109693556832348,0.0034367359839961864,0.001197367784076335,5910.64218230569
1680662688434528112,162,1680662688434528112,camera_1,163,0,0.27446798422921975,0.2931592481024562,3.796066394064397,-0.9996495933029212,0.023261942370681427,-0.005056102280758892,0.01157620301194701,0.006845706404419616,0.0023842431346045713,5914.158284421255
1680662688444981575,163,1680662688444981575,camera_1,164,0,0.27446885003224697,0.293088900609928,3.7956785287569854,0.9996551565991763,-0.023497008925015682,0.0017724256191481316,-0.01158951956203445,0.009781473127077334,0.0034059143509632297,5912.417159863047
1680662688455036163,164,1680662688455036163,camera_1,165,0,0.27453396854101275,0.2931735128736373,3.7967053285721386,0.999680392594343,-0.023587944460955503,0.0011747644931791915,-0.009018950432977622,0.00830059723375598,0.0028919533518396395,5910.800353572238
1680662688465369939,165,1680662688465369939,camera_1,166,0,0.2745562262679127,0.2931941844593966,3.797044220869028,0.9996748211161282,-0.023482954973348128,0.004148210625620968,-0.009033006186339553,0.00692942976093036,0.002414524734440085,5912.457363275109
1680662688474825620,166,1680662688474825620,camera_1,167,0,0.27451122201323225,0.29316005818148083,3.7964239091688063,0.999653204951346,-0.02334612243186909,0.004375320556675999,-0.011370354784469638,0.009132575345574878,0.003181235543896109,5912.6385511829285
1680662688484829902,167,1680662688484829902,camera_1,168,0,0.27449168676551927,0.29311411495050993,3.7960427958672516,0.9996849177464016,-0.023797028460000088,0.0009328972185645973,-0.007930723146348182,0.008688489804626442,0.003026143325987796,5913.488588494018
1680662688495186328,168,1680662688495186328,camera_1,169,0,0.2745772473683736,0.2932399461466739,3.797491807528532,0.9996533101442945,-0.02343391034793429,0.00580621923443866,-0.010507101482418638,0.008874245180777507,0.0030930857910348194,5911.283246151931
1680662688505309343,169,1680662688505309343,camera_1,170,0,0.2745676892542368,0.2931786110327105,3.797077117370109,0.9996632394457647,-0.023439853810711498,0.0036399056906123127,-0.010522929283024904,0.009037735802849056,0.003149346622396126,5910.6848313582595
1680662688514911890,170,1680662688514911890,camera_1,171,0,0.2745420631627093,0.2931550628863673,3.796866826180406,-0.9996654216754328,0.023577192577786475,-0.0038613665771961045,0.009912141281564186,0.005512430278031388,0.0019206534710336633,5912.059113847673
1680662688524796247,171,1680662688524796247,camera_1,172,0,0.27452878168233535,0.2931361214154454,3.7965731416896555,-0.9996543119651975,0.02340438636930957,-0.0041869507669232845,0.01122322196782884,0.009282776896725409,0.0032339179734161443,5912.148438263048
1680662688534421920,172,1680662688534421920,camera_1,173,0,0.2744676575665418,0.293085851162864,3.795972887314552,-0.9996575394632099,0.023629745350759304,-0.002002307319121846,0.011064795272359991,0.007551884791610064,0.0026300626788405192,5912.205164666408
1680662688544003009,173,1680662688544003009,camera_1,174,0,0.27443464504995896,0.2930497767691648,3.7958057238527956,-0.9996581543200795,0.02357424891127047,-0.003158293682940977,0.010856079893493631,0.006736639537848532,0.0023459181415017797,5914.000011315571
1680662688554257631,174,1680662688554257631,camera_1,175,0,0.2744936442326701,0.29306779665002747,3.7961938565875943,0.9996786635945173,-0.023732886506282136,0.003011107599650726,-0.00838169928971506,0.01017479782603914,0.0035440937812837134,5914.64744479384
1680662688564376115,175,1680662688564376115,camera_1,176,0,0.27450897876298896,0.2930785106397778,3.7963996442063617,-0.9996643997219417,0.023557668775843903,-0.0025196873302887808,0.010477373056987004,0.009956385561963543,0.003468356297513328,5911.8616511417185
1680662688573973178,176,1680662688573973178,camera_1,177,0,0.2745189240299964,0.293102099585174,3.7967729533742305,-0.9996586560122113,0.02361879288488117,-0.002874450161554264,0.0107917384507505,0.00792141091733356,0.0027599457583999737,5910.785288462823
1680662688583899021,177,1680662688583899021,camera_1,178,0,0.2744859775900222,0.2930689071403365,3.796231769152128,-0.999642468059227,0.02356026525783691,-0.0029620934179420736,0.012291295945549814,0.010625165672536241,0.003701020315464719,5911.24351924949
1680662688594648122,178,1680662688594648122,camera_1,179,0,0.27452406979088323,0.29306616743524144,3.7966371976922324,0.9996940007332439,-0.02367395188999874,0.0012311599301806982,-0.007066338875079,0.009103388267249102,0.003171685362718883,5912.656995593276
1680662688605167150,179,1680662688605167150,camera_1,180,0,0.2745414706598013,0.29306497130980214,3.7967998071158413,-0.9996564721245325,0.02344688423285265,-0.004511523948056782,0.010808677577364548,0.008228476570366183,0.0028669436465668264,5912.143326250838
1680662688613359212,180,1680662688613359212,camera_1,181,0,0.27455822591975854,0.29310538981721446,3.7970639591071333,-0.9996794614811833,0.02362355050613252,-0.003976158092704751,0.008190990233035277,0.00827807025416405,0.002884751043750426,5912.965189810493
1680662688623385190,181,1680662688623385190,camera_1,182,0,0.2745341732679557,0.2930708092449439,3.796573604656258,-0.9996815509704798,0.023700818395268598,-0.0019295273979626811,0.008446583964607289,0.008688105350302067,0.003026846411549297,5912.422902030637
1680662688633828163,182,1680662688633828163,camera_1,183,0,0.2744658105815275,0.29301694815521895,3.7957907071482904,0.9996695850531496,-0.023551648890008985,0.001534966656880436,-0.010182555258259346,0.010788311919895932,0.0037568996449910885,5913.099508839192
1680662688643959045,183,1680662688643959045,camera_1,184,0,0.27450013711163496,0.2930622664645425,3.7963924085080203,-0.9996501584173333,0.023358641823145936,-0.003883357844209325,0.011783639515544328,0.009538128699205116,0.0033226171987457216,5912.018608249728
1680662688653675317,184,1680662688653675317,camera_1,185,0,0.27453054111651504,0.2930771054296362,3.7967485679597672,-0.9996827067345947,0.023668962256614644,-0.002890682178946942,0.008118499740097658,0.007340636664594057,0.002557676890047479,5913.039546548036
1680662688663336277,185,1680662688663336277,camera_1,186,0,0.2744858790454864,0.2930155369382936,3.7961113102791044,-0.9996808664405751,0.0237944631138561,-0.00047561525484656115,0.00847128017916711,0.009762207373569254,0.0034003266209269626,5912.49516384519
1680662688674769401,186,1680662688674769401,camera_1,187,0,0.2744782420162501,0.2930518073512547,3.7961364418186796,-0.9996743072371874,0.023540188131500172,-0.0028976199489926537,0.009420339230323819,0.006867817108286545,0.002392052894912047,5913.913357013256
1680662688684946775,187,1680662688684946775,camera_1,188,0,0.2745045504891201,0.2931007665268407,3.7967282417638044,-0.9996701303444593,0.023514706175818877,-0.002348953156146268,0.01005840492458066,0.008426421441981802,0.002935846038900164,5911.066150292521
1680662688694692611,188,1680662688694692611,camera_1,189,0,0.27437703074913017,0.29292288679446277,3.794893158894076,-0.9996825504243025,0.023883648967304858,-8.976027129265394e-05,0.008022570178074223,0.008601489960710751,0.0029941816564534244,5916.288260567469
1680662688705279827,189,1680662688705279827,camera_1,190,0,0.2745030655028321,0.293019247662512,3.7961691171811456,0.9996907294487711,-0.023662578792807417,-0.0004242435832155844,-0.0076385755504602216,0.011885878346220123,0.0041402177125615435,5912.069471118391
1680662688715196132,190,1680662688715196132,camera_1,191,0,0.27446290852802013,0.2929928676604871,3.795768805267923,-0.9996919555892665,0.023797455602848037,0.00017477965711541654,0.007045884544191959,0.009345826605567709,0.003254846995075498,5914.020594615837
1680662688725355148,191,1680662688725355148,camera_1,192,0,0.2744637065881473,0.29301655078328104,3.7958030279032213,-0.9996670967616096,0.02349036940642921,-0.002805952485948343,0.01029683582519252,0.008817660916975001,0.0030707392521155006,5914.140959729907
1680662688735126256,192,1680662688735126256,camera_1,193,0,0.27453980834913283,0.2930673730893735,3.796960472383243,0.9996880086092451,-0.023747487430600376,0.002980260486099351,-0.007145651198477139,0.010067572660773294,0.003508071920657983,5913.239816002082
1680662688743739843,193,1680662688743739843,camera_1,194,0,0.27453687784752134,0.2930691939459119,3.7969590210260087,-0.999675520013849,0.023453322579228768,-0.0026472628079157678,0.009580623396273828,0.005419100594735937,0.001888233202877994,5911.027860113652
1680662688754258394,194,1680662688754258394,camera_1,195,0,0.27445358046536994,0.2929930858506099,3.7958379714820336,-0.9996724325585196,0.023576037185622786,-0.0019972537467554848,0.009757511497569765,0.009721713100589113,0.0033856601040849394,5913.768073435349
1680662688764586925,195,1680662688764586925,camera_1,196,0,0.2744850845606388,0.2930415472484796,3.7962882407558483,-0.999664483441937,0.02352023444550924,-0.001123783884844439,0.01079148859861585,0.007646823447430506,0.0026636107978605873,5910.680459363386
1680662688774435281,196,1680662688774435281,camera_1,197,0,0.2745168570463747,0.293065591555413,3.7966791483915965,0.9996783656825082,-0.02363643480185583,0.0024917282038784587,-0.008847340095490965,0.008639911582577042,0.0030101513273544074,5912.336491503288
1680662688785024166,197,1680662688785024166,camera_1,198,0,0.27451596401600575,0.29306935581208127,3.796740186281924,0.9996603933913584,-0.023267989254466534,0.005024986933852363,-0.01060415329025681,0.00907401557196863,0.0031614016414441603,5912.962909171127
1680662688794610738,198,1680662688794610738,camera_1,199,0,0.2745272072513882,0.2930734260690717,3.797026762328026,0.9996958706140302,-0.023813509233258402,0.0012791371293449788,-0.006280673806045626,0.006490796018624678,0.0022618373069043557,5912.123241469725
1680662688804488658,199,1680662688804488658,camera_1,200,0,0.27446454275520205,0.2929930709416639,3.7958217910952485,-0.999690240987272,0.02375992346231895,-0.0019338675720349061,0.007151801737238346,0.00927647493153927,0.0032306817544618272,5915.796554359956
1680662688814308404,200,1680662688814308404,camera_1,201,0,0.2744984944591653,0.2930232925029562,3.7963109406629223,0.9996733623346816,-0.02366923178563929,0.0024388567807160804,-0.009326740199719121,0.009660134528530762,0.0033648877452688657,5913.051651149639
1680662688824406385,201,1680662688824406385,camera_1,202,0,0.2745174467037548,0.29305871842714476,3.7966566199655656,0.9996555452022184,-0.02334540197227433,0.004629061215636319,-0.011061416973897484,0.00746476653512218,0.0026005434861237214,5912.492734129832
1680662688834546327,202,1680662688834546327,camera_1,203,0,0.2744696449002606,0.2929772803028148,3.7955607433194123,-0.9996755923833902,0.023680392364053924,0.0011903269606350346,0.009302264892429734,0.010192859605012927,0.0035494204050499864,5911.87031197187
1680662688844757556,203,1680662688844757556,camera_1,204,0,0.27448189104462306,0.2930194940099868,3.7961009365746823,-0.9996624600370725,0.023583551446728114,-0.0024901981355659785,0.01061041973880974,0.007059029892843682,0.0024586512299258727,5912.68195301294
1680662688854607343,204,1680662688854607343,camera_1,205,0,0.27443081472011677,0.292994761036818,3.7957142325891606,-0.9996659027635401,0.02357785560960239,-0.003772647246953244,0.009896196721936467,0.009217488757713,0.003209811446452673,5915.661370642016
1680662688864714860,205,1680662688864714860,camera_1,206,0,0.2745654003008315,0.29310863874827575,3.7973324040275167,0.9996748916457081,-0.023508724608972745,0.004416831043902723,-0.008828504059649562,0.009817673653742531,0.003421675546975306,5912.04219515709
1680662688874504089,206,1680662688874504089,camera_1,207,0,0.2744843046185978,0.29302361672069077,3.796295716213348,-0.9996747750088449,0.023607841475567923,-0.0028099547670893603,0.009225951771329522,0.009013679366034921,0.003139976890354681,5913.522414467296
1680662688885508537,207,1680662688885508537,camera_1,208,0,0.27445239681237704,0.2929728419265014,3.7957780908050833,0.9996918310607324,-0.023794225682385987,0.0010010079302036218,-0.00700540632221033,0.008764336038439069,0.003052145135770125,5915.1905255934635
1680662688895380735,208,1680662688895380735,camera_1,209,0,0.2745469724067793,0.2930685443078978,3.7968831305291566,0.9996848752459347,-0.023744385871989085,0.004655634633706785,-0.006684265871390801,0.008167610230884748,0.002845957276876191,5915.287488441276
1680662688905339241,209,1680662688905339241,camera_1,210,0,0.2744046650843869,0.2929100308076238,3.7948822810440355,-0.9996672211654692,0.02371337937265342,-0.000770187536092953,0.01012567909805696,0.011457027885626303,0.003988108685688525,5915.265131542112
1680662688915215015,210,1680662688915215015,camera_1,211,0,0.27450886714192546,0.29302818839578565,3.7963213022426285,0.9996751544102987,-0.02345987097251231,0.00267084267401206,-0.009596181954784849,0.010817793216119753,0.003768232945473048,5912.994904007415
1680662688925589561,211,1680662688925589561,camera_1,212,0,0.27451724235735847,0.2930183000471152,3.7965623733737774,0.9996742578189267,-0.02362256570291902,0.0015649229963724616,-0.009534341078694773,0.008519278242602013,0.002967895144605463,5911.303843746311
1680662688934448957,212,1680662688934448957,camera_1,213,0,0.27455578210917864,0.29305856536693775,3.7969999537717167,0.9996827148869541,-0.02382939836352162,0.0006429406299906042,-0.008137318798458191,0.010206408878730144,0.003556688286073761,5910.164669761554
1680662688944353103,213,1680662688944353103,camera_1,214,0,0.2745338071111831,0.2930171713950439,3.796690521949781,0.9996962315044625,-0.023748312477943307,0.0015966293936865953,-0.006396338390467668,0.007906451708549866,0.002754660411808742,5913.366530044177
1680662688954606533,214,1680662688954606533,camera_1,215,0,0.27453497745588307,0.293009189047713,3.796600713008459,0.999679215110262,-0.023654452898910865,0.0031272363825202033,-0.008494358550910852,0.010549613027251324,0.0036754087149427892,5913.443730823695
1680662688964565277,215,1680662688964565277,camera_1,216,0,0.2745938148359707,0.29307598649718236,3.797349285407498,-0.9996927615897576,0.023740741347047862,-0.0025586005024868293,0.006649299873316297,0.00841987676176359,0.002934717362946007,5911.995409847241
1680662688974586009,216,1680662688974586009,camera_1,217,0,0.2745470467919011,0.29306302996007694,3.7971102491907627,-0.9996798107917099,0.023475099938579533,-0.0031989653752849483,0.008886067682198972,0.010638192386977607,0.003707433089714871,5911.624755977537
1680662688984669923,217,1680662688984669923,camera_1,218,0,0.27450520438039216,0.2929957292940981,3.7961664288223056,0.9996766803320205,-0.02359166331427266,0.0026562194965372614,-0.009105642229058719,0.009560228019836359,0.0033299036525492277,5913.866128927561
1680662688994998455,218,1680662688994998455,camera_1,219,0,0.27457761723870694,0.29306215393838486,3.797247365354568,-0.999677052457201,0.023542185046027952,-0.00454773806769254,0.008418693022619479,0.009119156795350136,0.003178128148939051,5912.7483536376385
1680662689004083395,219,1680662689004083395,camera_1,220,0,0.274429542872068,0.2928970539516549,3.7952745997087494,0.9996523047925159,-0.023388540171935472,0.004448837777744991,-0.011333735221197572,0.012065431095834356,0.004200437303811823,5916.430797340231
1680662689014436244,220,1680662689014436244,camera_1,221,0,0.27454734681607085,0.2930231920873993,3.7969106270305226,-0.9996770993235027,0.023560083866874405,-0.002834173730927917,0.009087738750455985,0.007587433621665696,0.0026437695918888277,5911.759717399778
1680662689024578332,221,1680662689024578332,camera_1,222,0,0.2744540106152424,0.2928862149453314,3.7952491961160026,0.9996595451858584,-0.023542886827475597,0.0032796328073782396,-0.010759656466639267,0.012996569326787721,0.0045245497332368845,5915.939002756726
1680662689035045146,222,1680662689035045146,camera_1,223,0,0.27444609936620545,0.29292800238872174,3.795637108193818,0.9996644881481774,-0.023486079534909183,0.003611900648653788,-0.010308703954750488,0.0118522663397016,0.0041270239999548035,5915.438686533014
1680662689045094251,223,1680662689045094251,camera_1,224,0,0.2745278504782657,0.2930190412380666,3.7967609062730205,-0.9996827873896948,0.02339131738507092,-0.002738718644795267,0.008925821415756737,0.007168834832555149,0.002497724070869311,5912.270886197918
1680662689055410146,224,1680662689055410146,camera_1,225,0,0.274553796594019,0.29303859637718266,3.7969922686342277,0.9996712162532747,-0.02361386777013127,0.00443357109747278,-0.008954780341081669,0.012309384976106228,0.004289425703983175,5913.029870404282
1680662689065429925,225,1680662689065429925,camera_1,226,0,0.2744959794035675,0.293018587460111,3.7963607536545934,0.9996778108943513,-0.023514175257765522,0.003916501263033232,-0.008718886699654838,0.008454095412162133,0.0029448737384062443,5914.724450619542
1680662689075508117,226,1680662689075508117,camera_1,227,0,0.2744754810591992,0.29299894622493444,3.795895716672196,-0.9996674424935812,0.023553328807332064,-0.0020062198548315975,0.01030631856341088,0.007377005313173868,0.0025691384854193127,5913.120698598856
1680662689085392951,227,1680662689085392951,camera_1,228,0,0.2744661662294134,0.29300373160907994,3.7958499905172465,-0.9996509401168429,0.023493369277676753,-0.004036697403022179,0.011391426494141293,0.0078066429450700525,0.002718570748766508,5914.1905865753615
1680662689095536470,228,1680662689095536470,camera_1,229,0,0.2744889832479723,0.2930411504571268,3.796105477379698,-0.9996870132626604,0.023602954369512614,-0.0010115684509155376,0.008231208190872868,0.010009972480474971,0.0034866003623239567,5913.192038585722
