%time,field.header.seq,field.header.stamp,field.header.frame_id,field.image_seq,field.transforms0.fiducial_id,field.transforms0.transform.translation.x,field.transforms0.transform.translation.y,field.transforms0.transform.translation.z,field.transforms0.transform.rotation.x,field.transforms0.transform.rotation.y,field.transforms0.transform.rotation.z,field.transforms0.transform.rotation.w,field.transforms0.image_error,field.transforms0.object_error,field.transforms0.fiducial_area
1680662479768887281,0,1680662479768887281,camera_1,1,0,0.29285096664890625,0.27156798074845084,3.7965763420904497,-0.9996526755675122,0.02330663723882688,-0.003630747057840811,0.011753576780444825,0.00655002332496224,0.0022815780538749425,5911.940431946595
1680662479778872728,1,1680662479778872728,camera_1,2,0,0.29292823592009315,0.27160759624795056,3.797136044197337,-0.9996261530782549,0.023343565157717905,-0.00371909563525424,0.013740464888526913,0.0049858328893606085,0.0017371667764355862,5908.474746761785
1680662479788910627,2,1680662479788910627,camera_1,3,0,0.2928756508539885,0.2715625740607083,3.7964686083022707,-0.99968268833975,0.02373448918877288,0.00037232850419951526,0.00842959241265704,0.008841581413435051,0.00307995962380538,5911.2285557508585
1680662479798982381,3,1680662479798982381,camera_1,4,0,0.29285864057825794,0.27150876493966625,3.7962221412463553,0.9996691000927223,-0.0236287680446336,-8.973517858347419e-05,-0.010166788484935466,0.006769183473807061,0.0023574442497592395,5910.899881633521
1680662479808885097,4,1680662479808885097,camera_1,5,0,0.2928812914343468,0.2715186374187871,3.7962902200407282,0.9996754133863301,-0.02370093603993928,0.0008280391779026341,-0.009308482842039662,0.009155416442808928,0.0031887857763561486,5912.24939134816
1680662479818986654,5,1680662479818986654,camera_1,6,0,0.29292974560955704,0.27159082524072675,3.797205143482824,-0.9996552404823028,0.0234301652357226,-0.0031441505294663216,0.01142549126926992,0.005619151350401808,0.0019579688571272325,5909.81053910835
1680662479828891038,6,1680662479828891038,camera_1,7,0,0.2929147593465601,0.2715588572418527,3.7970146813101935,0.999671769395893,-0.023397922091160647,0.003298010940852817,-0.009900193863491653,0.005694867795682512,0.001984037160842421,5911.840720462846
1680662479838898181,7,1680662479838898181,camera_1,8,0,0.2929586062405524,0.2715929812323539,3.7971268098859237,-0.9996903648893561,0.023525014660406834,-0.0020666831581187583,0.007840717654497023,0.006279742348851869,0.002188151547461704,5911.944225252606
1680662479848802566,8,1680662479848802566,camera_1,9,0,0.29295159090325035,0.2715558782554718,3.7969083338215412,0.9996910227930349,-0.023726945943549894,0.0017297764830365872,-0.007204086099318586,0.009385915109305643,0.003270151670948122,5912.803451766144
1680662479858855485,9,1680662479858855485,camera_1,10,0,0.2929538664809381,0.2715827796808202,3.7974508677554146,-0.9996487675671061,0.0234868511975728,-0.005302249365207926,0.011072284048834037,0.009402596439031186,0.0032768777180111805,5911.248680266433
1680662479868890523,10,1680662479868890523,camera_1,11,0,0.29287978525836106,0.2714747091408447,3.796196473446649,-0.9996849573417016,0.023722380005139605,-0.0020467624740507276,0.007940120590191632,0.006731052832037676,0.002344259567501813,5914.789584835351
1680662479878827095,11,1680662479878827095,camera_1,12,0,0.2928931666589967,0.2714783167278888,3.796400745285089,0.9996914383892741,-0.02361140826994947,0.001501285703786674,-0.007568061305884695,0.008337781080626883,0.002904142349945642,5913.9418095655265
1680662479888881206,12,1680662479888881206,camera_1,13,0,0.29286801007401964,0.2714940644483592,3.7963593697606868,-0.9996518434018095,0.023503776359467234,-0.0039167466862395995,0.011332412611804179,0.007203248202131363,0.002508836194866983,5913.233890708596
1680662479898852109,13,1680662479898852109,camera_1,14,0,0.29287298844946796,0.27147734518842326,3.7963920069359265,-0.9996923051792028,0.02372624582689536,-0.0021206073323172463,0.00691832703733407,0.009412399147549877,0.0032785763773052114,5915.061975706425
1680662479908867359,14,1680662479908867359,camera_1,15,0,0.2928871159647621,0.27149127061973904,3.796431472451249,-0.9996925408524003,0.02373126909940295,-0.002593115033276831,0.006702714780434452,0.007616817663802067,0.002653146243967447,5915.514660472926
1680662479918836593,15,1680662479918836593,camera_1,16,0,0.29288403622520226,0.2715055748887548,3.796623955800287,-0.9996588460841291,0.023504752997372567,-0.004389353555343995,0.010509595979220174,0.006717126285366248,0.0023398486712727096,5913.530859839404
1680662479928849935,16,1680662479928849935,camera_1,17,0,0.29285595947624243,0.27148880753162163,3.7961899652795914,0.9996749289511165,-0.02361822672560072,0.002521017904574194,-0.00926608124522279,0.007772592100081965,0.002706922378009487,5914.218305497836
1680662479938926935,17,1680662479938926935,camera_1,18,0,0.29287861854375075,0.27152595768006926,3.7963500583608627,0.9996741366050184,-0.023623839515699765,0.0014094351405315327,-0.009568087694640437,0.007226262885524192,0.0025168521748973245,5912.412913206499
1680662479948916673,18,1680662479948916673,camera_1,19,0,0.2929732057650327,0.27164506590079446,3.79773765232568,0.9996603304217776,-0.02327832136919944,0.004444368602895977,-0.010843944069215752,0.005205386463785544,0.001814219045817044,5909.789694465698
1680662479958898782,19,1680662479958898782,camera_1,20,0,0.2928705558713483,0.2715405299417949,3.796167648789126,0.9996677370412935,-0.023471308793705837,0.0021587078282762177,-0.01043327191067372,0.007058063449221663,0.002457944345218704,5912.942746195595
1680662479968907117,20,1680662479968907117,camera_1,21,0,0.29297090719695823,0.2716326280644277,3.7973846813360574,-0.9996743527293898,0.023632307409543772,-0.002170448376479032,0.009380388873701486,0.006673034586128779,0.0023255354693288263,5910.014545475249
1680662479978794336,21,1680662479978794336,camera_1,22,0,0.2929578570217615,0.27166257128735194,3.7973328668546027,-0.9996489130406,0.023320803922689606,-0.003932652401211233,0.011946757143174362,0.004921742369333515,0.0017150001841663026,5909.605240289415
1680662479988825559,22,1680662479988825559,camera_1,23,0,0.29289190359807166,0.2715904038545821,3.7964204229947085,-0.9996675780705976,0.023349298491511104,-0.003549045112274482,0.010341561449364522,0.005767416601884179,0.0020088185567621974,5913.464902931768
1680662479998839139,23,1680662479998839139,camera_1,24,0,0.2929135515366857,0.27161363776187264,3.79684267059676,-0.9996667520142417,0.023285958338437922,-0.004105961424568056,0.010358095497588588,0.0078110906506481115,0.00272125327523334,5912.649040611633
1680662480008953571,24,1680662480008953571,camera_1,25,0,0.2929593771302089,0.2716925095521069,3.797692804072265,-0.9996380500489823,0.02328945642674011,-0.0048793675471043105,0.012552365751351841,0.004778773531143088,0.0016655142925336272,5908.806801787578
1680662480018804311,25,1680662480018804311,camera_1,26,0,0.2929041234288059,0.2716340956490297,3.796885341166863,-0.9996606088551331,0.02357737828489408,-0.003858353430758672,0.010386888148002243,0.006453375845012488,0.002248332724284535,5912.278538404793
1680662480028827190,26,1680662480028827190,camera_1,27,0,0.29292376456524033,0.27164449531283014,3.797022770524245,0.999667635032405,-0.02347880036371372,0.0037736770892382574,-0.009956141995040524,0.006498853355878964,0.002264251539862414,5912.124680981855
1680662480038905858,27,1680662480038905858,camera_1,28,0,0.29291563172816604,0.2716312381787589,3.7967486958687537,0.9996780472024926,-0.023527967646417184,0.0021115579643807988,-0.009261641474557637,0.008198838393582264,0.0028561785940431476,5912.018139106047
1680662480048912048,28,1680662480048912048,camera_1,29,0,0.29286740400509925,0.2716092719864329,3.796456675723606,-0.9996429816114035,0.023283593040170938,-0.005662274792838676,0.011820416844309442,0.006502269014163176,0.0022647623250231183,5913.952694488689
1680662480058875322,29,1680662480058875322,camera_1,30,0,0.29287482565938405,0.27161344818969124,3.796341752697946,-0.9996603570680246,0.023371103638647465,-0.0037841106381032107,0.010892315090004422,0.008690360889886506,0.003026879502702665,5913.45011263748
1680662480068973302,30,1680662480068973302,camera_1,31,0,0.2928983461035584,0.27160747786304446,3.7967053978367473,-0.9996705485675276,0.02346554855731675,-0.001880441487780689,0.010228699693208046,0.00972237550013233,0.0033869665139651234,5911.173901371891
1680662480078893661,31,1680662480078893661,camera_1,32,0,0.2928793033556399,0.2716182231505421,3.7963228141542036,-0.9996684684421384,0.0234973428092556,-0.0036388527541776727,0.009878604865427295,0.007231058163597481,0.0025184872182574965,5914.218547818717
1680662480088852882,32,1680662480088852882,camera_1,33,0,0.2929261651867053,0.2716486051221395,3.797070131433677,-0.9996535283539253,0.02336801178553306,-0.00479236496041835,0.011126208375966822,0.005648259655572474,0.001967947259346541,5911.88710710936
1680662480098946094,33,1680662480098946094,camera_1,34,0,0.29287922568577746,0.2716081951920932,3.7965298249087307,-0.9996614629824871,0.023328882267865954,-0.003096038031917106,0.011096721513607705,0.0035989576936117378,0.001253566643211116,5912.101549629585
1680662480108972787,34,1680662480108972787,camera_1,35,0,0.29289733008611224,0.27159794001243937,3.7968075899217992,-0.9996535680905161,0.023312101869569314,-0.00398888548386231,0.0115489611186255,0.004442732839379459,0.0015476774025796457,5911.67286784225
1680662480118850469,35,1680662480118850469,camera_1,36,0,0.2929615300727366,0.2716354443799173,3.797404532235619,-0.9996542801841416,0.023330440388290224,-0.005937287663301678,0.010571625987392657,0.009118743029830512,0.003177783504812817,5912.300582674447
1680662480128996133,36,1680662480128996133,camera_1,37,0,0.2928300040499451,0.27153891696928895,3.795849069529021,-0.9996410165988628,0.023204648743485993,-0.00466323337131467,0.01255533609299765,0.005030292642913992,0.001751460321500823,5914.353388409074
1680662480138944864,37,1680662480138944864,camera_1,38,0,0.2928995443447277,0.27155165835224804,3.796589234983077,-0.9996493149472812,0.02333327756769481,-0.005136046220973962,0.011420433993360669,0.009640024007239845,0.003358007641379074,5913.457298036259
1680662480148853778,38,1680662480148853778,camera_1,39,0,0.2929345325938248,0.2715812864330733,3.796940132229364,0.9996720772989292,-0.023482821791456932,0.004464935844829359,-0.00918473175743201,0.00849830736478907,0.002960807044630511,5913.634403247272
1680662480158937454,39,1680662480158937454,camera_1,40,0,0.29293016346483725,0.2715871392054226,3.7968588478326786,0.9996686794957147,-0.023584819075297307,0.003570339836371325,-0.009671619199095042,0.00927510934707243,0.003231302147726134,5912.696779346557
1680662480168912172,40,1680662480168912172,camera_1,41,0,0.29291912716477786,0.27159215742581927,3.7966433532610475,-0.9996615430159704,0.02339399198101111,-0.0041700177524994905,0.010589216499121428,0.008529860577255022,0.002971406406130486,5913.112206066664
1680662480178859472,41,1680662480178859472,camera_1,42,0,0.29292441078793824,0.2716110521945749,3.796754838170677,-0.9996697298453405,0.023343583440282246,-0.004195516131942528,0.009894745448826535,0.00917666298119002,0.0031968886215682237,5913.361616981683
1680662480188843250,42,1680662480188843250,camera_1,43,0,0.29295277280056725,0.2716250900921089,3.797139347721536,0.9996458123848952,-0.023336916828070584,0.004859702087291132,-0.01183306342100136,0.007149673350795638,0.0024910893538058866,5911.120956811586
1680662480198920488,43,1680662480198920488,camera_1,44,0,0.292973274368822,0.2716344036223954,3.7974255416206097,0.9996803072613156,-0.023548206367402957,0.0036533824485110613,-0.008450919919440976,0.01093138807482319,0.0038095325116456213,5911.981496608698
1680662480208840608,44,1680662480208840608,camera_1,45,0,0.2929388900836416,0.2716341825223636,3.797238288185158,0.9996652690426111,-0.02324819612060982,0.007037062300223152,-0.008907917898390101,0.006811873598053353,0.0023735454519479542,5915.08858514129
1680662480218799352,45,1680662480218799352,camera_1,46,0,0.2929810802297736,0.2716886595474074,3.7979127201517264,-0.9996733466341338,0.023683369891026176,-0.0038134412222913484,0.008817918459610153,0.0056837527808966115,0.0019812890676421174,5910.335999957173
1680662480228751897,46,1680662480228751897,camera_1,47,0,0.29289075922000074,0.27157880504818466,3.7966096333426,-0.9996641711812392,0.023585005819003732,-0.004992886457839456,0.00950596874930686,0.0078230163671833,0.0027251169341990325,5914.866290690492
1680662480238825321,47,1680662480238825321,camera_1,48,0,0.29295924831673525,0.27162429605505545,3.7973947155907744,-0.9996572324154447,0.023417935581229073,-0.005795883840964982,0.010169842826167477,0.008170637673174497,0.0028473613663221892,5912.556222957679
1680662480248820781,48,1680662480248820781,camera_1,49,0,0.29295101840006627,0.2716090152566299,3.797167724056161,-0.9996642799823741,0.023404380596926472,-0.004785515438991113,0.010033002450871527,0.007345089434238617,0.0025593830982920513,5912.501744111536
1680662480258872747,49,1680662480258872747,camera_1,50,0,0.29296912237596545,0.2716294388948501,3.7974749254639746,-0.9996518126136005,0.023193411248939595,-0.005316195483579061,0.011404265805436567,0.00835642467791331,0.002912194070979706,5910.855612723161
1680662480268774747,50,1680662480268774747,camera_1,51,0,0.29288702294344104,0.2715546251029829,3.796471904098954,0.9996765634867133,-0.023438709953972885,0.004194042805120326,-0.008933380997024332,0.0072342520325037185,0.002519731641389113,5915.066479620638
1680662480278953313,51,1680662480278953313,camera_1,52,0,0.29289029035915637,0.2715697388288205,3.796445857157361,0.9996677625795692,-0.02329391720290402,0.005858029768018399,-0.009351008915591366,0.006672447507298784,0.002324032848591036,5916.217496981146
1680662480288859605,52,1680662480288859605,camera_1,53,0,0.29293004303441733,0.2716010401724462,3.7969590804103865,0.9996636366680879,-0.02345915302617158,0.005207064613310347,-0.009755415979888962,0.009152046688541304,0.0031884182264625863,5913.75286611513
1680662480299086332,53,1680662480299086332,camera_1,54,0,0.29295583745951703,0.2716306347052066,3.7971419770030006,0.9996389209447321,-0.02334810561441312,0.0063754653105819546,-0.01167249496653151,0.007136552922020201,0.0024865483499891877,5912.52236099553
1680662480308941841,54,1680662480308941841,camera_1,55,0,0.29286161804618915,0.27156384879807804,3.7962793782152158,-0.9996640304036467,0.02349339343853873,-0.0046782880979335745,0.009899515258435626,0.00726329829194583,0.00252963519027019,5915.301325216076
1680662480318933010,55,1680662480318933010,camera_1,56,0,0.29290456293936046,0.2716093932649742,3.7967722385651648,0.9996588859625501,-0.02346840156181859,0.0032685770217504256,-0.010984636930698717,0.0055308865557890385,0.0019266763039837952,5911.608566298908
1680662480329400062,56,1680662480329400062,camera_1,57,0,0.2928333569632076,0.271549838605194,3.7959887646158337,-0.9996297684994918,0.02327522339926896,-0.005371522875793066,0.01302830178348663,0.007405461874441244,0.0025787351745598926,5914.113856363578
1680662480339005947,57,1680662480339005947,camera_1,58,0,0.2929864469760358,0.27163442190383036,3.7977354121742883,0.9996751078593277,-0.023384318517793982,0.004006138249341199,-0.009316825115191435,0.005423638736829162,0.0018902905335976617,5910.665939631755
1680662480349232912,58,1680662480349232912,camera_1,59,0,0.2928853193054686,0.2715144770209792,3.7963390736886615,-0.9996564852931431,0.023450522187414845,-0.003142422844526207,0.011274289297504653,0.009795221343665617,0.003411645285457794,5912.61710551736
1680662480358999967,59,1680662480358999967,camera_1,60,0,0.2929095330633314,0.2715128675226922,3.796755153694432,0.9996793937689308,-0.02366446384029406,0.002911116730265632,-0.008522219447850712,0.008480278735078173,0.0029542241221928805,5913.409330966475
1680662480368861675,60,1680662480368861675,camera_1,61,0,0.29290068524233315,0.2715212082220868,3.796631860902691,0.9996876379163308,-0.02357309189616884,0.002693879146549671,-0.007853594773478856,0.00623650153647759,0.0021724114910860607,5914.103768435771
1680662480378829479,61,1680662480378829479,camera_1,62,0,0.2929407889329975,0.27154654152729263,3.797022985545583,0.9996839681725822,-0.023597578255538914,0.002896061738201104,-0.008168898677413907,0.007781787619023817,0.0027112467810823833,5912.816679983283
1680662480389027357,62,1680662480389027357,camera_1,63,0,0.29286901573873,0.27150522687686807,3.796252912397937,-0.9996441676653917,0.02338417878694589,-0.00503311473770116,0.011806184441369147,0.007892680579971056,0.0027488137889000817,5914.104334275061
1680662480398917675,63,1680662480398917675,camera_1,64,0,0.29298951494681474,0.2716089513717568,3.7976196410758694,-0.9996489903113941,0.023504339930089692,-0.005501724489880492,0.010916647905762659,0.009270820493838983,0.0032311949273420193,5910.990206012211
1680662480408867120,64,1680662480408867120,camera_1,65,0,0.2929269238137712,0.271535439842989,3.7969037129496024,-0.9996739839123397,0.02369092499770478,-0.00031152702548074585,0.009516770066390342,0.008531232655514032,0.002972371572170075,5909.693468002951
1680662480418892383,65,1680662480418892383,camera_1,66,0,0.29295105094712687,0.27154867795426907,3.7972479586655337,0.999649397078152,-0.02339244777582102,0.005954818402846679,-0.010881932095542255,0.008314840193634154,0.002897256527388021,5912.595214465866
1680662480428848981,66,1680662480428848981,camera_1,67,0,0.2929239383810435,0.27151404537587126,3.7966048437450235,0.9996728347040945,-0.02378322264240483,0.001746612148478652,-0.009248309111661947,0.010460269713803427,0.0036438754657350755,5912.1842797799045
1680662480439049720,67,1680662480439049720,camera_1,68,0,0.2929395219381556,0.2715649794246582,3.797245741333361,0.9996861945515212,-0.02359662280972181,0.0030940089290124977,-0.007819138304272888,0.008030382174183615,0.002798260217713721,5912.592794438358
1680662480449332952,68,1680662480449332952,camera_1,69,0,0.29294840051723225,0.2715084214133726,3.796935439414306,-0.9996685577860569,0.023347895859811757,-0.0037908821013109112,0.01016265446419689,0.011373104283848079,0.003962530718398905,5912.285929808392
1680662480459115505,69,1680662480459115505,camera_1,70,0,0.29297331071041044,0.271538745458733,3.7976675318600717,0.9996533625946449,-0.02348093745418701,0.0055019317408509716,-0.010560728034143116,0.008017730306164594,0.002794406238246936,5911.21635413478
1680662480469148397,70,1680662480469148397,camera_1,71,0,0.29297301623555266,0.2715281159254685,3.797556075716378,0.9996831020159289,-0.023757132517537083,0.003038118455136052,-0.0077500990062464034,0.008531435181794222,0.002973409035947172,5911.657470892591
1680662480479197502,71,1680662480479197502,camera_1,72,0,0.2929687715157133,0.27151460335447913,3.7975927669837786,-0.9996729956111918,0.02370727540240003,-0.0033585438131713426,0.008977033039700016,0.0072721221804386005,0.002534553790423894,5910.8859368537105
1680662480489261388,72,1680662480489261388,camera_1,73,0,0.2929333327757542,0.27148040992866873,3.7969611218463717,0.9996883467913669,-0.02358778790931248,0.003086883917279778,-0.007569458287785952,0.009588942430127645,0.00334096337652327,5913.6855005189445
1680662480499066352,73,1680662480499066352,camera_1,74,0,0.29297222212880897,0.2714915627747518,3.7972823288517077,-0.9996661139851252,0.02348542849350579,-0.0036500353369161077,0.01013767430895499,0.0075944881718896795,0.0026464104095931303,5911.135396881264
1680662480509018898,74,1680662480509018898,camera_1,75,0,0.29287327426654963,0.2713947698481976,3.7961222582083476,0.9996737671459326,-0.023671244000543167,0.0028570717403037316,-0.009157981698906057,0.010613571914291242,0.0036962091455234733,5914.857278372861
1680662480519154071,75,1680662480519154071,camera_1,76,0,0.2928772427298526,0.27137770385472954,3.7964290008011634,-0.9996877040871922,0.023814559507924472,-0.001975303201269364,0.007311581879799458,0.008547622393962229,0.002977405210252114,5914.580383362016
1680662480529227256,76,1680662480529227256,camera_1,77,0,0.2928949683298745,0.2714040484857342,3.7965450152875184,-0.9996801022106124,0.02344571768251407,-0.003015982102739933,0.008994188039369496,0.008124079853587318,0.002829882865976553,5913.838164657993
1680662480538969993,77,1680662480538969993,camera_1,78,0,0.2929239830204569,0.2714458784358359,3.7971711688023047,-0.999667406558015,0.023505646630722517,-0.0043231631298426935,0.009688710058441567,0.007340991451201262,0.002557963670577363,5912.514551288565
1680662480549076557,78,1680662480549076557,camera_1,79,0,0.29294922613490104,0.27141649422348835,3.7970185302781907,-0.9996812499094684,0.023592473219310395,-0.003135864463735419,0.008423784238939318,0.013122621836373582,0.00457245682826891,5912.9175994038815
1680662480558953523,79,1680662480558953523,camera_1,80,0,0.29285157869846984,0.271356546693049,3.796041132853671,-0.999680098501282,0.02365516246528207,-0.0011458084486614918,0.008878123236756255,0.008743155372940237,0.0030448502311820947,5913.778498081025
1680662480568972349,80,1680662480568972349,camera_1,81,0,0.29291873272627833,0.2713858096151399,3.7964995293119115,-0.9996761120349812,0.02350167093815356,-0.0024151879090216384,0.009460938489527133,0.009758819523995042,0.003399333671298381,5913.031778875972
1680662480578892707,81,1680662480578892707,camera_1,82,0,0.2929510945056731,0.27139817751379547,3.796991723010853,0.9996988138904737,-0.023697735781120083,0.00039014236249574025,-0.006367622300797986,0.009549986112688202,0.0033275613204761926,5912.009408914015
1680662480588983535,82,1680662480588983535,camera_1,83,0,0.2929519241036805,0.27139629214147276,3.7968106822181835,-0.9996877113512913,0.023648089000674104,-0.002642882761390486,0.007633009271777348,0.011230556228838395,0.003912774249052428,5913.711562243875
1680662480598842620,83,1680662480598842620,camera_1,84,0,0.2929657069714789,0.27140241888208816,3.7972189356957227,0.9996995474321112,-0.023773968066195222,0.000802900341373482,-0.005913430261831185,0.009787708699150244,0.0034109048805898356,5912.041655266599
1680662480608848333,84,1680662480608848333,camera_1,85,0,0.29294227633082187,0.2713763948528502,3.7968402354159716,-0.9996538974825202,0.02354659131906797,-0.007098319144391584,0.009341153600296888,0.012821173197153257,0.0044670429161174675,5916.139551354454
1680662480618810892,85,1680662480618810892,camera_1,86,0,0.2929277549084376,0.2713559866562227,3.796629847341659,-0.9996806136447408,0.023805633149934377,-0.0018918191075456363,0.008269434906303906,0.011730190763046267,0.004086446734080208,5913.120775087039
1680662480629115581,86,1680662480629115581,camera_1,87,0,0.2929249548742675,0.2713158699313029,3.796488814041343,0.9996833834251988,-0.02374648280303082,0.002528004292382001,-0.007927588052482086,0.013550822572142351,0.004720308590561302,5914.425020589028
1680662480639117717,87,1680662480639117717,camera_1,88,0,0.29294315442977065,0.27136058209020963,3.7969669729018594,0.9996565126341513,-0.023555583550390495,0.004960013458522947,-0.010362890437457717,0.014096013641392346,0.004911349186654435,5913.155839644254
1680662480649059772,88,1680662480649059772,camera_1,89,0,0.29288270925149834,0.271251897795789,3.795896687971619,-0.9996822091120839,0.023639081726156717,0.00023804237192091938,0.008753167184340766,0.012723854211799335,0.004430975004631976,5913.001108477591
1680662480659019231,89,1680662480659019231,camera_1,90,0,0.29286299337319177,0.2712329477635335,3.795871609328968,0.9996762761174602,-0.023697302559674584,0.0013720949403432943,-0.009159594685208373,0.014628730761614861,0.005094190687474544,5914.340398882694
1680662480669104099,90,1680662480669104099,camera_1,91,0,0.29295986150638664,0.27136566631932957,3.7972990519486163,0.9996718473019927,-0.023679485114404063,0.0040513449204555765,-0.008891923350651148,0.0125439506409748,0.004371385950202832,5912.5523710090765
1680662480679060697,91,1680662480679060697,camera_1,92,0,0.2929429974288864,0.27129384309705273,3.796837668968584,-0.9996666273398812,0.023506345875122153,-0.0033851147733244195,0.010130492805261654,0.015382839690573746,0.005359490934773384,5912.391395245386
1680662480689048290,92,1680662480689048290,camera_1,93,0,0.292850725002694,0.27123849611408696,3.7956770024983766,0.9996888652718005,-0.023681471013138146,-0.0010596799564048481,-0.007761292458343206,0.010193386340688448,0.003549297450266996,5913.665372746995
1680662480699056863,93,1680662480699056863,camera_1,94,0,0.29296328994971216,0.27135134316768533,3.7972371018996887,-0.999648698389309,0.023609266920140714,-0.004710946803079044,0.01108554483425908,0.009916161146975355,0.0034555067188151707,5911.508998092667
1680662480709092140,94,1680662480709092140,camera_1,95,0,0.29285751342229255,0.2712522258808247,3.7960206905960643,0.9996593682603265,-0.023402521371921503,0.0035924188707973288,-0.010980162542436472,0.010004253781517036,0.0034838215004814772,5914.426452974383
1680662480719140052,95,1680662480719140052,camera_1,96,0,0.292865796369425,0.2712101748850787,3.7959581043916684,-0.9996611354952165,0.023677048189981214,-0.002017421378784418,0.010627397630842474,0.009836146629822906,0.0034252314777477827,5913.495938830718
1680662480729058742,96,1680662480729058742,camera_1,97,0,0.29286208045755757,0.2712260602714928,3.7960864812706894,0.999677064168116,-0.02341016422864564,0.004351339963439968,-0.00887679151083539,0.011550507701031165,0.004022479156067702,5916.641546493397
1680662480739145755,97,1680662480739145755,camera_1,98,0,0.29292824263208,0.2712241257250914,3.796465177691919,0.9996815697200121,-0.023664563046577256,0.0020153039432052595,-0.008525618333218292,0.016421946245827712,0.005720157625635314,5913.614846180546
1680662480749078512,98,1680662480749078512,camera_1,99,0,0.2928327959234892,0.271194682978715,3.7957126450350405,0.9996727374535127,-0.023597932626089505,0.0020162076233813733,-0.009669047253704531,0.0118628773088858,0.004130539873556926,5915.066144522862
1680662480759044885,99,1680662480759044885,camera_1,100,0,0.29289968257711835,0.2712443872092621,3.796351647562411,0.9996829638334161,-0.023626911188229495,0.002275483560705143,-0.008400182349529765,0.013758370685536647,0.0047922016006526815,5914.309250891444
1680662480769053697,100,1680662480769053697,camera_1,101,0,0.29289868101648325,0.27124813491837174,3.796458006950074,-0.9996722311587375,0.023648527879764965,-0.0012917059344319255,0.009721567518183998,0.012095203834178392,0.004213186604788953,5912.011879244472
1680662480779124975,101,1680662480779124975,camera_1,102,0,0.29286430007551484,0.2711878766821178,3.7957421759495475,-0.9996912747870129,0.023630811288298224,-0.0012133335097819365,0.007580744974470815,0.01260081982036354,0.004387769774906788,5915.840592716706
1680662480788956880,102,1680662480788956880,camera_1,103,0,0.29293893565670454,0.2712640867537807,3.796964879154071,-0.9996749279903718,0.023605746565232857,-0.0033551437123090235,0.009030508690677222,0.010950981675705407,0.00381552929689318,5912.907562130133
1680662480798957109,103,1680662480798957109,camera_1,104,0,0.2928227879594716,0.27119808074757945,3.795773453214686,-0.9996718450730698,0.023603140257733905,-0.0027071512813111724,0.009579419090850997,0.00949756418413017,0.003306993091479871,5915.6049995178455
1680662480808876037,104,1680662480808876037,camera_1,105,0,0.2929181111980944,0.2712711417313958,3.796710783159599,-0.9996782966529679,0.02362562098912923,-0.0026885818101118797,0.008826367415269478,0.012120908890210558,0.004222709886205635,5913.241387003738
1680662480818901777,105,1680662480818901777,camera_1,106,0,0.2928551335920799,0.27124724790663884,3.79626407880723,-0.9996712675871744,0.02377813296713681,-0.0010169344792794082,0.009535355133074703,0.011286375873169163,0.0039311230371939275,5912.531593403835
1680662480829063177,106,1680662480829063177,camera_1,107,0,0.2929097198630497,0.2712339430603933,3.7966671126793936,0.9996835291424806,-0.023653885396897285,0.0019609922605956804,-0.008336052796107158,0.010561042254266795,0.003679067883104592,5913.125814846136
1680662480838936090,107,1680662480838936090,camera_1,108,0,0.29290827229728833,0.27122799769197625,3.7964679851807706,-0.9996812233047261,0.023635492107455344,-0.0011638860871210838,0.008801173443415437,0.013453363630105741,0.0046863816165638485,5912.604059219362
1680662480848733663,108,1680662480848733663,camera_1,109,0,0.2928139122449481,0.27115338542350004,3.795330714838129,-0.999689620357361,0.023759503182607274,-0.0013973437123125144,0.007361819667783325,0.009431662230781512,0.0032834561038388144,5917.491011949196
1680662480858686685,109,1680662480858686685,camera_1,110,0,0.29299151019273323,0.271317799610946,3.7975031722088013,-0.9996832413307086,0.023586053974563943,-0.0037177236489079053,0.00795572695030954,0.012258676422788994,0.004272506962797592,5912.37690632482
1680662480868730545,110,1680662480868730545,camera_1,111,0,0.29291827001545595,0.2712431383018812,3.7965547698797484,-0.9996915661743674,0.02379177618406757,0.0010184732441096598,0.007048873534049414,0.009982160983781796,0.003477520266407256,5911.553049056385
1680662480878695487,111,1680662480878695487,camera_1,112,0,0.2928428021724555,0.2711550182831138,3.795429650034752,-0.999671122312063,0.0235931213571312,-0.0021162998244903656,0.009825126717817665,0.0111875043658074,0.00389481505805902,5915.88603631849
1680662480888786792,112,1680662480888786792,camera_1,113,0,0.29294732215956737,0.2712883803860916,3.7970965179740275,-0.9996563585191534,0.02351597973925173,-0.004285979162361847,0.01076075981279555,0.010291966351360315,0.003586186025333007,5911.891827804446
1680662480898752450,113,1680662480898752450,camera_1,114,0,0.2928769602501897,0.2712256077899695,3.7961966305222106,-0.9996844988783311,0.023839157577564843,0.0013235225697253163,0.007800356170030745,0.010350659056712175,0.003605241901879825,5911.799243169018
1680662480908766508,114,1680662480908766508,camera_1,115,0,0.29290620269724116,0.27125806993455925,3.7965385612110536,0.9996757550326397,-0.023663317827035804,0.001967073359792462,-0.009195804028784808,0.008738870998058701,0.0030440545524400052,5912.818763632911
1680662480918808460,115,1680662480918808460,camera_1,116,0,0.29288699470220236,0.2712219940083185,3.796282227376829,-0.999671034587854,0.02376184110484994,-0.0011693429437819177,0.009582804935778446,0.011919263131858315,0.004151545768674609,5912.563507520124
1680662480928778171,116,1680662480928778171,camera_1,117,0,0.2929374051959952,0.2712242139861276,3.7967093656542237,-0.999660671943608,0.023710982978484826,-0.001448977346017554,0.010687877249430638,0.01544371219642926,0.005380386078273677,5910.582875530352
1680662480938885688,117,1680662480938885688,camera_1,118,0,0.2929423292413723,0.2712371696330105,3.7969419816221275,-0.9996801537745124,0.023863445266832903,-0.0009412311970723431,0.008321070435818532,0.015788122927915538,0.005501242621886081,5911.3160226971395
1680662480948745727,118,1680662480948745727,camera_1,119,0,0.2928972757185829,0.27123259035273206,3.796473347493137,0.9996810859984441,-0.023698218002076735,0.0026306622640049617,-0.00831867637010318,0.009557938701618696,0.0033292784748562994,5914.3485605470505
1680662480959215164,119,1680662480959215164,camera_1,120,0,0.2929281135942715,0.2712353201607795,3.7966872222884467,-0.9996683439531711,0.023547187464531726,-0.003180967639074928,0.00993043328932907,0.011660474952805089,0.004062253183443596,5912.874704069864
1680662480969335556,120,1680662480969335556,camera_1,121,0,0.2928698175973212,0.2711520902486225,3.7958132930751782,0.9996906274856376,-0.02371770686352293,-0.0005098574859535491,-0.007473937640376802,0.010454514042066876,0.0036405275349398504,5914.0602211655905
1680662480979266405,121,1680662480979266405,camera_1,122,0,0.29292152024783324,0.2711820685273969,3.7962777122378903,0.9996651080502361,-0.023557295125577544,0.003512450128069439,-0.010118709768249082,0.016093605914647924,0.00560529396984912,5914.2840795944785
1680662480989167213,122,1680662480989167213,camera_1,123,0,0.29282751664534556,0.2711321472627856,3.795376329970406,-0.9996751216806368,0.023660008139391314,-0.0010753722213058283,0.009417997782633124,0.01094406732954667,0.0038099921629803214,5915.43273068097
1680662480998984098,123,1680662480998984098,camera_1,124,0,0.2929146385509837,0.2712030701369665,3.79649180475162,0.9996948168045611,-0.023932423790872386,-5.505671962707113e-05,-0.006124484822971444,0.009821910400205525,0.0034215347902966445,5913.411778309035
1680662481008742809,124,1680662481008742809,camera_1,125,0,0.2929753253496025,0.2712853656554115,3.7972752720378935,-0.9996731281120821,0.023725070420590407,-0.0022907271927047113,0.009247190550172814,0.010805845427967142,0.003765599827421971,5910.786399091246
1680662481018735408,125,1680662481018735408,camera_1,126,0,0.2930379938122635,0.2713305886843303,3.7979562207786337,0.9997019233814899,-0.02367080660869033,0.0037382999911774453,-0.004667163487562079,0.014920957910362631,0.005201897601159765,5913.403613874632
1680662481028763294,126,1680662481028763294,camera_1,127,0,0.2929027630599427,0.2711996817662273,3.7960912355275984,-0.999687088207051,0.023638049508849304,-0.002839635289404312,0.007674943579479529,0.01291119529196294,0.00449662263300645,5916.186944174232
1680662481038806676,127,1680662481038806676,camera_1,128,0,0.2929735032470692,0.27127253820660124,3.797410406153836,0.9996831177132935,-0.023750615730951316,0.0024352135664713636,-0.007977602792554146,0.010345839305955451,0.0036055394441570124,5911.532389947619
1680662481048757791,128,1680662481048757791,camera_1,129,0,0.2929337956415782,0.27121518800385813,3.796523738068443,-0.9996614896442362,0.023571292613256897,-0.002248680671850248,0.010781638189206388,0.014682336626719916,0.005114568193725804,5911.810762100911
1680662481058778285,129,1680662481058778285,camera_1,130,0,0.29287088987648496,0.27114249166611537,3.795601228876586,0.9996651912220744,-0.02370747346406113,0.00024373132293561042,-0.010363481843774003,0.014840707088296767,0.005167231511540996,5913.129612583258
1680662481068723678,130,1680662481068723678,camera_1,131,0,0.2929608770510763,0.2712831439755624,3.797026000150311,-0.9996765855185893,0.023604339239459326,-0.00374841646537062,0.008689586236728409,0.010186256004089955,0.0035493098036404698,5913.305212048636
1680662481078720569,131,1680662481078720569,camera_1,132,0,0.2929791218512274,0.27127304835632216,3.7972748014838027,-0.9996755664047029,0.02349132871989895,-0.0029049250109339985,0.009406424352052486,0.01657409883046057,0.005776039271745773,5911.219231686551
1680662481088722705,132,1680662481088722705,camera_1,133,0,0.29292937667272,0.2712145861858789,3.79635372750802,0.9996795559865173,-0.02367952411684017,0.002723434881603271,-0.00852340205817894,0.015421811203850666,0.005371690749838909,5914.600655743561
1680662481098728179,133,1680662481098728179,camera_1,134,0,0.29290422082725864,0.2712244722190127,3.7962173017687664,-0.9996873422530331,0.023806920304246772,-0.00036150623787174703,0.007636595965102272,0.009677625050244386,0.0033707627199443227,5913.496190160864
1680662481108734130,134,1680662481108734130,camera_1,135,0,0.29284766783038524,0.2711743415054001,3.795540204997994,-0.9996664641531711,0.023400273764231563,-0.001412337776138364,0.01083480213302082,0.011378395447536604,0.003961631178271367,5914.033869870241
1680662481118733406,135,1680662481118733406,camera_1,136,0,0.29294234360563354,0.27124814180540324,3.796534443433192,0.9996707651227652,-0.023389937646330607,0.0022817049751564784,-0.010298834796828287,0.011555288132512942,0.004025059885866331,5912.182681805224
1680662481128731966,136,1680662481128731966,camera_1,137,0,0.29292197751841953,0.27121023817708406,3.7964181186372437,-0.9996899456070804,0.023931628130503858,-7.264446860298772e-05,0.006876376219857936,0.013076292787445707,0.004555197423166867,5913.182897862978
1680662481139079093,137,1680662481139079093,camera_1,138,0,0.292927331660084,0.27120284300971176,3.796486811994416,-0.9996754691058701,0.023714458104577292,0.00020352313244350147,0.009302662151189309,0.013076750787149647,0.004555248940858652,5910.821085647214
1680662481149175882,138,1680662481149175882,camera_1,139,0,0.2928670119746672,0.2711804263669021,3.7959545989819112,0.9996487402887327,-0.02342227349573303,0.005493751459244529,-0.011118086091821787,0.015485621079278644,0.0053926728486514705,5916.196281241603
1680662481159038305,139,1680662481159038305,camera_1,140,0,0.29289893771631964,0.2712105905077595,3.796275474011263,-0.9996855735388509,0.02365957528951877,-0.001930938340145711,0.008077749225190714,0.010543934113229625,0.003672458962500976,5914.489487207145
1680662481168751001,140,1680662481168751001,camera_1,141,0,0.2929784888802818,0.27125734882924796,3.7972912691685767,0.9996870316824134,-0.023846955636265967,0.0020047384100813992,-0.007289884552902583,0.012637387382710585,0.004404092446765935,5912.0183317700885
1680662481178747892,141,1680662481178747892,camera_1,142,0,0.2929093668214867,0.2711682210064995,3.796172127503637,0.9996790036417422,-0.023580510392828886,0.001372662835860994,-0.00916324201397137,0.013438001817121403,0.004680185930686977,5913.4310937621085
1680662481188840866,142,1680662481188840866,camera_1,143,0,0.29293246446344334,0.2711887471631687,3.796464287049385,0.9996855447464857,-0.023676081767232817,0.0019088498353657965,-0.008038101105330559,0.013938923490059096,0.004855232983857187,5913.917562920831
1680662481198817968,143,1680662481198817968,camera_1,144,0,0.29298612328420093,0.2712683594596447,3.7972263329670617,0.9996719855121879,-0.0235725167234427,0.0026524647604680893,-0.00965516794974077,0.014296400047896896,0.004981925661583857,5910.93010508147
1680662481208767414,144,1680662481208767414,camera_1,145,0,0.29288253817813303,0.2711831757868075,3.796090211777422,-0.9996876815812632,0.023653175447537225,-0.0004949992029362861,0.008051183870471606,0.011925214683287777,0.004153271449482351,5913.736628398592
1680662481218804836,145,1680662481218804836,camera_1,146,0,0.29283967485128315,0.2711560441119257,3.795532543598599,0.9996817734212555,-0.023679886065801105,0.0015394688341577613,-0.008558324658073282,0.011438962348620407,0.003982525226049943,5916.066913820572
1680662481228738784,146,1680662481228738784,camera_1,147,0,0.29278332965903037,0.2711015013686721,3.794879183677748,-0.9996722445104694,0.023716071636762027,-0.0024951749645739318,0.009312658235774401,0.011523687251610681,0.004010826365847151,5918.395943843472
1680662481238818407,147,1680662481238818407,camera_1,148,0,0.2928609882694361,0.2711606493031674,3.7957769522400704,-0.999672216237964,0.023645175843460906,-0.0017731941347936587,0.00965512940202618,0.013481618589139543,0.004694504798746148,5914.645805473438
1680662481248830556,148,1680662481248830556,camera_1,149,0,0.29285661875657415,0.2711488364157868,3.7958733616136375,-0.9996812910369827,0.023574414438434714,-0.0010773130252045835,0.008966757003636505,0.01243281825009035,0.0043294743064067965,5914.271961919789
1680662481258743762,149,1680662481258743762,camera_1,150,0,0.29282404961490816,0.2710875319644202,3.7951732237686575,-0.9996828252850279,0.02375242589871947,0.0008071138083287132,0.0083318462162063,0.011927268147701398,0.004152030741094272,5915.1017168192175
1680662481268733978,150,1680662481268733978,camera_1,151,0,0.29282988138694105,0.2711010291949686,3.7954866539024223,-0.9996589909874105,0.023316760398318127,-0.0031988760574202693,0.011313603074581636,0.013681719679880189,0.004763256476544949,5915.509771007405
1680662481278737545,151,1680662481278737545,camera_1,152,0,0.29283327948115745,0.2710876089465919,3.7954472766163336,-0.9996792336897709,0.0235668505250282,-0.0027684570462528026,0.008852622851262254,0.014112934542936273,0.004913475602543859,5917.273597190679
1680662481288782596,152,1680662481288782596,camera_1,153,0,0.2928865730685856,0.27110881793289315,3.795804245875922,-0.9996741418072856,0.023561005492430457,-0.003714945592946359,0.009093316297926285,0.013575960671005305,0.00472734529964205,5916.793947923112
1680662481298769712,153,1680662481298769712,camera_1,154,0,0.2929774257702955,0.27125855395560317,3.7972888748666596,-0.9996750811098624,0.02353907229647216,-0.004792448910200892,0.008525064038154593,0.012282503012102097,0.004280266207566326,5913.566390199123
1680662481308767557,154,1680662481308767557,camera_1,155,0,0.2929022201364567,0.27114765405906116,3.7959739146464644,0.9996586841952299,-0.023821644507674388,0.0013975770602503912,-0.010634432019266615,0.01357865652971668,0.004728583453103009,5912.863109918018
1680662481318720102,155,1680662481318720102,camera_1,156,0,0.29283684823100337,0.27110690362849194,3.7952970345629335,0.9996771222032877,-0.02367032996366295,0.0007189288583004318,-0.009211404022236072,0.013003055926674278,0.0045265352094748575,5915.502972620596
1680662481328733682,156,1680662481328733682,camera_1,157,0,0.29281777554906296,0.27109092042664124,3.7952887406102307,0.9996653480633522,-0.0235516762603994,0.0018829765979663377,-0.010533984328532142,0.011689026963722426,0.004069020230485083,5915.576209705732
1680662481338758468,157,1680662481338758468,camera_1,158,0,0.2929203517202117,0.27121587291196225,3.79663139297924,-0.9996622860801961,0.02356386019325402,-0.0036848674442675855,0.010318916301008929,0.010564289928879589,0.003680236894978396,5913.192671364059
1680662481348751306,158,1680662481348751306,camera_1,159,0,0.2929316755686987,0.27122422551097997,3.7967812351110215,0.9996723999958749,-0.023627047936970312,0.0037861299216051776,-0.009084080167432585,0.01125038722238969,0.003919444419838675,5913.8310206565075
1680662481358748674,159,1680662481358748674,camera_1,160,0,0.2928310285607884,0.2711521464924295,3.795581598134448,-0.999680849372333,0.02372759874675494,-0.0004139398597703832,0.008661934525053063,0.012383532048261259,0.004311762305386062,5914.774253799
1680662481368730783,160,1680662481368730783,camera_1,161,0,0.2928779749286847,0.27117542875416367,3.795980890372791,-0.9996595472063632,0.023468990604299605,-0.003976276397377934,0.010685756182692,0.010429784968437161,0.0036320030774254696,5915.159076089734
1680662481378747463,161,1680662481378747463,camera_1,162,0,0.292918481039904,0.27121785275383314,3.796708930072433,0.9996654617947768,-0.023462487635317806,0.0047187916165003655,-0.00980862754304994,0.010467851407156559,0.003646516795987322,5914.297828605804
1680662481388754606,162,1680662481388754606,camera_1,163,0,0.2929503132650728,0.2712212285439505,3.7970060391340814,0.9996807954632722,-0.023452099527564593,0.004338697334087102,-0.00833558127018855,0.010242027710773982,0.0035685398868327877,5914.219716728783
1680662481398715972,163,1680662481398715972,camera_1,164,0,0.2927775627357763,0.27106777684763417,3.7951226862659007,-0.9996744885774681,0.023675301177274035,-0.0007245024950631709,0.009480089539538251,0.011140993348817574,0.003878083704419279,5915.903698900016
1680662481408745765,164,1680662481408745765,camera_1,165,0,0.29298638868777993,0.2712522972955716,3.7973994531770665,-0.9996666780395579,0.023695182642061233,-0.0030367964248197623,0.009790250476290464,0.009890617791825207,0.003446818196872781,5910.667297019272
1680662481418737888,165,1680662481418737888,camera_1,166,0,0.2928467945657119,0.27110916068609037,3.7957334935531146,-0.9996616247430617,0.02359881698312732,-0.0012788493559344387,0.01086721663461866,0.013441998598864302,0.004680566987195539,5913.355243581231
1680662481428712844,166,1680662481428712844,camera_1,167,0,0.29287598684075233,0.2711221741417522,3.796175845042258,0.9996790864324538,-0.023718053038186523,0.0010430041662149723,-0.008836868900315046,0.012118018366891192,0.004220339407122498,5913.443551220056
1680662481438795566,167,1680662481438795566,camera_1,168,0,0.29281216734276794,0.2710914517692452,3.7953383544621473,-0.9996705439484254,0.02357418777419608,-0.00048572349896608023,0.010140281323966008,0.012240388678037561,0.004261315878083632,5914.4314489888475
1680662481448747158,168,1680662481448747158,camera_1,169,0,0.29292926650607476,0.2711956298259928,3.7967359192766454,0.9996715816767578,-0.023499314694045592,0.003896205840494943,-0.009451485430773053,0.013845277411746792,0.004823456032982219,5913.786794389597
1680662481458770513,169,1680662481458770513,camera_1,170,0,0.29291805863899006,0.2711493789582208,3.796489840683641,0.9996784049669444,-0.023580297145568377,0.0012720796997804042,-0.009243270119943886,0.012356618426565547,0.0043042015932836936,5912.330627155955
1680662481468772888,170,1680662481468772888,camera_1,171,0,0.2928813648424182,0.2711141592887991,3.795978914192465,0.9996904438072128,-0.023850075828465073,-0.0005419385822464085,-0.007063762884413164,0.013023661398619879,0.004535553466665271,5913.860521122697
1680662481478746891,171,1680662481478746891,camera_1,172,0,0.29287533848568054,0.27113087711352624,3.7962027124976836,-0.9996656383988992,0.023553982845516255,-0.002018498002374637,0.010476018444459254,0.012798250565538183,0.00445745577668371,5912.934022099945
1680662481488737106,172,1680662481488737106,camera_1,173,0,0.29287364132307936,0.2711315044327003,3.7961445833665635,-0.999686958498543,0.023710664258455243,-0.000346013630301138,0.007979328475660708,0.011485003957204754,0.004000090236820601,5913.531633414563
1680662481498723268,173,1680662481498723268,camera_1,174,0,0.29281552575771586,0.2711053514180702,3.795429358087845,-0.999659668312222,0.02338212503471349,-0.002179378019620846,0.011361077862911895,0.013123184184223646,0.004568650807626641,5914.723724376703
1680662481508736848,174,1680662481508736848,camera_1,175,0,0.2929188894348475,0.27122507253574174,3.796660033188861,-0.999669583409242,0.02347026132654605,-0.0032580428820307636,0.009962730360457181,0.014256860093155412,0.004966687028445469,5913.017710724552
1680662481518760919,175,1680662481518760919,camera_1,176,0,0.29285292764882564,0.2711719632889282,3.7957581108775105,-0.9996709223128658,0.023618160001579652,-0.0020273054506804566,0.009804062060886945,0.01355363217589911,0.004719439084820217,5914.820973761789
1680662481528722524,176,1680662481528722524,camera_1,177,0,0.292910125568886,0.2712095824542814,3.7963963081818752,0.9996884228577912,-0.023583831560975824,0.0016607663232596998,-0.00800636922862793,0.01377627987312735,0.004798525955506953,5913.922819383678
1680662481538898944,177,1680662481538898944,camera_1,178,0,0.2928575815421938,0.27119758818043016,3.7958650380123635,0.9996823332127194,-0.02357042288900465,0.001772992761217317,-0.008747818235174603,0.011331314981362084,0.003945660335980203,5915.098348639383
1680662481548845291,178,1680662481548845291,camera_1,179,0,0.29291423859103466,0.27124609696867263,3.7964454648834542,0.9996833007115021,-0.02340858446370315,0.002984713392601013,-0.008742307357111123,0.013438509606203297,0.004680842370561663,5914.390495695112
1680662481558945178,179,1680662481558945178,camera_1,180,0,0.29294117274132214,0.2713296745349088,3.7971027682690903,0.9996690769780158,-0.023676413489604135,0.003164632019051067,-0.009547202856081587,0.012633842361537972,0.0044022043053693165,5911.865724512491
1680662481568832397,180,1680662481568832397,camera_1,181,0,0.2928898869957453,0.27132297160024255,3.7964935738296126,-0.9996656909470216,0.023594946512228657,-0.0024556818696657907,0.010283699191142415,0.009072425094927894,0.0031602270492232425,5912.488267463865
1680662481579081058,181,1680662481579081058,camera_1,182,0,0.29303362718642084,0.2714199468289515,3.797968467225734,0.9997062393659815,-0.023860788047049077,0.0011539669094713615,-0.0040946461230222594,0.009773867674084613,0.003407434925606617,5911.338715707418
1680662481588978528,182,1680662481588978528,camera_1,183,0,0.2929238492710993,0.2713810717513562,3.796765136061124,0.9996606306032954,-0.02345375065217283,0.004725550508934504,-0.010306035831253802,0.011216432369110407,0.00390744737176167,5913.611296733143
1680662481598887205,183,1680662481598887205,camera_1,184,0,0.2928620727115809,0.27129002067519986,3.7956473166807663,0.9996961868300932,-0.023905461920771854,0.0008785311717377208,-0.005940632180687348,0.012758993208990432,0.004442668070650441,5916.968206194057
1680662481608963251,184,1680662481608963251,camera_1,185,0,0.29301802033565194,0.2714973258279721,3.7981120328124103,0.999695526172476,-0.023804003684755663,0.00284906061475891,-0.00584013809134659,0.008738564807572402,0.0030465797318819953,5911.226821543822
1680662481618918418,185,1680662481618918418,camera_1,186,0,0.2929742606805907,0.27147489398273483,3.7973939453612444,0.9996667255042568,-0.023515130317856018,0.004455749943505268,-0.009675890562226407,0.012296972276089946,0.004285456081290726,5911.902200754905
1680662481628896474,186,1680662481628896474,camera_1,187,0,0.2929687570049254,0.271469349216401,3.797289339685214,-0.9996709354350761,0.023558638896174818,-0.003335868494907459,0.009585580895501544,0.010517701379285427,0.0036651679434150657,5911.306411025111
1680662481638906955,187,1680662481638906955,camera_1,188,0,0.2929138860015844,0.2714411429566741,3.796679206429848,-0.9996770189758174,0.023543092108916596,-0.003666190954794676,0.008839660030635759,0.009524435841740342,0.0033180080566545585,5914.097901423167
1680662481648887157,188,1680662481648887157,camera_1,189,0,0.29293232615135145,0.2714335011861043,3.7967568019074567,0.9996761621807023,-0.023494820712319286,0.003666972272902072,-0.009061869658522563,0.01052122185137705,0.0036652925182790916,5913.676520596024
1680662481659031629,189,1680662481659031629,camera_1,190,0,0.29296041055107647,0.271499672094013,3.7973346245814747,-0.9996687621274511,0.023449763276682672,-0.004930605600475796,0.00938955575358347,0.009651083270000527,0.0033632473626608265,5912.7193875932135
1680662481668988704,190,1680662481668988704,camera_1,191,0,0.2929858302432812,0.2715052913837617,3.7975094039604813,-0.9996914047873232,0.023895106960782554,-0.0003091561615551697,0.006784060741843802,0.010140206348296488,0.003534344644119996,5909.969946780127
1680662481678900480,191,1680662481678900480,camera_1,192,0,0.292958471744382,0.27145082077397986,3.79707628292878,-0.9996812720775413,0.023622737531155114,-0.0032006635387454717,0.008311214223848031,0.010583837844023947,0.0036878704255277413,5912.859750273694
1680662481688875913,192,1680662481688875913,camera_1,193,0,0.29297998177777457,0.271455977466509,3.7972457470603587,0.9996902755472378,-0.023612792531583705,0.0026936505491382758,-0.007384663287360788,0.00987174552938086,0.003440050169079772,5912.583147536611
1680662481698879241,193,1680662481698879241,camera_1,194,0,0.2928841015751469,0.2714003314571317,3.7961693189314953,-0.9996622071728529,0.02353518325176871,-0.004587233665930644,0.010026165114353081,0.010740475674538175,0.003740670866078895,5915.52409762115
1680662481708910226,194,1680662481708910226,camera_1,195,0,0.2929713587443376,0.27143063387593086,3.7971133114534257,0.9996839726711148,-0.023589089334577595,0.002411797741096439,-0.008348226189994395,0.009016422802233137,0.0031417229778841907,5912.001037513372
1680662481718873500,195,1680662481718873500,camera_1,196,0,0.2929509953025443,0.27141228397639194,3.7968084714892596,0.9996606487763349,-0.023294070869039767,0.004445577675786423,-0.010780092279487553,0.010852959559997544,0.0037808375971976355,5912.788888425046
1680662481728914499,196,1680662481728914499,camera_1,197,0,0.2929011679270395,0.27137986259349944,3.796245801431465,-0.9996853698460846,0.02365271882782941,-0.0014610061895295324,0.008220442120885801,0.0100660060888913,0.003505965710238078,5913.911604299208
1680662481738874912,197,1680662481738874912,camera_1,198,0,0.2929465860330676,0.27139251088429345,3.7969383807559263,-0.9996965818339378,0.02382225908103099,-0.000981173442027984,0.006187207810802289,0.010163776565605076,0.0035414549615878825,5912.875226484961
1680662481748762369,198,1680662481748762369,camera_1,199,0,0.29292664530817547,0.2713417040780569,3.7966191346725546,0.9996958186934342,-0.023601999149604227,0.0020923378194989996,-0.006843818046647787,0.012246786776813678,0.004266080952862329,5914.445808178574
1680662481758730173,199,1680662481758730173,camera_1,200,0,0.29295509496930305,0.27141662237287406,3.7969473159469684,0.9996801407291039,-0.023649489994709498,0.002273325962641995,-0.008668900962464428,0.010613122576614842,0.003697781974273479,5912.144101957963
1680662481768771886,200,1680662481768771886,camera_1,201,0,0.2929746354584347,0.2714380990672439,3.797352360977938,-0.9996693896247028,0.023479792082849192,-0.004467956288540111,0.00947882786658525,0.010082970973599004,0.0035138993651674904,5912.2148734692055
1680662481778799772,201,1680662481778799772,camera_1,202,0,0.2930028387089875,0.27142075388228104,3.7976259125765286,0.9996756343094809,-0.02353969097222296,0.004487369710258075,-0.008623956745762227,0.01225429993792204,0.004271158318636571,5912.08596645569
1680662481788743257,202,1680662481788743257,camera_1,203,0,0.29295902884194763,0.27136364000228486,3.797130057557287,-0.9996782902116188,0.023741600255055395,-0.002602933204799132,0.008536816481281208,0.011990048460575053,0.004178022842158465,5912.038154662352
1680662481798718690,203,1680662481798718690,camera_1,204,0,0.2929583512424842,0.2713494831667456,3.797074036502085,-0.9996595597498559,0.023550422511567012,-0.004670826922093365,0.010213989236099586,0.011318822758767055,0.003943898944513036,5912.699281615496
1680662481808713197,204,1680662481808713197,camera_1,205,0,0.29299548635767975,0.27134454391386087,3.797600312539165,0.999684973824151,-0.0236419906316667,0.00308354376201231,-0.00784226670334218,0.011844907094200607,0.004128436421959786,5911.587900618907
1680662481818738222,205,1680662481818738222,camera_1,206,0,0.29296073936771455,0.2712740661154741,3.7971387057079102,-0.9996749237230046,0.02358203892546587,-0.0024712379949624634,0.00937162218055392,0.01211917139153229,0.004223026491869557,5911.280200314415
1680662481828762292,206,1680662481828762292,camera_1,207,0,0.29301251682989077,0.27135307035303097,3.797823251958642,-0.9996798311439421,0.02359494197877936,-0.0034709009154290553,0.008453801740800878,0.010071454646094935,0.0035107416772856043,5910.768315875144
1680662481838843584,207,1680662481838843584,camera_1,208,0,0.29285534228787685,0.27119896121969855,3.7957926308154213,0.9996871934007135,-0.023820215587721877,0.0008956842433211206,-0.007570365228662309,0.011635467402811628,0.004051614915634464,5915.403911280448
1680662481848770380,208,1680662481848770380,camera_1,209,0,0.29286663517625755,0.2712643436277562,3.795814497212621,0.9996701544256048,-0.02368748403059776,0.002135647866656878,-0.00969146321138309,0.01070485301897861,0.0037274767998819887,5914.770435914577
1680662481858769893,209,1680662481858769893,camera_1,210,0,0.29287748621566423,0.27124502304595177,3.7960327537300245,-0.9996318126839551,0.023388938361432708,-0.005144624885879756,0.012756546056794002,0.010286197160894517,0.003582113178159757,5914.183290901361
1680662481868727922,210,1680662481868727922,camera_1,211,0,0.29283882777087766,0.27117392531362966,3.7954281841652033,-0.9996525260685755,0.023432642935926347,-0.0033651828422669723,0.011593701487941244,0.01045304698345717,0.003639044387003702,5915.53397600335
1680662481878793478,211,1680662481878793478,camera_1,212,0,0.2928719733677385,0.271177910544925,3.7957674544906963,-0.9996716416467399,0.023387312718421944,-0.005021094303643001,0.009188639894812136,0.014950003045669291,0.005205763244714092,5917.937842821528
1680662481888859987,212,1680662481888859987,camera_1,213,0,0.2928832109974143,0.27118464211708254,3.795829562191524,0.9996580251528274,-0.023653000049602777,0.002230095393406105,-0.010926802402287444,0.010925543057965115,0.0038042727456751536,5913.821045062624
1680662481898786067,213,1680662481898786067,camera_1,214,0,0.29287531055569377,0.2711834982296044,3.795878364676683,0.9996795694126438,-0.023502987914421927,0.0021461059802007324,-0.009152173903909287,0.01199473078304436,0.004176776330422613,5915.068174635933
1680662481908766031,214,1680662481908766031,camera_1,215,0,0.2929468405107088,0.2712454231912119,3.796652674861126,-0.9996780605857832,0.023535893883744656,-0.0016806049556124638,0.009328046393707663,0.010221488180832239,0.003560786229498413,5912.062369716474
1680662481918752431,215,1680662481918752431,camera_1,216,0,0.29288077944074964,0.2711976311803305,3.79608106519822,0.999674624787315,-0.023567526993455226,0.002359887938789764,-0.009468218241581275,0.00970490341205732,0.0033797174741814068,5914.392771371641
1680662481928772926,216,1680662481928772926,camera_1,217,0,0.29295519416455323,0.27125354472785873,3.7970039561463516,0.9996774557754885,-0.023629572068662223,0.003231630395215363,-0.008728361993361734,0.012379525607684627,0.004313335873648385,5912.9102267025155
1680662481938869953,217,1680662481938869953,camera_1,218,0,0.29283639003090567,0.27113657393421464,3.7953920284845126,-0.9996712978477125,0.023584798628350608,-0.0025107495053289072,0.009733944218654653,0.01397052356696804,0.004863676071490127,5916.456389325034
1680662481948849201,218,1680662481948849201,camera_1,219,0,0.292870931315529,0.27115905612246566,3.795645345920053,-0.9996894314380074,0.023903082402938217,0.0006135248449838231,0.007021887926805696,0.01032917882912443,0.0035967103378388822,5914.792313662883
1680662481958778381,219,1680662481958778381,camera_1,220,0,0.2928745871171033,0.2711517433284143,3.795856831817106,0.9996878097501957,-0.02380451058411239,-0.00043209129981087893,-0.007579024331422463,0.014060830064408945,0.004896600401575415,5913.920807461836
1680662481968734264,220,1680662481968734264,camera_1,221,0,0.292838638478334,0.2711309625559923,3.7953953793373936,-0.999669506427783,0.02369633538103933,-0.00029593810043862995,0.009963635309614399,0.011150331658427604,0.0038819498771370618,5914.166634794966
1680662481978836297,221,1680662481978836297,camera_1,222,0,0.29289012964559946,0.27113671222161695,3.7959849706259132,0.9996896393970396,-0.023837603320731707,-0.0014009516271577358,-0.007101470599751326,0.012299458718189271,0.0042834731685680045,5912.928132087461
1680662481988824605,222,1680662481988824605,camera_1,223,0,0.2928268942516264,0.27110521180516345,3.7951154026080696,0.9996833213699592,-0.0236607000089476,0.000276779645913856,-0.008564557364001175,0.010485617167432792,0.0036499174236999513,5916.142428659948
1680662481998762130,223,1680662481998762130,camera_1,224,0,0.29288564274977336,0.27119212165462353,3.79608950323716,-0.9996769716064489,0.023362828343942005,-0.0018674185982505255,0.009830739509823412,0.013375574613746721,0.004658284222829744,5913.607943781535
1680662482008950710,224,1680662482008950710,camera_1,225,0,0.292922142860126,0.2711800296393596,3.7965630706191584,0.9996595762863606,-0.023719398557348288,0.002314785980942672,-0.010619012991531993,0.012635542290809099,0.00440144105921939,5911.935291181728
1680662482018774509,225,1680662482018774509,camera_1,226,0,0.2928642679239121,0.27112378665228104,3.795773785445043,0.9996618175800502,-0.023564408700090394,0.0020852619029859557,-0.010799110980148859,0.01365738820459228,0.004755531067825338,5914.0205673662695
1680662482028760671,226,1680662482028760671,camera_1,227,0,0.29289140069557246,0.2711860322177303,3.796148347130651,-0.9996834521340625,0.023712899900603174,-4.23963586010561e-05,0.008407860023593608,0.008053737230511615,0.0028049571230870855,5912.83401070826
1680662482038848161,227,1680662482038848161,camera_1,228,0,0.2928606843702735,0.2711642349131752,3.7957723749118824,-0.9996868447582101,0.0234713156082153,-0.002225441359102868,0.00838791820125749,0.0096438106156711,0.003358053421662459,5916.089911047194
1680662482048795938,228,1680662482048795938,camera_1,229,0,0.29283903587458787,0.2711241945672882,3.795424825908479,-0.9996794356162877,0.023788812966854703,-0.0005329312780110136,0.008650685971724914,0.011231413409404922,0.003910260975968952,5915.373589924768
