%time,field.header.seq,field.header.stamp,field.header.frame_id,field.image_seq,field.transforms0.fiducial_id,field.transforms0.transform.translation.x,field.transforms0.transform.translation.y,field.transforms0.transform.translation.z,field.transforms0.transform.rotation.x,field.transforms0.transform.rotation.y,field.transforms0.transform.rotation.z,field.transforms0.transform.rotation.w,field.transforms0.image_error,field.transforms0.object_error,field.transforms0.fiducial_area
1680651881671232461,102,1680651881671232461,camera_1,104,0,0.2902492584541809,0.2625988995254497,3.798676912476077,0.9996303734960753,-0.02435629163367122,0.0037078464940236626,-0.011495186659179668,0.002187442634749459,0.0007623480951428851,5908.981029299847
1680651881681381225,103,1680651881681381225,camera_1,105,0,0.290276473567023,0.2625872911181983,3.798907471573816,0.9996583177679143,-0.024734518134695897,0.0011938729216604191,-0.008368153769806827,0.0033225670049432665,0.001158071681539667,5908.520851367967
1680651881691695213,104,1680651881691695213,camera_1,106,0,0.29029177240757775,0.26261779111122246,3.7990499273247673,0.9996402457000287,-0.024372924332805607,0.00442158516586855,-0.010285393569263182,0.0020923429547110572,0.0007293021918233304,5909.453605898889
1680651881701503276,105,1680651881701503276,camera_1,107,0,0.29024157999440353,0.2625734934306106,3.7985223432787216,0.9996349117182353,-0.024337901044033942,0.0035987242271467183,-0.011169558217936474,0.002226298580353614,0.0007758296339723048,5909.644997249824
1680651881711787939,106,1680651881711787939,camera_1,108,0,0.29032198841287393,0.2626296363371198,3.799631947478426,0.9996375983254584,-0.02431715427890955,0.004442011721651796,-0.010659106611260946,0.0030561400672013406,0.0010655461976715158,5907.391065005504
1680651881721647977,107,1680651881721647977,camera_1,109,0,0.2903556731669931,0.26268279485636725,3.8001460559225277,0.9996243592642615,-0.024454189921719438,0.006302886883949178,-0.010649252448661816,0.002078911395074101,0.0007250826285822444,5907.37199385505
1680651881731365442,108,1680651881731365442,camera_1,110,0,0.29024368345164847,0.2625785386295329,3.7987792775514144,0.9996361625466452,-0.024471255260159013,0.003128143668085385,-0.010904811424371282,0.0019340294566063676,0.000674043037519259,5908.680715219934
1680651881741450071,109,1680651881741450071,camera_1,111,0,0.2902816192096532,0.2626024802181655,3.799146798674322,0.9996327304384077,-0.02445799408092174,0.003429500547491354,-0.011155684102114377,0.003020634776476072,0.0010529478411252118,5907.588812326314
1680651881751564741,110,1680651881751564741,camera_1,112,0,0.29017274296269874,0.26251523956252126,3.7978293828541503,0.9996324365128376,-0.02442511450313263,0.003105914792121511,-0.01134719992864695,0.002674461564311059,0.0009315863053222965,5911.240506441507
1680651881761676788,111,1680651881761676788,camera_1,113,0,0.29022227291715086,0.26252762691321324,3.798078384537393,0.9996297096840082,-0.024285672633422902,0.00526792002294636,-0.011085965922719135,0.004028225059300894,0.0014033970532193421,5912.54700340237
1680651881771647214,112,1680651881771647214,camera_1,114,0,0.290353478097663,0.26268179928217555,3.8000518006975414,0.9996518750332055,-0.024370815745438562,0.0035435296232636335,-0.009467601613265634,0.0024631669257360045,0.0008590272679917822,5906.253532198372
1680651881781159162,113,1680651881781159162,camera_1,115,0,0.29024341050091507,0.26254017109064687,3.798372884051868,0.9996219957304984,-0.024135994799893517,0.0030646371375271635,-0.012803413842026845,0.0024195632176997606,0.0008430950859514767,5908.2167208817555
1680651881791525363,114,1680651881791525363,camera_1,116,0,0.29025080291066396,0.26255062325716816,3.798555030937632,0.9996406625261828,-0.024315351582694697,0.003076748971356263,-0.01085555698210493,0.003099699144513579,0.0010801261165468042,5909.353338141227
1680651881801652431,115,1680651881801652431,camera_1,117,0,0.29031358241114624,0.26259703726573824,3.7994093594552143,0.9996492169562515,-0.02435318653073383,0.004065460491355821,-0.0095831819113394,0.004108727505808929,0.0014324095611408173,5908.6364532469925
1680651881812405347,116,1680651881812405347,camera_1,118,0,0.29036609998668933,0.2626650615940178,3.799943656049017,0.9996212652521752,-0.024320319689304332,0.005551072314358555,-0.011620400251763727,0.003257549091358669,0.001136011439527711,5906.527636708053
1680651881820654630,117,1680651881820654630,camera_1,119,0,0.2901499714504568,0.2624884940362396,3.797344568766951,0.9996317989875886,-0.024345233521168987,0.0004547298937413918,-0.011973691091762616,0.0022189931842149235,0.0007727835957683357,5909.70986106724
1680651881831604480,118,1680651881831604480,camera_1,120,0,0.29021001496318316,0.2625493316762644,3.798153411814624,0.9996411163458141,-0.024457187423430973,0.003178049062980046,-0.010458704431390539,0.001777043526089983,0.0006191139573979575,5911.017141974529
1680651881841008186,119,1680651881841008186,camera_1,121,0,0.2902144996792691,0.26255250559279564,3.798307814688779,0.999636301709253,-0.024362211050255513,0.002617966213227971,-0.011264689551717662,0.002283663248817902,0.0007956793545203199,5909.368024587282
1680651881851242303,120,1680651881851242303,camera_1,122,0,0.2902423237492021,0.26255353401406667,3.7983033038654797,0.999624822339299,-0.02425899244954594,0.003556359913305781,-0.012209346936881508,0.0027280348585918546,0.0009505500868751008,5909.380096130831
1680651881861483335,121,1680651881861483335,camera_1,123,0,0.2902735365830781,0.262605676080791,3.798922452582885,0.9996322153371215,-0.024422089092054195,0.003530773146192781,-0.01124852281717209,0.0016169169975910336,0.0005635712945350241,5908.271265089047
1680651881871557474,122,1680651881871557474,camera_1,124,0,0.2902766113086319,0.2626129721286281,3.799077269388924,0.9996222737036827,-0.024362259956128566,0.0034198571221263087,-0.01225131758522609,0.002562465080700349,0.0008932214434128647,5906.843704710252
1680651881880968093,123,1680651881880968093,camera_1,125,0,0.29018430167925235,0.262507828943766,3.797761423225672,0.9996390952968086,-0.024359595345509917,0.0018621651236663671,-0.011172359188346474,0.0028668701052083634,0.0009986215295770722,5910.437823810384
1680651881889299869,124,1680651881889299869,camera_1,126,0,0.2902163241754677,0.2625375873163931,3.7980912871727157,0.9996424702295206,-0.02434651882523453,0.0026165651358530254,-0.010739288682428117,0.0022228517518669832,0.0007744272368213364,5910.4575252151135
1680651881900254964,125,1680651881900254964,camera_1,127,0,0.2902176236573225,0.26255180332490435,3.79823904935158,0.9996298672910203,-0.02430639210982372,0.0031739044369165684,-0.011800595449635855,0.0016883464595593978,0.0005882547209979961,5909.612455523281
1680651881910614967,126,1680651881910614967,camera_1,128,0,0.2903640854334641,0.26267820306096734,3.8000105202262717,0.9996218019148927,-0.02448693266535337,0.0037859630082978904,-0.01192936499422425,0.004283230475266464,0.001493713311850938,5904.536723891564
1680651881921046018,127,1680651881921046018,camera_1,129,0,0.2901923975547986,0.2625271510452498,3.7978771697470997,0.9996447499034852,-0.02452592998834936,0.001654778519617934,-0.010301187147901516,0.0016725035857234616,0.0005826383008139824,5910.603454329247
1680651881931420564,128,1680651881931420564,camera_1,130,0,0.29025363668884013,0.26259179615384665,3.798950674179381,0.9996572815902877,-0.024506859769608202,0.0023159005820793644,-0.008908972569447064,0.0018059229805658106,0.0006294730239467833,5909.035410291459
1680651881941560268,129,1680651881941560268,camera_1,131,0,0.29028539764501843,0.2625950881700977,3.798864484103625,0.9996639392191534,-0.024359910290824478,0.002119370578473233,-0.008608813148091463,0.0027961215419054497,0.0009745668640005119,5909.305992609181
1680651881951534986,130,1680651881951534986,camera_1,132,0,0.29018828354333,0.26252067743501506,3.7979665515312293,0.9996359741836082,-0.024507083868658484,0.0020348207645790374,-0.01109871446156054,0.002661456153873587,0.0009271515511097405,5910.040356096113
1680651881961614131,131,1680651881961614131,camera_1,133,0,0.29023237180077965,0.2625611872363002,3.798413710988095,0.9996166605630832,-0.02442287039953033,0.004341328764373989,-0.012296673969694536,0.00208517707142164,0.0007265796884824396,5909.678659285188
1680651881971546411,132,1680651881971546411,camera_1,134,0,0.29028725962625007,0.2626146868193551,3.7990706895793287,0.9996402142102072,-0.02439379472546933,0.0021071213493373013,-0.010951938288814123,0.0022481811392935924,0.0007836711924478984,5906.764722788475
1680651881981373071,133,1680651881981373071,camera_1,135,0,0.29021161838278225,0.2625569793681843,3.7981608591976874,0.9996328137757365,-0.024510891360755356,0.0036493152024738703,-0.010960671788634411,0.0014820980941294692,0.0005163782666209264,5910.989708802081
1680651881991078615,134,1680651881991078615,camera_1,136,0,0.2902823232453331,0.2625955806523067,3.7988916789489493,0.9996163267541358,-0.02421592252034831,0.004754137489247796,-0.012577223850703643,0.0029408132832031697,0.0010249975073969599,5908.28645216394
1680651882001014471,135,1680651882001014471,camera_1,137,0,0.2902282766377957,0.2625463528588025,3.7983005797954448,0.9996353726458715,-0.024388303537813943,0.0037403118923311834,-0.010970071679122591,0.0023193195738713257,0.0008081313895839603,5910.634295973345
1680651882011795043,136,1680651882011795043,camera_1,138,0,0.29023216061905277,0.26252069838059283,3.7982087944676914,0.9996372879331219,-0.024623141701496726,1.8357806272698065e-05,-0.010908397199025909,0.0033655623847153038,0.0011726688691644244,5907.506896589535
1680651882021602630,137,1680651882021602630,camera_1,139,0,0.2902492969368587,0.2625494311887455,3.798667311704619,0.9996106659853334,-0.024109231535467675,0.005774210152558882,-0.012803120722757199,0.0020230594818713143,0.0007050277809844538,5909.6900709415195
1680651882031827926,138,1680651882031827926,camera_1,140,0,0.29025219013371023,0.2625351843694216,3.7984905844227503,0.9996365134361634,-0.024341021946873147,0.0055443077626723455,-0.010179209557023504,0.003446024660661351,0.0012008026051542242,5912.26979204244
1680651882041706562,139,1680651882041706562,camera_1,141,0,0.29030680945406334,0.26261215775895663,3.79946157497485,0.9996434747188512,-0.02439830894350433,0.0034490590949382166,-0.010283480154047843,0.002413688493106747,0.0008415013360792162,5907.360563754105
1680651882051706790,140,1680651882051706790,camera_1,142,0,0.29025748620788594,0.262586812999526,3.7988902607227604,0.9996315477022881,-0.024487386739240124,0.002665518936732333,-0.011403145961038948,0.0014073237107368186,0.000490517203402816,5907.486640939198
1680651882060558557,141,1680651882060558557,camera_1,143,0,0.2902762142056532,0.26260264061372784,3.7992790543681885,0.9996432281521705,-0.024599014456239535,0.002066853946384116,-0.010199657447857053,0.0013281865103635937,0.0004630278504235247,5906.755949109619
1680651882070535421,142,1680651882070535421,camera_1,144,0,0.29029722574795386,0.26259481740730856,3.7991921470948813,0.9996285611649964,-0.0243383698801353,0.005512451870658335,-0.010954283598237007,0.004308419353037607,0.0015017661514256696,5909.425281084903
1680651882081141471,143,1680651882081141471,camera_1,145,0,0.29023454168899565,0.2625773457316846,3.798633119278146,0.9996248144379434,-0.024360388130776373,0.004913515195160915,-0.011517778364427146,0.001655451429542154,0.0005769000030545374,5910.179045059951
1680651882090385437,144,1680651882090385437,camera_1,146,0,0.29021963375786736,0.2625223756047408,3.7981701281590006,0.9996584148546727,-0.024549972718700748,0.00058868595002122,-0.008944601646045,0.0017772817009245045,0.0006192739141867721,5909.7845837200275
1680651882102030754,145,1680651882102030754,camera_1,147,0,0.29028544463445255,0.26259391229019,3.799076088509735,0.99965863315473,-0.024685154739923047,0.0017436560536862877,-0.008379734974900514,0.0025565115793142468,0.0008911982466285195,5908.508106678842
1680651882110849380,146,1680651882110849380,camera_1,148,0,0.29026146691668825,0.26257412542871306,3.798881639992494,0.9996383412070576,-0.024629511233288156,0.003943496101428261,-0.010051010084048862,0.002484301192453131,0.0008658912327384708,5909.793711658454
1680651882121065139,147,1680651882121065139,camera_1,149,0,0.29024553146262044,0.26255868152027173,3.798667589053995,0.9996399152073396,-0.024493052462989197,0.0024616171076285946,-0.010680390747696515,0.0021000661508878693,0.0007318576614573383,5908.605840942183
1680651882129534006,148,1680651882129534006,camera_1,150,0,0.29025562651285447,0.2625690845436985,3.798692577636285,0.9996509918481373,-0.024406729837487682,0.0023840707928250394,-0.00982457338158547,0.0017970212393265683,0.0006262774301769265,5909.142334835603
1680651882139241695,149,1680651882139241695,camera_1,151,0,0.2901660816688622,0.2624899111491789,3.7975247514018884,0.99963691849705,-0.024468462939853747,7.517314996239273e-05,-0.011283609709694518,0.0019317686019348912,0.0006728253524502454,5909.3773711816175
1680651882148758888,150,1680651882148758888,camera_1,152,0,0.2902434122073907,0.2625384845816302,3.798619107472707,0.9996623052340423,-0.024543619153801908,0.001460275761092526,-0.008411530639256199,0.0015677950032113586,0.0005463789870744007,5909.661687644488
1680651882158836364,151,1680651882158836364,camera_1,153,0,0.2903273125070171,0.2626701861673526,3.8000164394799283,0.9996063704313727,-0.02426573620607718,0.0063857608373647365,-0.012549912267521493,0.002567541472672019,0.0008954331565284378,5906.243726583544
1680651882169945716,152,1680651882169945716,camera_1,154,0,0.29018136606585165,0.2625139342176172,3.7978961315027218,0.9996227690667602,-0.02409838131255523,0.004160608621064706,-0.01250107664642861,0.001533007776743034,0.0005340330428185937,5910.966161712773
1680651882180783271,153,1680651882180783271,camera_1,155,0,0.2902040998051177,0.26250820323195084,3.7981265685960417,0.9996449608462793,-0.02438074560604258,0.0023125099020443337,-0.010496846968838222,0.0031691199728811625,0.0011041359272556154,5910.310425766047
1680651882190545320,154,1680651882190545320,camera_1,156,0,0.2902864176495687,0.26257978628696815,3.799048554356121,0.9996507952592874,-0.02453931736783552,0.003862319884960195,-0.00901065623034335,0.0041020273201866075,0.001429828572755838,5910.03264980245
1680651882200830221,155,1680651882200830221,camera_1,157,0,0.2902704794140904,0.26258611105827717,3.7987810852562487,0.9996477576238779,-0.024473286603213996,0.004088561475453571,-0.00941820500155106,0.0029490279739547987,0.0010278613113581148,5910.710352436874
1680651882210978031,156,1680651882210978031,camera_1,158,0,0.29021584554215063,0.2625414017722657,3.79839327705216,0.9996385651104015,-0.024152284471214293,0.005428941692759906,-0.01048488869448625,0.00289961916860193,0.0010103538601655305,5912.245362481219
1680651882221349000,157,1680651882221349000,camera_1,159,0,0.2901992162112431,0.2624977437392913,3.79805430161765,0.999650253406452,-0.02458047434534589,0.0011068412499269098,-0.009692576944323149,0.004061208528582938,0.0014149176336215028,5910.0715902315
1680651882231265783,158,1680651882231265783,camera_1,160,0,0.2903284986360896,0.26262647261910926,3.799704651805799,0.9996177524521189,-0.02425970328276318,0.007155587577210018,-0.011163034785919757,0.0030774878032389097,0.0010731099046177707,5909.017850204196
1680651882241220712,159,1680651882241220712,camera_1,161,0,0.2902903951966424,0.26260930362835266,3.799284034835878,0.9996520261703785,-0.0245936325175312,0.0037054356747353,-0.008789172856981926,0.0023028558971418533,0.0008028239913251512,5909.341597073245
1680651882251251459,160,1680651882251251459,camera_1,162,0,0.29024802886705175,0.2625627583712802,3.798731132136014,0.9996508780491165,-0.024541044168683548,0.0025783186090893658,-0.009445180776005743,0.002935350148618454,0.0010230026174929928,5909.529829070205
1680651882261233806,161,1680651882261233806,camera_1,163,0,0.2902629659478885,0.2625915306497382,3.799118252472374,0.9996420276249316,-0.024533239989154028,0.002409053100689346,-0.010398711685014909,0.0013041956990491599,0.000454638631669134,5907.405735437934
1680651882271269559,162,1680651882271269559,camera_1,164,0,0.29024538350169493,0.26254376053886397,3.7985674347987013,0.999630205800774,-0.024445656878545722,0.004609147388381136,-0.010982589441065851,0.0020813823393837083,0.0007253527689737992,5910.57182316459
1680651882281253099,163,1680651882281253099,camera_1,165,0,0.29031183923029685,0.26260607018493387,3.799391039096236,0.9996250657081224,-0.02437757456145952,0.004430016551100863,-0.01165490540027849,0.004460435273358598,0.0015550581480060972,5907.28377087787
1680651882291253805,164,1680651882291253805,camera_1,166,0,0.2901807463267892,0.26249043141257944,3.797740895179527,0.9996449251276502,-0.02446294748993875,0.0008969504342849047,-0.010525366813444698,0.0012061703309882432,0.00042016292325080075,5910.141999419779
1680651882301310777,165,1680651882301310777,camera_1,167,0,0.2902704425015671,0.2625756150449692,3.79873698921796,0.9996344161189524,-0.024462883299928535,0.004280238531087862,-0.01069022961831454,0.0030450229132839013,0.0010612686871840581,5909.977222052574
1680651882311262369,166,1680651882311262369,camera_1,168,0,0.2903041028416151,0.2626129220538585,3.7994235559310194,0.999650208863028,-0.024689313949401222,0.0025436659830133956,-0.009133863376430759,0.0023058521328493953,0.0008039433030133141,5907.588203442861
1680651882321312665,167,1680651882321312665,camera_1,169,0,0.290237036237653,0.26256481033928225,3.7985608572173364,0.9996264820201822,-0.024458021141208132,0.002467345028237041,-0.011942104266931255,0.001439120027498575,0.0005015132274300268,5907.860932284909
1680651882331183195,168,1680651882331183195,camera_1,170,0,0.2903284670282819,0.26263360446018,3.7996415455026065,0.9996355578524945,-0.024386739804596304,0.004322790935027983,-0.01074019912138871,0.0037425860718940385,0.0013049787560727925,5907.179228693829
1680651882341064929,169,1680651882341064929,camera_1,171,0,0.29024604143714905,0.2625651910520507,3.798544771357062,0.9996654520800479,-0.024507786826523378,0.0020659171328277514,-0.008005266320332074,0.002558513810072327,0.0008916166199245562,5910.743034201792
1680651882351372003,170,1680651882351372003,camera_1,172,0,0.29024009384852345,0.2625538918426866,3.798352538881758,0.9996213330275268,-0.02436261272238887,0.003335442287616083,-0.012350242198261224,0.004419617795065278,0.001540074096093293,5908.916054201488
1680651882360563755,171,1680651882360563755,camera_1,173,0,0.2902047903620305,0.2625517660846563,3.798120084167668,0.9996371183087833,-0.02416872750086969,0.003267127869343621,-0.011438102368208154,0.001713102807116229,0.0005968528470161509,5910.372532199952
1680651882370088815,172,1680651882370088815,camera_1,174,0,0.29027723040441245,0.2626044537989899,3.798975447546128,0.9996427300100931,-0.024400592140838603,0.003830060470828719,-0.010215384375266333,0.0025482848031970207,0.0008882283444396726,5909.238758260966
1680651882379391908,173,1680651882379391908,camera_1,175,0,0.29027571400551694,0.26261340710884634,3.798927629117221,0.9996503153429391,-0.024448200753504123,0.0021200048981738083,-0.009850791537260577,0.002283830053784186,0.0007960457544018742,5908.126526972688
1680651882390004396,174,1680651882390004396,camera_1,176,0,0.2902182454671923,0.26254809015287817,3.798378126611172,0.999606878027892,-0.024432083352920575,0.005906926134344581,-0.012420584769258869,0.0030954858302720822,0.0010785825419276456,5911.043582410433
1680651882400150537,175,1680651882400150537,camera_1,177,0,0.2902724180956252,0.26262011712809463,3.7989799156934163,0.9996354358176126,-0.024485125891261558,0.0033200157931560594,-0.010883545513942194,0.0015596679622831289,0.0005436390462022332,5908.211530277387
1680651882409983158,176,1680651882409983158,camera_1,178,0,0.2903187242887306,0.26264388049645526,3.7993608795001723,0.9996502449885033,-0.02433103760942493,0.004175785472447782,-0.009484256373712415,0.002935166150564328,0.0010233159046141274,5908.914985784212
1680651882419806480,177,1680651882419806480,camera_1,179,0,0.29023147876839644,0.2625809600626181,3.798324408496381,0.9995961302072989,-0.024269672796419058,0.005839349820294638,-0.01358165861093234,0.002912478714279132,0.0010148542960810073,5910.071179700607
1680651882430065870,178,1680651882430065870,camera_1,180,0,0.2902616750468942,0.2626090822010764,3.7987658045174673,0.9996281662790197,-0.024526271977224817,0.0034784375312120345,-0.011397001223366832,0.0023389063026115764,0.0008151557570667834,5908.578688372102
1680651882441304683,179,1680651882441304683,camera_1,181,0,0.2902269755620362,0.26255334498459676,3.798274509521047,0.9996142152767283,-0.02421084818634465,0.005528688258972287,-0.012437405393555591,0.0032842880973475985,0.0011443856639460107,5910.996862558532
1680651882451263904,180,1680651882451263904,camera_1,182,0,0.29026187870906317,0.2626134416881817,3.7988755679583313,0.9996565489783448,-0.024462367054588294,0.0019908398099980577,-0.009187667802224095,0.0026182172732660547,0.0009125970827910364,5908.711620654445
1680651882461117267,181,1680651882461117267,camera_1,183,0,0.2903105148664348,0.2626323003916533,3.7993769112246762,0.9996504065109922,-0.024360647649824183,0.0029653758145234844,-0.009840231438733794,0.0030994439075584523,0.0010805717043654837,5907.520763500652
1680651882470977067,182,1680651882470977067,camera_1,184,0,0.2902696506898796,0.2626031373794814,3.7990192601048154,0.9996514205568184,-0.024640111581853665,0.003014999561623145,-0.008989552692552145,0.0029128836977179162,0.0010153082024633607,5909.383925214176
1680651882481488943,183,1680651882481488943,camera_1,185,0,0.2902978251957408,0.2625990982461238,3.7990371892105657,0.9996527670386723,-0.024247804719664433,0.0031956945224227537,-0.009806979898134737,0.001771902392647462,0.0006176594589939812,5908.795666096443
1680651882490124464,184,1680651882490124464,camera_1,186,0,0.2903692425059847,0.2626731324700435,3.8000639815159816,0.9996542524014204,-0.02449696689080599,0.004134961135396117,-0.008612570192272673,0.004520200443948852,0.0015765142475720516,5907.406827624131
1680651882500720739,185,1680651882500720739,camera_1,187,0,0.29035003386677893,0.26264541990127327,3.799769310370903,0.9996406156886837,-0.02449549869600989,0.005807044542701854,-0.00921348158203004,0.00232271796267014,0.0008099276331256612,5909.281797722742
1680651882509848594,186,1680651882509848594,camera_1,188,0,0.2903405808076852,0.2626358858585481,3.7997525788340103,0.9996341052821478,-0.02445396102462187,0.0032526136879974807,-0.011094135890769226,0.002030392806773307,0.0007080064693917176,5905.587265699868
1680651882520105838,187,1680651882520105838,camera_1,189,0,0.2902331545497668,0.2625578004992371,3.798560331802626,0.9996273406634898,-0.024182182999596347,0.00441357513246074,-0.011871064735874738,0.0031693164382886607,0.0011044228159014548,5909.674701473385
1680651882531202793,188,1680651882531202793,camera_1,190,0,0.29021333890324796,0.2625423378507361,3.798205195385424,0.9996346802971459,-0.02432123873808484,0.0040813519106189,-0.01106010217176053,0.00213698828156339,0.0007445487536875316,5911.1638262133365
1680651882541538953,189,1680651882541538953,camera_1,191,0,0.2902661403356288,0.2625790031857837,3.7986960219253985,0.9996589373911634,-0.0244532936076669,0.002760395461350881,-0.008742170360058806,0.0020138651234447025,0.0007018723925279799,5910.322330976657
1680651882551198959,190,1680651882551198959,camera_1,192,0,0.2902383447314833,0.2625627982877567,3.7985275538133916,0.9996224550685472,-0.024200312015768312,0.005442451638598864,-0.011818288422243318,0.002372749182541156,0.0008268304826469698,5910.690558452392
1680651882561136484,191,1680651882561136484,camera_1,193,0,0.2903312192242155,0.2626168751580494,3.7995193410414148,0.9996471740695351,-0.024419757894331796,0.00544322798055828,-0.008920429828577593,0.004694484396168264,0.0016366710987120528,5909.996552844357
1680651882571024417,192,1680651882571024417,camera_1,194,0,0.29017356877254036,0.26250129375249187,3.7974552338257506,0.9996449050566418,-0.024605682302150236,0.0005215253804334248,-0.010215292654684405,0.0004748457904497627,0.00016538920670961036,5910.887641570882
1680651882581016302,193,1680651882581016302,camera_1,195,0,0.29026802990775885,0.26257313745422084,3.7987805191867974,0.9996178097239573,-0.02431664419543584,0.005168829912696835,-0.012092083984354914,0.003887717281031655,0.0013549568492579893,5909.43074993696
1680651882591361761,194,1680651882591361761,camera_1,196,0,0.2902590583845996,0.2625654153730818,3.7986766806198524,0.9996243591854954,-0.024421895301271274,0.004206322822423199,-0.011705485944414123,0.0024475120917486493,0.0008529798475459469,5909.2536803071835
1680651882601279020,195,1680651882601279020,camera_1,197,0,0.29025422388651817,0.26257354500969043,3.798874725960276,0.9996437982421611,-0.024222005730832854,0.004980025703639946,-0.01003844700898194,0.0020622093943529762,0.000718741888174576,5910.731131953303
1680651882611763000,196,1680651882611763000,camera_1,198,0,0.29018226751879683,0.2624929535430953,3.79766821523755,0.9996219856821849,-0.024374168842609727,0.004469181332119325,-0.01190848656456815,0.001969814478798071,0.0006861146672266723,5912.446636248029
1680651882621516704,197,1680651882621516704,camera_1,199,0,0.29020438441800483,0.2625121843225342,3.7977605476567904,0.9996294828318748,-0.024475783241200515,0.00215769381838372,-0.011712277549416523,0.0026940453572024126,0.0009384179589892659,5910.229396667447
1680651882631737709,198,1680651882631737709,camera_1,200,0,0.29026261236620887,0.26255203037997565,3.7984985807891167,0.999643465024235,-0.02451874200058311,0.00348073231613042,-0.009982916787861104,0.004473844037420349,0.0015589537206505643,5910.593500202056
1680651882641614675,199,1680651882641614675,camera_1,201,0,0.29022586047576315,0.26253432731854803,3.7982603919545395,0.9995903957346989,-0.024169576520166478,0.005824167313171783,-0.014175732816765619,0.0024669538979651406,0.0008595717882938784,5909.744870264087
1680651882651723623,200,1680651882651723623,camera_1,202,0,0.2902455187404434,0.26259249375861393,3.798785157895982,0.9996396658822077,-0.02457425487603908,0.00328757822035724,-0.010287673286068656,0.0026608750958985183,0.0009273634008069339,5909.3107506074575
1680651882661578178,201,1680651882661578178,camera_1,203,0,0.2902812714756523,0.26259649319339096,3.7990333810975723,0.9996545103676436,-0.02431157770459929,0.0028257168829929256,-0.009582401329370967,0.004208977818052517,0.001467108361188102,5908.683496148789
1680651882671670198,202,1680651882671670198,camera_1,204,0,0.2902549917874246,0.2625994104948095,3.7988449646208196,0.9996295544543384,-0.024335846887846315,0.005015644002273154,-0.011106922747311813,0.0021512023376999423,0.0007497671155201396,5909.945701682884
1680651882681581497,203,1680651882681581497,camera_1,205,0,0.290193955066373,0.2625149799087675,3.797996233955275,0.9996378385515365,-0.024475051752673022,0.0003589598609829202,-0.011181892752768879,0.002975533192511648,0.0010365885196401046,5908.291086417503
1680651882691773176,204,1680651882691773176,camera_1,206,0,0.2902959956831296,0.2626302660290625,3.799308846956605,0.9996302652112907,-0.02434625697000589,0.003953257175463829,-0.01144396796830052,0.0019153964312863536,0.0006677542240363941,5907.287585816577
1680651882701542854,205,1680651882701542854,camera_1,207,0,0.2902321754106663,0.2625364718794045,3.798373655489154,0.9996484493603195,-0.02430497561593132,0.0021424376650976927,-0.010375731910038828,0.0032876290533749852,0.0011455756109827217,5909.466026540493
1680651882711705923,206,1680651882711705923,camera_1,208,0,0.29029194021150595,0.26258159133393927,3.7990205653858755,0.9996552720082772,-0.02438881359654864,0.001667096796624304,-0.00957829346391896,0.0038806601296528243,0.001352725228585581,5907.650710364277
1680651882721527814,207,1680651882721527814,camera_1,209,0,0.29023466882439375,0.2625312739927359,3.7981572409141946,0.9996300292930382,-0.02420193604733474,0.004236807523578522,-0.011667060005342417,0.0029969330425956286,0.0010441503927401722,5910.907799608428
1680651882731569290,208,1680651882731569290,camera_1,210,0,0.2902353598385036,0.2625617684753041,3.798589347942375,0.9996318178069451,-0.024403661838352787,0.0034399769022454402,-0.011351505440869944,0.0016978091480268631,0.0005916626651821761,5909.167256368673
1680651882741493225,209,1680651882741493225,camera_1,211,0,0.29012465968562906,0.26245291251409225,3.796859946321231,0.9995971324605147,-0.024362702389107635,0.002114699000531602,-0.014406927401533686,0.002401066511083627,0.0008360459592378982,5910.5939417743375
1680651882751672983,210,1680651882751672983,camera_1,212,0,0.29020901412246125,0.2625218444609121,3.7981891870484135,0.9996483660797115,-0.024381441971784986,0.002258318976666243,-0.010177891576321712,0.002341123930818867,0.0008156878876796111,5910.321415328885
1680651882761590480,211,1680651882761590480,camera_1,213,0,0.2902112574817717,0.26254588588452654,3.7980202343775753,0.9996374110298275,-0.024241797478443468,0.0027230693808727707,-0.011400290248278544,0.0026114685788343195,0.0009098086401214638,5910.207093848843
1680651882771608352,212,1680651882771608352,camera_1,214,0,0.29029168076811757,0.2626018610454458,3.7991718002310697,0.9996412904026515,-0.024312385800025937,0.003523778919851093,-0.010666836501819054,0.0028664277924690396,0.0009992423880227203,5907.992179367344
1680651882781620979,213,1680651882781620979,camera_1,215,0,0.290268707890913,0.2625824061775841,3.798980131961035,0.999644752753742,-0.02439917235865208,0.0032859907228242912,-0.010210335209610767,0.0023423808088409714,0.0008164481592390307,5908.769211093254
1680651882791691303,214,1680651882791691303,camera_1,216,0,0.29024981319683807,0.2625659347499956,3.7983813023631043,0.999639633506814,-0.024246323538498208,0.0035342715895068403,-0.010964845715327827,0.002106121988617815,0.0007339219829937813,5910.1698270200895
1680651882801556825,215,1680651882801556825,camera_1,217,0,0.2902932512916629,0.26260193440631474,3.7992436542018906,0.9996685309091672,-0.02454881462012919,0.0021944269201492513,-0.007441001353728876,0.003028454040759243,0.001055779059431277,5909.135404783941
1680651882811706781,216,1680651882811706781,camera_1,218,0,0.29019505737901885,0.2625136391744135,3.7978549935952453,0.9996278720216494,-0.02440064578210389,0.0029366779446955847,-0.01183646423281056,0.0018515438787289895,0.000644990185722557,5910.562255549943
1680651882821575880,217,1680651882821575880,camera_1,219,0,0.2901955909359638,0.26254169945495315,3.7980554551077015,0.9996407774275365,-0.024667306986996214,0.0016643065067470768,-0.010347470895421235,0.0009545575921947602,0.00033257046584974715,5910.030127953971
1680651882831668853,218,1680651882831668853,camera_1,220,0,0.29028432003037674,0.2625838139697608,3.79880373087473,0.9996598189266249,-0.02455878032673505,0.0023741463126730517,-0.008454357559072192,0.0028063218051102012,0.0009781122114328857,5909.851859467803
1680651882841598510,219,1680651882841598510,camera_1,221,0,0.2902233588406398,0.26256302020092465,3.798338979605801,0.9996157998710908,-0.024214624914513896,0.003393023407452814,-0.01305342792086551,0.002568740866990993,0.0008950275456638631,5908.40442874795
1680651882851627349,220,1680651882851627349,camera_1,222,0,0.29021775406558525,0.2625642885091376,3.7981812614988657,0.9996454428610229,-0.024440074803561154,0.0009821732511896605,-0.010521722600926509,0.0013177023938624188,0.00045912425843023434,5908.824002873327
1680651882861568689,221,1680651882861568689,camera_1,223,0,0.2903215215618974,0.2626383642686026,3.799458262863557,0.9996329822777712,-0.024519741342515246,0.0031605524546062455,-0.011076729441812759,0.0034356168980593793,0.001197826354286154,5906.4175186022185
1680651882871713876,222,1680651882871713876,camera_1,224,0,0.2901798065254491,0.26252757540797844,3.7978910109931343,0.9996491413811804,-0.0245572383159521,0.0005195629382678059,-0.009912932790826232,0.001063376825186424,0.0003704652638329087,5909.813349928414
1680651882881521224,223,1680651882881521224,camera_1,225,0,0.29019994215137307,0.2625769375580288,3.798241008728802,0.9996505012708676,-0.0248117674734921,0.0005735295562969136,-0.00910618293208328,0.000576819456910016,0.00020099397299400612,5909.420591292959
1680651882891655683,224,1680651882891655683,camera_1,226,0,0.29022694274806393,0.2625623273280524,3.798620226245121,0.9995939887072347,-0.02419758293338356,0.0052846349564116095,-0.014085714533549714,0.001805529376724735,0.0006292139098924917,5908.282924489289
1680651882901570796,225,1680651882901570796,camera_1,227,0,0.29022260881074335,0.2625288634236883,3.7982851197521414,0.9996234912486076,-0.02430665785355035,0.0028222617273047884,-0.012413579929983345,0.004826560765650356,0.0016817381630484514,5908.638667520196
1680651882911763906,226,1680651882911763906,camera_1,228,0,0.29013109825529304,0.26248481450929495,3.7974050617799446,0.9996167415010014,-0.024249748910966883,0.005782013327354147,-0.012036947725957816,0.0012476639021770097,0.00043453817488694525,5914.301313903126
1680651882921564817,227,1680651882921564817,camera_1,229,0,0.29022656276569986,0.2625349752887238,3.7984397730983828,0.999633667581323,-0.024312386406088855,0.004534142395753935,-0.010994546734138298,0.002093682029226329,0.0007295734557639755,5910.904192766173
1680651882931437492,228,1680651882931437492,camera_1,230,0,0.29022780277950205,0.262524720896445,3.7982846642084938,0.9996183713009607,-0.024377835718640495,0.002587294002771176,-0.012733373199310625,0.004375754404463805,0.0015246205186874016,5908.14409467205
1680651882941517591,229,1680651882941517591,camera_1,231,0,0.2902345632762196,0.26254335948197033,3.798348478631109,0.9996336895517925,-0.024280027021753293,0.002639412570296788,-0.011661925320331966,0.0036418115378182847,0.0012689894822063073,5908.907385076858
1680651882949848413,230,1680651882949848413,camera_1,232,0,0.290284982889863,0.26258438794272787,3.799117071149182,0.9996567033940241,-0.024398139289961093,0.0029854657931175778,-0.009071557340287754,0.002804384130286053,0.0009775842519646593,5908.989923433225
1680651882960912704,231,1680651882960912704,camera_1,233,0,0.2902666766056286,0.262554896114488,3.798828856441233,0.9996604029221519,-0.02472525445026409,0.0022060797368368096,-0.007929302244549696,0.0038255327672231942,0.0013333498426708436,5910.07230312261
1680651882971066951,232,1680651882971066951,camera_1,234,0,0.2902159955258039,0.2625380663659864,3.7981038412761694,0.999636821135873,-0.02439124237085412,0.0019312202039704891,-0.01129440186539106,0.002073238712910097,0.0007223221675795251,5909.320681093321
1680651882980748176,233,1680651882980748176,camera_1,235,0,0.29017003316144596,0.26249273464095885,3.7976878207884495,0.9996444311010124,-0.024396540705966738,0.001407951645377427,-0.010669481828078035,0.0014425739536818583,0.0005024950941983751,5910.67596901825
1680651882991229295,234,1680651882991229295,camera_1,236,0,0.29025759954006236,0.2625986526619749,3.7989178845997866,0.999634979566991,-0.024539826920567567,0.0033032668777172912,-0.010807078640638597,0.0015515527957177255,0.0005407937431300877,5908.477322942812
1680651883001538991,235,1680651883001538991,camera_1,237,0,0.2902579797577866,0.26258431628463663,3.7989442869194505,0.9996143268684526,-0.02435260630178042,0.004383709432176716,-0.012606790918195257,0.0028483304995461367,0.0009927924613226439,5907.821503005454
1680651883011632442,236,1680651883011632442,camera_1,238,0,0.2901892895035372,0.2625039684767747,3.7976413830534246,0.9996371090677435,-0.02440182063738446,0.0017688794250174452,-0.01127263899205183,0.0025995295582106337,0.0009054678659167017,5910.617418343725
1680651883021598577,237,1680651883021598577,camera_1,239,0,0.290194307542764,0.2624810559327776,3.7975947411845854,0.9996580240897304,-0.024573985052253673,0.001150105937388607,-0.008867434127224834,0.002603415970952483,0.0009068095436365906,5912.154080174863
1680651883031756639,238,1680651883031756639,camera_1,240,0,0.29020209444730666,0.2625179326321252,3.7980735798587246,0.999661546555575,-0.02469611763257724,-0.0006787794243511,-0.008150666873758474,0.002160751413612161,0.0007528373326940575,5909.483536040701
1680651883041510820,239,1680651883041510820,camera_1,241,0,0.2902135234517174,0.26253036341050917,3.798246736492413,0.9996256439506098,-0.02441102627620515,0.0023740165549638917,-0.012125914310597181,0.0018238021657452919,0.0006354596687742964,5908.600989509956
1680651883051385164,240,1680651883051385164,camera_1,242,0,0.2901683563638469,0.26252393080595693,3.7979096303520405,0.9996345111313639,-0.024584069385491115,0.002016464841810262,-0.011063523722136082,0.0014908090270182583,0.0005193305102847681,5910.24253370124
1680651883061321973,241,1680651883061321973,camera_1,243,0,0.29021482923940967,0.2625326067990262,3.7983017285176754,0.9995843030916902,-0.024207397075978177,0.0061071987366418815,-0.014419606898150519,0.0033515525319671724,0.0011677899512113942,5909.653555792405
1680651883071753025,242,1680651883071753025,camera_1,244,0,0.2902482517932883,0.2625777025994641,3.7985972110992012,0.9996027719722739,-0.024092404757501518,0.004092380826783113,-0.014039469987003898,0.0019896062585758045,0.00069339004042399,5907.320436351582
1680651883081645488,243,1680651883081645488,camera_1,245,0,0.2902942089612251,0.2626252394279863,3.799263918979044,0.9996563625836085,-0.024572975946988002,0.002177412549436831,-0.008864788424293363,0.0015902496415947098,0.0005543817186764156,5907.94219806703
1680651883091462850,244,1680651883091462850,camera_1,246,0,0.29026141053127186,0.2625814162833628,3.7987795092309447,0.9996152458003956,-0.024349988564649497,0.004691153889899257,-0.012427046933908533,0.0024996910251502413,0.0008711782436904191,5908.733895546757
1680651883101320505,245,1680651883101320505,camera_1,247,0,0.29023578765244984,0.2625562647801854,3.7984486312587245,0.9995887177373127,-0.0240957373909758,0.007191309432904623,-0.013786800952371414,0.003282516398030566,0.001143819002699069,5910.640289160654
1680651883111819982,246,1680651883111819982,camera_1,248,0,0.2902902936550925,0.26258208264766275,3.7990634024703445,0.9996234852259508,-0.024243550301243366,0.005762970111804415,-0.011485914373916868,0.004406199168442981,0.001535846376319544,5909.582442608662
1680651883121744632,247,1680651883121744632,camera_1,249,0,0.2902715528712063,0.26256317194894263,3.7987776311648207,0.9996417513952883,-0.024618317842982074,0.0027313653645671715,-0.01014134789797395,0.002757396941888146,0.0009610265180424881,5908.9370055244635
1680651883131737709,248,1680651883131737709,camera_1,250,0,0.29017103611478906,0.26249265523100485,3.7974864455291564,0.999632296771638,-0.024493504174270563,0.0022451127014448,-0.011414857567346495,0.0013047130232735071,0.0004544380008052142,5911.425122813787
1680651883141634225,249,1680651883141634225,camera_1,251,0,0.29027397083117457,0.26260598946412245,3.7989105820254983,0.9996316784139242,-0.024377093663055443,0.003647713536729773,-0.01135601170558913,0.002948987857962493,0.001027828411665696,5908.322087895181
1680651883151459932,250,1680651883151459932,camera_1,252,0,0.2901876375855607,0.26254798886941383,3.797848634482136,0.9996289951723084,-0.024538335117312626,0.0004572530568496467,-0.01181241042775047,0.001833771533711115,0.0006388120262640158,5908.269172169095
1680651883161166429,251,1680651883161166429,camera_1,253,0,0.2902389172705685,0.2625861278560977,3.7985525923923023,0.9996294712070348,-0.02426405810205928,0.005076031969100778,-0.011243205868991024,0.004775521330884658,0.0016641553837511362,5910.783295706966
1680651883171048164,252,1680651883171048164,camera_1,254,0,0.2902297377895628,0.26258652238834745,3.7985484280243322,0.9996326539417073,-0.02440090837231803,0.004684347192081824,-0.010826344509985777,0.0021043187953182496,0.0007332783518732236,5910.819096590567
1680651883180986404,253,1680651883180986404,camera_1,255,0,0.2902506440875458,0.2625382391333391,3.7985544064270336,0.99963184768133,-0.02448046573747256,0.0029784060428221584,-0.011313929287875764,0.003737369283044245,0.001302353627655247,5908.890910118413
1680651883191078186,254,1680651883191078186,camera_1,256,0,0.29014629554113214,0.2625041020383228,3.797355813510868,0.9996310287563994,-0.024277715577056963,0.0035520758978415563,-0.011652537517564864,0.0015670163447794039,0.0005457369473772199,5912.819836634853
1680651883201328754,255,1680651883201328754,camera_1,257,0,0.29018239985672517,0.26252573076060026,3.7977210980347347,0.9996425379885222,-0.024427730873332873,0.0013358715253972918,-0.010784139071506429,0.001975021878024563,0.0006879679723789087,5910.3788331489795
1680651883210899114,256,1680651883210899114,camera_1,258,0,0.2902216872603472,0.2625576315164586,3.798081381429412,0.9996481738616899,-0.024558808314257517,0.0029613284589963154,-0.009572040687865824,0.0018996312501258217,0.0006618275450853117,5911.74039512279
1680651883220726966,257,1680651883220726966,camera_1,259,0,0.2902997526435831,0.26265622824141943,3.7993680704779917,0.9996013246313434,-0.02419528463798783,0.0063837422091323195,-0.013077760968832664,0.0019628363406809513,0.0006843028464049022,5907.741588150968
1680651883230417013,258,1680651883230417013,camera_1,260,0,0.2902566525306314,0.2625862543793631,3.798880824343873,0.9996567232411449,-0.024380398408266685,0.001395152733123826,-0.009491332945516342,0.0026322975936636794,0.0009174734906621209,5907.92096618237
1680651883240849494,259,1680651883240849494,camera_1,261,0,0.2902476826379284,0.2625912727997891,3.798517075736991,0.9995981964302283,-0.02424502670861625,0.005261665604348241,-0.013709093638946781,0.0016224700993916485,0.0005654188347091202,5908.864021169955
1680651883250801563,260,1680651883250801563,camera_1,262,0,0.2902632387397821,0.26257891169814473,3.7988399443861067,0.9996457698971654,-0.024357348393792326,0.003619589764962865,-0.010097171676296304,0.002604854049423011,0.0009078793832817944,5909.584771729135
1680651883260048389,261,1680651883260048389,camera_1,263,0,0.29022645680360876,0.2625689889521815,3.798429755441322,0.9996421492840424,-0.024454815216676123,0.0039645775173924105,-0.010090466421697166,0.0028929671098012477,0.0010080845282154662,5911.167348772809
1680651883269111394,262,1680651883269111394,camera_1,264,0,0.29018081776702526,0.2625233933343738,3.797753105026899,0.999635782232217,-0.024418554245492993,0.0018753747437439254,-0.011336668783817639,0.0024845578154781833,0.0008654650530377662,5910.328583668101
1680651883279069662,263,1680651883279069662,camera_1,265,0,0.2902233572086518,0.26257295795421476,3.7985300461935827,0.9996331445515739,-0.024488886955821753,0.0026181836373790723,-0.011270130613186808,0.0008079351282503922,0.0002815572434042103,5908.67338808358
1680651883288640499,264,1680651883288640499,camera_1,266,0,0.2902404549949289,0.26256374627339707,3.798423446060354,0.9996393461289168,-0.024477126867784336,0.002922200273893903,-0.010654045091394925,0.0015314566699089482,0.0005336563775631424,5909.77230827138
1680651883298610210,265,1680651883298610210,camera_1,267,0,0.29028861249907306,0.26262298565794195,3.7994643282654224,0.9996315823125577,-0.024377726403388488,0.006655880929179844,-0.009905823930933776,0.0017770683953131083,0.0006195617741040127,5910.41856037447
1680651883308956623,266,1680651883308956623,camera_1,268,0,0.2902012438682074,0.26252106417150883,3.7977673994268524,0.9996370117907278,-0.024380690553317718,0.0037449505775878624,-0.010835217183760338,0.004212094518152298,0.0014672590545965248,5912.387044195962
1680651883319826364,267,1680651883319826364,camera_1,269,0,0.29017102743482354,0.2624862849018989,3.7974628009239084,0.999607451704273,-0.024254543052390366,0.0020496448484461447,-0.013872944698388638,0.0016347857635992114,0.0005693870395866454,5909.153551089346
1680651883330718278,268,1680651883330718278,camera_1,270,0,0.2902498773712185,0.2625786031966599,3.7987735227550936,0.9996563379535025,-0.024587781590279422,0.0018917077460574058,-0.008892042941030392,0.0022288916989054997,0.0007768256010135579,5909.197581805578
1680651883341050624,269,1680651883341050624,camera_1,271,0,0.29021504307420604,0.2625226543825066,3.7982291458944353,0.9996392526417,-0.02450522002634933,0.0016669809657173381,-0.010866459582775143,0.0026814137745532207,0.0009343022533164198,5909.073916263237
1680651883351007699,270,1680651883351007699,camera_1,272,0,0.29022173244970445,0.26251266997332307,3.7981341471382253,0.9996374037089973,-0.024241879324992808,0.0015188543921305355,-0.011622627674641336,0.002490170874807518,0.0008675947941135742,5908.573944998439
1680651883361306905,271,1680651883361306905,camera_1,273,0,0.2903019280195193,0.2626033015893508,3.799056333942926,0.9996060455168913,-0.024278077137734434,0.006219564595296734,-0.012635100032134269,0.004447285929927602,0.0015502702851662325,5908.958488957082
1680651883371217489,272,1680651883371217489,camera_1,274,0,0.29027275069958347,0.2625493283815195,3.798811876228793,0.9996225507597878,-0.024462369840698713,0.0042557661852711095,-0.011757420144268236,0.002373426264966838,0.0008271956481366345,5908.847058295738
1680651883381170272,273,1680651883381170272,camera_1,275,0,0.29025344208719056,0.2625449804875643,3.7985196072937373,0.9996226730819129,-0.024287784761601375,0.004120159254955475,-0.01215068967832773,0.0035874396162398625,0.0012501622643874954,5909.280123536417
1680651883391679525,274,1680651883391679525,camera_1,276,0,0.29028293332028193,0.26257268076675455,3.7989267588529203,0.9996571836869079,-0.024535772065462782,0.002012890057840922,-0.008913992703982668,0.003514317013468826,0.0012249610256423475,5908.800654191231
1680651883401332139,275,1680651883401332139,camera_1,277,0,0.29022897227015526,0.26250937242312034,3.7983152768200523,0.9996493847532052,-0.024375795901005706,0.0016729871515732684,-0.010204374097486845,0.0021840761764906347,0.0007610154908451874,5909.3651844747355
1680651883410991907,276,1680651883410991907,camera_1,278,0,0.2901770941838124,0.26247344441536696,3.7976384955173867,0.9996365558371985,-0.024642807346369148,0.0013175972110958877,-0.010851369389292518,0.0018006536884058733,0.0006272022388675418,5910.593872086261
1680651883421614408,277,1680651883421614408,camera_1,279,0,0.29018599475549045,0.26250436171960895,3.798070977407112,0.9996305071898556,-0.024317991873529142,0.0033458884022592584,-0.01167430500674599,0.0013879709913453553,0.0004835806639535602,5910.43994575774
1680651883431411266,278,1680651883431411266,camera_1,280,0,0.29017620494819335,0.26248029514229,3.797688489879448,0.999617086989381,-0.024291112960508805,0.0036965843239674533,-0.012726212882873457,0.0025720366902532987,0.0008959093016526814,5911.007589054061
1680651883441157341,279,1680651883441157341,camera_1,281,0,0.2902462522452239,0.26252400254686925,3.7985581310067515,0.9996393252297404,-0.024356394281278244,0.0038957544959281813,-0.010621139710571798,0.003583900412195362,0.0012489054949917516,5910.2933436427265
1680651883451022386,280,1680651883451022386,camera_1,282,0,0.2902082753147158,0.26249750491578583,3.798069738691039,0.999647920513329,-0.0245077458150248,0.0023264144330990525,-0.009899151697439441,0.0025601097440812737,0.0008919315351793522,5910.985725866049
1680651883461174488,281,1680651883461174488,camera_1,283,0,0.29013629451356354,0.2624339000293551,3.7971931988670593,0.999621314941926,-0.024405878850882367,0.0006356406439890551,-0.012695501260786382,0.003173481243720744,0.0011051390249699673,5909.755846133457
1680651883471242427,282,1680651883471242427,camera_1,284,0,0.2902661596221431,0.2625652549010012,3.798882321267233,0.9996244549810981,-0.024487350076930554,0.004858028824815408,-0.011301249749023263,0.001988540760066826,0.000693090369976579,5909.545656779895
1680651883481153011,283,1680651883481153011,camera_1,285,0,0.29020193268781713,0.2624970958442391,3.798118135532835,0.9996444776642349,-0.024588725829095603,0.0013862327880519044,-0.010217200994306274,0.0007709452220296953,0.0002686145829933024,5909.708416804149
1680651883490689516,284,1680651883490689516,camera_1,286,0,0.29019333876255843,0.2624730377999729,3.798022689524171,0.9996258271383852,-0.024354779973731724,0.0034749339831027072,-0.01195722560394671,0.002783806066872785,0.0009698377631325123,5910.4734549072455
1680651883501063346,285,1680651883501063346,camera_1,287,0,0.2902252451629805,0.2625333431500189,3.7984640036240536,0.999617927640534,-0.024464155565938023,0.0034023776617149487,-0.012406758574939973,0.0023012906094663776,0.0008019649587098739,5908.625230488075
1680651883511489629,286,1680651883511489629,camera_1,288,0,0.2901533376050083,0.2624419326635621,3.7974605261556773,0.9996324750261666,-0.024412088098645344,0.0018626782696501995,-0.011640243012426178,0.0018834659204003401,0.0006559750758255923,5911.013839515275
1680651883521520137,287,1680651883521520137,camera_1,289,0,0.2902191917290674,0.26249100891151955,3.798216470710551,0.9996358606791905,-0.02433834714200907,0.002886877065419656,-0.011289678621568862,0.0027958941100223456,0.0009741670514364873,5909.894259453518
1680651883530821800,288,1680651883530821800,camera_1,290,0,0.2901252140014307,0.2624315853914591,3.796989903048709,0.9996353194319895,-0.024479653870535967,0.0019997559604815036,-0.01122388821138476,0.0023822333932912443,0.0008295129067243376,5912.935017639245
1680651883541200876,289,1680651883541200876,camera_1,291,0,0.2902805134794105,0.2625382049944882,3.7990102244434802,0.999637482775346,-0.024479228793846796,0.002946887212606308,-0.010816017935670028,0.0034150370229326654,0.0011904067060335781,5907.885931386668
1680651883551058292,290,1680651883551058292,camera_1,292,0,0.2901770846978878,0.26246595798273714,3.797954308799165,0.9996311418098137,-0.024465014128956134,0.0022852425925916214,-0.011568105893842004,0.0021698078089684714,0.0007559296150041874,5909.953170789115
1680651883561065435,291,1680651883561065435,camera_1,293,0,0.29016091494869134,0.2624501353672778,3.797729529729886,0.9996619881612436,-0.02462737041392257,0.00018408561792739942,-0.00832875527857561,0.001443038087018067,0.0005026853542787106,5911.306694183322
1680651883571200370,292,1680651883571200370,camera_1,294,0,0.2902268584982278,0.2624915881057449,3.798424408256261,0.9996537416985619,-0.02441235500660535,0.0009346548165780252,-0.009775482160500318,0.003547847518348135,0.0012363268355522726,5908.707532452828
1680651883580918312,293,1680651883580918312,camera_1,295,0,0.29022683701925955,0.26248008007167073,3.7982531510679123,0.9996368434263443,-0.024449316490900607,0.00318798567482076,-0.010874232620260223,0.004156559916737024,0.001448218646259483,5910.411875554183
1680651883591295719,294,1680651883591295719,camera_1,296,0,0.2901719650142388,0.2624110791361508,3.79736178646448,0.99964386219268,-0.02440269296542739,0.0015110618646390005,-0.01069458033673013,0.005411236434156308,0.0018845443642936182,5911.778293631918
1680651883601137399,295,1680651883601137399,camera_1,297,0,0.2902586688399313,0.2625110744234741,3.798642683427392,0.9996354253939326,-0.02436769584251584,0.003170170420409472,-0.011188463537213374,0.003064802414883161,0.0010680749232772804,5908.911242597445
1680651883610782146,296,1680651883610782146,camera_1,298,0,0.29025889003864525,0.26255014234354784,3.798836242021566,0.9996482527524335,-0.024625314667618817,0.0031664560895533172,-0.009324065763416673,0.0010931611504929606,0.0003810164458749482,5909.83888213494
1680651883620514869,297,1680651883620514869,camera_1,299,0,0.2902457605791907,0.2625530159523265,3.798794886423588,0.9996436287435985,-0.0244017828926023,0.0031728389607209406,-0.010348990140212991,0.0017050036767614074,0.0005942468028302131,5909.147828609392
1680651883631361961,298,1680651883631361961,camera_1,300,0,0.2902238709490654,0.2625200346644078,3.798377684581291,0.9996386764525107,-0.02434172962636144,0.0035400347017568974,-0.010838122225744441,0.0029265618504723534,0.0010198081448104539,5910.3568497354845
1680651883641424179,299,1680651883641424179,camera_1,301,0,0.29026795526875854,0.26253849789796435,3.799009823268836,0.9996390350679145,-0.02438075225488958,0.004448812142215124,-0.010372394058170562,0.0039189291892398614,0.0013659575309236053,5909.608184906072
1680651883650975227,300,1680651883650975227,camera_1,302,0,0.29028457273964803,0.26256306872541657,3.7990124939056793,0.9996404073004365,-0.024367069752010872,0.00574206027217325,-0.009608888996605192,0.0024297886884596664,0.0008469413679530116,5911.289032923407
1680651883661241769,301,1680651883661241769,camera_1,303,0,0.29025236271816995,0.2625264374144513,3.798565052760799,0.9996226900925435,-0.024435709928658827,0.004344128570369809,-0.01176869064056404,0.0021597497689072043,0.0007526600228007927,5909.683821860991
1680651883671822309,302,1680651883671822309,camera_1,304,0,0.2902318797627431,0.26254824313017544,3.7984816520139466,0.9996321125003036,-0.02434670627515196,0.0033811511648232837,-0.011464962648546788,0.002025317506195279,0.0007057788933297267,5909.34870046383
1680651883681826591,303,1680651883681826591,camera_1,305,0,0.29017888895368005,0.26247295226833534,3.7978899483436828,0.9996301531149294,-0.024022331436517615,0.0043764076497693,-0.01197211893776883,0.0025914279867720325,0.0009027650268763196,5911.662392251774
1680651883691954374,304,1680651883691954374,camera_1,306,0,0.2902601936065354,0.2625587571627749,3.7987684887342263,0.9996177259016328,-0.024409269883579682,0.005996819449128126,-0.01151641278755647,0.0021930481016170233,0.0007643205430508846,5910.677195107855
1680651883700896739,305,1680651883700896739,camera_1,307,0,0.2902960805246906,0.26258130617211406,3.7992263513753537,0.9996475619620818,-0.024573851611032108,0.003420674526131302,-0.00944333977208446,0.00326812669300125,0.0011392961074999093,5908.751496713605
1680651883711144924,306,1680651883711144924,camera_1,308,0,0.2902081942587509,0.2624926186243984,3.798268578307984,0.9996452468259868,-0.024382897249307554,0.0019696710398784327,-0.010534477487587963,0.0035115379141643643,0.001223536690970883,5909.545205663308
1680651883721598625,307,1680651883721598625,camera_1,309,0,0.29035472836193466,0.26262318368926163,3.8000658409961763,0.9996228294906455,-0.02433303342177242,0.007306966072261544,-0.010426432392223042,0.003341493200423429,0.0011653188508514462,5908.656679900598
1680651883731328010,308,1680651883731328010,camera_1,310,0,0.29018065142511623,0.2624843498348286,3.7979838227512257,0.9996256965148246,-0.024429106647928994,0.0026783686092209714,-0.012021312625053978,0.001982441641303012,0.0006906295494253277,5909.822914923716
1680651883741239786,309,1680651883741239786,camera_1,311,0,0.29023264876773414,0.2625370432947365,3.7986801669065478,0.9996165673282605,-0.024369988648115435,0.005285380866792031,-0.012036890181796435,0.002549622528022155,0.0008885503538959593,5909.941117301876
1680651883750481605,310,1680651883750481605,camera_1,312,0,0.2902379991412994,0.26255118045231385,3.798443802426357,0.9996453983179862,-0.024605511576203658,0.0014987946805263138,-0.01006975850027276,0.005033975961850956,0.0017542619459618815,5908.893578323884
1680651883761180639,311,1680651883761180639,camera_1,313,0,0.29025822221673553,0.2625353558617567,3.7987112260426397,0.9996474475957452,-0.024461025085707955,0.0038806940821836233,-0.009569690721698729,0.004651383766031358,0.0016210174463737125,5910.667297798384
1680651883770750284,312,1680651883770750284,camera_1,314,0,0.29014594964756846,0.26247442854522923,3.7976386157690056,0.9996370982293084,-0.024391794350544938,0.0023124193959996476,-0.011196648096015718,0.0022674527353956364,0.0007897765098785971,5911.267220659416
1680651883780982732,313,1680651883780982732,camera_1,315,0,0.2901961612722847,0.26250560411233814,3.7982446527132487,0.9996350918301963,-0.024351019162610874,0.0029915287870608226,-0.011303176672669687,0.002640562590386253,0.0009200511870417124,5909.912819495599
1680651883790581941,314,1680651883790581941,camera_1,316,0,0.2902825698902491,0.2625909162697482,3.799199750125929,0.9996325277982601,-0.024472149055927067,0.003837698626027221,-0.011008876305110202,0.002631758230563719,0.0009174484432320287,5907.922064847951
1680651883800700187,315,1680651883800700187,camera_1,317,0,0.29018284899209923,0.26251680698900137,3.7979503874033718,0.9996455191322314,-0.02443935413253788,0.0010099799203116201,-0.010513514588217622,0.0012629128650587518,0.0004399739415112813,5909.617556025039
1680651883810875892,316,1680651883810875892,camera_1,318,0,0.2902377013138861,0.26254822665378885,3.7986378816662687,0.9996462843064265,-0.02452159889515289,0.002377466877281,-0.010017240699302907,0.0018349710626353044,0.0006394813312557816,5909.178809251169
1680651883820647716,317,1680651883820647716,camera_1,319,0,0.2902090231530152,0.2624836552891412,3.797962760953678,0.999640256489006,-0.024490594260499324,0.0025171352329071933,-0.010641072764583391,0.003600509520765627,0.0012543786684603565,5910.874506661667
1680651883831665992,318,1680651883831665992,camera_1,320,0,0.2902052643023045,0.2625362513257782,3.798405376688725,0.9996427958625256,-0.02430088934761466,0.004013450248890561,-0.010374954176655068,0.001796507349354215,0.0006259840019784278,5911.09338673315
1680651883841563940,319,1680651883841563940,camera_1,321,0,0.29026185453839587,0.2625976303708378,3.799096373710564,0.999615124621832,-0.024151475994089247,0.0056315688618934325,-0.012433594280814522,0.0018400188600935508,0.000641417031584578,5908.569868659774
1680651883851618289,320,1680651883851618289,camera_1,322,0,0.2902120198691704,0.26253441569343794,3.7981365450131572,0.9996149937708887,-0.024576387035233474,0.0030326645689236313,-0.012516723785923327,0.0023036980055621825,0.0008026131986459472,5909.191432590305
1680651883861331701,321,1680651883861331701,camera_1,323,0,0.2902287925280948,0.2625594175529712,3.7985868925459934,0.9996357763178971,-0.02447984245893981,0.0036642268574162465,-0.010752927975113074,0.0015254102036124095,0.0005316148363178455,5909.884553998416
1680651883871004104,322,1680651883871004104,camera_1,324,0,0.2901540945883112,0.2625233858061647,3.797914706738713,0.999592153614021,-0.02423826597736584,0.005574059198904593,-0.014034342155627655,0.0009439449677302036,0.00032885220996785845,5910.779295386048
1680651883880943775,323,1680651883880943775,camera_1,325,0,0.2902633924485429,0.2625795195704382,3.798844836570429,0.9996180056399819,-0.024177864348348097,0.004702922479257722,-0.012536195437698256,0.002745183493971126,0.0009568099440138059,5908.448112324755
1680651883890784263,324,1680651883890784263,camera_1,326,0,0.2902736143335474,0.2625994505641075,3.7991054998555414,0.9996166998815876,-0.024266563898339318,0.0053737297502707455,-0.012194680109914171,0.0028481515546445735,0.0009928189905965515,5908.523822667837
1680651883901382923,325,1680651883901382923,camera_1,327,0,0.2902425418780363,0.26257158677113074,3.7987462979395747,0.9996364434533459,-0.024365203497829717,0.00379153719825284,-0.010906054471227729,0.002149063835531706,0.0007489984548645625,5909.373290835938
1680651883910877943,326,1680651883910877943,camera_1,328,0,0.2902007757237704,0.2625035850023089,3.797974657475334,0.9996236592207628,-0.024492036532204334,0.004246840403449953,-0.01160363818745209,0.0031108516923268326,0.001083749985187073,5911.576464963495
1680651883921383380,327,1680651883921383380,camera_1,329,0,0.2901514674458775,0.26246963505214754,3.7974769831805237,0.9996182116060333,-0.02428217855534127,0.0032237087422709496,-0.01278336935660412,0.0020829594759561587,0.0007254775830643075,5911.198039419482
1680651883931646108,328,1680651883931646108,camera_1,330,0,0.2902167719744693,0.2625312521170149,3.798397008210507,0.9996396642770667,-0.024352398321877,0.0022592462585665513,-0.011063367767062177,0.0020225092048349325,0.0007047583042691969,5908.951336699594
