%time,field.header.seq,field.header.stamp,field.header.frame_id,field.image_seq,field.transforms0.fiducial_id,field.transforms0.transform.translation.x,field.transforms0.transform.translation.y,field.transforms0.transform.translation.z,field.transforms0.transform.rotation.x,field.transforms0.transform.rotation.y,field.transforms0.transform.rotation.z,field.transforms0.transform.rotation.w,field.transforms0.image_error,field.transforms0.object_error,field.transforms0.fiducial_area
1680662480288859605,7,1680662480288859605,camera_1,9,0,0.26650468166880203,0.2506536673285271,3.800344903709288,0.9996636366680879,-0.02345915302617158,0.005207064613310347,-0.009755415979888962,0.009152046688541304,0.0031884182264625863,5913.75286611513
1680662480299086332,8,1680662480299086332,camera_1,10,0,0.26652919900365596,0.2506822549143665,3.8005281358095133,0.9996389209447321,-0.02334810561441312,0.0063754653105819546,-0.01167249496653151,0.007136552922020201,0.0024865483499891877,5912.52236099553
1680662480308941841,9,1680662480308941841,camera_1,11,0,0.26644098481690154,0.2506202224346026,3.799664547624881,-0.9996640304036467,0.02349339343853873,-0.0046782880979335745,0.009899515258435626,0.00726329829194583,0.00252963519027019,5915.301325216076
1680662480318933010,10,1680662480318933010,camera_1,12,0,0.2664804970323549,0.25066304867101596,3.800157938529915,0.9996588859625501,-0.02346840156181859,0.0032685770217504256,-0.010984636930698717,0.0055308865557890385,0.0019266763039837952,5911.608566298908
1680662480329400062,11,1680662480329400062,camera_1,13,0,0.2664147448238678,0.2506078142565553,3.7993736718122992,-0.9996297684994918,0.02327522339926896,-0.005371522875793066,0.01302830178348663,0.007405461874441244,0.0025787351745598926,5914.113856363578
1680662480339005947,12,1680662480339005947,camera_1,14,0,0.266555687984346,0.2506827657747338,3.80112178104096,0.9996751078593277,-0.023384318517793982,0.004006138249341199,-0.009316825115191435,0.005423638736829162,0.0018902905335976617,5910.665939631755
1680662480349232912,13,1680662480349232912,camera_1,15,0,0.2664642828906551,0.25057052594574014,3.7997241322736532,-0.9996564852931431,0.023450522187414845,-0.003142422844526207,0.011274289297504653,0.009795221343665617,0.003411645285457794,5912.61710551736
1680662480358999967,14,1680662480358999967,camera_1,16,0,0.26648560852979614,0.2505666198948239,3.800140355083742,0.9996793937689308,-0.02366446384029406,0.002911116730265632,-0.008522219447850712,0.008480278735078173,0.0029542241221928805,5913.409330966475
1680662480368861675,15,1680662480368861675,camera_1,17,0,0.2664776146897049,0.2505756406552158,3.800017051847367,0.9996876379163308,-0.02357309189616884,0.002693879146549671,-0.007853594773478856,0.00623650153647759,0.0021724114910860607,5914.103768435771
1680662480378829479,16,1680662480378829479,camera_1,18,0,0.26651499669287804,0.2505988181882174,3.800408579568528,0.9996839681725822,-0.023597578255538914,0.002896061738201104,-0.008168898677413907,0.007781787619023817,0.0027112467810823833,5912.816679983283
1680662480389027357,17,1680662480389027357,camera_1,19,0,0.2664485799386289,0.2505617492692229,3.7996378100475425,-0.9996441676653917,0.02338417878694589,-0.00503311473770116,0.011806184441369147,0.007892680579971056,0.0027488137889000817,5914.104334275061
1680662480398917675,18,1680662480398917675,camera_1,20,0,0.2665595654676636,0.2506579365888906,3.8010058949575356,-0.9996489903113941,0.023504339930089692,-0.005501724489880492,0.010916647905762659,0.009270820493838983,0.0032311949273420193,5910.990206012211
1680662480408867120,19,1680662480408867120,camera_1,21,0,0.2665019623870861,0.2505883736281701,3.8002891540305743,-0.9996739839123397,0.02369092499770478,-0.00031152702548074585,0.009516770066390342,0.008531232655514032,0.002972371572170075,5909.693468002951
1680662480418892383,20,1680662480418892383,camera_1,22,0,0.2665236964651064,0.25059971226738875,3.8006336268803094,0.999649397078152,-0.02339244777582102,0.005954818402846679,-0.010881932095542255,0.008314840193634154,0.002897256527388021,5912.595214465866
1680662480428848981,21,1680662480428848981,camera_1,23,0,0.2665010564877625,0.250568631980922,3.7999901575687427,0.9996728347040945,-0.02378322264240483,0.001746612148478652,-0.009248309111661947,0.010460269713803427,0.0036438754657350755,5912.1842797799045
1680662480439049720,22,1680662480439049720,camera_1,24,0,0.26651217925488513,0.2506160234585509,3.8006314197422837,0.9996861945515212,-0.02359662280972181,0.0030940089290124977,-0.007819138304272888,0.008030382174183615,0.002798260217713721,5912.592794438358
1680662480449332952,23,1680662480449332952,camera_1,25,0,0.2665232247794676,0.25056118440218356,3.800320878934885,-0.9996685577860569,0.023347895859811757,-0.0037908821013109112,0.01016265446419689,0.011373104283848079,0.003962530718398905,5912.285929808392
1680662480459115505,24,1680662480459115505,camera_1,26,0,0.26654304588688715,0.25058746363661893,3.8010532831539727,0.9996533625946449,-0.02348093745418701,0.0055019317408509716,-0.010560728034143116,0.008017730306164594,0.002794406238246936,5911.21635413478
1680662480469148397,25,1680662480469148397,camera_1,27,0,0.26654352753391064,0.25057745068664894,3.8009417705784085,0.9996831020159289,-0.023757132517537083,0.003038118455136052,-0.0077500990062464034,0.008531435181794222,0.002973409035947172,5911.657470892591
1680662480479197502,26,1680662480479197502,camera_1,28,0,0.26653903145799346,0.2505637345336754,3.800978356214574,-0.9996729956111918,0.02370727540240003,-0.0033585438131713426,0.008977033039700016,0.0072721221804386005,0.002534553790423894,5910.8859368537105
1680662480489261388,27,1680662480489261388,camera_1,29,0,0.26650798579416907,0.25053302829549495,3.8003463008625973,0.9996883467913669,-0.02358778790931248,0.003086883917279778,-0.007569458287785952,0.009588942430127645,0.00334096337652327,5913.6855005189445
1680662480499066352,28,1680662480499066352,camera_1,30,0,0.26654464213729956,0.2505424120689107,3.8006678268574072,-0.9996661139851252,0.02348542849350579,-0.0036500353369161077,0.01013767430895499,0.0075944881718896795,0.0026464104095931303,5911.135396881264
1680662480509018898,29,1680662480509018898,camera_1,31,0,0.2664537714226245,0.25045201744577367,3.799506579780776,0.9996737671459326,-0.023671244000543167,0.0028570717403037316,-0.009157981698906057,0.010613571914291242,0.0036962091455234733,5914.857278372861
1680662480519154071,30,1680662480519154071,camera_1,32,0,0.26645561481030094,0.2504332558683329,3.799813243473141,-0.9996877040871922,0.023814559507924472,-0.001975303201269364,0.007311581879799458,0.008547622393962229,0.002977405210252114,5914.580383362016
1680662480529227256,31,1680662480529227256,camera_1,33,0,0.2664725284995597,0.25045896193077133,3.7999295221168934,-0.9996801022106124,0.02344571768251407,-0.003015982102739933,0.008994188039369496,0.008124079853587318,0.002829882865976553,5913.838164657993
1680662480538969993,32,1680662480538969993,camera_1,34,0,0.2664971865724455,0.2504973336730052,3.8005560836940058,-0.999667406558015,0.023505646630722517,-0.0043231631298426935,0.009688710058441567,0.007340991451201262,0.002557963670577363,5912.514551288565
1680662480549076557,33,1680662480549076557,camera_1,35,0,0.266523495482031,0.25046879919772747,3.8004034639351176,-0.9996812499094684,0.023592473219310395,-0.003135864463735419,0.008423784238939318,0.013122621836373582,0.00457245682826891,5912.9175994038815
1680662480558953523,34,1680662480558953523,camera_1,36,0,0.26643264852296544,0.25041423927470363,3.7994250956514257,-0.999680098501282,0.02365516246528207,-0.0011458084486614918,0.008878123236756255,0.008743155372940237,0.0030448502311820947,5913.778498081025
1680662480568972349,35,1680662480568972349,camera_1,37,0,0.26649661235983113,0.2504409796570123,3.7998841020506355,-0.9996761120349812,0.02350167093815356,-0.0024151879090216384,0.009460938489527133,0.009758819523995042,0.003399333671298381,5913.031778875972
1680662480578892707,36,1680662480578892707,camera_1,38,0,0.26652555421851076,0.2504506314149705,3.800376569409295,0.9996988138904737,-0.023697735781120083,0.00039014236249574025,-0.006367622300797986,0.009549986112688202,0.0033275613204761926,5912.009408914015
1680662480588983535,37,1680662480588983535,camera_1,39,0,0.26652764080704267,0.2504497475978158,3.800195531080514,-0.9996877113512913,0.023648089000674104,-0.002642882761390486,0.007633009271777348,0.011230556228838395,0.003912774249052428,5913.711562243875
1680662480598842620,38,1680662480598842620,camera_1,40,0,0.2665385882935666,0.25045361888148215,3.8006038980380663,0.9996995474321112,-0.023773968066195222,0.000802900341373482,-0.005913430261831185,0.009787708699150244,0.0034109048805898356,5912.041655266599
1680662480608848333,39,1680662480608848333,camera_1,41,0,0.26651779286758565,0.25042968523159764,3.800224906115244,-0.9996538974825202,0.02354659131906797,-0.007098319144391584,0.009341153600296888,0.012821173197153257,0.0044670429161174675,5916.139551354454
1680662480618810892,40,1680662480618810892,camera_1,42,0,0.2665047368952752,0.2504104381432801,3.800014312669978,-0.9996806136447408,0.023805633149934377,-0.0018918191075456363,0.008269434906303906,0.011730190763046267,0.004086446734080208,5913.120775087039
1680662480629115581,41,1680662480629115581,camera_1,43,0,0.26650292533074565,0.25037110155004516,3.7998730436561274,0.9996833834251988,-0.02374648280303082,0.002528004292382001,-0.007927588052482086,0.013550822572142351,0.004720308590561302,5914.425020589028
1680662480639117717,42,1680662480639117717,camera_1,44,0,0.26651779504253387,0.2504131718836122,3.8003515572667697,0.9996565126341513,-0.023555583550390495,0.004960013458522947,-0.010362890437457717,0.014096013641392346,0.004911349186654435,5913.155839644254
1680662480649059772,43,1680662480649059772,camera_1,45,0,0.26646480572359416,0.2503103971185825,3.7992802938971537,-0.9996822091120839,0.023639081726156717,0.00023804237192091938,0.008753167184340766,0.012723854211799335,0.004430975004631976,5913.001108477591
1680662480659019231,44,1680662480659019231,camera_1,46,0,0.2664452688838455,0.2502915821671211,3.7992549745884894,0.9996762761174602,-0.023697302559674584,0.0013720949403432943,-0.009159594685208373,0.014628730761614861,0.005094190687474544,5914.340398882694
1680662480669104099,45,1680662480669104099,camera_1,47,0,0.26653219562422714,0.2504164225847044,3.8006837673287475,0.9996718473019927,-0.023679485114404063,0.0040513449204555765,-0.008891923350651148,0.0125439506409748,0.004371385950202832,5912.5523710090765
1680662480679060697,46,1680662480679060697,camera_1,48,0,0.26651855135567737,0.250347149079061,3.8002218882948187,-0.9996666273398812,0.023506345875122153,-0.0033851147733244195,0.010130492805261654,0.015382839690573746,0.005359490934773384,5912.391395245386
1680662480689048290,47,1680662480689048290,camera_1,49,0,0.26643435021407524,0.25029820438850003,3.7990603209359275,0.9996888652718005,-0.023681471013138146,-0.0010596799564048481,-0.007761292458343206,0.010193386340688448,0.003549297450266996,5913.665372746995
1680662480699056863,48,1680662480699056863,camera_1,50,0,0.26653605736580216,0.25040244298873404,3.8006217643182776,-0.999648698389309,0.023609266920140714,-0.004710946803079044,0.01108554483425908,0.009916161146975355,0.0034555067188151707,5911.508998092667
1680662480709092140,49,1680662480709092140,camera_1,51,0,0.2664387497500757,0.2503100343100515,3.7994041185430545,0.9996593682603265,-0.023402521371921503,0.0035924188707973288,-0.010980162542436472,0.010004253781517036,0.0034838215004814772,5914.426452974383
1680662480719140052,50,1680662480719140052,camera_1,52,0,0.266447476875214,0.25026833177923224,3.7993413597775536,-0.9996611354952165,0.023677048189981214,-0.002017421378784418,0.010627397630842474,0.009836146629822906,0.0034252314777477827,5913.495938830718
1680662480729058742,51,1680662480729058742,camera_1,53,0,0.26644286624768065,0.25028350611302286,3.7994697936448842,0.999677064168116,-0.02341016422864564,0.004351339963439968,-0.00887679151083539,0.011550507701031165,0.004022479156067702,5916.641546493397
1680662480739145755,52,1680662480739145755,camera_1,54,0,0.26650639883999144,0.25027949013906764,3.799848923750424,0.9996815697200121,-0.023664563046577256,0.0020153039432052595,-0.008525618333218292,0.016421946245827712,0.005720157625635314,5913.614846180546
1680662480749078512,53,1680662480749078512,camera_1,55,0,0.2664161845798713,0.2502541912131637,3.7990955953354666,0.9996727374535127,-0.023597932626089505,0.0020162076233813733,-0.009669047253704531,0.0118628773088858,0.004130539873556926,5915.066144522862
1680662480759044885,54,1680662480759044885,camera_1,56,0,0.2664786226513992,0.25030037358092555,3.7997353118672876,0.9996829638334161,-0.023626911188229495,0.002275483560705143,-0.008400182349529765,0.013758370685536647,0.0047922016006526815,5914.309250891444
1680662480769053697,55,1680662480769053697,camera_1,57,0,0.266476882009017,0.2503035327451272,3.799841680836621,-0.9996722311587375,0.023648527879764965,-0.0012917059344319255,0.009721567518183998,0.012095203834178392,0.004213186604788953,5912.011879244472
1680662480779124975,56,1680662480779124975,camera_1,58,0,0.2664474846203106,0.25024722794964643,3.7991253061518395,-0.9996912747870129,0.023630811288298224,-0.0012133335097819365,0.007580744974470815,0.01260081982036354,0.004387769774906788,5915.840592716706
1680662480788956880,57,1680662480788956880,camera_1,59,0,0.2665136138073375,0.2503166887665688,3.800348900732119,-0.9996749279903718,0.023605746565232857,-0.0033551437123090235,0.009030508690677222,0.010950981675705407,0.00381552929689318,5912.907562130133
1680662480798957109,58,1680662480798957109,camera_1,60,0,0.26640575399495164,0.25025725060041176,3.7991563504334978,-0.9996718450730698,0.023603140257733905,-0.0027071512813111724,0.009579419090850997,0.00949756418413017,0.003306993091479871,5915.6049995178455
1680662480808876037,59,1680662480808876037,camera_1,61,0,0.266494551798956,0.25032514493219116,3.800094709193527,-0.9996782966529679,0.02362562098912923,-0.0026885818101118797,0.008826367415269478,0.012120908890210558,0.004222709886205635,5913.241387003738
1680662480818901777,60,1680662480818901777,camera_1,62,0,0.2664346818565197,0.2503037097253295,3.79964745312141,-0.9996712675871744,0.02377813296713681,-0.0010169344792794082,0.009535355133074703,0.011286375873169163,0.0039311230371939275,5912.531593403835
1680662480829063177,61,1680662480829063177,camera_1,63,0,0.26648647260254615,0.2502881867086972,3.8000507764862226,0.9996835291424806,-0.023653885396897285,0.0019609922605956804,-0.008336052796107158,0.010561042254266795,0.003679067883104592,5913.125814846136
1680662480838936090,62,1680662480838936090,camera_1,64,0,0.2664864085816136,0.2502833425445785,3.799851613905562,-0.9996812233047261,0.023635492107455344,-0.0011638860871210838,0.008801173443415437,0.013453363630105741,0.0046863816165638485,5912.604059219362
1680662480848733663,63,1680662480848733663,camera_1,65,0,0.2663999620497628,0.25021500304105393,3.7987133207307933,-0.999689620357361,0.023759503182607274,-0.0013973437123125144,0.007361819667783325,0.009431662230781512,0.0032834561038388144,5917.491011949196
1680662480858686685,64,1680662480858686685,camera_1,66,0,0.2665624381565086,0.2503674338896697,3.800887834569472,-0.9996832413307086,0.023586053974563943,-0.0037177236489079053,0.00795572695030954,0.012258676422788994,0.004272506962797592,5912.37690632482
1680662480868730545,65,1680662480868730545,camera_1,67,0,0.26649580011205604,0.2502980048938468,3.7999385483123485,-0.9996915661743674,0.02379177618406757,0.0010184732441096598,0.007048873534049414,0.009982160983781796,0.003477520266407256,5911.553049056385
1680662480878695487,66,1680662480878695487,camera_1,68,0,0.2664281642062706,0.25021609439982395,3.7988124616132635,-0.999671122312063,0.0235931213571312,-0.0021162998244903656,0.009825126717817665,0.0111875043658074,0.00389481505805902,5915.88603631849
1680662480888786792,67,1680662480888786792,camera_1,69,0,0.26652108066652486,0.25034025558323003,3.800480726921046,-0.9996563585191534,0.02351597973925173,-0.004285979162361847,0.01076075981279555,0.010291966351360315,0.003586186025333007,5911.891827804446
1680662480898752450,68,1680662480898752450,camera_1,70,0,0.26645698126794,0.2502824473485602,3.799580039351376,-0.9996844988783311,0.023839157577564843,0.0013235225697253163,0.007800356170030745,0.010350659056712175,0.003605241901879825,5911.799243169018
1680662480908766508,69,1680662480908766508,camera_1,71,0,0.26648384204140335,0.25031302354915624,3.79992233907723,0.9996757550326397,-0.023663317827035804,0.001967073359792462,-0.009195804028784808,0.008738870998058701,0.0030440545524400052,5912.818763632911
1680662480918808460,70,1680662480918808460,camera_1,72,0,0.2664664222273973,0.25027836217096433,3.799665682510905,-0.999671034587854,0.02376184110484994,-0.0011693429437819177,0.009582804935778446,0.011919263131858315,0.004151545768674609,5912.563507520124
1680662480928778171,71,1680662480928778171,camera_1,73,0,0.2665138663088109,0.2502782295850097,3.8000931661898463,-0.999660671943608,0.023710982978484826,-0.001448977346017554,0.010687877249430638,0.01544371219642926,0.005380386078273677,5910.582875530352
1680662480938885688,72,1680662480938885688,camera_1,74,0,0.26651717262571933,0.2502898993826556,3.800325878818692,-0.9996801537745124,0.023863445266832903,-0.0009412311970723431,0.008321070435818532,0.015788122927915538,0.005501242621886081,5911.3160226971395
1680662480948745727,73,1680662480948745727,camera_1,75,0,0.26647537395940224,0.25028790328733974,3.799856925064388,0.9996810859984441,-0.023698218002076735,0.0026306622640049617,-0.00831867637010318,0.009557938701618696,0.0033292784748562994,5914.3485605470505
1680662480959215164,74,1680662480959215164,camera_1,76,0,0.2665047259870973,0.2502894562187822,3.8000710206070125,-0.9996683439531711,0.023547187464531726,-0.003180967639074928,0.00993043328932907,0.011660474952805089,0.004062253183443596,5912.874704069864
1680662480969335556,75,1680662480969335556,camera_1,77,0,0.26645251689542465,0.25021104980360553,3.799196260893636,0.9996906274856376,-0.02371770686352293,-0.0005098574859535491,-0.007473937640376802,0.010454514042066876,0.0036405275349398504,5914.0602211655905
1680662480979266405,76,1680662480979266405,camera_1,78,0,0.2665009877555942,0.2502384691449077,3.799661186452623,0.9996651080502361,-0.023557295125577544,0.003512450128069439,-0.010118709768249082,0.016093605914647924,0.00560529396984912,5914.2840795944785
1680662480989167213,77,1680662480989167213,camera_1,79,0,0.266413254558848,0.2501935156089875,3.7987589110690103,-0.9996751216806368,0.023660008139391314,-0.0010753722213058283,0.009417997782633124,0.01094406732954667,0.0038099921629803214,5915.43273068097
1680662480998984098,78,1680662480998984098,camera_1,80,0,0.2664926152722967,0.25025828488877544,3.7998753388927433,0.9996948168045611,-0.023932423790872386,-5.505671962707113e-05,-0.006124484822971444,0.009821910400205525,0.0034215347902966445,5913.411778309035
1680662481008742809,79,1680662481008742809,camera_1,81,0,0.2665478432054568,0.2503362577574573,3.800659651671991,-0.9996731281120821,0.023725070420590407,-0.0022907271927047113,0.009247190550172814,0.010805845427967142,0.003765599827421971,5910.786399091246
1680662481018735408,80,1680662481018735408,camera_1,82,0,0.2666057731122482,0.2503777261427347,3.8013412587032005,0.9997019233814899,-0.02367080660869033,0.0037382999911774453,-0.004667163487562079,0.014920957910362631,0.005201897601159765,5913.403613874632
1680662481028763294,81,1680662481028763294,camera_1,83,0,0.26648352113190127,0.2502571098098999,3.7994746842691867,-0.999687088207051,0.023638049508849304,-0.002839635289404312,0.007674943579479529,0.01291119529196294,0.00449662263300645,5916.186944174232
1680662481038806676,82,1680662481038806676,camera_1,84,0,0.26654508625635087,0.2503226826974205,3.8007946968857853,0.9996831177132935,-0.023750615730951316,0.0024352135664713636,-0.007977602792554146,0.010345839305955451,0.0036055394441570124,5911.532389947619
1680662481048757791,83,1680662481048757791,camera_1,85,0,0.26651154738273863,0.25027022975420327,3.799907470947229,-0.9996614896442362,0.023571292613256897,-0.002248680671850248,0.010781638189206388,0.014682336626719916,0.005114568193725804,5911.810762100911
1680662481058778285,84,1680662481058778285,camera_1,86,0,0.2664550633164641,0.25020262453736686,3.798984159414334,0.9996651912220744,-0.02370747346406113,0.00024373132293561042,-0.010363481843774003,0.014840707088296767,0.005167231511540996,5913.129612583258
1680662481068723678,85,1680662481068723678,camera_1,87,0,0.2665351259222492,0.25033541199356646,3.8004102770170602,-0.9996765855185893,0.023604339239459326,-0.00374841646537062,0.008689586236728409,0.010186256004089955,0.0035493098036404698,5913.305212048636
1680662481078720569,86,1680662481078720569,camera_1,88,0,0.26655164580514057,0.25032394400511027,3.800659139381667,-0.9996755664047029,0.02349132871989895,-0.0029049250109339985,0.009406424352052486,0.01657409883046057,0.005776039271745773,5911.219231686551
1680662481088722705,87,1680662481088722705,camera_1,89,0,0.2665083086679792,0.2502705674177197,3.7997374330783993,0.9996795559865173,-0.02367952411684017,0.002723434881603271,-0.00852340205817894,0.015421811203850666,0.005371690749838909,5914.600655743561
1680662481098728179,88,1680662481098728179,camera_1,90,0,0.26648409798271205,0.25028120288351685,3.7996008927468887,-0.9996873422530331,0.023806920304246772,-0.00036150623787174703,0.007636595965102272,0.009677625050244386,0.0033707627199443227,5913.496190160864
1680662481108734130,89,1680662481108734130,camera_1,91,0,0.26643225782345764,0.25023480679973026,3.7989231528497376,-0.9996664641531711,0.023400273764231563,-0.001412337776138364,0.01083480213302082,0.011378395447536604,0.003961631178271367,5914.033869870241
1680662481118733406,90,1680662481118733406,camera_1,92,0,0.2665200130153132,0.2503031255389545,3.7999184174521914,0.9996707651227652,-0.023389937646330607,0.0022817049751564784,-0.010298834796828287,0.011555288132512942,0.004025059885866331,5912.182681805224
1680662481128731966,91,1680662481128731966,camera_1,93,0,0.2665004637999438,0.25026586184723765,3.79980174626398,-0.9996899456070804,0.023931628130503858,-7.264446860298772e-05,0.006876376219857936,0.013076292787445707,0.004555197423166867,5913.182897862978
1680662481139079093,92,1680662481139079093,camera_1,94,0,0.26650534278279886,0.250258087906146,3.7998704331915514,-0.9996754691058701,0.023714458104577292,0.00020352313244350147,0.009302662151189309,0.013076750787149647,0.004555248940858652,5910.821085647214
1680662481149175882,93,1680662481149175882,camera_1,95,0,0.26644872384243157,0.2502386033474679,3.7993376984465166,0.9996487402887327,-0.02342227349573303,0.005493751459244529,-0.011118086091821787,0.015485621079278644,0.0053926728486514705,5916.196281241603
1680662481159038305,94,1680662481159038305,camera_1,96,0,0.26647841453378573,0.2502669985751341,3.7996589492624344,-0.9996855735388509,0.02365957528951877,-0.001930938340145711,0.008077749225190714,0.010543934113229625,0.003672458962500976,5914.489487207145
1680662481168751001,95,1680662481168751001,camera_1,97,0,0.26655090227740214,0.2503081535075565,3.8006755152113527,0.9996870316824134,-0.023846955636265967,0.0020047384100813992,-0.007289884552902583,0.012637387382710585,0.004404092446765935,5912.0183317700885
1680662481178747892,96,1680662481178747892,camera_1,98,0,0.26648957074880947,0.2502252034214732,3.7995554449364044,0.9996790036417422,-0.023580510392828886,0.001372662835860994,-0.00916324201397137,0.013438001817121403,0.004680185930686977,5913.4310937621085
1680662481188840866,97,1680662481188840866,camera_1,99,0,0.26651063514866163,0.2502441178853018,3.799847866820777,0.9996855447464857,-0.023676081767232817,0.0019088498353657965,-0.008038101105330559,0.013938923490059096,0.004855232983857187,5913.917562920831
1680662481198817968,98,1680662481198817968,camera_1,100,0,0.26655898459118194,0.2503195246592677,3.8006106954498224,0.9996719855121879,-0.0235725167234427,0.0026524647604680893,-0.00965516794974077,0.014296400047896896,0.004981925661583857,5910.93010508147
1680662481208767414,99,1680662481208767414,camera_1,101,0,0.2664633077612648,0.2502406057216847,3.799473428886798,-0.9996876815812632,0.023653175447537225,-0.0004949992029362861,0.008051183870471606,0.011925214683287777,0.004153271449482351,5913.736628398592
1680662481218804836,100,1680662481218804836,camera_1,102,0,0.2664243225561701,0.2502165504724012,3.798915335087327,0.9996817734212555,-0.023679886065801105,0.0015394688341577613,-0.008558324658073282,0.011438962348620407,0.003982525226049943,5916.066913820572
1680662481228738784,101,1680662481228738784,camera_1,103,0,0.2663725264916698,0.250165611176155,3.7982613081509506,-0.9996722445104694,0.023716071636762027,-0.0024951749645739318,0.009312658235774401,0.011523687251610681,0.004010826365847151,5918.395943843472
1680662481238818407,102,1680662481238818407,camera_1,104,0,0.26644393798238997,0.2502198079763944,3.799159907525119,-0.999672216237964,0.023645175843460906,-0.0017731941347936587,0.00965512940202618,0.013481618589139543,0.004694504798746148,5914.645805473438
1680662481248830556,103,1680662481248830556,camera_1,105,0,0.2664389022232154,0.2502074611472059,3.79925621744777,-0.9996812910369827,0.023574414438434714,-0.0010773130252045835,0.008966757003636505,0.01243281825009035,0.0043294743064067965,5914.271961919789
1680662481258743762,104,1680662481258743762,camera_1,106,0,0.2664112079158175,0.2501500237121519,3.798555542092765,-0.9996828252850279,0.02375242589871947,0.0008071138083287132,0.0083318462162063,0.011927268147701398,0.004152030741094272,5915.1017168192175
1680662481268733978,105,1680662481268733978,camera_1,107,0,0.26641486089617206,0.25016178827164337,3.798869075000805,-0.9996589909874105,0.023316760398318127,-0.0031988760574202693,0.011313603074581636,0.013681719679880189,0.004763256476544949,5915.509771007405
1680662481278737545,106,1680662481278737545,camera_1,108,0,0.2664185354026387,0.2501485867060539,3.798829648646184,-0.9996792336897709,0.0235668505250282,-0.0027684570462528026,0.008852622851262254,0.014112934542936273,0.004913475602543859,5917.273597190679
1680662481288782596,107,1680662481288782596,camera_1,109,0,0.2664693450281896,0.25016783152576116,3.799187091087309,-0.9996741418072856,0.023561005492430457,-0.003714945592946359,0.009093316297926285,0.013575960671005305,0.00472734529964205,5916.793947923112
1680662481298769712,108,1680662481298769712,camera_1,110,0,0.26654985552531313,0.2503093716471372,3.8006731202875392,-0.9996750811098624,0.02353907229647216,-0.004792448910200892,0.008525064038154593,0.012282503012102097,0.004280266207566326,5913.566390199123
1680662481308767557,109,1680662481308767557,camera_1,111,0,0.2664838048682707,0.2502057317093357,3.7993570765462046,0.9996586841952299,-0.023821644507674388,0.0013975770602503912,-0.010634432019266615,0.01357865652971668,0.004728583453103009,5912.863109918018
1680662481318720102,110,1680662481318720102,camera_1,112,0,0.26642314228265124,0.250168712811707,3.798679543976493,0.9996771222032877,-0.02367032996366295,0.0007189288583004318,-0.009211404022236072,0.013003055926674278,0.0045265352094748575,5915.502972620596
1680662481328733682,111,1680662481328733682,camera_1,113,0,0.2664041314208373,0.2501527719347833,3.798671029567223,0.9996653480633522,-0.0235516762603994,0.0018829765979663377,-0.010533984328532142,0.011689026963722426,0.004069020230485083,5915.576209705732
1680662481338758468,112,1680662481338758468,camera_1,114,0,0.26649735641472766,0.2502703165229597,3.80001503207793,-0.9996622860801961,0.02356386019325402,-0.0036848674442675855,0.010318916301008929,0.010564289928879589,0.003680236894978396,5913.192671364059
1680662481348751306,113,1680662481348751306,camera_1,115,0,0.266507637987376,0.25027784244993845,3.800164993104863,0.9996723999958749,-0.023627047936970312,0.0037861299216051776,-0.009084080167432585,0.01125038722238969,0.003919444419838675,5913.8310206565075
1680662481358748674,114,1680662481358748674,camera_1,116,0,0.26641533692292396,0.25021237986496064,3.798964306116448,-0.999680849372333,0.02372759874675494,-0.0004139398597703832,0.008661934525053063,0.012383532048261259,0.004311762305386062,5914.774253799
1680662481368730783,115,1680662481368730783,camera_1,117,0,0.26645950523571943,0.25023346257130197,3.7993640372716126,-0.9996595472063632,0.023468990604299605,-0.003976276397377934,0.010685756182692,0.010429784968437161,0.0036320030774254696,5915.159076089734
1680662481378747463,116,1680662481378747463,camera_1,118,0,0.2664949471422487,0.25027186709410054,3.8000925640789016,0.9996654617947768,-0.023462487635317806,0.0047187916165003655,-0.00980862754304994,0.010467851407156559,0.003646516795987322,5914.297828605804
1680662481388754606,117,1680662481388754606,camera_1,119,0,0.2665247156319777,0.25027360581552455,3.8003899010845017,0.9996807954632722,-0.023452099527564593,0.004338697334087102,-0.00833558127018855,0.010242027710773982,0.0035685398868327877,5914.219716728783
1680662481398715972,118,1680662481398715972,camera_1,120,0,0.26636507761610173,0.25013053917832223,3.798504574631134,-0.9996744885774681,0.023675301177274035,-0.0007245024950631709,0.009480089539538251,0.011140993348817574,0.003878083704419279,5915.903698900016
1680662481408745765,119,1680662481408745765,camera_1,121,0,0.26655805221277973,0.25030250524261244,3.8007837218662828,-0.9996666780395579,0.023695182642061233,-0.0030367964248197623,0.009790250476290464,0.009890617791825207,0.003446818196872781,5910.667297019272
1680662481418737888,120,1680662481418737888,camera_1,122,0,0.2664300584790472,0.2501685576997546,3.799116067304806,-0.9996616247430617,0.02359881698312732,-0.0012788493559344387,0.01086721663461866,0.013441998598864302,0.004680566987195539,5913.355243581231
1680662481428712844,121,1680662481428712844,camera_1,123,0,0.26645617670003724,0.25017913005823567,3.799558675983738,0.9996790864324538,-0.023718053038186523,0.0010430041662149723,-0.008836868900315046,0.012118018366891192,0.004220339407122498,5913.443551220056
1680662481438795566,122,1680662481438795566,camera_1,124,0,0.26639817886519174,0.2501530277324357,3.7987206054711855,-0.9996705439484254,0.02357418777419608,-0.00048572349896608023,0.010140281323966008,0.012240388678037561,0.004261315878083632,5914.4314489888475
1680662481448747158,123,1680662481448747158,camera_1,125,0,0.26650555029716594,0.2502494973716519,3.800119504208258,0.9996715816767578,-0.023499314694045592,0.003896205840494943,-0.009451485430773053,0.013845277411746792,0.004823456032982219,5913.786794389597
1680662481458770513,124,1680662481458770513,camera_1,126,0,0.2664960616539857,0.2502046060764148,3.799873101752402,0.9996784049669444,-0.023580297145568377,0.0012720796997804042,-0.009243270119943886,0.012356618426565547,0.0043042015932836936,5912.330627155955
1680662481468772888,125,1680662481468772888,camera_1,127,0,0.26646292332669647,0.25017220564938775,3.799361745904876,0.9996904438072128,-0.023850075828465073,-0.0005419385822464085,-0.007063762884413164,0.013023661398619879,0.004535553466665271,5913.860521122697
1680662481478746891,126,1680662481478746891,camera_1,128,0,0.26645533981397834,0.2501876841601602,3.79958558600427,-0.9996656383988992,0.023553982845516255,-0.002018498002374637,0.010476018444459254,0.012798250565538183,0.00445745577668371,5912.934022099945
1680662481488737106,127,1680662481488737106,camera_1,129,0,0.266454046004503,0.2501886326521677,3.799527450849716,-0.999686958498543,0.023710664258455243,-0.000346013630301138,0.007979328475660708,0.011485003957204754,0.004000090236820601,5913.531633414563
1680662481498723268,128,1680662481498723268,camera_1,130,0,0.266400902264465,0.2501664244831627,3.79881170568658,-0.999659668312222,0.02338212503471349,-0.002179378019620846,0.011361077862911895,0.013123184184223646,0.004568650807626641,5914.723724376703
1680662481508736848,129,1680662481508736848,camera_1,131,0,0.2664956931958365,0.2502793573019918,3.800043711878848,-0.999669583409242,0.02347026132654605,-0.0032580428820307636,0.009962730360457181,0.014256860093155412,0.004966687028445469,5913.017710724552
1680662481518760919,130,1680662481518760919,camera_1,132,0,0.266436005644324,0.2502312243991907,3.799141073510017,-0.9996709223128658,0.023618160001579652,-0.0020273054506804566,0.009804062060886945,0.01355363217589911,0.004719439084820217,5914.820973761789
1680662481528722524,131,1680662481528722524,camera_1,133,0,0.2664887636732853,0.25026532441290716,3.7997798507657206,0.9996884228577912,-0.023583831560975824,0.0016607663232596998,-0.00800636922862793,0.01377627987312735,0.004798525955506953,5913.922819383678
1680662481538898944,132,1680662481538898944,camera_1,134,0,0.2664399111862399,0.25025625839566956,3.7992481704367633,0.9996823332127194,-0.02357042288900465,0.001772992761217317,-0.008747818235174603,0.011331314981362084,0.003945660335980203,5915.098348639383
1680662481548845291,133,1680662481548845291,camera_1,135,0,0.26649252674374646,0.2503015672939836,3.7998292359952384,0.9996833007115021,-0.02340858446370315,0.002984713392601013,-0.008742307357111123,0.013438509606203297,0.004680842370561663,5914.390495695112
1680662481558945178,134,1680662481558945178,camera_1,136,0,0.2665148782132173,0.25038151330478803,3.8004871626218217,0.9996690769780158,-0.023676413489604135,0.003164632019051067,-0.009547202856081587,0.012633842361537972,0.0044022043053693165,5911.865724512491
1680662481568832397,135,1680662481568832397,camera_1,137,0,0.2664678235756627,0.25037816980577465,3.7998775990859848,-0.9996656909470216,0.023594946512228657,-0.0024556818696657907,0.010283699191142415,0.009072425094927894,0.0031602270492232425,5912.488267463865
1680662481579081058,136,1680662481579081058,camera_1,138,0,0.26660130038206487,0.25046701431310525,3.801353968471671,0.9997062393659815,-0.023860788047049077,0.0011539669094713615,-0.0040946461230222594,0.009773867674084613,0.003407434925606617,5911.338715707418
1680662481588978528,137,1680662481588978528,camera_1,139,0,0.2664998863897108,0.25043477377680334,3.8001497076593687,0.9996606306032954,-0.02345375065217283,0.004725550508934504,-0.010306035831253802,0.011216432369110407,0.00390744737176167,5913.611296733143
1680662481598887205,138,1680662481598887205,camera_1,140,0,0.2664458914620754,0.25034989461455665,3.799030999974366,0.9996961868300932,-0.023905461920771854,0.0008785311717377208,-0.005940632180687348,0.012758993208990432,0.004442668070650441,5916.968206194057
1680662481608963251,139,1680662481608963251,camera_1,141,0,0.26658467908503974,0.2505435949408991,3.8014978479382044,0.999695526172476,-0.023804003684755663,0.00284906061475891,-0.00584013809134659,0.008738564807572402,0.0030465797318819953,5911.226821543822
1680662481618918418,140,1680662481618918418,camera_1,142,0,0.26654590989154314,0.25052512657172876,3.800779360950438,0.9996667255042568,-0.023515130317856018,0.004455749943505268,-0.009675890562226407,0.012296972276089946,0.004285456081290726,5911.902200754905
1680662481628896474,141,1680662481628896474,camera_1,143,0,0.2665411337089339,0.25052015938347394,3.8006746905274054,-0.9996709354350761,0.023558638896174818,-0.003335868494907459,0.009585580895501544,0.010517701379285427,0.0036651679434150657,5911.306411025111
1680662481638906955,142,1680662481638906955,camera_1,144,0,0.26649050552016196,0.25049531736812386,3.8000640444186202,-0.9996770189758174,0.023543092108916596,-0.003666190954794676,0.008839660030635759,0.009524435841740342,0.0033180080566545585,5914.097901423167
1680662481648887157,143,1680662481648887157,camera_1,145,0,0.26650840846647944,0.25048725019247664,3.800141722595198,0.9996761621807023,-0.023494820712319286,0.003666972272902072,-0.009061869658522563,0.01052122185137705,0.0036652925182790916,5913.676520596024
1680662481659031629,144,1680662481659031629,camera_1,146,0,0.2665324659468191,0.2505502296590453,3.8007200833732604,-0.9996687621274511,0.023449763276682672,-0.004930605600475796,0.00938955575358347,0.009651083270000527,0.0033632473626608265,5912.7193875932135
1680662481668988704,145,1680662481668988704,camera_1,147,0,0.26655667058825777,0.25055488719194474,3.8008950634041643,-0.9996914047873232,0.023895106960782554,-0.0003091561615551697,0.006784060741843802,0.010140206348296488,0.003534344644119996,5909.969946780127
1680662481678900480,146,1680662481678900480,camera_1,148,0,0.2665323318728492,0.2505028076242772,3.8004614683068008,-0.9996812720775413,0.023622737531155114,-0.0032006635387454717,0.008311214223848031,0.010583837844023947,0.0036878704255277413,5912.859750273694
1680662481688875913,147,1680662481688875913,camera_1,149,0,0.2665526639514856,0.2505070311884997,3.8006311036008578,0.9996902755472378,-0.023612792531583705,0.0026936505491382758,-0.007384663287360788,0.00987174552938086,0.003440050169079772,5912.583147536611
1680662481698879241,148,1680662481698879241,camera_1,150,0,0.2664642705122335,0.25045732082456024,3.7995537445669982,-0.9996622071728529,0.02353518325176871,-0.004587233665930644,0.010026165114353081,0.010740475674538175,0.003740670866078895,5915.52409762115
1680662481708910226,149,1680662481708910226,camera_1,151,0,0.26654496634696134,0.25048241878972805,3.8004984732084726,0.9996839726711148,-0.023589089334577595,0.002411797741096439,-0.008348226189994395,0.009016422802233137,0.0031417229778841907,5912.001037513372
1680662481718873500,150,1680662481718873500,camera_1,152,0,0.2665267235766886,0.2504657512308337,3.800193402419735,0.9996606487763349,-0.023294070869039767,0.004445577675786423,-0.010780092279487553,0.010852959559997544,0.0037808375971976355,5912.788888425046
1680662481728914499,151,1680662481728914499,camera_1,153,0,0.2664808104633398,0.2504364326350066,3.7996302293439244,-0.9996853698460846,0.02365271882782941,-0.0014610061895295324,0.008220442120885801,0.0100660060888913,0.003505965710238078,5913.911604299208
1680662481738874912,152,1680662481738874912,camera_1,154,0,0.26652141743612384,0.2504452590184794,3.800323166623195,-0.9996965818339378,0.02382225908103099,-0.000981173442027984,0.006187207810802289,0.010163776565605076,0.0035414549615878825,5912.875226484961
1680662481748762369,153,1680662481748762369,camera_1,155,0,0.2665037050660538,0.2503962148163287,3.8000035137427153,0.9996958186934342,-0.023601999149604227,0.0020923378194989996,-0.006843818046647787,0.012246786776813678,0.004266080952862329,5914.445808178574
1680662481758730173,154,1680662481758730173,camera_1,156,0,0.26652985842698373,0.2504693224090067,3.8003322938585935,0.9996801407291039,-0.023649489994709498,0.002273325962641995,-0.008668900962464428,0.010613122576614842,0.003697781974273479,5912.144101957963
1680662481768771886,155,1680662481768771886,camera_1,157,0,0.2665465820216626,0.25048856230325667,3.800737577344662,-0.9996693896247028,0.023479792082849192,-0.004467956288540111,0.00947882786658525,0.010082970973599004,0.0035138993651674904,5912.2148734692055
1680662481778799772,156,1680662481778799772,camera_1,158,0,0.2665728900495725,0.25046970994445433,3.80101121804359,0.9996756343094809,-0.02353969097222296,0.004487369710258075,-0.008623956745762227,0.01225429993792204,0.004271158318636571,5912.08596645569
1680662481788743257,157,1680662481788743257,camera_1,159,0,0.26653253641251773,0.2504153308639659,3.800514762608101,-0.9996782902116188,0.023741600255055395,-0.002602933204799132,0.008536816481281208,0.011990048460575053,0.004178022842158465,5912.038154662352
1680662481798718690,158,1680662481798718690,camera_1,160,0,0.2665322510190483,0.2504014839705102,3.8004586607734456,-0.9996595597498559,0.023550422511567012,-0.004670826922093365,0.010213989236099586,0.011318822758767055,0.003943898944513036,5912.699281615496
1680662481808713197,159,1680662481808713197,camera_1,161,0,0.26656573364863323,0.25039364127771485,3.800985146562323,0.999684973824151,-0.0236419906316667,0.00308354376201231,-0.00784226670334218,0.011844907094200607,0.004128436421959786,5911.587900618907
1680662481818738222,160,1680662481818738222,camera_1,162,0,0.2665342081332298,0.25032571085537075,3.8005229269828633,-0.9996749237230046,0.02358203892546587,-0.0024712379949624634,0.00937162218055392,0.01211917139153229,0.004223026491869557,5911.280200314415
1680662481828762292,161,1680662481828762292,camera_1,163,0,0.2665812143144526,0.2504009378665896,3.801208242574574,-0.9996798311439421,0.02359494197877936,-0.0034709009154290553,0.008453801740800878,0.010071454646094935,0.0035107416772856043,5910.768315875144
1680662481838843584,162,1680662481838843584,camera_1,164,0,0.2664381742219313,0.2502580314624127,3.799175758139085,0.9996871934007135,-0.023820215587721877,0.0008956842433211206,-0.007570365228662309,0.011635467402811628,0.004051614915634464,5915.403911280448
1680662481848770380,163,1680662481848770380,camera_1,165,0,0.2664492995492673,0.2503232941699451,3.7991980636100524,0.9996701544256048,-0.02368748403059776,0.002135647866656878,-0.00969146321138309,0.01070485301897861,0.0037274767998819887,5914.770435914577
1680662481858769893,164,1680662481858769893,camera_1,166,0,0.2664586400439657,0.25030276883662383,3.799416280023682,-0.9996318126839551,0.023388938361432708,-0.005144624885879756,0.012756546056794002,0.010286197160894517,0.003582113178159757,5914.183290901361
1680662481868727922,165,1680662481868727922,camera_1,167,0,0.26642419558707775,0.2502350084578908,3.798811072759957,-0.9996525260685755,0.023432642935926347,-0.0033651828422669723,0.011593701487941244,0.01045304698345717,0.003639044387003702,5915.53397600335
1680662481878793478,166,1680662481878793478,camera_1,168,0,0.2664549846404139,0.250237123672798,3.7991505818562716,-0.9996716416467399,0.023387312718421944,-0.005021094303643001,0.009188639894812136,0.014950003045669291,0.005205763244714092,5917.937842821528
1680662481888859987,167,1680662481888859987,camera_1,169,0,0.26646578932585196,0.2502435138516506,3.7992128023454472,0.9996580251528274,-0.023653000049602777,0.002230095393406105,-0.010926802402287444,0.010925543057965115,0.0038042727456751536,5913.821045062624
1680662481898786067,168,1680662481898786067,camera_1,170,0,0.2664575506192006,0.2502420984765772,3.7992615417385682,0.9996795694126438,-0.023502987914421927,0.0021461059802007324,-0.009152173903909287,0.01199473078304436,0.004176776330422613,5915.068174635933
1680662481908766031,169,1680662481908766031,camera_1,171,0,0.26652368983973845,0.25029975390705056,3.8000366604081344,-0.9996780605857832,0.023535893883744656,-0.0016806049556124638,0.009328046393707663,0.010221488180832239,0.003560786229498413,5912.062369716474
1680662481918752431,170,1680662481918752431,camera_1,172,0,0.26646160911952543,0.2502551111348389,3.7994643503915673,0.999674624787315,-0.023567526993455226,0.002359887938789764,-0.009468218241581275,0.00970490341205732,0.0033797174741814068,5914.392771371641
1680662481928772926,171,1680662481928772926,camera_1,173,0,0.2665296032008043,0.2503059339968904,3.8003880307581785,0.9996774557754885,-0.023629572068662223,0.003231630395215363,-0.008728361993361734,0.012379525607684627,0.004313335873648385,5912.9102267025155
1680662481938869953,172,1680662481938869953,camera_1,174,0,0.2664220177198959,0.2501978571475236,3.798774695041513,-0.9996712978477125,0.023584798628350608,-0.0025107495053289072,0.009733944218654653,0.01397052356696804,0.004863676071490127,5916.456389325034
1680662481948849201,173,1680662481948849201,camera_1,175,0,0.26645479461643007,0.2502189447308877,3.799028366603108,-0.9996894314380074,0.023903082402938217,0.0006135248449838231,0.007021887926805696,0.01032917882912443,0.0035967103378388822,5914.792313662883
1680662481958778381,174,1680662481958778381,camera_1,176,0,0.2664569841900119,0.2502104630189966,3.799239829112375,0.9996878097501957,-0.02380451058411239,-0.00043209129981087893,-0.007579024331422463,0.014060830064408945,0.004896600401575415,5913.920807461836
1680662481968734264,175,1680662481968734264,camera_1,177,0,0.26642424418749605,0.25019222776859606,3.7987780303423,-0.999669506427783,0.02369633538103933,-0.00029593810043862995,0.009963635309614399,0.011150331658427604,0.0038819498771370618,5914.166634794966
1680662481978836297,176,1680662481978836297,camera_1,178,0,0.26647164052906946,0.250194726481733,3.7993679876540587,0.9996896393970396,-0.023837603320731707,-0.0014009516271577358,-0.007101470599751326,0.012299458718189271,0.0042834731685680045,5912.928132087461
1680662481988824605,177,1680662481988824605,camera_1,179,0,0.26641444961103367,0.25016802366478896,3.798497840719682,0.9996833213699592,-0.0236607000089476,0.000276779645913856,-0.008564557364001175,0.010485617167432792,0.0036499174236999513,5916.142428659948
1680662481998762130,178,1680662481998762130,camera_1,180,0,0.2664664150524836,0.25024955598922427,3.7994727913935775,-0.9996769716064489,0.023362828343942005,-0.0018674185982505255,0.009830739509823412,0.013375574613746721,0.004658284222829744,5913.607943781535
1680662482008950710,179,1680662482008950710,camera_1,181,0,0.2664996302291052,0.2502348520559943,3.7999465266430272,0.9996595762863606,-0.023719398557348288,0.002314785980942672,-0.010619012991531993,0.012635542290809099,0.00440144105921939,5911.935291181728
1680662482018774509,180,1680662482018774509,camera_1,182,0,0.26644724828741134,0.25018296405864154,3.7991565597856014,0.9996618175800502,-0.023564408700090394,0.0020852619029859557,-0.010799110980148859,0.01365738820459228,0.004755531067825338,5914.0205673662695
1680662482028760671,181,1680662482028760671,camera_1,183,0,0.2664717658827006,0.2502431423176788,3.7995316392687806,-0.9996834521340625,0.023712899900603174,-4.23963586010561e-05,0.008407860023593608,0.008053737230511615,0.0028049571230870855,5912.83401070826
1680662482038848161,182,1680662482038848161,camera_1,184,0,0.26644366500967964,0.2502234187888407,3.7991553480946125,-0.9996868447582101,0.0234713156082153,-0.002225441359102868,0.00838791820125749,0.0096438106156711,0.003358053421662459,5916.089911047194
1680662482048795938,183,1680662482048795938,camera_1,185,0,0.2664244387986383,0.2501852970896379,3.7988074410879427,-0.9996794356162877,0.023788812966854703,-0.0005329312780110136,0.008650685971724914,0.011231413409404922,0.003910260975968952,5915.373589924768
1680662482058795690,184,1680662482058795690,camera_1,186,0,0.26649317423105323,0.250273435638819,3.799991106270089,-0.9996755807348793,0.023565024262575843,-0.0025229169871872083,0.009330477145461402,0.013693508302822012,0.004770312696755223,5913.030001597479
1680662482068743944,185,1680662482068743944,camera_1,187,0,0.26642933545958014,0.25017060590266627,3.7988541157273246,0.9996758445049215,-0.023668849414411292,0.0020348491750508983,-0.009157012045683751,0.013947910763818072,0.004855826911879297,5916.261238275796
1680662482078805685,186,1680662482078805685,camera_1,188,0,0.2664729003788066,0.25024003775118614,3.7996597121025335,-0.9996755095808512,0.023694156934142098,-7.166037853012692e-06,0.009352134520728722,0.01317289464714122,0.004588260550975624,5911.665321277105
1680662482088776350,187,1680662482088776350,camera_1,189,0,0.2664241292562376,0.25021059978930726,3.79917196748647,-0.9996660307556925,0.023674682636165494,-0.0016523385447332075,0.010227713946387277,0.009587595326593146,0.0033384238866465926,5914.05773491674
1680662482098732948,188,1680662482098732948,camera_1,190,0,0.26636665162681306,0.2501784830225422,3.7984220778717033,-0.9996815854636019,0.023679659314702076,7.192324952032046e-05,0.008717582621656441,0.011566647139261477,0.004026143498294357,5915.956901488361
1680662482118741989,189,1680662482118741989,camera_1,192,0,0.2664234113570453,0.25020909413670944,3.7990870874254368,-0.999681617308956,0.023842277027572616,-0.0020032022362629948,0.008012304380838737,0.010999851656379178,0.0038301705103964915,5916.418245843668
1680662482128786325,190,1680662482128786325,camera_1,193,0,0.2663974753720318,0.2501710420589899,3.7985782042830953,-0.9996810988908457,0.023828218240851986,0.0007406605163069023,0.008328742873760063,0.009948364437150303,0.0034632243080727505,5915.104680608668
1680662482138771057,191,1680662482138771057,camera_1,194,0,0.2664411341529699,0.2502021499657985,3.799055697575825,0.9996770482107178,-0.02348674099228836,0.00053681870127997,-0.009689380988974268,0.009815710745897377,0.0034175753128041827,5913.772839436832
1680662482148761272,192,1680662482148761272,camera_1,195,0,0.2664401204734268,0.2502245779890327,3.7992591131783087,-0.9996734941014842,0.02353423212858996,-0.0002723894270658608,0.009948412589328035,0.011030164754629368,0.0038409845524743236,5912.681670802062
1680662482158797740,193,1680662482158797740,camera_1,196,0,0.26647166817926815,0.25027076436100243,3.7998736472548718,-0.9996801489780417,0.02353675702582917,-0.0021264724201800643,0.009005494044944254,0.007725701056187972,0.0026911086615619252,5913.302098312764
1680662482168776512,194,1680662482168776512,camera_1,197,0,0.2664469871780815,0.2502073484775169,3.799276136036668,-0.9996755485485073,0.02348610711499568,-0.002788553048959223,0.009456446410629064,0.01136843160566059,0.003958778239432,5915.401510038705
1680662482178761720,195,1680662482178761720,camera_1,198,0,0.2664720732849206,0.2502443011511631,3.7998325035298737,0.9996548216493621,-0.023371317576298588,0.004225079596328909,-0.011232442759010773,0.010038839685876155,0.0034966211831659873,5913.496839368248
1680662482188812494,196,1680662482188812494,camera_1,199,0,0.26642740390163105,0.25017008192963297,3.798975855643714,-0.9996662765547754,0.023559499666980392,-0.0019493899857877456,0.010415631197197132,0.01131051973788999,0.003938072726695278,5914.782430160326
1680662482198746204,197,1680662482198746204,camera_1,200,0,0.2665088167951313,0.2502458614155612,3.8001639416931114,-0.9996601345430091,0.023579765717290757,-0.002251240177934033,0.010887698187963276,0.01369706071272958,0.004771977627071199,5910.977581085754
1680662482208759546,198,1680662482208759546,camera_1,201,0,0.2664503427595517,0.25020163724760347,3.7994187447558883,-0.9996709472916858,0.02378404409316586,-0.0019988959662894878,0.009397914791806714,0.012240494736033725,0.004262882241400173,5914.298277320281
1680662482218759536,199,1680662482218759536,camera_1,202,0,0.2664729455724989,0.2502078761131618,3.799869789718712,-0.9996730992146332,0.023720681014535935,-0.000299457895537305,0.009535949023847419,0.010269000285916263,0.0035771813688886974,5911.1937553079915
1680662482228762626,200,1680662482228762626,camera_1,203,0,0.2664363371228449,0.25016191526568743,3.7995633519901246,-0.9996764977330618,0.02384367601065073,0.00011941172658379083,0.008852385853440801,0.010491480141354259,0.0036540693918555803,5912.325848372653
1680662482238823652,201,1680662482238823652,camera_1,204,0,0.2665162157103147,0.2502294864167421,3.8000260011092872,-0.9996578592313083,0.023533312066975613,-0.0017540823121008245,0.011281440310468599,0.018209863716037944,0.0063439977274069,5910.592042311559
1680662482248675107,202,1680662482248675107,camera_1,205,0,0.2664736601546107,0.25022609239814253,3.799796622710503,0.9996899120471617,-0.023773844754503344,0.0014940129244095264,-0.007256168555691336,0.010833399956027279,0.0037735430636402873,5914.3347246495505
1680662482258802652,203,1680662482258802652,camera_1,206,0,0.2664282384642204,0.25020215649012834,3.799123004137203,0.9996755527925608,-0.023580710262385576,0.0008177626356357367,-0.009595338278625045,0.010719608741055708,0.0037325029019074753,5913.933244627902
1680662482268746137,204,1680662482268746137,camera_1,207,0,0.2664089112946645,0.25017701412451154,3.7989178142879076,-0.9996527190627086,0.02349649444592458,-0.0007633986694166701,0.01190685692185256,0.011919136450160295,0.004149734518019199,5912.586232769307
1680662482278769969,205,1680662482278769969,camera_1,208,0,0.26648484383350485,0.250230953356901,3.7999177614976243,-0.999690317102318,0.02371179780214383,-0.000357233142980868,0.007542739644105494,0.013362456440518145,0.0046551109977356975,5912.64800457843
1680662482288753509,206,1680662482288753509,camera_1,209,0,0.2665137904638915,0.25018747983648115,3.8001009544830047,0.9996688300052738,-0.023579909305045218,0.0009111969474891346,-0.010265861540841333,0.01771287020892487,0.006170831676932005,5910.46224549197
1680662482298739433,207,1680662482298739433,camera_1,210,0,0.2664947803113583,0.2501951247560456,3.800096785254276,-0.9996693353527663,0.023408692185753248,-0.0025010826782335197,0.010343967853200017,0.018100050190696493,0.006305911427806807,5911.9101406836435
1680662482308751106,208,1680662482308751106,camera_1,211,0,0.2664690248551984,0.2501804596445786,3.7998895018682486,-0.9996738445730964,0.023627324296614797,-0.0015785812148295664,0.009563582193707655,0.013526399132388178,0.004712028904889831,5912.353186367546
1680662482318746566,209,1680662482318746566,camera_1,212,0,0.2664447126307742,0.2501367371394836,3.7991404501787653,-0.9996536945785628,0.023428978532243565,-0.00017494614701933146,0.011980954645227658,0.013909605931985425,0.004843423295542951,5911.270018123089
1680662482328890800,210,1680662482328890800,camera_1,213,0,0.2664742927088603,0.25017789340449925,3.7997126374101433,-0.9996796819398759,0.023417280377155736,-0.000606253633122492,0.009581072636115006,0.012319421297434019,0.0042909931299524254,5911.939366387316
1680662482338799953,211,1680662482338799953,camera_1,214,0,0.2664927469303605,0.2501830277688375,3.799905400868348,0.9996686599722325,-0.02358346432955229,0.0016387606044511106,-0.01018356240315809,0.01071485856664367,0.003732285578491465,5911.831494744576
1680662482348811626,212,1680662482348811626,camera_1,215,0,0.26645830065015635,0.25015919218925187,3.7992293299700752,-0.999661488309126,0.02348005382528866,-0.0024051971434933365,0.01094581612514467,0.010508471605135128,0.0036591463174602706,5913.975790617525
1680662482358720302,213,1680662482358720302,camera_1,216,0,0.2664077634022074,0.2500811955454285,3.7987354203363854,-0.9996683253621161,0.023392695748471644,0.0007699125889432817,0.010743755764486506,0.011165395684656687,0.003886963396239905,5912.689700058138
1680662482368684768,214,1680662482368684768,camera_1,217,0,0.2665922396685235,0.2502278807508976,3.800905603860328,0.9996742319631526,-0.023547383738097647,0.003537875039677411,-0.009188803413685777,0.019352603718289174,0.006745117368020497,5911.247197300256
1680662482378717184,215,1680662482378717184,camera_1,218,0,0.2664250264734846,0.2501000158201478,3.798769947312411,0.9996673604103152,-0.023631006440806342,-0.0008128351600268951,-0.010299677852731271,0.017326102664810605,0.006031988358967501,5912.884061181741
1680662482388758897,216,1680662482388758897,camera_1,219,0,0.2665246274946187,0.250234507961093,3.8004010316599968,0.9996491468542518,-0.02347317029899153,0.005073095942742173,-0.011173950386369189,0.011578346326132305,0.004034146400179734,5912.530009979264
1680662482398751974,217,1680662482398751974,camera_1,220,0,0.2664696204071624,0.25014194629664777,3.7992032503355824,-0.9996631344332894,0.023547958894102064,-0.0016179780235881615,0.010793212406332343,0.013646689450979464,0.004751953377874573,5913.449151682145
1680662482408759117,218,1680662482408759117,camera_1,221,0,0.26645935764578216,0.2501194058300621,3.7988808921573103,-0.9996772031421122,0.023791591772761418,0.002051623859057034,0.008674129260251313,0.012455960375518771,0.004336968210556418,5912.562810804869
1680662482418731451,219,1680662482418731451,camera_1,222,0,0.26647447606374813,0.25012544371301726,3.7993520484642596,0.9996387346491693,-0.023372238390694102,0.0032599513437450247,-0.012865122574327937,0.01883063501736615,0.006557675151030629,5912.723443883589
1680662482428759336,220,1680662482428759336,camera_1,223,0,0.26640993397975427,0.2500733513447822,3.798496275158184,0.9996443246008466,-0.023227935663520383,0.0027277468242506327,-0.012815876692270562,0.013773259506706381,0.004794050639151314,5914.95021832868
1680662482438754558,221,1680662482438754558,camera_1,224,0,0.2663920588059093,0.25006983806464467,3.798370137676594,-0.9996720661718123,0.02362167775732802,-0.0008186031571975238,0.009854255150941732,0.013971824289910728,0.004863211196380105,5916.095738755364
1680662482448736190,222,1680662482448736190,camera_1,225,0,0.26639380609768665,0.25011571490107887,3.7986779789060887,-0.9996748065883309,0.023887129870734068,0.000653593014817577,0.008902747626054041,0.010129902460903395,0.0035265583127484916,5914.480736784111
1680662482458781242,223,1680662482458781242,camera_1,226,0,0.2665091876927824,0.2502102433835446,3.8000799224555184,-0.9996835922782019,0.02368257920877055,-0.0012990192664949984,0.008376354858503621,0.011315798044961412,0.003942250455968559,5912.405693156296
1680662482468738079,224,1680662482468738079,camera_1,227,0,0.26649617177975443,0.2501884908006613,3.799817018260103,-0.9996790854060204,0.023768964457059543,7.939478602532621e-05,0.00876106311412219,0.013599852311017457,0.004737490167038913,5911.589025674155
1680662482478746175,225,1680662482478746175,camera_1,228,0,0.2663858375471588,0.25006843893857666,3.7983707045278954,0.9996548160747073,-0.02350489687686405,0.0012032550585463848,-0.011675645537410153,0.014561684150976362,0.005068092685960111,5914.9435003172275
1680662482488775730,226,1680662482488775730,camera_1,229,0,0.26651970002320385,0.25020787484114,3.800022989840616,0.9996088813548544,-0.023014939103486762,0.005850331211154277,-0.01477059644290689,0.014460856738878647,0.005037613660850899,5911.120940832889
1680662482498751640,227,1680662482498751640,camera_1,230,0,0.26644676780918825,0.25015872011181184,3.79938810048014,-0.9996649990665997,0.02333661567337193,-0.002658620037835231,0.010873074523024558,0.012539819843368605,0.004366978626757898,5913.805625943001
1680662482508721113,228,1680662482508721113,camera_1,231,0,0.26639573755679397,0.2500846454962075,3.798598985961944,0.9996614882656906,-0.023513993754698082,0.001533499927337172,-0.011029476601425036,0.010184056391153717,0.0035449335417309653,5915.101314889965
1680662482518704175,229,1680662482518704175,camera_1,232,0,0.266442821235997,0.2501422930514524,3.7991887855007667,-0.9996995189920699,0.02374803562038554,-0.0008810635775842531,0.006010512305070054,0.010141803290025564,0.003531729668844737,5916.580002676577
1680662482528763055,230,1680662482528763055,camera_1,233,0,0.2664591232198544,0.25014918161927013,3.7993977441910793,0.9996686783247208,-0.023593893478691872,0.0025451591936301093,-0.009969148995838227,0.014969736879720585,0.005213254487211606,5914.422737469139
1680662482538818120,231,1680662482538818120,camera_1,234,0,0.26643117521176685,0.2501278353030105,3.798978553776578,-0.999673800780053,0.023678805664513948,0.001262559588818548,0.009487472769397206,0.012109320938179735,0.004216395985015187,5912.448931800434
1680662482548904180,232,1680662482548904180,camera_1,235,0,0.2664070232151907,0.2501149511690497,3.79883595973164,-0.9996613781829808,0.023648613585065738,8.696377396941312e-05,0.010856540982723088,0.013086239912809106,0.004556018057034339,5912.948505261564
1680662482558894395,233,1680662482558894395,camera_1,236,0,0.2664114879357176,0.2500968922166563,3.7987328925719166,0.9996707300120623,-0.023625698628012556,0.0018161625559231095,-0.009846800244700539,0.010451715137605788,0.00363835373497218,5915.927842471921
1680662482568807601,234,1680662482568807601,camera_1,237,0,0.2664548083603274,0.25016329632640566,3.799371690917052,-0.9996818734708034,0.023851948807667167,-0.0001908341657301695,0.008197559045373512,0.014768971777812112,0.005143654773273596,5913.690104028677
1680662482578792333,235,1680662482578792333,camera_1,238,0,0.266406908966234,0.2501085142373323,3.7986938178731156,-0.9996719887417129,0.023696025449306234,-0.00039777167750307,0.009708505589794972,0.011326159543386893,0.00394301307173613,5914.800144840792
