%time,field.header.seq,field.header.stamp,field.header.frame_id,field.image_seq,field.transforms0.fiducial_id,field.transforms0.transform.translation.x,field.transforms0.transform.translation.y,field.transforms0.transform.translation.z,field.transforms0.transform.rotation.x,field.transforms0.transform.rotation.y,field.transforms0.transform.rotation.z,field.transforms0.transform.rotation.w,field.transforms0.image_error,field.transforms0.object_error,field.transforms0.fiducial_area
1680662687364828824,0,1680662687364828824,camera_1,1,0,0.2760871611208904,0.29334366069417217,3.7959814731635815,0.9996080501573706,-0.023198096332414264,0.0059016409631025,-0.014517748485018609,0.006614669204282109,0.002303687917234915,5911.920046204818
1680662687385075092,1,1680662687385075092,camera_1,3,0,0.27600834435019006,0.2932611183658401,3.79517610782159,0.9996429339141844,-0.023277184031134875,0.0028916266680709115,-0.012799057552604779,0.004667965629778337,0.0016249804619908248,5913.405686788555
1680662687395059108,2,1680662687395059108,camera_1,4,0,0.2760320558235009,0.2933056759813473,3.7955593653320734,-0.9996396177750411,0.02326725852256933,-0.0039007073837125333,0.012808346392909486,0.005039494895754615,0.0017547198957500955,5913.0997206883
1680662687405508756,3,1680662687405508756,camera_1,5,0,0.27603646482208033,0.29328016307206795,3.7953165187755027,0.9996439001808526,-0.023057746020079296,0.003920963919002637,-0.012846759187949619,0.004555573603283847,0.0015859331048490633,5913.819921918154
1680662687415446996,4,1680662687415446996,camera_1,6,0,0.27611192558928743,0.2933763101970852,3.7964362491643198,0.999672042020397,-0.023319745826048843,0.003510951071723221,-0.00998354045167472,0.005380984308430925,0.001874481729282221,5912.428676542595
1680662687425539493,5,1680662687425539493,camera_1,7,0,0.27604403940254546,0.2933107955889145,3.7956646819400452,0.9996369422956621,-0.023173467531272855,0.005081372549704279,-0.012773161447635972,0.0044929501818842255,0.0015644625249037457,5913.828328831878
1680662687435041189,6,1680662687435041189,camera_1,8,0,0.2760969099626315,0.29337326769642263,3.796324283029632,0.9996305326966507,-0.023115775690689913,0.005584105458466095,-0.013163463869995711,0.004121505764487665,0.0014355987866446613,5911.839942220251
1680662687444819211,7,1680662687444819211,camera_1,9,0,0.2760567591766403,0.2933080522422229,3.795616302587347,0.9996381377743967,-0.02302115451426103,0.003235003965019274,-0.013533465968222153,0.005675646742020035,0.001976202398511046,5911.654467227637
1680662687454835414,8,1680662687454835414,camera_1,10,0,0.27612092989419945,0.29337206528436405,3.796424996757547,0.99961973960892,-0.023055289492489986,0.005647832427829891,-0.014033239094365175,0.005555260897381231,0.0019351593229131599,5910.773867392038
1680662687464827060,9,1680662687464827060,camera_1,11,0,0.27606363162657255,0.29334919864505765,3.7959563617394894,0.99965371216897,-0.023180972881181885,0.0033282266721705147,-0.012000881230086927,0.004687345808633836,0.0016324084332593838,5912.054952873031
1680662687474847078,10,1680662687474847078,camera_1,12,0,0.27607536594308413,0.2933253270601166,3.795897110363737,0.9995970488351688,-0.022977261458012425,0.005386574194247393,-0.01577245175491991,0.00625622528968961,0.0021787260816482027,5910.573195023752
1680662687485332250,11,1680662687485332250,camera_1,13,0,0.2760444218897268,0.2933383617730891,3.79583264755217,-0.9996160594930308,0.023024007086613597,-0.005869623920260788,0.014253989488413265,0.005498826561961323,0.0019149977551327349,5912.6238225168745
1680662687495165109,12,1680662687495165109,camera_1,14,0,0.27606217345432027,0.29330896261475387,3.795688782003702,0.999643037358981,-0.023200441778009177,0.0019451671364266565,-0.01310548304442132,0.006838522593170637,0.002381265073331117,5910.639328499847
1680662687505292654,13,1680662687505292654,camera_1,15,0,0.27605741300970515,0.29329888351923594,3.7955357445287214,0.9996562192340381,-0.023199469020544154,0.001707137731559674,-0.012096018544914358,0.006411868351278827,0.00223252197007519,5911.779398709477
1680662687515348911,14,1680662687515348911,camera_1,16,0,0.2760513448109906,0.29333384617088043,3.795885896491573,0.9996339305671861,-0.02306468364415275,0.00529523717513024,-0.0131143314908767,0.008255052620370407,0.0028749410527268496,5913.019859293595
1680662687525261402,15,1680662687525261402,camera_1,17,0,0.27602970663510856,0.29329431806115397,3.795325549016645,0.9996171038599946,-0.023080869153646627,0.0035219251526696803,-0.01484975396726292,0.004691240323154489,0.0016331790556290671,5911.602311993428
1680662687535229444,16,1680662687535229444,camera_1,18,0,0.276021866970156,0.29324100888288174,3.7948539243123327,0.9996517932723068,-0.02311328396084849,0.0030834086056751872,-0.012351554694736,0.007257326898979954,0.0025259417052384677,5914.9321444365205
1680662687544901609,17,1680662687544901609,camera_1,19,0,0.27604337962909503,0.29330416330345144,3.7956777561516692,-0.9996567225879128,0.023060406531854,-0.003962432263097807,0.011787865198540875,0.0046185164428607095,0.001608230289233129,5913.68383343087
1680662687554824352,18,1680662687554824352,camera_1,20,0,0.27602666778882007,0.29328537638461116,3.7952831118305417,0.9996285259360784,-0.02308225498240055,0.002633180561732899,-0.014250824534740648,0.006949952265131287,0.0024195442768355268,5911.491828614959
1680662687564551591,19,1680662687564551591,camera_1,21,0,0.27603609462365714,0.2932792486385187,3.7953429509254906,0.9996650440765867,-0.02340708068659974,0.002524504429485775,-0.010748725620865793,0.005139746383065357,0.001789395743383635,5914.308299515687
1680662687573392629,20,1680662687573392629,camera_1,22,0,0.27612018168991487,0.29338652339235394,3.7965239014841843,0.9996406670565892,-0.023141812518279296,0.002932008485314779,-0.013205930723296774,0.005543245300941635,0.0019310605816832546,5908.850198800557
1680662687583500862,21,1680662687583500862,camera_1,23,0,0.27603253370145325,0.2932747846491883,3.7952657467672015,0.9996583942370907,-0.02319743083331076,0.003111323331282181,-0.011631582058490032,0.006453727131884079,0.0022467498494221877,5914.324354760581
1680662687593355894,22,1680662687593355894,camera_1,24,0,0.27603343296612454,0.2932773346224711,3.7954807446908516,0.9996376230423302,-0.023226270412257975,0.0030009919193624028,-0.013272415323406854,0.005705400475562784,0.0019864638267917565,5912.132647425749
1680662687602530479,23,1680662687602530479,camera_1,25,0,0.27603908945666555,0.29326067261419725,3.795197903302031,0.9996676548347112,-0.023257565474743565,0.002206413440991465,-0.010899415818482819,0.00556801664060913,0.00193826398693143,5914.3314029030735
1680662687612403869,24,1680662687612403869,camera_1,26,0,0.27606232591598995,0.29330587103208844,3.7956623030993693,0.9996646933495714,-0.02341945944292563,0.0022698619736026475,-0.010810990534148277,0.0055044515065674204,0.001916650667342864,5913.024961585646
1680662687623148202,25,1680662687623148202,camera_1,27,0,0.2760598628559074,0.29331613555019853,3.795588886979746,0.9996171698673306,-0.02309127486695757,0.0035107418003066143,-0.014831770745887492,0.006751040233211825,0.002350643916485767,5910.775534588613
1680662687634161472,26,1680662687634161472,camera_1,28,0,0.27598940775320224,0.29323029848127885,3.7947095765120933,0.9996555626242388,-0.023384810249092336,-0.0005260340890097087,-0.011900842498233009,0.005374043081246782,0.0018703663753309523,5912.38759720989
1680662687644863843,27,1680662687644863843,camera_1,29,0,0.2760796910936989,0.29330996056015024,3.7957944187297015,0.999642729653744,-0.023058392690531185,0.0040876885826419684,-0.012884656727761398,0.007619418323884019,0.0026533390906418315,5912.4387377371895
1680662687654752016,28,1680662687654752016,camera_1,30,0,0.2760833653340281,0.2933507143051559,3.795977118008328,0.9996030238070421,-0.02296576857875931,0.005629091036263106,-0.015319321248347832,0.0065177567594219,0.002269917039636309,5910.945596771956
1680662687665361404,29,1680662687665361404,camera_1,31,0,0.275971242707466,0.2932060105008456,3.794226202737838,0.9995980895874121,-0.023020811630300463,0.004590232187835446,-0.015894379306539624,0.007746479390334571,0.002695369432016788,5914.94721908768
1680662687675407886,30,1680662687675407886,camera_1,32,0,0.2760727506898184,0.2933143283018367,3.7957892332733443,0.9996261115642914,-0.02319507069287344,0.006099020221096578,-0.013131173852710272,0.006103811134380521,0.0021255466209310525,5913.961699537582
1680662687685159206,31,1680662687685159206,camera_1,33,0,0.2760502349296464,0.29332646933685436,3.7957274737552713,0.9996205763664249,-0.02336491920577063,0.002889279231751204,-0.014298108996836924,0.004663649415306281,0.0016239302061089266,5910.310048584071
1680662687695378541,32,1680662687695378541,camera_1,34,0,0.2760073184529672,0.2932772106543594,3.7952059487141763,0.9996067006680827,-0.023044524962174295,0.005485533509336731,-0.015010088968957948,0.006057848084310535,0.0021088529260437365,5913.553782309347
1680662687705376148,33,1680662687705376148,camera_1,35,0,0.2759726196166485,0.29324947786298683,3.7946389317586426,0.9996154953975626,-0.023030007653376275,0.0043004341316259225,-0.01483193766338757,0.00786012098978972,0.002735563646817936,5914.443233163679
1680662687715181112,34,1680662687715181112,camera_1,36,0,0.2760436958101801,0.293313849668712,3.795657094057379,0.9996281232983386,-0.023105841252659343,0.00448019440672072,-0.013771821561675833,0.00686881436558906,0.0023917976168129455,5912.4282735426095
1680662687725481748,35,1680662687725481748,camera_1,37,0,0.2760168105904772,0.2933271985272187,3.795617300468186,-0.9995920682119012,0.022924293730698292,-0.0053877439882059315,0.01616001669307119,0.004279483990103472,0.0014901323280621826,5911.09288737842
1680662687734390497,36,1680662687734390497,camera_1,38,0,0.275972233864265,0.29322778297226515,3.7943397964942585,0.9996487764210225,-0.023317185763672442,0.0002172497779530645,-0.012593071529579643,0.005078872014564695,0.0017672869462648732,5913.627921069797
1680662687742475271,37,1680662687742475271,camera_1,39,0,0.2760214066493372,0.2932685543649921,3.7952035832970115,0.9996220805966407,-0.02296574016283299,0.0037940492246574353,-0.014624498381050588,0.004532888840913074,0.0015779134541085219,5912.446287292987
1680662687753146648,38,1680662687753146648,camera_1,40,0,0.27600226369342196,0.2932747726359815,3.795136409494707,0.9996370917540509,-0.023183489463077595,0.0034204621592762788,-0.01328574591189532,0.006732787620421732,0.002343795447413748,5913.559082324558
1680662687764619827,39,1680662687764619827,camera_1,41,0,0.27595645964240767,0.2932191412262203,3.794531180291417,0.9996386204428833,-0.02318654059848904,0.0016388624831577604,-0.013502850953964156,0.005379134618124226,0.0018719055884873904,5913.624885528932
1680662687775271415,40,1680662687775271415,camera_1,42,0,0.27595055611125113,0.29318766221572273,3.794362862785977,0.9996379799643571,-0.0230948091660752,0.0019679561525122206,-0.013662574828486991,0.006339427767670713,0.0022059484961350086,5914.31219630217
1680662687785337448,41,1680662687785337448,camera_1,43,0,0.2760210816523479,0.29325244936068573,3.795226031403254,-0.9996593895497803,0.023422263365907366,-0.0022513379155191674,0.011288664286303268,0.004351295057858806,0.001514844512213567,5913.978795569739
1680662687795156955,42,1680662687795156955,camera_1,44,0,0.2760521760950187,0.29329249371688776,3.795754264948945,-0.9996686846570194,0.02330180403181399,-0.0008871627789496816,0.010897696415815986,0.0053292385455279145,0.0018558502725433848,5911.393843214144
1680662687805680274,43,1680662687805680274,camera_1,45,0,0.2760064536344522,0.2932588664352441,3.795245812596419,0.99965813931774,-0.023312529455910735,0.0015896363405941691,-0.01173045278180198,0.0038696876872563735,0.0013471499635001921,5912.938482302414
1680662687815382957,44,1680662687815382957,camera_1,46,0,0.2759905740403257,0.29324678750000105,3.7950705643122684,-0.9996515060088944,0.023094726313298834,-0.0025477939968016794,0.01253031908664076,0.0035571852640714496,0.0012382362603649967,5913.671168907195
1680662687825389623,45,1680662687825389623,camera_1,47,0,0.27599243768802284,0.29324824762433666,3.7953905978157705,0.9995937154881057,-0.023057994213798352,0.005169557990586146,-0.015937645048832442,0.004612055796314962,0.0016056767634958192,5911.889132590032
1680662687835488796,46,1680662687835488796,camera_1,48,0,0.2759763905689628,0.2932312667550662,3.7951533458568014,0.9996124130002844,-0.023097656462022144,0.004118231950386432,-0.014985399804953711,0.004124342754948884,0.0014356932445394243,5912.622016506966
1680662687845231056,47,1680662687845231056,camera_1,49,0,0.2760705200886932,0.2933157592860097,3.796212792897403,0.9996529070981331,-0.02315736185664817,0.003814486776865087,-0.011968776575773424,0.004915807166980812,0.0017121964033237366,5911.769311035752
1680662687855276346,48,1680662687855276346,camera_1,50,0,0.27601499931119666,0.2932614979145284,3.795519007232706,-0.9996351110618623,0.02338060841437536,-0.0028659732286520244,0.013220366105546917,0.00448510723435902,0.0015616313995509292,5911.97671309882
1680662687865495920,49,1680662687865495920,camera_1,51,0,0.2760111825719983,0.2932386844080923,3.7953775131798073,0.9996296426327739,-0.023241248034989975,0.0023446997889783657,-0.0139615308096409,0.006086370667617302,0.002119016414236803,5911.265289557981
1680662687875153303,50,1680662687875153303,camera_1,52,0,0.2760121662000343,0.29325250763586586,3.795522790356193,-0.9996607812866661,0.023284732101664887,-0.002894137059160156,0.011303432176497766,0.003432766883634031,0.0011952301983751237,5913.681704843066
1680662687885305166,51,1680662687885305166,camera_1,53,0,0.27606741277241137,0.29326702546348665,3.7960307145383982,0.9996437488703863,-0.02323530144248679,0.0033901035714116387,-0.012688707933113691,0.004215376255160663,0.0014680903996212025,5911.336776647075
1680662687895287275,52,1680662687895287275,camera_1,54,0,0.2760365862143221,0.2932552337652615,3.7958535952740236,-0.9996431815369541,0.023207120203164625,-0.002506242592709749,0.012986836667124375,0.0038365622640412766,0.0013360388666812757,5910.840049101505
1680662687905310153,53,1680662687905310153,camera_1,55,0,0.2761049537580616,0.29328602803041365,3.7964421315268155,0.9996435863582013,-0.02315770208115398,0.004265242940600473,-0.01257890257103051,0.006406860607967246,0.0022318600862538656,5910.927243795826
1680662687915218830,54,1680662687915218830,camera_1,56,0,0.2760282450331268,0.2932344843304103,3.79571551188938,0.999615370373063,-0.022968602919371226,0.005761800436024969,-0.014434550550385504,0.0038718815230822656,0.0013482050811928293,5912.813092827215
1680662687925416946,55,1680662687925416946,camera_1,57,0,0.27612016949072143,0.29333135189561454,3.796869112938459,0.9996577284962461,-0.02342652145388442,0.0039119244771480014,-0.010969083698354094,0.00712003227090463,0.00248090472509791,5910.696235620764
1680662687935488939,56,1680662687935488939,camera_1,58,0,0.276089228461647,0.2932706494585855,3.796355084801372,0.9996334838642232,-0.0232235485020545,0.005606073382663595,-0.012733289978508543,0.005157870651601115,0.0017966618148725969,5912.231916445886
1680662687945379257,57,1680662687945379257,camera_1,59,0,0.27608541366367334,0.2932926356025684,3.7964562266890804,0.9996457286818599,-0.02328320861409465,0.003773167255241663,-0.012331769281409234,0.005114410119858803,0.0017816328286042128,5910.689692708837
1680662687955588579,58,1680662687955588579,camera_1,60,0,0.27603512326850194,0.2931883173627993,3.7957920323481957,0.9996521950637466,-0.02325036697900413,0.004382775326626361,-0.011649060906834542,0.004419894117745571,0.0015390895376203903,5913.930264390949
1680662687965232610,59,1680662687965232610,camera_1,61,0,0.2759746810580889,0.29314352279096845,3.794892366690395,-0.9996495552853888,0.023014678882605496,-0.002098341121730523,0.012910776049170397,0.006396707758540288,0.0022265323523837648,5913.536276262835
1680662687975274085,60,1680662687975274085,camera_1,62,0,0.2760977272495155,0.29326986407908534,3.7965050357345316,0.9996635909046232,-0.023298232452661573,0.0031501969531527074,-0.010953248075921077,0.0059085357970616315,0.0020582577384014368,5911.1835438015405
1680662687985142707,61,1680662687985142707,camera_1,63,0,0.2760517828013073,0.29322928172475743,3.7957922216157014,0.999638447457794,-0.023280212883865895,0.003223849505693438,-0.013061885262782276,0.00596885715276585,0.0020785391219632163,5911.609576735589
1680662687995241165,62,1680662687995241165,camera_1,64,0,0.2760722411882992,0.29325411171288984,3.7960067179953767,0.9996629807353672,-0.02335780777303232,0.0031571568435272684,-0.010879803490156808,0.004538875760772498,0.0015807152865773067,5912.773870793753
1680662688005033016,63,1680662688005033016,camera_1,65,0,0.27600583434130105,0.2932408701216915,3.7951503717607666,0.9996415451330549,-0.023327216829621897,0.0007578056231962818,-0.01311670422094702,0.005792171290522674,0.002016350233334367,5911.22329347505
1680662688014869451,64,1680662688014869451,camera_1,66,0,0.2760618239507653,0.29336796772201207,3.796178950336085,-0.999647303126582,0.023433962260970973,-0.0009089378108241713,0.01246164501817486,0.0055905825065565296,0.0019472724199436832,5908.739684318018
1680662688025452375,65,1680662688025452375,camera_1,67,0,0.2759389465272362,0.29332141997827943,3.7944313699395122,-0.9996322195608922,0.023306899879240544,-0.0015642962228824093,0.013775594764296387,0.0028431596329028253,0.000989342946984943,5913.552824981857
1680662688034724950,66,1680662688034724950,camera_1,68,0,0.2758196146733284,0.2932526102165215,3.792704446484895,-0.9996583958525825,0.023377301904854788,0.0034412240143072313,0.011169213686464823,0.0071380064327968284,0.0024819293483625687,5916.181270694593
1680662688045307874,67,1680662688045307874,camera_1,69,0,0.2759727824342468,0.29348851554052935,3.7949424882885134,-0.9996244141880957,0.023008346735122035,-0.001216978625879792,0.01483797501841549,0.003453985642408952,0.0012022215100909869,5910.5586165358545
1680662688054932594,68,1680662688054932594,camera_1,70,0,0.2759508557083937,0.29349784397038914,3.7940887688067644,0.9996711717663935,-0.023355987699888853,0.0001945362050565195,-0.010583398954651636,0.004172626377112465,0.0014517505102035497,5915.929597983137
1680662688065304756,69,1680662688065304756,camera_1,71,0,0.2759548975753704,0.29354327075308145,3.794141939577298,0.9996149198562563,-0.02296684932875497,0.0027630058513538197,-0.015326500949209895,0.006006298754073214,0.0020897239766763083,5913.898554644367
1680662688075158596,70,1680662688075158596,camera_1,72,0,0.2759649716953971,0.29363493442951755,3.7943666392577415,-0.9996655765447872,0.023162443275698826,-0.001293556342463438,0.011426416974161227,0.0050930144388985354,0.0017722890032596929,5915.322152671755
1680662688085021495,71,1680662688085021495,camera_1,73,0,0.2760192598847293,0.29369720365833374,3.794983866906214,0.9996477720861331,-0.023056241987974145,0.0018253684844055681,-0.013015740413778051,0.005252259743429022,0.0018282150036096356,5912.483365709193
1680662688094868183,72,1680662688094868183,camera_1,74,0,0.2759580489996344,0.2936935085939466,3.7944236826659923,-0.9996207966675666,0.023046365462717416,-0.003728335318903174,0.014602308872505803,0.006617247257963754,0.0023027854296826258,5914.498060127723
1680662688104810953,73,1680662688104810953,camera_1,75,0,0.2760223699191031,0.29378253869214255,3.795418613059006,-0.9996112180570172,0.022932245433811987,-0.005668483799685262,0.01481192578101511,0.00596812120420509,0.0020779804519221955,5912.881724579438
1680662688115089178,74,1680662688115089178,camera_1,76,0,0.2759717858080807,0.2936968831983148,3.7948153223569845,0.9996123851201946,-0.02298297308232544,0.0045741978369686215,-0.015031273291421014,0.0037308735627448186,0.001298512002343612,5913.65851749177
1680662688125162601,75,1680662688125162601,camera_1,77,0,0.27592361863646964,0.29362161715621304,3.7939420613418386,-0.9996132177939895,0.023053612588698095,-0.0024081291326099015,0.015367064528964294,0.005258382723695831,0.0018293826894591496,5914.10749776749
1680662688134473323,76,1680662688134473323,camera_1,78,0,0.2760462192726416,0.2937458394031116,3.7954553573671754,0.9996333460872701,-0.02308595210572001,0.0035802271713593473,-0.013689199360885885,0.007141521462472156,0.002486566405266056,5912.0038511015
1680662688144068002,77,1680662688144068002,camera_1,79,0,0.2760138104149615,0.2938077825736872,3.7954489783100223,-0.999643481256429,0.023107084597029436,-0.0032085393537048313,0.012987620958779549,0.0035503531180438586,0.001236116922963364,5912.322052695208
1680662688154070854,78,1680662688154070854,camera_1,80,0,0.27596668179124806,0.2937702780596023,3.7946841979952253,-0.9996553302226238,0.023208187777455917,-0.003594575912785465,0.011733703660423709,0.00489790791834821,0.001704655425733255,5916.13170427887
1680662688164432287,79,1680662688164432287,camera_1,81,0,0.27600300276375683,0.29378562278743575,3.7946376737627547,-0.9996615620326263,0.02310201290283785,-0.003072042436729812,0.011559452824143453,0.0051273969329486135,0.0017844899810194755,5915.8962879460905
1680662688174668788,80,1680662688174668788,camera_1,82,0,0.27599376634219375,0.29378478602243613,3.7948539484321064,-0.9996285456401575,0.02312902221803885,-0.00213796437302192,0.014256513631360214,0.0050949893484357744,0.0017733985001066148,5911.994553336469
1680662688184811592,81,1680662688184811592,camera_1,83,0,0.27603898604465954,0.29383969798659815,3.7954236516737723,0.9996161945247437,-0.023048085628697965,0.005492667174308552,-0.014355486757136418,0.006037298113369616,0.0021020369907221257,5913.089920816771
1680662688194594860,82,1680662688194594860,camera_1,84,0,0.27597475600391075,0.29371128102987115,3.7945135413369977,0.9996197548760837,-0.023034838961065857,0.002670081505968835,-0.014920205101395436,0.0076641474188363645,0.0026670733075777114,5912.954652753542
1680662688204649209,83,1680662688204649209,camera_1,85,0,0.27599761973215786,0.29372128474505027,3.7949207755155463,0.9996595674543017,-0.022982640826416875,0.003380870301349623,-0.011879273282818358,0.004049790863064118,0.0014096099527594458,5915.105902126176
1680662688214623212,84,1680662688214623212,camera_1,86,0,0.27603995728735176,0.29372775863652567,3.7954086021154425,-0.9996591812909992,0.023239163978765038,-0.0024321943488507386,0.011642463176957748,0.004057740050484426,0.0014127848415335733,5912.945527831034
1680662688224403381,85,1680662688224403381,camera_1,87,0,0.27594207207511,0.2936114466214348,3.7942996197487266,0.9996209421657031,-0.022824812317493733,0.0022596104337290514,-0.015228069053921042,0.003883198012772482,0.00135116169343543,5913.02363792644
1680662688234434604,86,1680662688234434604,camera_1,88,0,0.2759432787781829,0.29353373635522495,3.79406648543883,0.9996399456837075,-0.023111334907512913,0.0007916191926909814,-0.013609501508897167,0.005611918495560531,0.001952427865104537,5913.903987857862
1680662688244251251,87,1680662688244251251,camera_1,89,0,0.2759959849436372,0.29357341222372235,3.795001144984716,-0.9996609680066508,0.023067034216749664,-0.000887775483292671,0.012044618347649099,0.004118791090149898,0.0014337169998383632,5912.518472819298
1680662688254374504,88,1680662688254374504,camera_1,90,0,0.27589415772337195,0.2934437610903109,3.793761439245249,0.9996380091402031,-0.02307243375554885,0.0012521160614905522,-0.013782078514345852,0.004919672071991954,0.001711276357772181,5915.214872690094
1680662688264594316,89,1680662688264594316,camera_1,91,0,0.27595967728030424,0.29345083536653604,3.7947601126132935,-0.9996403044274434,0.02313030053620451,-0.002029276652347962,0.013421363476984681,0.004662688970711315,0.001622832651661809,5913.212436805479
1680662688274802684,90,1680662688274802684,camera_1,92,0,0.27596999266922295,0.29343370599249363,3.795067303356284,-0.9996344219153195,0.023281360149171666,-6.166302028084591e-05,0.013747617586386922,0.0026708643745223526,0.0009296985350294528,5910.1353603792395
1680662688284759044,91,1680662688284759044,camera_1,93,0,0.2760561460162991,0.29346259528469254,3.7960313197061564,0.9996401136723139,-0.02317101056337539,0.003679263606734455,-0.013008090789491344,0.005275037608953426,0.0018371044259055398,5911.189194684905
1680662688295015573,92,1680662688295015573,camera_1,94,0,0.2759862739948024,0.29336272433164623,3.795165649734246,0.9996282460027318,-0.02317379144425407,0.0029107726685965903,-0.014066719094088496,0.007627183476870413,0.002655115099555773,5912.262570944149
1680662688305050373,93,1680662688305050373,camera_1,95,0,0.2760245415136152,0.29335056312768176,3.7955012668395827,0.9996396817115607,-0.023064989351290456,0.0029093078075424937,-0.013418231698531756,0.005767235023085959,0.00200795866881637,5911.817280887048
1680662688315302371,94,1680662688315302371,camera_1,96,0,0.2759971042758302,0.29327669987147614,3.7952376390104354,0.9996499980198431,-0.023477256478859267,0.0019151177820050656,-0.01204293199493618,0.005475784364534775,0.0019062330349658826,5913.000337557983
1680662688325062990,95,1680662688325062990,camera_1,97,0,0.2760383212901572,0.29331669767431723,3.7957445305675126,0.9996715578093527,-0.023457022256365728,0.0014963164871071369,-0.010213013798924218,0.004803450985491509,0.0016727087933220042,5912.577928318582
1680662688335334539,96,1680662688335334539,camera_1,98,0,0.27604042093057146,0.29329242158937596,3.7960972169688763,-0.9996342127418602,0.023341057615829962,-0.0038680785626068843,0.013102431589957051,0.004545992676867172,0.0015833107625621396,5911.210502589823
1680662688344761133,97,1680662688344761133,camera_1,99,0,0.2760871105623778,0.293304836403517,3.796453665488186,0.9996304510708824,-0.023173330009153583,0.004624919026070751,-0.013437566450564547,0.0057814639585558325,0.0020139972724372724,5910.44605010649
1680662688355354309,98,1680662688355354309,camera_1,100,0,0.2759500050724084,0.293123601722352,3.7947908575647045,0.9996321973145142,-0.023257740287625724,0.0038445052981513107,-0.013407736120687637,0.006491555919637904,0.002259365538936997,5915.024535530481
1680662688364755392,99,1680662688364755392,camera_1,101,0,0.2760588916866613,0.29321045125314993,3.7961927784024923,0.999646581318929,-0.023315937635042593,0.004567021021248487,-0.011925679375533108,0.005536519303859677,0.0019284080812177146,5912.6137626499985
1680662688374359846,100,1680662688374359846,camera_1,102,0,0.27606311505534686,0.29318472802374024,3.7961747692086605,0.9996388637885403,-0.023200815266342434,0.004177054358793895,-0.012900247726966371,0.005411756064859219,0.0018849101430257022,5911.480072355363
1680662688384135246,101,1680662688384135246,camera_1,103,0,0.2760642439997013,0.2931739587945356,3.796273497532905,-0.9996213945560167,0.023369820337140485,-0.004108885292228713,0.013929684309038935,0.005500962000951404,0.001916164398168167,5910.19872750307
1680662688394139051,102,1680662688394139051,camera_1,104,0,0.2760185769640311,0.29308080033086553,3.7954327840930704,-0.9996255480031748,0.023084101574051035,-0.004116095669461475,0.014104814437326573,0.0046508837986039,0.0016193018859224013,5912.6579759067345
1680662688404420852,103,1680662688404420852,camera_1,105,0,0.27611538364237986,0.2931431058420167,3.7967678897542596,-0.9996415754819217,0.023318539043095644,-0.005467667677532655,0.011961225484256023,0.007112242910807254,0.0024780737967293404,5911.623133682242
1680662688414682626,104,1680662688414682626,camera_1,106,0,0.27607732307549193,0.29308974599825877,3.7962582204118105,-0.999667336643115,0.023581018277354548,-0.0011771430577718505,0.010381038487824118,0.006601033546758117,0.0022994339183232946,5910.715030909052
1680662688424625158,105,1680662688424625158,camera_1,107,0,0.27609421428955605,0.2931147837466063,3.796729514329943,-0.9996601016860336,0.023357946510181124,-0.003308391284172045,0.01109693556832348,0.0034367359839961864,0.001197367784076335,5910.64218230569
1680662688434528112,106,1680662688434528112,camera_1,108,0,0.2760409012536262,0.2930400614838393,3.7959615422789197,-0.9996495933029212,0.023261942370681427,-0.005056102280758892,0.01157620301194701,0.006845706404419616,0.0023842431346045713,5914.158284421255
1680662688444981575,107,1680662688444981575,camera_1,109,0,0.27604159043625237,0.29296971479118866,3.795573676472392,0.9996551565991763,-0.023497008925015682,0.0017724256191481316,-0.01158951956203445,0.009781473127077334,0.0034059143509632297,5912.417159863047
1680662688455036163,108,1680662688455036163,camera_1,110,0,0.2761071364980855,0.29305429840698394,3.7966004514435854,0.999680392594343,-0.023587944460955503,0.0011747644931791915,-0.009018950432977622,0.00830059723375598,0.0028919533518396395,5910.800353572238
1680662688465369939,109,1680662688465369939,camera_1,111,0,0.27612953248157124,0.29307496023676116,3.796939335226717,0.9996748211161282,-0.023482954973348128,0.004148210625620968,-0.009033006186339553,0.00692942976093036,0.002414524734440085,5912.457363275109
1680662688474825620,110,1680662688474825620,camera_1,112,0,0.27608427662238866,0.29304085349445963,3.796319040757489,0.999653204951346,-0.02334612243186909,0.004375320556675999,-0.011370354784469638,0.009132575345574878,0.003181235543896109,5912.6385511829285
1680662688484829902,111,1680662688484829902,camera_1,113,0,0.27606457695740017,0.29299491907322084,3.795937934857322,0.9996849177464016,-0.023797028460000088,0.0009328972185645973,-0.007930723146348182,0.008688489804626442,0.003026143325987796,5913.488588494018
1680662688495186328,112,1680662688495186328,camera_1,114,0,0.2761507434508854,0.2931207123348017,3.7973869139089156,0.9996533101442945,-0.02343391034793429,0.00580621923443866,-0.010507101482418638,0.008874245180777507,0.0030930857910348194,5911.283246151931
1680662688505309343,113,1680662688505309343,camera_1,115,0,0.2761410019662016,0.2930593822022328,3.7969722272807744,0.9996632394457647,-0.023439853810711498,0.0036399056906123127,-0.010522929283024904,0.009037735802849056,0.003149346622396126,5910.6848313582595
1680662688514911890,114,1680662688514911890,camera_1,116,0,0.2761152858641426,0.2930358447617427,3.796761945880694,-0.9996654216754328,0.023577192577786475,-0.0038613665771961045,0.009912141281564186,0.005512430278031388,0.0019206534710336633,5912.059113847673
1680662688524796247,115,1680662688524796247,camera_1,117,0,0.2761018841650408,0.29301690938056735,3.7964682664586196,-0.9996543119651975,0.02340438636930957,-0.0041869507669232845,0.01122322196782884,0.009282776896725409,0.0032339179734161443,5912.148438263048
1680662688534421920,116,1680662688534421920,camera_1,118,0,0.2760405097928461,0.29296666495222906,3.7958680354576573,-0.9996575394632099,0.023629745350759304,-0.002002307319121846,0.011064795272359991,0.007551884791610064,0.0026300626788405192,5912.205164666408
1680662688544003009,117,1680662688544003009,camera_1,119,0,0.2760074188949155,0.29293060404701565,3.7957008845836913,-0.9996581543200795,0.02357424891127047,-0.003158293682940977,0.010856079893493631,0.006736639537848532,0.0023459181415017797,5914.000011315571
1680662688554257631,118,1680662688554257631,camera_1,120,0,0.2760665741912068,0.29294859956355745,3.796088994686362,0.9996786635945173,-0.023732886506282136,0.003011107599650726,-0.00838169928971506,0.01017479782603914,0.0035440937812837134,5914.64744479384
1680662688564376115,119,1680662688564376115,camera_1,121,0,0.27608199195183186,0.2929593069132248,3.796294776431798,-0.9996643997219417,0.023557668775843903,-0.0025196873302887808,0.010477373056987004,0.009956385561963543,0.003468356297513328,5911.8616511417185
1680662688573973178,120,1680662688573973178,camera_1,122,0,0.2760920898405854,0.29298289084885837,3.7966680818190053,-0.9996586560122113,0.02361879288488117,-0.002874450161554264,0.0107917384507505,0.00792141091733356,0.0027599457583999737,5910.785288462823
1680662688583899021,121,1680662688583899021,camera_1,123,0,0.27605892254389947,0.2929497129610235,3.7961269101948942,-0.999642468059227,0.02356026525783691,-0.0029620934179420736,0.012291295945549814,0.010625165672536241,0.003701020315464719,5911.24351924949
1680662688594648122,122,1680662688594648122,camera_1,124,0,0.2760971693297614,0.29294695707327634,3.7965323240714883,0.9996940007332439,-0.02367395188999874,0.0012311599301806982,-0.007066338875079,0.009103388267249102,0.003171685362718883,5912.656995593276
1680662688605167150,123,1680662688605167150,camera_1,125,0,0.27611463216106713,0.29294575362158043,3.796694926798491,-0.9996564721245325,0.02344688423285265,-0.004511523948056782,0.010808677577364548,0.008228476570366183,0.0028669436465668264,5912.143326250838
1680662688613359212,124,1680662688613359212,camera_1,126,0,0.2761315047549839,0.2929861647564615,3.7969590724490954,-0.9996794614811833,0.02362355050613252,-0.003976158092704751,0.008190990233035277,0.00827807025416405,0.002884751043750426,5912.965189810493
1680662688623385190,125,1680662688623385190,camera_1,127,0,0.2761072502153666,0.29295159509120655,3.79646872717372,-0.9996815509704798,0.023700818395268598,-0.0019295273979626811,0.008446583964607289,0.008688105350302067,0.003026846411549297,5912.422902030637
1680662688633828163,126,1680662688633828163,camera_1,128,0,0.276038565731879,0.29289776321028554,3.7956858558227387,0.9996695850531496,-0.023551648890008985,0.001534966656880436,-0.010182555258259346,0.010788311919895932,0.0037568996449910885,5913.099508839192
1680662688643959045,127,1680662688643959045,camera_1,129,0,0.27607314112853515,0.29294306624121846,3.7962875440837704,-0.9996501584173333,0.023358641823145936,-0.003883357844209325,0.011783639515544328,0.009538128699205116,0.0033226171987457216,5912.018608249728
1680662688653675317,128,1680662688653675317,camera_1,130,0,0.2761036877225091,0.29295789219320545,3.7966436918764224,-0.9996827067345947,0.023668962256614644,-0.002890682178946942,0.008118499740097658,0.007340636664594057,0.002557676890047479,5913.039546548036
1680662688663336277,129,1680662688663336277,camera_1,131,0,0.27605875673679464,0.29289634315449314,3.7960064512204412,-0.9996808664405751,0.0237944631138561,-0.00047561525484656115,0.00847128017916711,0.009762207373569254,0.0034003266209269626,5912.49516384519
1680662688674769401,130,1680662688674769401,camera_1,132,0,0.27605114363729777,0.29293261649763813,3.796031585791186,-0.9996743072371874,0.023540188131500172,-0.0028976199489926537,0.009420339230323819,0.006867817108286545,0.002392052894912047,5913.913357013256
1680662688684946775,131,1680662688684946775,camera_1,133,0,0.27607769860950176,0.29298156358009053,3.7966233757270906,-0.9996701303444593,0.023514706175818877,-0.002348953156146268,0.01005840492458066,0.008426421441981802,0.002935846038900164,5911.066150292521
1680662688694692611,132,1680662688694692611,camera_1,134,0,0.27594940425779596,0.29280373943487503,3.794788341461812,-0.9996825504243025,0.023883648967304858,-8.976027129265394e-05,0.008022570178074223,0.008601489960710751,0.0029941816564534244,5916.288260567469
1680662688705279827,133,1680662688705279827,camera_1,135,0,0.27607596684806734,0.2929000469432399,3.796064251529548,0.9996907294487711,-0.023662578792807417,-0.0004242435832155844,-0.0076385755504602216,0.011885878346220123,0.0041402177125615435,5912.069471118391
1680662688715196132,134,1680662688715196132,camera_1,136,0,0.27603564578924794,0.2928736839240101,3.7956639549914244,-0.9996919555892665,0.023797455602848037,0.00017477965711541654,0.007045884544191959,0.009345826605567709,0.003254846995075498,5914.020594615837
1680662688725355148,135,1680662688725355148,camera_1,137,0,0.2760364663130858,0.29289736663061827,3.795698177383514,-0.9996670967616096,0.02349036940642921,-0.002805952485948343,0.01029683582519252,0.008817660916975001,0.0030707392521155006,5914.140959729907
1680662688735126256,136,1680662688735126256,camera_1,138,0,0.2761130324856171,0.2929481555851211,3.7968555926989818,0.9996880086092451,-0.023747487430600376,0.002980260486099351,-0.007145651198477139,0.010067572660773294,0.003508071920657983,5913.239816002082
1680662688743739843,137,1680662688743739843,camera_1,139,0,0.2761101021440208,0.2929499775994497,3.796854142472115,-0.999675520013849,0.023453322579228768,-0.0026472628079157678,0.009580623396273828,0.005419100594735937,0.001888233202877994,5911.027860113652
1680662688754258394,138,1680662688754258394,camera_1,140,0,0.2760263443711345,0.29287390558394977,3.795733124782679,-0.9996724325585196,0.023576037185622786,-0.0019972537467554848,0.009757511497569765,0.009721713100589113,0.0033856601040849394,5913.768073435349
1680662688764586925,139,1680662688764586925,camera_1,141,0,0.2760580404265228,0.2929223532575642,3.796183382061396,-0.999664483441937,0.02352023444550924,-0.001123783884844439,0.01079148859861585,0.007646823447430506,0.0026636107978605873,5910.680459363386
1680662688774435281,140,1680662688774435281,camera_1,142,0,0.2760899724671231,0.2929463839102249,3.796574277535593,0.9996783656825082,-0.02363643480185583,0.0024917282038784587,-0.008847340095490965,0.008639911582577042,0.0030101513273544074,5912.336491503288
1680662688785024166,141,1680662688785024166,camera_1,143,0,0.2760891043550678,0.29295014833951366,3.7966353157747608,0.9996603933913584,-0.023267989254466534,0.005024986933852363,-0.01060415329025681,0.00907401557196863,0.0031614016414441603,5912.962909171127
1680662688794610738,142,1680662688794610738,camera_1,144,0,0.27610045922557763,0.29295421333113497,3.7969218874940425,0.9996958706140302,-0.023813509233258402,0.0012791371293449788,-0.006280673806045626,0.006490796018624678,0.0022618373069043557,5912.123241469725
1680662688804488658,143,1680662688804488658,camera_1,145,0,0.27603730044077873,0.29287388640671796,3.7957169401879245,-0.999690240987272,0.02375992346231895,-0.0019338675720349061,0.007151801737238346,0.00927647493153927,0.0032306817544618272,5915.796554359956
1680662688814308404,144,1680662688814308404,camera_1,146,0,0.27607145185236454,0.29290409316778904,3.7962060767672123,0.9996733623346816,-0.02366923178563929,0.0024388567807160804,-0.009326740199719121,0.009660134528530762,0.0033648877452688657,5913.051651149639
1680662688824406385,145,1680662688824406385,camera_1,147,0,0.27609055076851596,0.29293951061629264,3.7965517488657374,0.9996555452022184,-0.02334540197227433,0.004629061215636319,-0.011061416973897484,0.00746476653512218,0.0026005434861237214,5912.492734129832
1680662688834546327,146,1680662688834546327,camera_1,148,0,0.2760422961360293,0.29285809452455736,3.795455890428463,-0.9996755923833902,0.023680392364053924,0.0011903269606350346,0.009302264892429734,0.010192859605012927,0.0035494204050499864,5911.87031197187
1680662688844757556,147,1680662688844757556,camera_1,149,0,0.27605476631125025,0.29290030182624405,3.7959960790590155,-0.9996624600370725,0.023583551446728114,-0.0024901981355659785,0.01061041973880974,0.007059029892843682,0.0024586512299258727,5912.68195301294
1680662688854607343,148,1680662688854607343,camera_1,150,0,0.2760035317777267,0.29287559009465447,3.7956093946447944,-0.9996659027635401,0.02357785560960239,-0.003772647246953244,0.009896196721936467,0.009217488757713,0.003209811446452673,5915.661370642016
1680662688864714860,149,1680662688864714860,camera_1,151,0,0.2761387834867867,0.2929894100771182,3.797227514604007,0.9996748916457081,-0.023508724608972745,0.004416831043902723,-0.008828504059649562,0.009817673653742531,0.003421675546975306,5912.04219515709
1680662688874504089,150,1680662688874504089,camera_1,152,0,0.27605725629596456,0.2929044230163328,3.7961908577680417,-0.9996747750088449,0.023607841475567923,-0.0028099547670893603,0.009225951771329522,0.009013679366034921,0.003139976890354681,5913.522414467296
1680662688885508537,151,1680662688885508537,camera_1,153,0,0.2760251297567161,0.2928536623026619,3.7956732445084285,0.9996918310607324,-0.023794225682385987,0.0010010079302036218,-0.00700540632221033,0.008764336038439069,0.003052145135770125,5915.1905255934635
1680662688895380735,152,1680662688895380735,camera_1,154,0,0.2761201673069007,0.29294932420957875,3.7967782481031107,0.9996848752459347,-0.023744385871989085,0.004655634633706785,-0.006684265871390801,0.008167610230884748,0.002845957276876191,5915.287488441276
1680662688905339241,153,1680662688905339241,camera_1,155,0,0.2759770293510147,0.29279087260175507,3.79477745296631,-0.9996672211654692,0.02371337937265342,-0.000770187536092953,0.01012567909805696,0.011457027885626303,0.003988108685688525,5915.265131542112
1680662688915215015,154,1680662688915215015,camera_1,156,0,0.27608183043943985,0.29290898494638135,3.7962164343770124,0.9996751544102987,-0.02345987097251231,0.00267084267401206,-0.009596181954784849,0.010817793216119753,0.003768232945473048,5912.994904007415
1680662688925589561,155,1680662688925589561,camera_1,157,0,0.27609029432300036,0.2928990925957011,3.7964575022471636,0.9996742578189267,-0.02362256570291902,0.0015649229963724616,-0.009534341078694773,0.008519278242602013,0.002967895144605463,5911.303843746311
1680662688934448957,156,1680662688934448957,camera_1,158,0,0.2761290179351742,0.29293934145923844,3.7968950679267546,0.9996827148869541,-0.02382939836352162,0.0006429406299906042,-0.008137318798458191,0.010206408878730144,0.003556688286073761,5910.164669761554
1680662688944353103,157,1680662688944353103,camera_1,159,0,0.2761069078342308,0.2928979570473972,3.7965856444503254,0.9996962315044625,-0.023748312477943307,0.0015966293936865953,-0.006396338390467668,0.007906451708549866,0.002754660411808742,5913.366530044177
1680662688954606533,158,1680662688954606533,camera_1,160,0,0.27610804055298477,0.29288997450281173,3.7964958350440967,0.999679215110262,-0.023654452898910865,0.0031272363825202033,-0.008494358550910852,0.010549613027251324,0.0036754087149427892,5913.443730823695
1680662688964565277,159,1680662688964565277,camera_1,161,0,0.2761671916448343,0.2929567465928771,3.7972443849819606,-0.9996927615897576,0.023740741347047862,-0.0025586005024868293,0.006649299873316297,0.00841987676176359,0.002934717362946007,5911.995409847241
1680662688974586009,160,1680662688974586009,camera_1,162,0,0.2761203267261474,0.2929438091681281,3.797005366704106,-0.9996798107917099,0.023475099938579533,-0.0031989653752849483,0.008886067682198972,0.010638192386977607,0.003707433089714871,5911.624755977537
1680662688984669923,161,1680662688984669923,camera_1,163,0,0.27607809543431144,0.29287652774248163,3.7960615622843723,0.9996766803320205,-0.02359166331427266,0.0026562194965372614,-0.009105642229058719,0.009560228019836359,0.0033299036525492277,5913.866128927561
1680662688994998455,162,1680662688994998455,camera_1,164,0,0.2761509494709142,0.2929429207101587,3.7971424711174344,-0.999677052457201,0.023542185046027952,-0.00454773806769254,0.008418693022619479,0.009119156795350136,0.003178128148939051,5912.7483536376385
1680662689004083395,163,1680662689004083395,camera_1,165,0,0.2760020526618106,0.292777884804565,3.795169762013917,0.9996523047925159,-0.023388540171935472,0.004448837777744991,-0.011333735221197572,0.012065431095834356,0.004200437303811823,5916.430797340231
1680662689014436244,164,1680662689014436244,camera_1,166,0,0.2761205344193961,0.29290397176471517,3.7968057443328003,-0.9996770993235027,0.023560083866874405,-0.002834173730927917,0.009087738750455985,0.007587433621665696,0.0026437695918888277,5911.759717399778
1680662689024578332,165,1680662689024578332,camera_1,167,0,0.2760265063801356,0.2927670362409485,3.795144348998234,0.9996595451858584,-0.023542886827475597,0.0032796328073782396,-0.010759656466639267,0.012996569326787721,0.0045245497332368845,5915.939002756726
1680662689035045146,166,1680662689035045146,camera_1,168,0,0.2760187605269391,0.29280882566019695,3.795532264201079,0.9996644881481774,-0.023486079534909183,0.003611900648653788,-0.010308703954750488,0.0118522663397016,0.0041270239999548035,5915.438686533014
1680662689045094251,167,1680662689045094251,camera_1,169,0,0.27610097896327507,0.2928998290292751,3.796656031060697,-0.9996827873896948,0.02339131738507092,-0.002738718644795267,0.008925821415756737,0.007168834832555149,0.002497724070869311,5912.270886197918
1680662689055410146,168,1680662689055410146,camera_1,170,0,0.276127021608074,0.292919373275185,3.7968873834967676,0.9996712162532747,-0.02361386777013127,0.00443357109747278,-0.008954780341081669,0.012309384976106228,0.004289425703983175,5913.029870404282
1680662689065429925,169,1680662689065429925,camera_1,171,0,0.27606895407117343,0.2928993889696365,3.7962558907078403,0.9996778108943513,-0.023514175257765522,0.003916501263033232,-0.008718886699654838,0.008454095412162133,0.0029448737384062443,5914.724450619542
1680662689075508117,170,1680662689075508117,camera_1,172,0,0.276048269440762,0.29287975716695014,3.795790861575821,-0.9996674424935812,0.023553328807332064,-0.0020062198548315975,0.01030631856341088,0.007377005313173868,0.0025691384854193127,5913.120698598856
1680662689085392951,171,1680662689085392951,camera_1,173,0,0.27603893893917897,0.2928845463516374,3.7957451390140813,-0.9996509401168429,0.023493369277676753,-0.004036697403022179,0.011391426494141293,0.0078066429450700525,0.002718570748766508,5914.1905865753615
1680662689095536470,172,1680662689095536470,camera_1,174,0,0.27606186878278416,0.2929219554663482,3.796000617200663,-0.9996870132626604,0.023602954369512614,-0.0010115684509155376,0.008231208190872868,0.010009972480474971,0.0034866003623239567,5913.192038585722
1680662689105236530,173,1680662689105236530,camera_1,175,0,0.2760958383814451,0.2929190076279815,3.7962696043757567,0.9996653384205317,-0.0233953241305799,0.004072404643248481,-0.01026087178608421,0.011170335801580222,0.003890983876205328,5913.526897770123
1680662689115061759,174,1680662689115061759,camera_1,176,0,0.2760309543031202,0.2929165610444926,3.795718991544443,-0.999668334096133,0.023476419174620546,-0.0037367100686237333,0.009905379652627964,0.007989675916178385,0.002782339133938497,5915.235454568523
1680662689124864101,175,1680662689124864101,camera_1,177,0,0.27609965122434016,0.2929453622550353,3.79638005347537,0.999635750120488,-0.02334633405830533,0.005547976252530586,-0.012350535477818803,0.009736905300087528,0.0033919406710125736,5912.659485591225
1680662689134575605,176,1680662689134575605,camera_1,178,0,0.27608921427990446,0.2929506713886739,3.7963445520468255,-0.9996640494447484,0.02351002790015252,-0.005049051933590712,0.009673360865465911,0.01024463671274134,0.003568869706850706,5914.617321850501
1680662689144638299,177,1680662689144638299,camera_1,179,0,0.2760719992892455,0.2929666182980764,3.7960612706587264,-0.9996659739292053,0.023706564932914283,-0.0011396522279265343,0.01022939587925803,0.008173111949872691,0.002846790561980495,5911.483058774553
1680662689154694318,178,1680662689154694318,camera_1,180,0,0.2760396461767476,0.29292545664639225,3.795556420500162,-0.9996789379913228,0.023888659169018722,-0.0006329730994172297,0.008423315540988012,0.008578027081966866,0.0029871411765280474,5914.026609924387
1680662689165069103,179,1680662689165069103,camera_1,181,0,0.2759723092944628,0.2929011647054674,3.794771697986511,-0.9996486178764381,0.023442308542999096,-0.002763275215118625,0.012060814980230003,0.006778444636438508,0.0023592993003021955,5915.4322838699445
1680662689175369262,180,1680662689175369262,camera_1,182,0,0.27603831129662787,0.29298441258410884,3.7957037179800754,-0.9996468690232997,0.0233221834196446,-0.00454807605239927,0.011896554823813289,0.008990704769530566,0.0031309068758708426,5914.253643023436
1680662689195439815,181,1680662689195439815,camera_1,184,0,0.2760665425091084,0.2929982198172871,3.7963192629190514,-0.9996503194399948,0.023394139619129607,-0.006731906762160036,0.010326398517508956,0.008959901497291867,0.0031212217841062708,5915.556751407333
1680662689224781513,182,1680662689224781513,camera_1,186,0,0.27602011954456185,0.29289508845542916,3.7952312782709092,-0.9996760930989411,0.023633066860568035,-0.0010265532099217522,0.009387929788204841,0.011415762986871414,0.003974701882235433,5914.640642616025
1680662689234630823,183,1680662689234630823,camera_1,187,0,0.27600292725374304,0.29288255044669514,3.7952425565885606,0.999684056052915,-0.023596588713903438,0.0018333739670402503,-0.008463321721171516,0.007113288607797585,0.0024764921581367206,5916.140644026456
1680662689254573106,184,1680662689254573106,camera_1,189,0,0.2760968104826977,0.2929657886531649,3.7965202303611822,0.9996663961605697,-0.02342590745718659,0.004742844695303232,-0.009789211987834041,0.00908951394376345,0.0031666068991678224,5913.719999325576
1680662689265159845,185,1680662689265159845,camera_1,190,0,0.276110766827812,0.29298113738928927,3.7964264243378447,-0.9996828211262229,0.02372816563146681,-0.0020930252872471754,0.008176218320767559,0.007515480894653592,0.002618320556098077,5912.885341098181
1680662689275443553,186,1680662689275443553,camera_1,191,0,0.27607111124310013,0.29296949091821567,3.796214078555013,-0.9996771518255343,0.023612259620522484,-0.0035348037513005357,0.008692437865215372,0.008214286688598804,0.0028613651673668247,5914.478863319383
1680662689285495996,187,1680662689285495996,camera_1,192,0,0.276085030660801,0.29293565827561163,3.7962048506799726,0.9996879065455015,-0.023828765865906452,0.001509303651370255,-0.007348566286585215,0.007724772429355653,0.002690822020236027,5913.704406255276
1680662689295346498,188,1680662689295346498,camera_1,193,0,0.2760701986137365,0.29297258968805745,3.796401403002982,-0.9996891284179766,0.02362833743897794,-0.001103570659682334,0.007882279148547873,0.005328289604221936,0.0018562587765401854,5912.314833583428
1680662689304781198,189,1680662689304781198,camera_1,194,0,0.27611554073934036,0.2930023103800051,3.7969413044188913,0.9996908642630989,-0.023627706381111894,0.0028579325984731873,-0.007193025881306773,0.006131822625320638,0.0021367283712606135,5912.795343514708
1680662689314454793,190,1680662689314454793,camera_1,195,0,0.2760477150160733,0.29292631989551077,3.7957574341650817,-0.9996436428625064,0.023323009445456434,-0.003931996130681525,0.012375941233425444,0.010497492607100867,0.003655874764539124,5913.159528859076
1680662689324059247,191,1680662689324059247,camera_1,196,0,0.2760857358312468,0.29295601261319526,3.7965623885039137,0.9996725194799305,-0.02354349009917566,0.004035719033184573,-0.009179915167541682,0.006698166009300621,0.002333549578240943,5913.4918115004
1680662689334267854,192,1680662689334267854,camera_1,197,0,0.27610371297512004,0.29294723948889795,3.7962272562197334,0.9996922756272785,-0.023846226617487205,0.0014141488331796037,-0.006686681564019704,0.009630979773646686,0.0033550419589777137,5914.013710054045
1680662689344474554,193,1680662689344474554,camera_1,198,0,0.2760906807565984,0.2929370259448697,3.7962689772218816,-0.9996813332215917,0.023514517680630214,-0.002553117899003169,0.008819356866685864,0.009980353908758843,0.0034767499551855573,5913.323469619094
1680662689354683637,194,1680662689354683637,camera_1,199,0,0.2761192862743388,0.29294888151645077,3.796501765911592,-0.9996807271570468,0.023776938880868487,0.001343175602420162,0.008443743690735816,0.008264654796221294,0.0028795053548380163,5909.141728896999
1680662689364542722,195,1680662689364542722,camera_1,200,0,0.27604854221752073,0.2929550604469151,3.7960195417840255,-0.9996714679089528,0.023431932444413727,-0.0018211456164349072,0.010226642622278513,0.006792695599870058,0.0023658927687412222,5912.282913940493
1680662689374598741,196,1680662689374598741,camera_1,201,0,0.27609892882363674,0.2930238551266488,3.7967970712447694,-0.9996485216901423,0.023442837730717495,-0.0047963100868113045,0.011413231417764439,0.006172497734951321,0.002150689126347268,5911.53688604024
1680662689384754419,197,1680662689384754419,camera_1,202,0,0.27604679839092455,0.29288928768231276,3.795654520164163,-0.9996839645862444,0.023699091716994383,-0.0017558884120051823,0.008200052243884757,0.006224251224921318,0.002167494340236783,5914.9904101451975
1680662689394026756,198,1680662689394026756,camera_1,203,0,0.27616799341594506,0.29301966698309795,3.7971365290045536,0.9996705490512502,-0.023618272061196644,0.003037012805444937,-0.009578472614934145,0.010598561173537746,0.0036936443321814606,5910.43124174641
1680662689404348611,199,1680662689404348611,camera_1,204,0,0.2760792203411272,0.2929467912757853,3.796281206268207,-0.9996862429683894,0.023793038049307075,-0.0014374313142751043,0.007696801371180187,0.00763272556650918,0.002658937145466548,5913.139807860485
1680662689414391279,200,1680662689414391279,camera_1,205,0,0.2760961302994791,0.29297507488559626,3.796508729179645,-0.9996654828610305,0.023562368314761002,-0.0037627889179411554,0.009978907514418673,0.006684466166916536,0.002328808252080615,5912.729955694463
1680662689424876213,201,1680662689424876213,camera_1,206,0,0.2760786826277107,0.29296227661597124,3.796519499513111,-0.9996664420014749,0.02350345234332573,-0.0024760188287763656,0.010414499259033845,0.007797586284141289,0.002716590655830041,5911.207876706319
1680662689434846639,202,1680662689434846639,camera_1,207,0,0.2761131394745766,0.29300402059845715,3.7967975548298587,-0.9996815613081518,0.02373418821112126,-0.0031253492093166616,0.00798100762905688,0.008245353488746332,0.002873139712590423,5912.860476427189
1680662689444897174,203,1680662689444897174,camera_1,208,0,0.276070242693573,0.29290830576076193,3.7959105742514403,0.99967527987983,-0.023535354002275407,0.0026903312122238984,-0.009390635076488024,0.009060650525498204,0.0031555816095209625,5914.1052791522225
1680662689455279827,204,1680662689455279827,camera_1,209,0,0.2760803734669167,0.29294422417691135,3.796279957890379,-0.9996631626943574,0.02350875826696764,-0.001839906471297095,0.01084039578783866,0.007016251205641311,0.0024440752974560463,5910.98383321543
1680662689465297698,205,1680662689465297698,camera_1,210,0,0.276041436910697,0.2928750797538069,3.7956718109422782,0.9996495879495738,-0.023360116380919452,0.0051389605226312635,-0.01134007758633341,0.008164496059180237,0.0028430024673353365,5915.414566649125
1680662689474926948,206,1680662689474926948,camera_1,211,0,0.27606043521645174,0.2928943664419938,3.79595987568502,-0.9996836264797139,0.023722714892439052,-0.0007866067095276811,0.00832231917104331,0.00803838541105506,0.0027997535313405543,5913.049526466117
1680662689484792470,207,1680662689484792470,camera_1,212,0,0.2760815986191427,0.2929533301924385,3.796548198268607,-0.9996666806324568,0.023487810312326968,-0.004103017981826997,0.009900285019064557,0.008740209785173647,0.0030450232991948156,5913.013046619948
1680662689494654893,208,1680662689494654893,camera_1,213,0,0.2760970185849994,0.29287310944700157,3.7961125361660484,0.9996832175702223,-0.02378844861754348,0.0013653781383600328,-0.008106168229028552,0.012209483364131302,0.004252998454013435,5913.285408833473
1680662689504563093,209,1680662689504563093,camera_1,214,0,0.27607342726350853,0.29287005606496075,3.7961328549435933,0.9996772117137529,-0.023515120411701857,0.0028002332568709456,-0.009201640394345605,0.007544439555204008,0.0026278292616354745,5913.717706553811
1680662689514523744,210,1680662689514523744,camera_1,215,0,0.27610465271365636,0.29291616799606807,3.79656884932295,-0.9996782796539865,0.023540857251259706,-0.002100005730584038,0.009206258949936087,0.009477612613409292,0.0033020751367717764,5911.7041221235995
1680662689525281429,211,1680662689525281429,camera_1,216,0,0.27609907526271127,0.2928919267322996,3.796554582895462,0.9996823741625009,-0.023530971411240637,0.004153504151613436,-0.008012026992688043,0.00904562840150902,0.0031514657267501956,5914.56827066612
1680662689534245967,212,1680662689534245967,camera_1,217,0,0.27603569041888454,0.2928012661357008,3.795375810358734,0.9996828559790175,-0.023743561602455575,3.8883798846580825e-05,-0.00839221258759388,0.011766182375140488,0.004096993641231659,5914.1012595654465
1680662689544522285,213,1680662689544522285,camera_1,218,0,0.2760908706360288,0.292883899543777,3.7962442306181363,-0.9996820368167333,0.02359178279685234,-0.0021310815717743687,0.008643583848623482,0.009805815050640376,0.0034159706291761846,5913.182698064715
1680662689554867982,214,1680662689554867982,camera_1,219,0,0.27602842111604287,0.2927941830944153,3.79510836441719,-0.9996518240562681,0.023397782697603387,-0.002469821337053894,0.011944639315393423,0.011397586276871152,0.0039680117672736765,5914.2648146713
1680662689565420627,215,1680662689565420627,camera_1,220,0,0.2760919821925888,0.29287997400334853,3.796234945714342,-0.9996561404097287,0.023509514345869422,-0.005313424227106035,0.01032817502412599,0.007112066847184906,0.0024773380342726073,5914.675806258746
1680662689574699163,216,1680662689574699163,camera_1,221,0,0.2761080636214137,0.29286494410155384,3.796341837906496,0.9996912976709718,-0.023779772067091063,0.0033324275970061214,-0.006381749578037583,0.007689071808272274,0.0026785954324392005,5915.715102466405
1680662689585475921,217,1680662689585475921,camera_1,222,0,0.2761026286337027,0.29288597114005466,3.7963872537164773,-0.999672289098514,0.023564120539219892,-0.001631878250766245,0.009868313185382348,0.01228296118642902,0.004279327885083095,5911.287751341937
1680662689594413042,218,1680662689594413042,camera_1,223,0,0.27603908700708035,0.292806848365424,3.7956882362080666,-0.9996596865714792,0.02365851317349836,-0.0012410804833879684,0.010919959590828905,0.00855418833089061,0.0029789783703538064,5912.255609317159
1680662689604683876,219,1680662689604683876,camera_1,224,0,0.27607417006766755,0.29283664385074537,3.7963460881651203,-0.9996699359870607,0.023714612954938118,-0.001060727433976682,0.009824004953900638,0.011511467550008092,0.004010305439171115,5910.98068750219
1680662689614593982,220,1680662689614593982,camera_1,225,0,0.27610514192805125,0.29283318932214725,3.796328697029849,-0.9996983414914773,0.023568492398621733,-0.0005888955517642323,0.006885157026172888,0.012581875391333597,0.004383408667569483,5912.848372126113
1680662689624118089,221,1680662689624118089,camera_1,226,0,0.276084604807847,0.29283389143808125,3.7961385835864165,-0.9996901527969102,0.023746768651556508,-0.0011546276300148613,0.007372666718059511,0.010449420577060664,0.003640101963980494,5913.6102889374615
1680662689636532783,222,1680662689636532783,camera_1,227,0,0.2760676693409421,0.2927819784708598,3.7958487040622497,0.9996891184478793,-0.023681916058611682,0.0020133824333663404,-0.007535223943034642,0.011352349509252235,0.003953821010157776,5915.214201394004
1680662689646415710,223,1680662689646415710,camera_1,228,0,0.2760667027618873,0.2928047575173519,3.7960432239020663,-0.9996718287564635,0.023649514232249348,-0.002254773211787788,0.009583906565159889,0.011981480020040179,0.0041734007658202395,5913.225222423096
1680662689655740499,224,1680662689655740499,camera_1,229,0,0.2760174052492606,0.292754183592819,3.795569213585389,-0.999670363782224,0.02370639385231121,-0.001250766573507087,0.009777844804145393,0.008484978057822445,0.002954767094253863,5913.629226553897
1680662689665714502,225,1680662689665714502,camera_1,230,0,0.275987815716888,0.2927100199055249,3.795132556476248,-0.999688652123028,0.02374343322739437,0.00025246556033521345,0.0076671022009953405,0.008395078391913557,0.0029228322418576895,5915.220801571675
1680662689674702167,226,1680662689674702167,camera_1,231,0,0.2760543383087964,0.2927425873717684,3.7958138074032215,-0.999692124972455,0.023904477704752274,0.0005354968194049545,0.006629061538193274,0.009830233786487952,0.0034240285320895052,5913.593740360347
1680662689684203624,227,1680662689684203624,camera_1,232,0,0.2760578831914309,0.29273971255954645,3.795856883044928,-0.9996824121956396,0.023720484971026398,-0.002252186286795554,0.008206156004873792,0.01290931669427664,0.004496228246045978,5914.930726210295
1680662689692809581,228,1680662689692809581,camera_1,233,0,0.2760210837653799,0.2927019161381799,3.795709328944499,0.9996726176042809,-0.02350832881650419,0.0013421947585336832,-0.0100107243339636,0.0124023281459813,0.004319114252725251,5913.142229150342
