%time,field.header.seq,field.header.stamp,field.header.frame_id,field.image_seq,field.transforms0.fiducial_id,field.transforms0.transform.translation.x,field.transforms0.transform.translation.y,field.transforms0.transform.translation.z,field.transforms0.transform.rotation.x,field.transforms0.transform.rotation.y,field.transforms0.transform.rotation.z,field.transforms0.transform.rotation.w,field.transforms0.image_error,field.transforms0.object_error,field.transforms0.fiducial_area
1680649690336256265,258,1680649690336256265,camera_1,512,0,0.33192770339767647,0.28969577795971735,3.7920947110186973,-0.9995411120566776,0.02320190492092057,-0.002546578114137971,0.01930678265401631,0.00010274367377860472,3.578269703567504e-05,5903.153553402928
1680649690366375923,259,1680649690366375923,camera_1,514,0,0.3319390125396942,0.28969943224814293,3.7923145663938422,0.999574486682621,-0.023248130775187684,0.0031929796464891178,-0.01732555539114265,0.0005657067849824671,0.00019703365489936696,5905.108353532967
1680649690386338472,260,1680649690386338472,camera_1,516,0,0.33213668119811335,0.2898546589880567,3.794641561570151,0.9996239239289849,-0.02325747105308908,0.002812863648936598,-0.014254422020067044,0.00140577584534185,0.0004902143471866393,5900.514864047059
1680649690416452407,261,1680649690416452407,camera_1,518,0,0.332001598807694,0.2897388367417584,3.7928091859129305,0.999573225915023,-0.023123543276745675,0.004249458671017445,-0.017338104889701007,0.0007864614635764156,0.00027399585479864286,5904.466444042217
1680649690446422576,262,1680649690446422576,camera_1,520,0,0.3319910241633888,0.2897628642549715,3.7929695937176895,0.9996093954142756,-0.023158677321290972,0.0017593052894171635,-0.015544681056016899,0.000993774585367646,0.0003462396965930576,5903.500251597956
1680649690466422319,263,1680649690466422319,camera_1,522,0,0.33205744849672963,0.2898192371692959,3.7936923304164756,0.999586315859768,-0.02317640860190708,0.002090934503154722,-0.01690204789714044,0.00046083199049462564,0.00016062352510622425,5900.231268637232
1680649690496474981,264,1680649690496474981,camera_1,524,0,0.3319930605888493,0.2897716598404774,3.793062503143597,0.9995783216653878,-0.023137978001047964,0.002877400659381168,-0.01730703313901618,0.00035111889883410186,0.00012234296927743563,5902.515362111153
1680649690516417980,265,1680649690516417980,camera_1,526,0,0.33200882423815137,0.2897786750365436,3.7933198969472657,0.9995850687171043,-0.023151258144658213,0.002409952680119297,-0.01696766843797724,0.0010425873697386123,0.0003633151691788951,5901.649409824284
1680649690546667575,266,1680649690546667575,camera_1,528,0,0.33204311722764696,0.28982297098255005,3.793675925815877,-0.9995871253986816,0.023281244811367098,-0.002598204072741182,0.016637659475728064,9.972893531084992e-05,3.476145966236433e-05,5901.018558789974
1680649690576564550,267,1680649690576564550,camera_1,530,0,0.33208747363073404,0.2898302885711291,3.794050980733809,0.9995935822939873,-0.023318533561594756,0.0033318896636883614,-0.01605661049161359,0.0006199538802320603,0.0002161322381960726,5901.087417679957
1680649690596572875,268,1680649690596572875,camera_1,532,0,0.3320122727194704,0.28977270181044185,3.7932606404115154,0.9995507145819285,-0.023026000614991955,0.003642999517701864,-0.0188388117711506,0.0007557326644018758,0.0002633580655092159,5901.034749207957
1680649690626230716,269,1680649690626230716,camera_1,534,0,0.33206047524376775,0.28984258522871587,3.793838399992993,0.9995405855062055,-0.023054995322764685,0.00638592653378056,-0.018609273464714114,0.001007311133434996,0.00035113188556077263,5901.806829533776
1680649690646229505,270,1680649690646229505,camera_1,536,0,0.33202179066378634,0.2898098559471946,3.793517852053674,-0.9995594743933692,0.02301884825174518,-0.004529608047355109,0.01817890058700084,0.0005317785617080517,0.00018533540750212787,5901.690615479661
1680649690676229476,271,1680649690676229476,camera_1,538,0,0.33203800774846853,0.2897973082273735,3.793436875800313,-0.9996113045650624,0.023218233822045957,-0.002515682302787052,0.015225792145914067,0.00032670960354153067,0.00011386373756314639,5903.036637718615
1680649690696437835,272,1680649690696437835,camera_1,540,0,0.3321275756108083,0.28984796773797594,3.7943691151800922,0.9996118097606951,-0.02326201618265849,0.00177648569030798,-0.015229986495657492,0.0003002513840328902,0.00010469317226170896,5899.458814141572
1680649690726402521,273,1680649690726402521,camera_1,542,0,0.33206325291572275,0.2898298643213283,3.79387228643094,-0.9996097917187221,0.023141398939567216,-0.00364636936680162,0.015213281881753917,0.00018667493714019656,6.507322049108412e-05,5902.72806809121
1680649690746275186,274,1680649690746275186,camera_1,544,0,0.3320400646699274,0.2898082438941071,3.7935421356625674,0.9996022471623964,-0.023094808185050195,0.0027647067191420276,-0.01594784309993886,0.0009938608563970774,0.0003463811093203528,5902.254770733824
1680649690776272058,275,1680649690776272058,camera_1,546,0,0.3320965259649461,0.289874393777065,3.7944845070635456,0.9996006773161679,-0.023176664703128725,0.0038254214477303162,-0.01570650416370496,0.0009395166307513136,0.0003276002359344889,5900.54576259048
1680649690796293973,276,1680649690796293973,camera_1,548,0,0.33196769796316616,0.2898054206518609,3.7930169934147857,-0.9995735246151648,0.023324738907811504,-0.0031191379952967405,0.017291512989481745,0.0001475484823458828,5.1412973240329156e-05,5902.889211599543
1680649690826656579,277,1680649690826656579,camera_1,550,0,0.331976636616738,0.2897790602445748,3.793039039225951,0.9995700973054967,-0.02308646181269189,0.0034977314074452993,-0.017731376953088206,0.0004177295522822533,0.0001455504768572816,5902.730102303553
1680649690846505403,278,1680649690846505403,camera_1,552,0,0.33210424638141495,0.28986469316794666,3.794309572486211,0.9995846320698046,-0.023219792716803727,0.0031997843249159815,-0.016768003349715968,0.0009093394946830813,0.00031704646723664876,5899.469129077972
1680649690876542568,279,1680649690876542568,camera_1,554,0,0.332005378785162,0.28979617905655447,3.793275733036283,0.9995953032082521,-0.023230524663590175,0.0007903511745102391,-0.016399630266500334,0.000985320410109125,0.00034335786546201827,5900.815515226683
1680649690906397104,280,1680649690906397104,camera_1,556,0,0.33203144456868006,0.2897944986285724,3.793641634081652,0.9996136096314945,-0.023138313451075837,0.0027073929379490655,-0.015163110288252036,0.0017249985321541317,0.0006012162777010627,5902.685304139565
1680649690926394462,281,1680649690926394462,camera_1,558,0,0.33206025238994463,0.289859113878673,3.793893118127329,-0.9995712006431273,0.023238151948201655,-0.003951171610260464,0.017372143845701793,0.00012023435920127667,4.191352400970426e-05,5900.814826741175
1680649690956460952,282,1680649690956460952,camera_1,560,0,0.33199544595881003,0.28980122344325593,3.7932475479720393,0.9995721204338696,-0.02311115367542921,0.003028231595838081,-0.017671458358906926,0.0005651987485180143,0.00019695225362253041,5901.717950720223
1680649690986401796,283,1680649690986401796,camera_1,562,0,0.33201852613760613,0.289795909214687,3.793531315542548,0.9995931954987477,-0.023354633394611437,0.002061707368692733,-0.01624050412799997,0.00073136696300935,0.0002548904555643661,5901.397956739877
1680649691006406545,284,1680649691006406545,camera_1,564,0,0.33202613797551556,0.2898278378273835,3.7936019196180695,0.9995483746348255,-0.023073515161409503,0.0053983647405252255,-0.018480187258328614,0.0010147762804990634,0.0003536940798815296,5901.866503751373
1680649691036346197,285,1680649691036346197,camera_1,566,0,0.33207329267364954,0.28986395656313513,3.7941651809608437,0.9995686619447236,-0.023063641441665415,0.004798786638391334,-0.017536537522681202,0.0005363925229175948,0.00018700929830767945,5900.567281156951
1680649691056323766,286,1680649691056323766,camera_1,568,0,0.3320097559402992,0.28979308237174833,3.7932327322197885,-0.9995702452785492,0.02325526109934801,-0.0023970766536192114,0.017685350109593122,0.00019035187506233342,6.633223721480948e-05,5901.159752810549
1680649691086261272,287,1680649691086261272,camera_1,570,0,0.33198301749307885,0.2897688765515849,3.7930581791069558,0.9996107108277803,-0.023274260716223277,0.0018394035831086025,-0.015275869237184114,0.0006260323061724193,0.00021812987907252559,5903.5755088705355
1680649691106348276,288,1680649691106348276,camera_1,572,0,0.33195921614015933,0.28972508716629125,3.792495802509551,0.9995567697904556,-0.02309687237865492,0.002800407605449429,-0.018572995709842124,0.0005096565182611812,0.00017753345956592146,5902.906404643205
1680649691136309146,289,1680649691136309146,camera_1,574,0,0.33195808416680317,0.28973451859886623,3.792588543426891,0.9995715851140567,-0.023335917876960682,0.0017760226400759015,-0.017576316821046867,0.0006527678233396728,0.00022739436792958254,5902.705169256428
1680649691156244993,290,1680649691156244993,camera_1,576,0,0.3320591418616446,0.2898638639661338,3.793915575663833,0.9995919965030577,-0.023313352683739078,0.0020349210019531836,-0.016376422386787944,0.0003712176585395355,0.0001294036639458815,5900.007091880367
1680649691186303853,291,1680649691186303853,camera_1,578,0,0.33200288836443387,0.2897738404042892,3.793136357454944,0.9995721104666638,-0.023204188288651895,0.002375392734839539,-0.01764990460143712,0.000482244595332304,0.00016803711740692197,5901.484944055843
1680649691206324815,292,1680649691206324815,camera_1,580,0,0.33201351128267437,0.28981100987070096,3.793392817839908,0.9995603088243564,-0.02325561595355296,0.0032054745929477593,-0.018113262605394385,0.0003881820884998888,0.00013528270537868192,5900.973721940071
1680649691236410379,293,1680649691236410379,camera_1,582,0,0.33206208402936305,0.2898361461850329,3.793864392873354,-0.9995596786853896,0.023396272297082393,-0.0036277192552704573,0.017885827964241312,0.0003482307256490458,0.00012139225699984639,5900.115753312244
1680649691256320238,294,1680649691256320238,camera_1,584,0,0.3320270192075922,0.289849082014084,3.79376515119163,0.9995806797806709,-0.02340082991973969,0.00260289890075289,-0.016854989931524744,0.0009042464880621992,0.0003151819533778187,5900.557260262485
1680649691286451101,295,1680649691286451101,camera_1,586,0,0.33200149963300785,0.28978902416451296,3.7933062814681455,-0.9995875313426645,0.023116616662368448,-0.0030963459141761475,0.016757143561555027,0.00021949161964585073,7.648882612271433e-05,5902.515498914288
1680649691306615591,296,1680649691306615591,camera_1,588,0,0.3320290373474092,0.28984251675427314,3.7939038721265104,0.9996016790640473,-0.023335992196585196,0.00217484274767943,-0.015722109895346528,0.00043295353680150583,0.00015092191711891075,5900.858326602027
1680649691336389541,297,1680649691336389541,camera_1,590,0,0.3320717962187045,0.2898536456532137,3.794437519379217,0.9995896902058942,-0.023204726304067714,0.0027376363325066887,-0.016567958792471842,0.0011814925419457722,0.00041195824265406376,5898.921424026775
1680649691356370687,298,1680649691356370687,camera_1,592,0,0.33196949319946645,0.28976041335477304,3.7929542373784653,0.9995579123932891,-0.02319872322183745,0.00195101288892651,-0.018493040895256795,0.0010733608978625853,0.0003739876441724306,5900.8234575522965
1680649691386434078,299,1680649691386434078,camera_1,594,0,0.33192827925894064,0.2897073042857302,3.7924869238643657,0.9995820542656678,-0.023221354840099007,0.0014794238011565423,-0.017155080140709753,0.0005437925792648457,0.00018941857303885756,5903.203610354685
1680649691406422615,300,1680649691406422615,camera_1,596,0,0.33208821875731576,0.28986570818639223,3.7944897242579163,0.999608176230249,-0.023239588297240613,0.003924512281707677,-0.01510012426309884,0.0009661267140472771,0.0003368710006699838,5901.213180257127
1680649691436420679,301,1680649691436420679,camera_1,598,0,0.3320933465155778,0.2898624923553159,3.7944672549673073,0.9995685354259441,-0.023167049555057762,0.0056358821259723385,-0.017154230790351412,0.0010388883856649045,0.0003622590425849089,5900.751917435438
1680649691466440677,302,1680649691466440677,camera_1,600,0,0.3319863294122071,0.2897880319585903,3.7932887280021013,-0.9995922935862395,0.023257169748335183,-0.0025754559588089085,0.016362080702115596,0.00028844279586337507,0.00010051848163114704,5902.505114609491
1680649691486406087,303,1680649691486406087,camera_1,602,0,0.33193052024944797,0.28971399460691805,3.792338878452076,0.9995408347628889,-0.023086187615913065,0.0037323660567592,-0.01926699318753329,0.0012926133385917637,0.00045022576975317364,5903.532707036009
1680649691516378402,304,1680649691516378402,camera_1,604,0,0.33197606220165266,0.28977395031188663,3.793026367380802,0.9996025115908758,-0.023212419581714345,0.0008989480440625369,-0.015974801744925035,0.0004745143414766062,0.00016533628567588353,5902.115957298024
1680649691546377420,305,1680649691546377420,camera_1,606,0,0.3320131659685482,0.28978586799806105,3.793306551817179,0.9995957454883723,-0.023382348522228542,0.002331509373700356,-0.01600548166007626,0.0005255133510218002,0.00018313380830556065,5902.548725071598
1680649691586251497,306,1680649691586251497,camera_1,608,0,0.3320925715557704,0.2898687626931417,3.7943319350133926,0.9995691513312621,-0.0230347586808166,0.004640681865002036,-0.01758907818064358,0.0015184917792794295,0.0005294273960901528,5899.864651313514
1680649691616277933,307,1680649691616277933,camera_1,610,0,0.3319704563998872,0.2897885349702534,3.793176547733671,-0.9995465898567206,0.0232531018646093,-0.0038344379297377677,0.01874046544881608,0.00022323562370729633,7.779003860099676e-05,5901.594650537008
1680649691656443834,308,1680649691656443834,camera_1,612,0,0.3320704211315334,0.2898496379733595,3.7941248851262253,0.9996011491724025,-0.023183022430950155,0.0032822030332579992,-0.015789781107632416,0.0007196783335530199,0.0002508967227133932,5901.090931743323
1680649691686407089,309,1680649691686407089,camera_1,614,0,0.3319936044152586,0.28979531537161524,3.7933524260453693,-0.9995802821971885,0.023325409485257943,-0.0017447747003976194,0.017092117369681734,0.0004530238948063925,0.00015788117079454676,5900.817873328924
1680649691716463088,310,1680649691716463088,camera_1,616,0,0.33202306387720526,0.289792660691012,3.7935344817497225,0.9995936351902557,-0.02335785661161436,0.002295542371561133,-0.016177314575103293,0.0008761045464780182,0.00030533353753080705,5901.663284807002
1680649691746426582,311,1680649691746426582,camera_1,618,0,0.33204198668484436,0.2898460193805692,3.7938020918667004,0.9996050327385686,-0.023208827021414753,0.002200251223777994,-0.015693558123234502,0.001237642911291914,0.0004313822404723341,5901.192469023457
1680649691766471862,312,1680649691766471862,camera_1,620,0,0.3320489147781672,0.2898217535733606,3.7937053289307476,0.9995988080494546,-0.02324562737012258,0.002005939813974749,-0.016057395795766496,0.00045355768088484183,0.00015808863788870068,5900.951756711354
1680649691806352376,313,1680649691806352376,camera_1,622,0,0.3320344872100561,0.28983452438761503,3.7936512502647517,-0.9995762473869066,0.02320306013493443,-0.002405768238649808,0.01741137385349245,0.00031928964381222613,0.00011128971247712676,5900.15064689261
1680649691836382389,314,1680649691836382389,camera_1,624,0,0.3319942792322729,0.2897916312772866,3.79325426978793,0.9996037272120644,-0.023268468203636004,0.0029764863584116545,-0.015559802703231648,0.001177256755909184,0.0004102223388696654,5903.7419307229
1680649691856423616,315,1680649691856423616,camera_1,626,0,0.3320259947420023,0.28980637195295195,3.7935911571683927,0.9996149023478991,-0.02306443086898539,0.0026451268766390494,-0.015201392584116695,0.0013989092913107015,0.0004875377316569731,5902.738135361868
1680649691876309156,316,1680649691876309156,camera_1,627,0,0.33199118257474075,0.2897824451480981,3.793095624638805,0.9995579017099444,-0.0230091408919673,0.0026344558121055815,-0.0186451121530821,0.0006554799074365292,0.00022839966034548335,5900.832752112067
1680649691896290779,317,1680649691896290779,camera_1,629,0,0.3320252625288927,0.28984136945871375,3.7936697802834853,0.9995620594949195,-0.023155267886318946,0.003834294607119539,-0.018022790357038906,0.0005404319599620067,0.00018836946177767873,5900.772581863801
1680649691926278591,318,1680649691926278591,camera_1,631,0,0.3320701038000199,0.2898674326801046,3.7940905644326546,-0.9996066668298801,0.023172917872971134,-0.002473529497653015,0.015601575508060931,0.00025979499696404673,9.05723913535677e-05,5900.624674329131
1680649691956413984,319,1680649691956413984,camera_1,633,0,0.33191525611714456,0.2897043138965054,3.7921945818115654,-0.9995770750243766,0.023253525144129178,-0.0018468466955706018,0.017364728945945557,0.00042826727803912945,0.0001491538078923637,5904.21615783591
1680649691976430654,320,1680649691976430654,camera_1,635,0,0.3320590791854696,0.28982980214561416,3.7939181463883966,0.9996104527617732,-0.023281954818986546,0.0014189314611788597,-0.0153257933797188,0.0006322240842564497,0.00022038713204384776,5900.46372864442
1680649692006467103,321,1680649692006467103,camera_1,637,0,0.33191415251331025,0.2897262261121224,3.7923094125587764,0.9995650515843522,-0.023220661527394253,0.0015280738581821786,-0.018115560153790733,0.0004830963662243448,0.00016826059259356262,5902.808991184925
1680649692036368608,322,1680649692036368608,camera_1,639,0,0.3319855657765945,0.2897484287527203,3.7928636262831645,0.9995682345619471,-0.023159744293100786,0.004848839175909976,-0.017420087762030887,0.0008436798561888281,0.00029394537920539266,5904.756233696301
1680649692066259860,323,1680649692066259860,camera_1,641,0,0.33195553645916653,0.2897412153993964,3.7925748673808415,0.9995325893760729,-0.023114505465138335,0.003527132764159549,-0.019694713674715206,0.000608138525421964,0.00021185079723561956,5902.151068258336
1680649692086373090,324,1680649692086373090,camera_1,643,0,0.3319780259920669,0.28974802533451516,3.7928065604518144,0.9995732014604533,-0.023151568179585275,0.0030692616249998203,-0.017549912991334612,0.0015024984168121591,0.0005234719709541143,5903.237691770426
1680649692126392126,325,1680649692126392126,camera_1,645,0,0.3319624099491059,0.28976304032068595,3.792749310270668,-0.9995672077434667,0.023433838804516553,-0.0018505744399223215,0.017686938035048852,0.0002612944372231141,9.103073848169833e-05,5902.163594002895
1680649692146384954,326,1680649692146384954,camera_1,647,0,0.33195702171856933,0.2897654581495459,3.7928333214724304,-0.9995768977908167,0.023176130863401104,-0.0017857537796629095,0.01748437715585352,0.00038929608126636595,0.00013562725801523438,5902.061109385684
1680649692176353454,327,1680649692176353454,camera_1,649,0,0.3320081875632717,0.2897829564971462,3.7932421195065897,0.9995814656162915,-0.02309238741080939,0.0024305974302504525,-0.017254780096770794,0.0007530447946919594,0.000262410893756531,5901.6066225997065
1680649692196364641,328,1680649692196364641,camera_1,651,0,0.3319720880436617,0.2897372185927119,3.792669488877941,0.99959329012766,-0.023162131482785148,0.002886164352402853,-0.016384140266274758,0.0005577276933763641,0.00019428958725460377,5904.646673137904
1680649692226377248,329,1680649692226377248,camera_1,653,0,0.3319747377407396,0.28975089977602475,3.792759018598436,-0.9995827018259339,0.023299208173044494,-0.002449694609855054,0.016898760463229485,0.0002747236030700151,9.570914240152796e-05,5903.466093269294
1680649692256376504,330,1680649692256376504,camera_1,655,0,0.33199117412984924,0.2898122107564144,3.7932977265512706,-0.9995497859994441,0.023116939137355928,-0.003670163038675251,0.018771316859904238,0.00012078587315045297,4.209278832026911e-05,5901.013533826859
1680649692286388397,331,1680649692286388397,camera_1,657,0,0.3320642300200217,0.2898514651809836,3.793964607766168,0.9996018864238808,-0.023309513146943267,0.00348528577674272,-0.015510900609756743,0.0009431230500922538,0.00032876047681279095,5902.018909027274
1680649692306394577,332,1680649692306394577,camera_1,659,0,0.33201282051714603,0.2898073593815956,3.7933755512194858,0.9995461755645975,-0.023061409169355476,0.004951179286964289,-0.018737666476346275,0.0010940694774035364,0.0003812860794123089,5901.91879923438
1680649692336342334,333,1680649692336342334,camera_1,661,0,0.3320380116335902,0.2898365656001818,3.7937130949357694,0.999580810675482,-0.02317683027060551,0.001773875916090404,-0.01725951425122009,0.0006435066243284382,0.00022429165231953703,5899.533753115858
1680649692366453647,334,1680649692366453647,camera_1,663,0,0.3320119287215301,0.28980920485575723,3.7933527533833002,0.9995455005662534,-0.023176057070910094,0.0033447118373668597,-0.018986194435147177,0.0008865023155522067,0.0003089389201350422,5900.324092117139
1680649692396395683,335,1680649692396395683,camera_1,665,0,0.33201083217819854,0.2897931668295002,3.7931028953956254,0.9995625979996532,-0.023035503300451367,0.003577191910850507,-0.018198405587073713,0.0008553265397495124,0.00029803667848972285,5902.08766434918
1680649692426363468,336,1680649692426363468,camera_1,667,0,0.3320560071681756,0.2898270035495787,3.7938417497855985,0.9995954047086695,-0.023258003448616546,0.002861289277039915,-0.0161215751267731,0.0013741912916884758,0.000479012605444301,5901.262091902901
1680649692456384658,337,1680649692456384658,camera_1,669,0,0.3320177324929394,0.2897772371744082,3.7931557807985303,-0.9995873404409222,0.023277150898179392,-0.002815714536311234,0.016595024192732344,0.00015730405721114948,5.4814447885367175e-05,5902.855555125514
1680649692486364126,338,1680649692486364126,camera_1,671,0,0.33207588742535915,0.28984609802291206,3.793861571438885,-0.9996079604994593,0.023427834019229477,-0.0020614894198781046,0.015192503435926001,0.00019016661099158227,6.629196465127498e-05,5901.319834818596
1680649692516469240,339,1680649692516469240,camera_1,673,0,0.33203217614040825,0.289833034774842,3.7936252182966976,0.9995986118763894,-0.023251275962118904,0.0038130721658229476,-0.015730663736386048,0.0005081863382656593,0.00017712289389709162,5903.150849764585
1680649692536361455,340,1680649692536361455,camera_1,675,0,0.3320056669522653,0.28979722075873227,3.7933541527264607,0.9995822692701702,-0.023277924614656418,0.003991239212625772,-0.016658187052586516,0.001356829860014841,0.0004728192515206753,5903.267976292873
1680649692566344261,341,1680649692566344261,camera_1,677,0,0.3320844308174672,0.2898094194489174,3.7942631358409313,0.999607831884046,-0.023202525792371455,0.0033590378758273786,-0.015314767300876915,0.0004317640014050994,0.00015053594802505815,5901.215953728533
1680649692586270809,342,1680649692586270809,camera_1,679,0,0.3320497784043356,0.28982534873134225,3.7937685310525033,0.9995855318805724,-0.02330085429763454,0.0039862022139475015,-0.016429998050613834,0.0014546767415595239,0.0005070251657683125,5902.192497352605
1680649692616293668,343,1680649692616293668,camera_1,681,0,0.33198440906056986,0.28974214737488757,3.7931306917798646,0.9995904503499107,-0.023193676214717386,0.003117718427574449,-0.016470117932672418,0.0012974801393283997,0.0004520814962192862,5903.3978597206315
1680649692646346569,344,1680649692646346569,camera_1,683,0,0.3320912855510048,0.2898251951216332,3.7943432537133477,0.9995912461846065,-0.02310530889861079,0.004858546000932997,-0.01612078728108498,0.0014988750699558295,0.0005225926356599009,5901.503430728918
1680649692666403770,345,1680649692666403770,camera_1,685,0,0.3320328225709102,0.28979131327876495,3.7937796515814215,0.9995886940431664,-0.023267380943128715,0.0033660321282149397,-0.01642381054555781,0.0005156450242793653,0.00017973400992951467,5901.654910602433
1680649692696501731,346,1680649692696501731,camera_1,687,0,0.3319739538365254,0.2897293753883977,3.7929819096984883,-0.9995511963812775,0.023217293373722428,-0.005252483413910079,0.018187207568555717,0.00034073027563863434,0.00011872170283765342,5904.002627282407
1680649692716498851,347,1680649692716498851,camera_1,689,0,0.33200226405877903,0.28971500878282186,3.7931920122284204,-0.9995750042574558,0.023274378469265125,-0.004238280038049904,0.017033823789617535,0.00026872355374507606,9.364283275905462e-05,5903.645084227437
1680649692746385335,348,1680649692746385335,camera_1,691,0,0.33201824354145837,0.28969859611412774,3.7935195435739173,0.9996039547155692,-0.02342288926859716,0.0023170413909015027,-0.015425086531301346,0.0005772391159553081,0.00020117607463741893,5902.522482401688
1680649692766282558,349,1680649692766282558,camera_1,693,0,0.33195158813927744,0.2896685141379534,3.7928034917143525,0.9996015288152247,-0.023413035806454104,0.0025581726725785237,-0.015558569894711114,0.0006091690775065217,0.00021222466823996323,5904.830625068516
1680649692796328544,350,1680649692796328544,camera_1,695,0,0.3320487345908944,0.28967244416567817,3.7937907374373627,0.9995908389576432,-0.02332287408788631,0.005589961639252246,-0.015586870920981726,0.0007383237170870416,0.0002573673632047307,5904.4249974914765
1680649692826292276,351,1680649692826292276,camera_1,697,0,0.3319537967868703,0.28961307698367056,3.7927013115514017,-0.9996083770370786,0.023564162600403487,-0.000903742988355072,0.015066719843763916,0.0001397869345964864,4.869817963097075e-05,5904.090435181044
1680649692846428155,352,1680649692846428155,camera_1,699,0,0.3320235369723801,0.28966062213613897,3.7935641433381715,-0.999625931932221,0.02351447020738342,-0.0009022159322721671,0.013937428238960846,0.00012320960013312288,4.294272855267735e-05,5902.477593688762
1680649692876231670,353,1680649692876231670,camera_1,701,0,0.33199239640369477,0.2896494683515843,3.793213432322921,-0.9996114111902236,0.023405168701750446,-0.0014561913168912198,0.015069976880575469,7.926059333840385e-05,2.761987603111381e-05,5903.023437605707
1680649692906243562,354,1680649692906243562,camera_1,703,0,0.33200040312823087,0.28966365003897104,3.793322480646106,0.999602691467796,-0.02331455607394652,0.0026942083883829296,-0.015608713161981543,0.0007320210024772678,0.0002550905193776096,5903.318305619005
1680649692926343679,355,1680649692926343679,camera_1,705,0,0.33199344081100085,0.28965394315669996,3.792992078860584,0.9995933114494321,-0.023389251251267024,0.00300766622372016,-0.016034605556435492,0.00036175790592096746,0.00012604623417886696,5904.179361304732
1680649692956423997,356,1680649692956423997,camera_1,707,0,0.33201280088038876,0.2897106740893419,3.793343058272996,0.9996162135228509,-0.02334671271574251,0.0018815602351188682,-0.014792443972805493,0.0003579316398827359,0.00012473683281528718,5903.233731896267
1680649692976380825,357,1680649692976380825,camera_1,709,0,0.33202587738567835,0.2897443009755542,3.7936325698399216,0.9996025990250555,-0.023421256827588235,0.002909663236066839,-0.015415012514526991,0.0003936034263460897,0.0001371892437062002,5902.695168415378
1680649693006356477,358,1680649693006356477,camera_1,711,0,0.3320336734997305,0.2897906167511304,3.793715638606686,-0.9995884652636204,0.023307237883019884,-0.002613356215395895,0.016517964265480984,0.000324655236909166,0.00011315973905349754,5901.070217784845
1680649693026234626,359,1680649693026234626,camera_1,713,0,0.33208931847738515,0.2898292480228044,3.7942762374743624,0.9996119696646644,-0.023521592397156274,0.001801467135313518,-0.014812140641814235,0.001228446519235149,0.00042830112347507957,5900.221629943522
1680649693056256055,360,1680649693056256055,camera_1,715,0,0.33190359585855933,0.28970203566746106,3.792292810015,0.9996053998404623,-0.02333189555948126,0.0009761511762337964,-0.015611354466287712,0.0005439271662908141,0.0001894431646739803,5904.84650023334
1680649693076259374,361,1680649693076259374,camera_1,717,0,0.33205453734663387,0.2898404460261198,3.793904733997713,0.9996218063742964,-0.023329973293579314,0.0008464857602967035,-0.014534098835744797,0.00042661852785386145,0.00014871354003750711,5900.705569008305
1680649693106349706,362,1680649693106349706,camera_1,719,0,0.3319757239840453,0.28976113701085027,3.7928667652787458,0.9995679714510887,-0.02319703712055,0.003318286982678494,-0.017741389164442234,0.0006464185025834013,0.0002252179241741721,5903.083894083683
1680649693126462936,363,1680649693126462936,camera_1,721,0,0.33208326981212827,0.2898778269348679,3.7942174489555334,0.9995850562598406,-0.02318987306037326,0.0037046139957560976,-0.016679955773255647,0.0006932905125722755,0.00024171165227952792,5900.291981944347
1680649693156290054,364,1680649693156290054,camera_1,723,0,0.3320679605995503,0.2898104662607396,3.7938046143865174,0.9995649268514502,-0.023250917557541488,0.004183829483258348,-0.017659201908429872,0.0006161938872537576,0.0002147939800444176,5901.020868273453
1680649693176433324,365,1680649693176433324,camera_1,725,0,0.33196630125435145,0.2897535091166474,3.792679195175655,0.9995280425543358,-0.022967304694268827,0.004254015642717368,-0.019952403702060126,0.0007034883346932475,0.0002450854024916052,5902.185843805375
1680649693206347227,366,1680649693206347227,camera_1,727,0,0.33198756464605544,0.28977158263914077,3.7932696663018093,0.9995864937336149,-0.023182183974767134,0.0025252532922716343,-0.016824119213438803,0.0015135027824726421,0.0005273862131385112,5902.0794813052635
1680649693226277828,367,1680649693226277828,camera_1,729,0,0.33210386847846174,0.28987271987152186,3.794295400108345,0.9996129195990029,-0.02319333067634839,0.002382478307176141,-0.015179070459385213,0.0007550406298832968,0.00026324872831414277,5900.299878261694
1680649693256211519,368,1680649693256211519,camera_1,731,0,0.33197961553860905,0.28979672684434266,3.7931550250294754,-0.9996046896114306,0.023415439483632807,-0.0013852051186453308,0.015500416362252347,0.0001791548274923116,6.242835177069214e-05,5902.634164880263
1680649693286252737,369,1680649693286252737,camera_1,733,0,0.33198752983880964,0.28978446752061,3.7931225215407767,0.9995864559359744,-0.023271197138410058,0.0015439497274324827,-0.01682214945667968,0.0005189505500311498,0.00018082864765205868,5901.592866432271
1680649693306236743,370,1680649693306236743,camera_1,735,0,0.3320894515515682,0.28988300617086593,3.794345531923576,0.9995519362358742,-0.023159120225958504,0.005251033419728519,-0.01822110220319434,0.0006536107684951276,0.000227898078457792,5899.698517717539
1680649693336219549,371,1680649693336219549,camera_1,737,0,0.3321125752633747,0.2898895235362496,3.7944814306725827,0.9996023146723494,-0.0233058987958731,0.0015880217880398443,-0.0157963847066034,0.0004412683774717152,0.0001538711648510252,5898.4026055723625
1680649693356257200,372,1680649693356257200,camera_1,739,0,0.33207800603713566,0.2898856568995703,3.794253397612449,0.9995973618347409,-0.023203444207780078,0.0028580896363684426,-0.016079356751841984,0.0005375837426981889,0.0001874309356792504,5900.014866801386
1680649693386277914,373,1680649693386277914,camera_1,741,0,0.3320497913362726,0.2898666510489678,3.7940513447222433,0.999579007060759,-0.023306068196201898,0.004087961231305748,-0.016790604564234566,0.0005114152336318512,0.0001782894867586204,5901.060016098202
1680649693406270265,374,1680649693406270265,camera_1,743,0,0.3319856631428814,0.2898050432170538,3.793329584585555,0.9995582717041288,-0.023104590212666948,0.004226593999783895,-0.01820920871759465,0.0005617495226033498,0.0001957615755303277,5902.003509738427
1680649693436231851,375,1680649693436231851,camera_1,745,0,0.33204144905434746,0.28983499767761234,3.7937347953470226,0.9995728875975587,-0.023125541836819866,0.004578743441864297,-0.017270981533351007,0.0008651851167087443,0.0003015704292527343,5901.974530553622
1680649693456194877,376,1680649693456194877,camera_1,747,0,0.3320713060884263,0.2898665140356681,3.7939650293499247,0.9995846538350976,-0.023251239301649115,0.0037419059831159856,-0.016610172422918724,0.0006534251660923474,0.00022778583905738148,5901.160488328664
1680649693486216545,377,1680649693486216545,camera_1,749,0,0.3319959689524879,0.28979194050708085,3.7930813050622274,0.9995873953878351,-0.0232329217506171,0.002943459595629782,-0.016631487435060023,0.0003382350114407018,0.00011785587437568754,5903.17291376984
1680649693506255865,378,1680649693506255865,camera_1,751,0,0.33202018431072455,0.28982403471339,3.7935002533358277,0.9995726860161717,-0.023182310764151223,0.0034651748950047315,-0.01746477600763907,0.0003251215966884047,0.00011331244849336876,5901.525161196945
1680649693536264419,379,1680649693536264419,camera_1,753,0,0.3321789912500019,0.2899505496914302,3.7951854475186204,0.9995937377919144,-0.023307543722200365,0.005051559049757195,-0.015607675163015682,0.0004304826761654113,0.00015016855117671156,5899.482430406209
1680649693556376934,380,1680649693556376934,camera_1,755,0,0.3320435270528295,0.28982991280295317,3.7936277900136277,0.9995446725453399,-0.023194380072761096,0.004792873662337627,-0.018694830336931926,0.0005339351992006414,0.00018610342077270237,5901.0295561245275
1680649693586629867,381,1680649693586629867,camera_1,757,0,0.3320670242261604,0.2898494573619111,3.793970963574585,0.9995859184755292,-0.023016543897415975,0.0033254077023121787,-0.016946148708909006,0.0003823479491984472,0.0001332872396916238,5900.452245792259
1680649693606577396,382,1680649693606577396,camera_1,759,0,0.3320146109551979,0.28980979998256123,3.793479675121368,0.9995788691993042,-0.023267581101718872,0.00214944102614301,-0.017207086423640605,0.0005009284541301895,0.0001745794108146829,5900.670777873023
1680649693636586666,383,1680649693636586666,camera_1,761,0,0.3319971928437454,0.2898207640631767,3.7934587948646215,-0.9995906870860727,0.023364300180573103,-0.0019180904485895571,0.016397825980786263,0.0005179286999918985,0.00018049916070633548,5901.331102173892
1680649693656376361,384,1680649693656376361,camera_1,763,0,0.33207404602784957,0.28986555074576636,3.794137922407146,-0.9995560805787481,0.023228272829398648,-0.004744854334028693,0.018043710171782183,0.00035582918280852027,0.00012406027230675505,5900.087362872612
1680649693686399936,385,1680649693686399936,camera_1,765,0,0.33203257645723666,0.2898146858822316,3.7936909907087517,0.9995941764404668,-0.02327097112971987,0.0037437010307170534,-0.015997782083078324,0.000305093388305977,0.00010634107119723205,5902.64895060612
1680649693716412067,386,1680649693716412067,camera_1,767,0,0.3321003388795438,0.2898743487695529,3.794382397495635,0.9995942797591326,-0.023105691255217685,0.003953246600220101,-0.016179454433247118,0.0010120334991370328,0.0003528608334237088,5900.496450976643
1680649693736411333,387,1680649693736411333,camera_1,769,0,0.3320188784399416,0.2898008438904487,3.793399385284157,0.9995739125703104,-0.02313767560892404,0.004131703283089425,-0.01730809938377188,0.000582129396207165,0.00020287163001080373,5902.587544105654
1680649693766414165,388,1680649693766414165,camera_1,771,0,0.33201152214793134,0.2898207306105719,3.793567765352247,0.9995600526247913,-0.023281254064424585,0.003967326900268448,-0.01794281815040688,0.00038048932037781924,0.00013261540292922733,5901.304059385091
1680649693786246061,389,1680649693786246061,camera_1,773,0,0.33197758012091544,0.28979370028109885,3.7929788012658463,0.9995645606441923,-0.02293066774382079,0.0033756674605188333,-0.018261392340162063,0.0007258009172801394,0.00025288310757663746,5902.248211472823
1680649693816408157,390,1680649693816408157,camera_1,775,0,0.3319949790891826,0.2898214209881377,3.7933590882932573,-0.999577804790134,0.023308786952257427,-0.0021573749945121823,0.01721215718275802,0.0002297347273270134,8.006076716835054e-05,5901.041214137859
1680649693846351385,391,1680649693846351385,camera_1,777,0,0.332113319913925,0.2899050145095806,3.7947946734343856,0.999610543629311,-0.023238095748459774,0.003636912241673699,-0.015017484491257652,0.0007346941638388671,0.00025622262655677127,5900.079539598314
1680649693866375207,392,1680649693866375207,camera_1,779,0,0.3320017222984809,0.289809866584401,3.793269228054299,-0.9996197759035181,0.02348529729955626,-0.0008726825158778696,0.014421610817737978,0.0002907482885348145,0.00010131843398726155,5902.795833522336
1680649693896379709,393,1680649693896379709,camera_1,781,0,0.33200507033584603,0.28977553555292307,3.7931573079406316,0.9995931959222246,-0.0231203636963218,0.0033636951523214557,-0.016357781129022003,0.0013533940727938898,0.0004715810874333278,5903.599570098391
1680649693926365613,394,1680649693926365613,camera_1,783,0,0.3319837607740637,0.2897689958369677,3.7930681482959367,0.9995812404564884,-0.023119828309185308,0.002999033755342105,-0.017141267833977358,0.0004074816679349169,0.00014198154713233622,5902.787667391826
1680649693956469535,395,1680649693956469535,camera_1,785,0,0.3319740459475728,0.2897756317721657,3.793061724232629,0.9995751722209821,-0.02312703231742941,0.0018617230499307013,-0.017639428643467153,0.0005478117127495352,0.00019087828729401446,5901.274257857933
1680649693976420640,396,1680649693976420640,camera_1,787,0,0.3320173151237933,0.2898131212864262,3.793567411393833,0.9995721872165071,-0.02302628147971417,0.005181956931475568,-0.017273685964080153,0.0005672009065165184,0.00019768456485674658,5903.022770155685
1680649694006429433,397,1680649694006429433,camera_1,789,0,0.3320393567898421,0.28983306463084824,3.793582967249735,0.9995684169573845,-0.02318692892418794,0.0030497157012944203,-0.017777665271750048,0.00038741509342798963,0.00013502997693510041,5900.564153716547
1680649694026349782,398,1680649694026349782,camera_1,791,0,0.331961068935305,0.2897763464054053,3.7927588509902925,0.9995817987790594,-0.023353647923907025,0.001881884803376406,-0.016949725303182693,0.0010123149004357401,0.0003526868902459736,5902.892294403166
1680649694056269168,399,1680649694056269168,camera_1,793,0,0.33205888326533306,0.28985273824946345,3.794050959629987,0.9995958511441106,-0.023370494143301706,0.004499395434242734,-0.015547019640606419,0.0006555863874382339,0.0002285449156972443,5902.628903916338
1680649694076269865,400,1680649694076269865,camera_1,795,0,0.3320744210159825,0.289864790978904,3.794105428374163,-0.9996074829491542,0.023441509433088994,-0.0028827202967294076,0.015068695738031747,0.0002267735471832566,7.90614617217151e-05,5901.460958317501
1680649694106454610,401,1680649694106454610,camera_1,797,0,0.331937466482193,0.2897415642256429,3.7925585401912985,0.9995823017881709,-0.023200034842931698,0.0029031477589834334,-0.01698682042756505,0.0013271482384880073,0.000462289633341719,5904.440898548057
1680649694136399984,402,1680649694136399984,camera_1,799,0,0.33190270105377384,0.28974623434165925,3.792458889360715,0.9995615332975951,-0.023063292773822075,0.0024809561887655664,-0.018403003411918136,0.00041089029400609434,0.00014312340447220512,5902.953612395853
1680649694166434288,403,1680649694166434288,camera_1,801,0,0.3319946328028854,0.28980312341188985,3.793198087864505,0.9995620612448955,-0.023247582349730563,0.0034500738209676356,-0.017981452259990188,0.00046169801498763263,0.00016088516845147373,5901.929970335334
1680649694196307897,404,1680649694196307897,camera_1,803,0,0.33194500990307524,0.28976078860388177,3.7927759417794498,0.999572335415422,-0.023136589000029004,0.003541526812011984,-0.017530034496337853,0.00037910434548393823,0.0001320742208208028,5903.800242223544
1680649694226336002,405,1680649694226336002,camera_1,805,0,0.33195123196183296,0.28974576381816963,3.7926110334177277,0.9995852417614912,-0.02306146833845094,0.0007243069521125284,-0.017233354581595375,0.0011702572846843395,0.00040766556169549267,5901.986717567431
1680649694256334304,406,1680649694256334304,camera_1,807,0,0.3320502668369706,0.28984998640022835,3.7940962208014666,0.9995984658179826,-0.023135256570792344,0.0037550173554563053,-0.015923783545352465,0.0012180609919596463,0.00042462746540980527,5901.493531474668
1680649694286240339,407,1680649694286240339,camera_1,809,0,0.3319806227213247,0.28976487497636044,3.793131327977529,0.9995539240673418,-0.023058736180781074,0.0024674025830081388,-0.018819125692161508,0.0005014868547732476,0.0001747427731294688,5900.4215299919
1680649694316369295,408,1680649694316369295,camera_1,811,0,0.33202957476482653,0.2898349417038101,3.7940389736676914,0.9996057915765251,-0.023231157109754316,0.0035343523830865644,-0.015364997209335669,0.0010247783793602139,0.0003572346936484026,5902.038836041699
1680649694336342573,409,1680649694336342573,camera_1,813,0,0.33191047706624266,0.289606151119283,3.7923986613778724,0.9995957874966781,-0.023262209319229774,0.0015706963421721503,-0.016268501759078943,0.00028207370633026585,9.825104536370417e-05,5904.5145231658225
1680649694366475820,410,1680649694366475820,camera_1,815,0,0.331965799258492,0.28968604705833023,3.7932398665997114,-0.9995919099118853,0.02335786164695889,-0.0021251132784996076,0.01630668058019712,0.00022402727699954994,7.806710893040979e-05,5902.389367617201
1680649694396429061,411,1680649694396429061,camera_1,817,0,0.33195821911611145,0.2896757008497495,3.792840005150801,0.999564692278287,-0.02308745386563311,0.0035779818525388924,-0.018016477748957455,0.0007281369253178127,0.0002536840971947418,5903.196551447036
1680649694416514873,412,1680649694416514873,camera_1,819,0,0.33205803867802436,0.28978004353277076,3.794246345542097,0.9996105101831076,-0.0232309017192527,0.003409584380367293,-0.015084027019696388,0.00033687963514239527,0.00011745292427215049,5901.582408424702
1680649694446467399,413,1680649694446467399,camera_1,821,0,0.3320254838529199,0.2897198144042741,3.7936690033773783,-0.9996058214154147,0.02338121396110543,-0.00274147001274505,0.015297220933507624,0.00023360133127425797,8.142154676615125e-05,5902.5639434190225
1680649694466397523,414,1680649694466397523,camera_1,823,0,0.33196393509512323,0.28967394932188373,3.793159573963525,0.9995976197195692,-0.023368049519141506,0.0025068084770462477,-0.01588234314897773,0.0005624194636766333,0.00019597222875937287,5903.402244963914
1680649694496418476,415,1680649694496418476,camera_1,825,0,0.3319655260264993,0.28964026255879227,3.7930077323955738,0.9995676228483865,-0.0231486704150078,0.004306194589807129,-0.017611447964264282,0.0012170710579084698,0.00042405290993077316,5903.773795722865
1680649694516367912,416,1680649694516367912,camera_1,827,0,0.33188237026826306,0.289546190489112,3.7921953996733855,0.9995997905686522,-0.02338840642734256,0.0014318028846933035,-0.015849008814291757,0.0008423178696830291,0.0002933473670181228,5905.474062625963
1680649694546453237,417,1680649694546453237,camera_1,829,0,0.33200111068025145,0.28968536554170027,3.793507536869428,0.9995832119066589,-0.02333190461343352,0.003547842166567788,-0.01662641023908457,0.0005014009984734003,0.00017474470762914084,5902.535336201252
1680649694576314926,418,1680649694576314926,camera_1,831,0,0.3320262027847138,0.2897113787583408,3.7937417685187302,0.9996064185165354,-0.02325030872653927,0.0033098278092570555,-0.015345235238946545,0.0007022324789431877,0.0002447686957807031,5902.822323281088
1680649694606256246,419,1680649694606256246,camera_1,833,0,0.33204678131063997,0.2897441794065938,3.7939970296341388,0.999614738516136,-0.023410105332451282,0.0016252802884622842,-0.014822279636572596,0.0005453819649119396,0.00019012055917309927,5900.977762241438
1680649694626239538,420,1680649694626239538,camera_1,835,0,0.3319760616914141,0.2897062440849004,3.793172336301453,0.9995522558222045,-0.023132624298828355,0.004875921926312527,-0.018341073010057725,0.0003957047920266632,0.00013789049992890654,5902.975015254284
1680649694666219711,421,1680649694666219711,camera_1,837,0,0.3319782560808111,0.2897651170355913,3.7936182156644085,0.9995996779317234,-0.023328018626481723,0.001635668647211946,-0.01592520059007075,0.0014338862711156253,0.0004997340648424321,5901.127165318583
1680649694696419000,422,1680649694696419000,camera_1,839,0,0.3320110852905088,0.2897831592739735,3.79359094474693,-0.9995966886911802,0.023341136216715203,-0.00282370792592433,0.015927271934938318,0.00011532260759850033,4.019516742580565e-05,5902.23480982776
1680649694726492643,423,1680649694726492643,camera_1,841,0,0.3318912091203378,0.28969143236065165,3.792333835986966,0.9995743620220068,-0.02319232839810007,0.0028342028209432254,-0.01746934418181477,0.0007402411174552981,0.00025781980626834506,5904.648409361896
1680649694756373643,424,1680649694756373643,camera_1,843,0,0.33203666182327823,0.28979024356495686,3.7937971558801826,0.9996405865938576,-0.02334484003896579,0.0007650222471412099,-0.013157918482988865,0.0006236607478058431,0.00021739103399509243,5902.265185192694
1680649694776433467,425,1680649694776433467,camera_1,845,0,0.3319621281857031,0.28975327410537927,3.793151883088938,-0.9996053361716764,0.02342535269183758,-0.001722254050674664,0.015409691410209555,0.0006042071763658896,0.0002105325381705505,5903.099226369873
1680649694806495904,426,1680649694806495904,camera_1,847,0,0.3319537864339544,0.2897294040570884,3.7929098337382086,-0.9995993268595857,0.023439038258780156,-0.001258010086391441,0.015818174293804367,0.00041052658707485534,0.00014302872081976926,5903.013616196519
1680649694836372852,427,1680649694836372852,camera_1,849,0,0.3320761467368135,0.289774873617215,3.7941193151633374,0.999589929493978,-0.023474254863135587,0.004348350261484011,-0.015812149216605047,0.0009156724881904665,0.0003192330824998052,5902.077530611887
1680649694856378793,428,1680649694856378793,camera_1,851,0,0.3319134055489924,0.28963203094467027,3.792387342355859,0.999566375792182,-0.02324427352527398,0.0032103866581548093,-0.017789253819930212,0.0008905312897695694,0.00031018605975538776,5904.523600146405
1680649694896340370,429,1680649694896340370,camera_1,853,0,0.3319981841073866,0.28963320338342335,3.7933262081864987,-0.9995796140431553,0.023376789300150424,-0.003415224765005773,0.016806461589451743,0.0001381961556035094,4.815986938220757e-05,5902.810703137367
1680649694926370143,430,1680649694926370143,camera_1,855,0,0.332066141931094,0.2897056527162195,3.7943438257906537,0.9996052668662139,-0.023460351333335655,0.003042502266810636,-0.015154720340476482,0.0003581340570235625,0.0001248693476210076,5900.944821204175
1680649694946357250,431,1680649694946357250,camera_1,857,0,0.33193982118772647,0.28953853419832665,3.792601477779542,0.9996099340408808,-0.02330393677576083,0.0014404780316691211,-0.015324207013018898,0.0007742996967863292,0.00026971801421475124,5904.719511966685
1680649694976367950,432,1680649694976367950,camera_1,859,0,0.3320233906131583,0.28962413430648454,3.793747802171128,0.9995814449792179,-0.023232955899369044,0.004040132874244337,-0.01675833941043572,0.001303559973166557,0.0004543661537934683,5902.15004777594
1680649694986334323,433,1680649694986334323,camera_1,860,0,0.33188944969541095,0.2895179758998331,3.792124209030098,0.999579234349874,-0.02328948399692944,0.00131289599461205,-0.017240374003601604,0.0006299212145677302,0.00021937731663818029,5904.214517484187
1680649695016375780,434,1680649695016375780,camera_1,862,0,0.33200039032026724,0.28957811353021967,3.7933319628504165,0.9996234068166645,-0.02345905840223407,0.002729592530829361,-0.013973777146556413,0.0008242570693255402,0.00028723039160441884,5904.920105292227
1680649695046351671,435,1680649695046351671,camera_1,864,0,0.3318916077473691,0.28943523310277613,3.792192278077359,0.9995824665164755,-0.02344572343065407,0.002242947880494058,-0.01673797689261622,0.00042797605419764295,0.0001490542398009138,5905.435310778443
1680649695066348314,436,1680649695066348314,camera_1,866,0,0.3318913738871485,0.289423065777297,3.7920656831437687,0.9996213220263542,-0.023500637209541174,0.0005325551182595928,-0.014305557873625993,0.0010634522477630526,0.00037033774732160476,5906.539865924802
1680649695076304912,437,1680649695076304912,camera_1,867,0,0.33196369092095057,0.2895302158911349,3.793037607186876,0.9995995922528251,-0.023499645271860558,0.0016510974411070634,-0.015674683962445424,0.0006432396039599553,0.00022413005684648074,5903.271494140733
1680649695106345415,438,1680649695106345415,camera_1,869,0,0.33187588508043325,0.28940940585760955,3.791947321124819,-0.9996070225350396,0.02361859963373349,0.0005081025183711203,0.015089866858426278,0.00013950496577308513,4.8581771275740304e-05,5905.163452122417
1680649695136355876,439,1680649695136355876,camera_1,871,0,0.3319955669236768,0.28950980969888873,3.79335001492376,0.9995998535949684,-0.023417157611096768,0.0031231016436439707,-0.015556852459875911,0.0003044968689209782,0.0001061151032320373,5903.785889459366
1680649695156449556,440,1680649695156449556,camera_1,873,0,0.3318960556403125,0.2893958769853483,3.792155116635427,0.9995620598133229,-0.023348490958137905,0.0031815249464247786,-0.0179001243219191,0.0004024456502520479,0.0001401604154780747,5905.258181299604
1680649695186372041,441,1680649695186372041,camera_1,875,0,0.3319400863658218,0.28935876384407144,3.7926537571650694,0.9995651496586992,-0.023568025383839463,0.0024648976299473926,-0.017549474264564366,0.0007028543914202601,0.00024484727531174456,5903.468630124351
1680649695216427087,442,1680649695216427087,camera_1,877,0,0.3319049900479081,0.28929773231688916,3.792116620322399,0.9996161271050135,-0.023666458310154292,4.0100989498932714e-05,-0.014404706680045674,0.0010556498527876101,0.00036765174410074855,5905.889679029348
1680649695236462116,443,1680649695236462116,camera_1,879,0,0.3319772529535475,0.28936986436427753,3.7929449301876863,0.9996146730611133,-0.02365409660003121,0.0028405429665381353,-0.014245014237105792,0.0006205532772582956,0.00021621134908194063,5906.085929289637
1680649695266328573,444,1680649695266328573,camera_1,881,0,0.33199583080785394,0.28934812997143744,3.79326465291281,0.999639645488894,-0.023473499425629086,0.0022780487951638423,-0.012821251313363828,0.000821424022433348,0.0002862326480678663,5905.914508707412
1680649695296376466,445,1680649695296376466,camera_1,883,0,0.3318616541934882,0.289215888642595,3.7915609993847297,0.9995594833560673,-0.023388153535644936,0.0023245258499316303,-0.018122640169642795,0.0013220836444816086,0.0004603090754639912,5906.177690813844
1680649695326324939,446,1680649695326324939,camera_1,885,0,0.33194118571111236,0.28923775444265915,3.792417510794273,0.9996116383680186,-0.02348669389594696,0.0019877971416671146,-0.014865944691377012,0.0012626983589143492,0.00043981936404003123,5906.417024507945
1680649695346345663,447,1680649695346345663,camera_1,887,0,0.3319651714521771,0.2892577637223152,3.792927409095835,0.9996236626422176,-0.02360098486123098,0.000612265223122435,-0.013969671815564794,0.00048484007493243553,0.00016892655243252989,5904.403546228075
1680649695376319646,448,1680649695376319646,camera_1,889,0,0.3319445845290033,0.28919518643998987,3.7925580703607897,0.9996020149407809,-0.023516706854464484,0.0017726147665610252,-0.015480118279313537,0.0003492787836876232,0.00012166740792100204,5905.243603858282
1680649695406348466,449,1680649695406348466,camera_1,891,0,0.3318578774674394,0.2891614515690848,3.791446475924468,0.9995897855072516,-0.023531358376847784,0.0017513110640557158,-0.016231721783722557,0.0008114025622489862,0.00028247774114187015,5907.913417645845
1680649695426381826,450,1680649695426381826,camera_1,893,0,0.3319026284775018,0.2891548684113903,3.7918859814334858,0.999592027818606,-0.02359589621995509,0.002086497376747352,-0.015958011522776518,0.0012089148549421225,0.0004209629527864278,5907.144415121471
1680649695456439495,451,1680649695456439495,camera_1,895,0,0.33204633138750844,0.289324249835409,3.793641843364162,0.9996206895339121,-0.023759112119529826,0.001506816034997473,-0.013845979650223989,0.0007861013473302592,0.0002739963645006665,5903.1145402693655
1680649695476415157,452,1680649695476415157,camera_1,897,0,0.3319130644534277,0.28919347731007156,3.7921886676596763,0.999584399534424,-0.023674202228093372,0.0019014883950843207,-0.016338442341670444,0.0005272901798889507,0.0001836389915275438,5905.669624532512
1680649695506404876,453,1680649695506404876,camera_1,899,0,0.3319774544968349,0.2892253695181519,3.792818592764324,0.9996023686557318,-0.023573457676003357,-0.0005454649532982319,-0.015462830886773336,0.0010578710716799833,0.00036855010165014114,5902.210065426769
1680649695526406049,454,1680649695526406049,camera_1,901,0,0.3318814717146224,0.28914053390162914,3.791684753653201,0.9995713314051865,-0.02338784495024355,0.0029325071628711432,-0.017365556230251218,0.0007348559811362065,0.00025587463153670293,5907.155844705527
1680649695556427955,455,1680649695556427955,camera_1,903,0,0.33185770891878863,0.28912457951611736,3.791292142627962,-0.9995844282991097,0.023595938600829612,0.00017606306608070217,0.016558121429824477,0.0004039444320369512,0.00014062556714751067,5906.226325801166
1680649695586249589,456,1680649695586249589,camera_1,905,0,0.3318935153862585,0.2891765788882617,3.7917700165187544,0.9995682714734139,-0.02340455184446295,0.001495550326101323,-0.017699179241810654,0.0003918810543837026,0.0001364518427958335,5905.206650787031
1680649695616296052,457,1680649695616296052,camera_1,907,0,0.33185969011245775,0.28912761684238697,3.791561346800668,0.9996026868985736,-0.023574774295663584,0.000987062459787089,-0.01541830307658404,0.0007499481325794477,0.00026110050703638635,5907.659345643595
1680649695636241197,458,1680649695636241197,camera_1,909,0,0.3319519223199455,0.28920213034544956,3.7925863467770466,0.9995997367186858,-0.023726424433789577,0.00125748565264672,-0.015357143788972604,0.0003608618462749291,0.00012570565389421361,5904.783390405471
1680649695666237115,459,1680649695666237115,camera_1,911,0,0.33186409232917813,0.289126300794583,3.7914366004820317,-0.9995976168824214,0.023712500210122715,-0.0009280464706233649,0.015538995672734344,0.00016214928837143816,5.6451004478775016e-05,5907.849697097439
1680649695686223268,460,1680649695686223268,camera_1,913,0,0.3318703694472261,0.2891212089813797,3.79159994910063,-0.9995768792280993,0.023371131514483664,-0.00030021574244765804,0.01731365342308107,0.0003380251946509816,0.00011769326357942348,5905.018868698387
1680649695716269969,461,1680649695716269969,camera_1,915,0,0.3319494789484603,0.2891892893160932,3.792385949847675,0.9995759007739963,-0.023552032054472254,0.0021608279610472615,-0.0169897380933811,0.0008419577534368727,0.00029327255611870005,5904.641236197205
1680649695746404647,462,1680649695746404647,camera_1,917,0,0.33197289231492794,0.28924066149425726,3.792995491261558,0.999635682419609,-0.023727598755547658,0.0008975215265923968,-0.01283346975248489,0.0006768971979909111,0.000235843753373512,5905.510630566508
1680649695766343593,463,1680649695766343593,camera_1,919,0,0.3318870918617776,0.28915683764138733,3.791628135047609,0.9995678130472397,-0.02338021474267172,0.002373739480293478,-0.01766120152834051,0.0006204087112564594,0.00021601678817375022,5906.498355429675
1680649695796364307,464,1680649695796364307,camera_1,921,0,0.3318754573356246,0.28916703508626984,3.791661239032645,0.9995887016002217,-0.02354686311098183,0.0024692493879166335,-0.016182573289675307,0.0004886202696070541,0.00017012911549366924,5907.962698452524
1680649695816417932,465,1680649695816417932,camera_1,923,0,0.33184123646237906,0.2891061720018827,3.7913886402946853,-0.9995861949802219,0.023487162744056274,-0.0005522559305967909,0.016597801197243342,0.0003052526190003846,0.0001062681672689287,5906.645450100535
1680649695846361398,466,1680649695846361398,camera_1,925,0,0.33189767264455156,0.28914861030220784,3.7918069512890065,0.9995997730758153,-0.023586082459175515,0.0019120103902004581,-0.015502728704184912,0.0006906439739395864,0.00024048359698416793,5907.66165042773
1680649695866375446,467,1680649695866375446,camera_1,927,0,0.33182587150699416,0.28910596192385507,3.7912360402965044,0.9995681170689479,-0.023525240381929803,0.0005105583039937474,-0.01760345802474342,0.0018125098031305242,0.0006309198788486839,5906.084184209819
1680649695896404504,468,1680649695896404504,camera_1,929,0,0.3318386400639317,0.28908904359132515,3.791131964049032,0.9995740512610637,-0.02351598851991108,-0.00021912978087614706,-0.01728196492344492,0.0003991876474174205,0.00013894821342582208,5905.994641784107
1680649695926350593,469,1680649695926350593,camera_1,931,0,0.33195977243844665,0.2891989626185408,3.7925064944057447,0.9996005465471961,-0.023559099096839977,0.0013509662128566322,-0.015552848053774925,0.0007173954654717818,0.00024989442447266266,5904.911020457161
1680649695946349620,470,1680649695946349620,camera_1,933,0,0.3318374536640032,0.2890773489435102,3.791259516793103,0.9995838799868743,-0.023412138823613884,0.0014652183205583994,-0.016786654263526348,0.0010480038945388515,0.00036480245393629075,5907.738171725768
1680649695976438522,471,1680649695976438522,camera_1,935,0,0.33193091403414243,0.2892226720863169,3.7923786125096153,0.9996108801310218,-0.023511641836686466,0.0004483663931218274,-0.01500299934695724,0.0013332549424376339,0.00046437148775707257,5904.973811175267
1680649695996408224,472,1680649695996408224,camera_1,937,0,0.3318530117803872,0.28914690041638735,3.7915868298502553,0.9995920376862674,-0.02336054932247275,0.0009010929925361706,-0.01640825892613173,0.0010125543813046534,0.00035252602879025076,5906.540219967486
1680649696026360034,473,1680649696026360034,camera_1,939,0,0.33179399505144724,0.28905993643368355,3.7907628616191893,0.9995857523499346,-0.023588134256267258,-0.00033747618461609256,-0.01648665312148938,0.0012229598978592549,0.0004256093682530759,5907.8326963327145
1680649696056406021,474,1680649696056406021,camera_1,941,0,0.3318217899799898,0.2891027374672839,3.791224359025887,0.9995751088186483,-0.023630736739871594,3.705105648579034e-05,-0.01706425323703107,0.0005976512511551846,0.00020803970832078574,5906.203338090969
1680649696066376686,475,1680649696066376686,camera_1,942,0,0.3319701765242977,0.2892222616377089,3.792714900911341,0.9996124412014497,-0.023766539404821686,0.0008196885486111759,-0.014472287679587921,0.001751700954628177,0.0006102339631100411,5904.790493825334
1680649696096354484,476,1680649696096354484,camera_1,944,0,0.3318575976579253,0.28912086350990174,3.7915556452494954,0.9995938324027349,-0.02353017861486894,0.0017067056851024526,-0.015987122082164962,0.0012208912849018816,0.0004250499234426781,5907.818176506552
1680649696116444587,477,1680649696116444587,camera_1,946,0,0.33192380436842495,0.28916319537539137,3.7922517572859267,0.9996074846560649,-0.02370742429638334,0.0005309060505981917,-0.014918203362735744,0.0018488375135348178,0.0006438977476896533,5905.562582114768
1680649696146286249,478,1680649696146286249,camera_1,948,0,0.3319390697105415,0.28921186338177846,3.7925186785641536,0.999594767787033,-0.02343068414810954,0.0034020363058428543,-0.015802828927530738,0.0009783897985471413,0.0003407954681652653,5906.535736874562
1680649696166254520,479,1680649696166254520,camera_1,950,0,0.33183762645336345,0.28910192240356847,3.791286630332071,-0.9995708047803972,0.023652206411366443,0.00010414528268076288,0.017284921645857643,9.43568920774851e-05,3.284769108747303e-05,5905.637144274369
1680649696206347703,480,1680649696206347703,camera_1,952,0,0.3318503359700029,0.2890554024864106,3.7912075188245753,0.999607219730589,-0.023508490908741787,-0.00046446365189811814,-0.015249307892224324,0.0017898719270306174,0.0006230502497929512,5907.521027220648
1680649696226251840,481,1680649696226251840,camera_1,954,0,0.33197431955334633,0.28922853322101727,3.7928410867483944,0.9995965433772546,-0.02351085863818061,0.0012224050415148818,-0.01589011391571533,0.0010154181836696807,0.0003537649109124212,5903.441430866893
1680649696256273269,482,1680649696256273269,camera_1,956,0,0.33182346691427345,0.28905271622865986,3.7911241048387296,0.9995899290280437,-0.023503604671033317,0.0008852086741413742,-0.016333118464696563,0.000607117955951253,0.0002113226112313172,5908.066854264649
1680649696286253929,483,1680649696286253929,camera_1,958,0,0.3318756537161545,0.28915752006907364,3.791904302201001,0.9996012816971114,-0.02353002890609223,0.0008270189329537832,-0.015586257050846243,0.0005181232154427562,0.00018042436363622865,5906.290706726427
