%time,field.header.seq,field.header.stamp,field.header.frame_id,field.image_seq,field.transforms0.fiducial_id,field.transforms0.transform.translation.x,field.transforms0.transform.translation.y,field.transforms0.transform.translation.z,field.transforms0.transform.rotation.x,field.transforms0.transform.rotation.y,field.transforms0.transform.rotation.z,field.transforms0.transform.rotation.w,field.transforms0.image_error,field.transforms0.object_error,field.transforms0.fiducial_area
1680648769273249626,0,1680648769273249626,camera_1,1,0,0.2626988903859639,0.3242319017188837,3.7959296990227944,0.9995368485374363,-0.022982680472923483,0.007740083959316715,-0.01838412125809639,0.0034671042849367954,0.0012084426285459346,5904.6321713286425
1680648769305828809,1,1680648769305828809,camera_1,3,0,0.2627392850876412,0.3242540679697614,3.7961202623110757,0.999572590260081,-0.02296595971899623,0.006375816687390011,-0.016927801289792585,0.004156326573138358,0.0014487763957732823,5904.367955978438
1680648769336112976,2,1680648769336112976,camera_1,5,0,0.26275062273566957,0.32426617716319106,3.796278178862293,0.9995651390829883,-0.02296272011031432,0.005471519591032258,-0.01767225759507164,0.006095525463024387,0.0021249370419146167,5902.379519581739
1680648769376509666,3,1680648769376509666,camera_1,7,0,0.2627269528066039,0.32423967937209486,3.795893050160376,0.9995317771266297,-0.022838151842865168,0.006897113745863761,-0.0191592055279028,0.006775303412723588,0.0023614391077676107,5903.228342395858
1680648769416325330,4,1680648769416325330,camera_1,9,0,0.2627694694814335,0.32429298289792075,3.796751161691618,0.9996041788620066,-0.02307804857138846,0.0054109078625,-0.01515293212066213,0.004755416597618023,0.0016580733026003143,5903.354610555398
1680648769446024894,5,1680648769446024894,camera_1,11,0,0.26269123922243065,0.32418992243202677,3.795333361683405,0.9995966928123937,-0.022994635052677667,0.004595157421144374,-0.01601820856382251,0.006220636576472316,0.0021674412585342183,5906.191000872057
1680648769485543012,6,1680648769485543012,camera_1,13,0,0.26273240090741895,0.3242463782014711,3.795831174402484,0.9996046480669449,-0.023159522608264507,0.004268075700066737,-0.015361237103013637,0.006185784706758568,0.0021558431936359256,5904.975938080232
1680648769506408691,7,1680648769506408691,camera_1,15,0,0.26270656520775065,0.3241947295059554,3.7955766890967277,0.9995875927052462,-0.02290660657229868,0.004606261327931892,-0.016694736944663925,0.004908781098492909,0.001710489459638007,5904.7994500345085
1680648769546064376,8,1680648769546064376,camera_1,17,0,0.2627600847017797,0.3242720032295657,3.7962450863958908,0.9995907211638497,-0.023100516803921525,0.005203003330446113,-0.016052571223021415,0.00595306305331178,0.0020751163894619008,5903.8439981986285
1680648769576173305,9,1680648769576173305,camera_1,19,0,0.2627061222546349,0.3242464466133168,3.79585799356099,0.9995886250176862,-0.023079046432170146,0.005016102688230944,-0.01627197175682013,0.004189915460301563,0.0014602464992164437,5904.695226641836
1680648769606038808,10,1680648769606038808,camera_1,21,0,0.2626751856025341,0.3241702406243948,3.795011146691568,0.9995774716836242,-0.023072533148775543,0.004697552080849127,-0.017043160537880596,0.007915719244920183,0.0027576457792181305,5906.264760474674
1680648769636260271,11,1680648769636260271,camera_1,23,0,0.26272642051026407,0.3242390137989757,3.795952288579205,0.9996098066524544,-0.023165840238496997,0.003780557453931527,-0.015142181996818316,0.006348039129079552,0.0022124474839503344,5904.413086029177
1680648769666391849,12,1680648769666391849,camera_1,25,0,0.2626903043158827,0.3242252392578715,3.7956130288009295,0.999554912575106,-0.023170549023085015,0.006031342791909744,-0.017796778053004912,0.004820694441150408,0.001679902146489939,5904.80259181117
1680648769686219453,13,1680648769686219453,camera_1,27,0,0.26269704412523615,0.324202347361236,3.7954212077082987,0.9995718997285504,-0.022845180654470956,0.005641085406604628,-0.017386579576114322,0.005002010933822021,0.0017428967568731695,5905.458918721936
1680648769716352701,14,1680648769716352701,camera_1,29,0,0.26273342113164455,0.324261895434806,3.796002579819518,0.9995472572948221,-0.02295555413202855,0.004397922375033872,-0.018946800460064216,0.00503904310244252,0.0017563175890589924,5900.997777555544
1680648769746366024,15,1680648769746366024,camera_1,31,0,0.2626865509098008,0.32419194584173905,3.795364663261692,0.9995846094375637,-0.023044329155944485,0.0029888730132914486,-0.01704799423440934,0.0049728715857781935,0.0017325971220813596,5903.676294051169
1680648769766257762,16,1680648769766257762,camera_1,33,0,0.2627031237026576,0.3242338004322799,3.795773738832711,0.999597952829372,-0.023080836723123995,0.004631425770664487,-0.01580372015761002,0.0034173485801147763,0.0011909249642239562,5905.08036411606
1680648769796232938,17,1680648769796232938,camera_1,35,0,0.2627106707620044,0.32423076720095656,3.7957918202246477,0.9995905247962839,-0.02302669243225507,0.004852705394499315,-0.016278987175941534,0.0038750036401324905,0.0013504364117053308,5904.749654792483
1680648769826274633,18,1680648769826274633,camera_1,37,0,0.2627337866884722,0.3242438914436262,3.796202866803449,0.9995963853561926,-0.023142096883442785,0.004342910127676815,-0.015894932094684892,0.0031761386344442144,0.0011071189021344035,5903.426079094877
1680648769855601310,19,1680648769855601310,camera_1,39,0,0.2627215272778382,0.3242576544222122,3.7959619799988555,0.9995987659744405,-0.023125736487816746,0.004721309290751421,-0.0156593937575098,0.004548235236143228,0.0015851455450270305,5904.705941034192
1680648769876171588,20,1680648769876171588,camera_1,41,0,0.26272086326489624,0.3242117214472875,3.7956277100042817,0.999582960676981,-0.023080118489857446,0.0044399788740562855,-0.016777945116524917,0.007302742393221706,0.0025449178468407033,5904.390553633217
1680648769903517961,21,1680648769903517961,camera_1,43,0,0.2627671199222481,0.32420642292720736,3.7958739037466187,0.999618185603003,-0.023114997942907185,0.004109327799001431,-0.014570288497487675,0.006872858855786035,0.002395215323015761,5905.451121016406
1680648769935708761,22,1680648769935708761,camera_1,45,0,0.2626661556095953,0.3242026565477555,3.7951676436988695,0.9995698538834565,-0.023121969399966583,0.0047033234968416595,-0.01741724681333605,0.006009911929140799,0.0020938573147749506,5905.419553036456
1680648769956474065,23,1680648769956474065,camera_1,47,0,0.26270778193264077,0.32420853522413073,3.795809315220085,0.9995728954419574,-0.02303401249412381,0.005879604834968557,-0.016996800086701274,0.0032778681779745966,0.0011423661178907728,5904.88080728712
1680648769986595153,24,1680648769986595153,camera_1,49,0,0.2626885783005569,0.3241747193594847,3.7953530475646082,0.9995785298709353,-0.023056292573778513,0.005501020689049712,-0.016760333087102484,0.005766395104728872,0.002009196222814299,5906.198629544523
1680648770016138315,25,1680648770016138315,camera_1,51,0,0.2626763658153929,0.32418267369575504,3.7953169119526375,0.9995891460188303,-0.02311934390317255,0.006209397243936299,-0.015763200331772597,0.00475870549416868,0.0016580491984262322,5907.879406657651
1680648770046049594,26,1680648770046049594,camera_1,53,0,0.26270116663933674,0.32423492202955995,3.7957341633399295,0.9995563430304271,-0.02278924800505271,0.007013381395612186,-0.017848802884312828,0.005955558975983877,0.0020755415198273086,5905.170145084845
1680648770076254606,27,1680648770076254606,camera_1,55,0,0.2626940010239513,0.3242224535117668,3.79565125950782,0.9995590427760139,-0.02306656515075028,0.00592994806993787,-0.017733845965634838,0.003229654237657087,0.0011254632244433137,5904.662441178164
1680648770096314191,28,1680648770096314191,camera_1,57,0,0.2626448076402364,0.32418504582004654,3.7949543462350612,0.99955722109539,-0.023074097401067067,0.005048273442796621,-0.018095931046360928,0.0044956245001230855,0.0015661090514802922,5905.698135837447
1680648770126314401,29,1680648770126314401,camera_1,59,0,0.2627112020966402,0.32422761094757757,3.795674360716609,0.999586898606641,-0.023174738358552764,0.003482192985375055,-0.016638448484827727,0.004214320928440429,0.0014686177665205206,5903.546950525953
1680648770156511068,30,1680648770156511068,camera_1,61,0,0.262699880327226,0.3242634884899704,3.7958653298240543,0.999578672041979,-0.02285721863337466,0.006149980056708025,-0.01679891962127091,0.0035435989157122094,0.0012350097537520994,5905.102001957068
1680648770186186552,31,1680648770186186552,camera_1,63,0,0.2626430453826818,0.3241827806695129,3.7948517579897563,0.9995828990425851,-0.022912189668376878,0.0035222443338017956,-0.017223626246367425,0.004910366602416616,0.0017104152758852778,5905.552764867082
1680648770206479787,32,1680648770206479787,camera_1,65,0,0.26270592757655226,0.32425104287080775,3.7958531379261067,0.9995534269033625,-0.02287468179661157,0.006975400296813436,-0.0179175748679159,0.004537163495115237,0.0015812905404283958,5904.701628096516
1680648770235894203,33,1680648770235894203,camera_1,67,0,0.26272124749687786,0.3242631655563568,3.795809661980381,0.9995581125264275,-0.022866517160046645,0.00609555425320078,-0.017987392638223628,0.00427664697781438,0.0014904523325148657,5904.009489390883
1680648770265708684,34,1680648770265708684,camera_1,69,0,0.2627196069911216,0.32431562294241606,3.7960780900532125,0.9995540805428267,-0.02299675728614319,0.006111897235513353,-0.018039787601004848,0.0037517547061725054,0.00130774156362704,5903.136059957556
1680648770295958280,35,1680648770295958280,camera_1,71,0,0.26267628385557257,0.32423350840439324,3.7953033459547547,0.9995785467594029,-0.022987575346611472,0.006193222652314992,-0.01661156919808837,0.005437514093500795,0.0018944878751010735,5907.047037665792
1680648770326415061,36,1680648770326415061,camera_1,73,0,0.26266802315303417,0.3242130764483065,3.795058250910702,0.999518030852528,-0.022929566004688658,0.0074404337283251335,-0.019559676619410122,0.004897174621874001,0.001706168788243262,5905.805017465319
1680648770346354484,37,1680648770346354484,camera_1,75,0,0.26270855961404194,0.32430768247301384,3.795714257724401,0.999594999133409,-0.023061491527086316,0.0063535414856743695,-0.01541550604476967,0.005521455801499542,0.001924212593736385,5907.024752170954
1680648770376286745,38,1680648770376286745,camera_1,77,0,0.2627119887901325,0.3242677875664619,3.795510339726106,0.9996056876292301,-0.023105777817772698,0.004205127734280448,-0.015391854711777522,0.006107742145104567,0.0021283030272580584,5905.84935229557
1680648770406571865,39,1680648770406571865,camera_1,79,0,0.26275240553796964,0.3243079853142763,3.7962819004543387,0.9996426559591081,-0.023141172363933295,0.003294815946469779,-0.01296883635960224,0.005217688074480975,0.0018187845662575304,5904.92660732806
1680648770436408758,40,1680648770436408758,camera_1,81,0,0.26269954091733316,0.32424381947215686,3.7953911682571935,0.9995892469424984,-0.022983708029618827,0.0052728587318444245,-0.016287526605732187,0.006276074946072185,0.0021867743586953207,5906.294578574481
1680648770456327199,41,1680648770456327199,camera_1,83,0,0.2627305063987867,0.32430806174458426,3.7960920440247454,0.9995921075654832,-0.02314649852888381,0.007082725855844509,-0.0151556290895086,0.005480595136759803,0.0019103380646612745,5906.724023202316
1680648770486181259,42,1680648770486181259,camera_1,85,0,0.2627483716568877,0.32431606925340956,3.7961714980591514,0.9995910250161589,-0.023064620776667537,0.004480230609363478,-0.016301334585256406,0.005149748030817136,0.0017950642001456087,5903.174934279522
1680648770516302108,43,1680648770516302108,camera_1,87,0,0.2626864420502573,0.32430113120650494,3.795733096691203,0.9995949516976483,-0.02304910302046423,0.0044718538569959825,-0.01608334273743795,0.003879260126268491,0.0013518712712021507,5904.762851009264
1680648770546147346,44,1680648770546147346,camera_1,89,0,0.26273469849627024,0.32430146330857723,3.796006850650307,0.9995945188141064,-0.022915644640878925,0.004690203052186421,-0.016238016591237095,0.004111019112315262,0.0014328741447898398,5903.9279351565065
1680648770566255807,45,1680648770566255807,camera_1,91,0,0.2626955423222577,0.3242950576074437,3.7956166050240823,0.999566784881675,-0.023083243359003303,0.006118983407612852,-0.017203618206578893,0.0048126491165021434,0.0016770996036700053,5905.400793153851
1680648770596125841,46,1680648770596125841,camera_1,93,0,0.2627473279993272,0.324334676009288,3.796178742883011,0.9995902503754069,-0.023000390052772015,0.0051532121382057905,-0.01624062241757986,0.0050290584258618765,0.0017530384319003822,5903.776195119018
1680648770626349210,47,1680648770626349210,camera_1,95,0,0.2626464547983847,0.32420372101124056,3.79477787373865,0.9995724227695232,-0.022991200243829106,0.003997852972112326,-0.017617988580621954,0.003837581090920139,0.0013366920944722714,5905.778608386176
1680648770656041622,48,1680648770656041622,camera_1,97,0,0.26274066211929964,0.3243194707603976,3.79605302205505,0.999575955805156,-0.02298637875324897,0.004455940187168933,-0.017311255444636024,0.003655330066976604,0.0012740480883946096,5902.513098816738
1680648770676198005,49,1680648770676198005,camera_1,99,0,0.2626968675064085,0.3242838994682188,3.7954872847444823,0.9995862434507238,-0.02290874132278184,0.004861899371119399,-0.016700102082964872,0.005128219974722015,0.0017869294061280089,5905.222888706485
1680648770706127166,50,1680648770706127166,camera_1,101,0,0.26273723672763855,0.3243205566804209,3.795989446937811,0.9995914938718663,-0.02307403967353891,0.004871198475235555,-0.016146377227404092,0.004334368597483262,0.0015107163932624823,5904.211016560209
1680648770746156454,51,1680648770746156454,camera_1,103,0,0.2627092711462663,0.32429789010433624,3.795588409559065,-0.9995681708421456,0.02294947228611021,-0.004062699130700751,0.01789659288384007,0.005064586690423312,0.0017649250032369926,5903.001497520658
1680648770766160964,52,1680648770766160964,camera_1,105,0,0.2626675435071937,0.32425390656537995,3.7950202564483004,0.9995424687726976,-0.02294497843805452,0.00455925933829494,-0.01917274728734334,0.004849385575653287,0.0016893647956746788,5903.895354538632
1680648770796423912,53,1680648770796423912,camera_1,107,0,0.2626945791012676,0.32426903869312457,3.795395812314558,0.999585505663944,-0.023127490673742538,0.004209695092877555,-0.016619702431700554,0.00602263283508364,0.0020985446648795476,5905.022032724924
1680648770826272010,54,1680648770826272010,camera_1,109,0,0.26274660077937706,0.3243149415323651,3.7959614474160723,0.9995991605602385,-0.02291422035590655,0.004181243144898216,-0.016092666606594058,0.004416327461512992,0.0015391988578603007,5903.741662788145
1680648770846342086,55,1680648770846342086,camera_1,111,0,0.26265318801952786,0.32419190868487424,3.794727722210419,0.9995982376321763,-0.023286494899045853,0.0018448988315798438,-0.016053000537768522,0.006578309232281754,0.0022912412836227727,5905.533173467851
1680648770876311063,56,1680648770876311063,camera_1,113,0,0.26273685126006274,0.3243333888008917,3.7961448259210613,0.999571518709809,-0.02309979861814858,0.005753087425252003,-0.017031743100590913,0.004867174477112712,0.0016966060565937185,5903.620632498528
1680648770904060840,57,1680648770904060840,camera_1,115,0,0.2626509414729432,0.3242173389700965,3.794750747056427,0.9995576571007978,-0.02280321067344719,0.004377318120792629,-0.018583401201493047,0.0037657760476577096,0.0013116858671239665,5905.187236888163
1680648770935632944,58,1680648770935632944,camera_1,117,0,0.2626777437528475,0.3242522385913978,3.795041458681424,0.9995647506506028,-0.02280832346381346,0.0041495353398692805,-0.018244752506720148,0.0049914478477148805,0.00173889758560235,5904.4160414265925
1680648770954174041,59,1680648770954174041,camera_1,119,0,0.2627386309570479,0.3242995665438839,3.7957682966227506,0.9995991867742632,-0.023233011045536465,0.0039645184275450196,-0.01568360901155114,0.005957645236776443,0.0020762962793521703,5904.540377490685
1680648770986524343,60,1680648770986524343,camera_1,121,0,0.26268250412855965,0.3242665267896831,3.7952704926287137,-0.9995763881965858,0.023112178415574097,-0.003826389102034573,0.0172693403231051,0.003574272257537814,0.001245341831574598,5904.424307483658
1680648771016116142,61,1680648771016116142,camera_1,123,0,0.2627034576184236,0.32428908100385107,3.795533523316735,-0.9995713256093127,0.023003781366588736,-0.0038250478636235137,0.01770197930517103,0.0035314549459144473,0.0012305804134286427,5903.167432244634
1680648771046342611,62,1680648771046342611,camera_1,125,0,0.26266800729583845,0.32423752689702684,3.794917971422164,0.9995490160667537,-0.02295828235223422,0.0051891191829233855,-0.01864818472465537,0.0043508637354534585,0.0015156057578797932,5905.29698934831
1680648771076250553,63,1680648771076250553,camera_1,127,0,0.26269904904354624,0.32427203250988895,3.7953223688463793,0.9995887462653688,-0.02314038728380382,0.0033838457666851606,-0.01659549347898636,0.00398745156780933,0.001389288918156798,5904.526850899738
1680648771105765342,64,1680648771105765342,camera_1,129,0,0.26272530960376483,0.32430437100586634,3.795646879118763,-0.9995867834452915,0.022973375272488418,-0.003692288950349643,0.016877600314986117,0.00543545567052206,0.001894203254195674,5903.499781348046
1680648771136041164,65,1680648771136041164,camera_1,131,0,0.2627560627435954,0.3243572856083582,3.7964042116495214,0.9995469041075262,-0.022945704693934123,0.006121153727787362,-0.018493582730219085,0.003996387902589049,0.0013932773044895697,5901.637662507714
1680648771156184911,66,1680648771156184911,camera_1,133,0,0.2627005147644512,0.32427328056974136,3.7954995959390816,0.9996066639564711,-0.02318372657419368,0.0032400765893719615,-0.015444549188712138,0.0035158354658051394,0.0012250199737960262,5904.99156043888
1680648771196178197,67,1680648771196178197,camera_1,135,0,0.2626951295085912,0.32425800859470694,3.795305178114622,0.9995497294044489,-0.022943351121026544,0.004996184010412502,-0.018680985845627867,0.003981162284617312,0.0013871469140491876,5903.8971892397385
1680648771216512918,68,1680648771216512918,camera_1,137,0,0.2627229442036882,0.3243277812597429,3.795871057775444,0.9995755895069333,-0.022919005781609565,0.004550199134048432,-0.017397003296254872,0.0043162926340301055,0.0015042944814414848,5903.061812278116
1680648771246204137,69,1680648771246204137,camera_1,139,0,0.2627009544138862,0.3242477047717789,3.795353518981142,0.9996033580101619,-0.023145445091515504,0.0025651811335228544,-0.01583776726928985,0.006380772498232545,0.0022231700637669384,5904.451101367651
1680648771276330709,70,1680648771276330709,camera_1,141,0,0.2626612152371048,0.324218335355424,3.7946780762655385,0.9995640826722711,-0.02304919489299616,0.00415418929231144,-0.017975593387963514,0.0053663936887460295,0.0018691609880280976,5905.822332790992
1680648771306610345,71,1680648771306610345,camera_1,143,0,0.2626944190503566,0.3242595624211143,3.7952152675927406,0.999595397792069,-0.023200975882951922,0.002087607446792292,-0.016321682699472755,0.003572318109945627,0.001244568145608161,5903.94786607742
1680648771336498260,72,1680648771336498260,camera_1,145,0,0.2627516218703623,0.324349412052795,3.7963025324398703,0.9995839599530333,-0.023021118106865492,0.005545831604653749,-0.01646750975513521,0.004136894338444108,0.0014421534727046329,5903.503109877227
1680648771366237163,73,1680648771366237163,camera_1,147,0,0.26270679799318924,0.32426212524705067,3.795396418263506,0.9995788852059704,-0.023080487662084124,0.004685675533568882,-0.01695251557922857,0.0051435398709145375,0.0017921410562612627,5905.101806994995
1680648771386265039,74,1680648771386265039,camera_1,149,0,0.2627455000059571,0.32435470915116515,3.796170030678291,0.999556358092763,-0.023056207212323016,0.005474148388305669,-0.018042505500552468,0.00395094733175938,0.0013772440881293453,5902.267698071312
1680648771416411638,75,1680648771416411638,camera_1,151,0,0.26269532556008024,0.3242557150908387,3.795275306998296,0.9995976965974905,-0.023114972882795938,0.0034935564381017624,-0.016060449839060745,0.006905454752995865,0.0024058155225453346,5905.311307777766
1680648771446447849,76,1680648771446447849,camera_1,153,0,0.26269215735693574,0.3242897083155084,3.795536586994048,0.9995826706230234,-0.02305032227077195,0.004648345736172654,-0.01677975313509975,0.0037871455497224815,0.0013196155568603743,5904.820723538984
1680648771476339817,77,1680648771476339817,camera_1,155,0,0.26272138565589487,0.32429093967622785,3.7957131716320474,-0.9995768049124826,0.023081443113131962,-0.005176931631167285,0.016930961096597832,0.005720669112633914,0.0019937306175560987,5904.557014868478
1680648771496119022,78,1680648771496119022,camera_1,157,0,0.2626523431180246,0.3242456234627496,3.7949202333170056,0.9995720277097578,-0.02301684874689485,0.004941117345772058,-0.01736581277513745,0.0025736948336998466,0.0008965186127219705,5906.392658067809
1680648771525933742,79,1680648771525933742,camera_1,159,0,0.2626769273429061,0.3242630577288723,3.7952250348917698,0.9996079541603969,-0.023167890108473213,0.0027728417397130806,-0.015475729251765949,0.004527414537733421,0.0015773485401998205,5905.382591647094
1680648771556121826,80,1680648771556121826,camera_1,161,0,0.2626823476852427,0.32425537511455815,3.795206845674072,0.9995602220138843,-0.022859223905685865,0.0056223287581584095,-0.018033520713366284,0.00599069490635884,0.0020872435631867615,5905.401367540706
1680648771585482597,81,1680648771585482597,camera_1,163,0,0.2626524869966625,0.32424749218209625,3.7949265748259546,0.9995407818292438,-0.02272739191291281,0.005664865796838721,-0.019224994473991223,0.0038382843958970616,0.0013370936014646798,5905.077525535017
1680648771613471746,82,1680648771613471746,camera_1,165,0,0.26275613826806277,0.3243348959993834,3.796219904936033,0.9995920126169628,-0.022921530648366266,0.005504013131200251,-0.016128161226789048,0.005053774399129907,0.0017616978731075632,5904.049162560725
1680648771643749713,83,1680648771643749713,camera_1,167,0,0.26272661063422525,0.32429933182983833,3.7957986247448328,0.9996216271869949,-0.023118427436987644,0.002612866384011556,-0.014673571553123736,0.0048375983351434115,0.0016858809640110887,5904.213360124793
1680648771676174640,84,1680648771676174640,camera_1,169,0,0.2626639848702584,0.3242314947876558,3.79494171731777,0.9995941673656477,-0.02315539867859773,0.0016588562650491556,-0.01650988420627529,0.003818677556409966,0.001330180032127432,5904.233962111579
1680648771696288824,85,1680648771696288824,camera_1,171,0,0.26272263383419875,0.3243148024279734,3.7959087541432086,0.9995893771592966,-0.02308797237245833,0.007013998864087666,-0.015454009898811486,0.004918376962450565,0.0017142010306316524,5906.930563708649
1680648771725513219,86,1680648771725513219,camera_1,173,0,0.262692597119135,0.3242946912716952,3.795366769971853,0.9995567459609682,-0.022975327301926984,0.005204718262561026,-0.018203209802046618,0.003835925424937159,0.0013365681669271834,5904.361629602617
1680648771755451202,87,1680648771755451202,camera_1,175,0,0.26273781686889436,0.32430984238638005,3.7957180922717493,0.9995665654799984,-0.022842247816131853,0.006301284268345038,-0.017470166163948725,0.004795616565388627,0.0016712622202561304,5904.918236767406
1680648771795368432,88,1680648771795368432,camera_1,177,0,0.2627211086182266,0.32431980249697656,3.795778282793194,0.9995378987763164,-0.02295319468323051,0.006101226357892332,-0.018971420626565736,0.004614726465661079,0.0016083329666071737,5903.052060725171
1680648771825081110,89,1680648771825081110,camera_1,179,0,0.2626863221173719,0.3242664703644771,3.795315070251189,0.999624113904583,-0.023250888783149102,0.0017874116905340531,-0.014416387575238393,0.0036569407893694006,0.0012740615701554057,5905.2016222380935
1680648771855317592,90,1680648771855317592,camera_1,181,0,0.26266406546874477,0.32426260763294457,3.795117078366942,0.9995804556863476,-0.02294125732463474,0.004273973130337434,-0.017156470380580647,0.0028975394707231317,0.0010094188747420338,5905.413473598543
1680648771884299516,91,1680648771884299516,camera_1,183,0,0.2626964574098357,0.3242868549468547,3.795482135868164,0.9995476919700934,-0.02300856114657508,0.005631506035798975,-0.018528457328999215,0.0036839640088146552,0.0012836704255207146,5904.053754170427
1680648771914074182,92,1680648771914074182,camera_1,185,0,0.2626776764941433,0.32424924773523467,3.795137413821202,0.9995635441988701,-0.022981014374293392,0.00464139648617131,-0.017973634178441264,0.005523517043911852,0.0019242658020075757,5904.850412670987
1680648771945544958,93,1680648771945544958,camera_1,187,0,0.2627482640162229,0.32435178048946667,3.7964353804777202,0.9995941905217092,-0.023060817710089228,0.004678837926547647,-0.016054950558887424,0.0038709805012331344,0.0013494875136430226,5902.778490402563
1680648771985398292,94,1680648771985398292,camera_1,189,0,0.262756204970842,0.32435913219930046,3.7962684255094716,0.9995785336680537,-0.022943076596229656,0.004911724813889688,-0.017095181358388962,0.0038418373951571994,0.0013391848452308714,5902.438528592642
1680648772005621194,95,1680648772005621194,camera_1,191,0,0.2627662344362951,0.324359252398315,3.796451353293675,0.9995856746674316,-0.02310419821984289,0.006209797782753099,-0.016003544475242337,0.0035656928848766256,0.001243085040161916,5904.050108919734
1680648772035410165,96,1680648772035410165,camera_1,193,0,0.26270239769171644,0.3242954425943242,3.795586558428504,0.999532264772129,-0.0229249712759564,0.005282197627783065,-0.01953959466612356,0.00407224013179075,0.0014190612642462415,5902.381292146748
1680648772066010951,97,1680648772066010951,camera_1,195,0,0.26272514283777404,0.32429279121117366,3.795806001862037,0.9995677859017322,-0.023170612635540905,0.005096690575718716,-0.017360525417679303,0.006802939871704439,0.002370953729471417,5903.788973156595
1680648772096036434,98,1680648772096036434,camera_1,197,0,0.26272863519615,0.3243362760415449,3.795936176059862,0.9995765324330329,-0.0230065823906493,0.004645560521930198,-0.01720092274540881,0.0033033156978490297,0.0011512856244396891,5903.135638102423
1680648772125649452,99,1680648772125649452,camera_1,199,0,0.26270537813792133,0.32433563660284337,3.7957198596144477,-0.9995713711974901,0.02303301881418776,-0.004833555266898265,0.017412371181338936,0.002711055196414236,0.0009447859994861645,5903.751476769918
1680648772155352354,100,1680648772155352354,camera_1,201,0,0.26273699719414906,0.32435994949699487,3.7962450816605084,0.9995679110392659,-0.023056821038243015,0.005993896539601479,-0.017217648750082568,0.0033428394854126964,0.0011652860810088957,5903.320030561415
1680648772185608148,101,1680648772185608148,camera_1,203,0,0.2627404625506999,0.32433560654211757,3.796148422186231,0.999589832892878,-0.02291723372281377,0.005778056863786196,-0.01617344844370147,0.00423745585794677,0.0014770424750064613,5904.467897786642
1680648772226239204,102,1680648772226239204,camera_1,205,0,0.2626911909336675,0.32431118439889145,3.795646277551446,0.9995355515621729,-0.02292504088122868,0.00582682023066683,-0.01921384474529847,0.00207157410113723,0.0007219058065391823,5903.003106892166
1680648772263490676,103,1680648772263490676,camera_1,207,0,0.26271200171641795,0.32430997320332056,3.7957755497089516,0.9995717424468601,-0.02299270940888468,0.0047097429353537635,-0.017478138838831613,0.0031666004797443748,0.0011035508865486988,5903.427554596332
1680648772293775796,104,1680648772293775796,camera_1,209,0,0.2627017578046041,0.3242840000434931,3.795523021813018,0.9995602858011018,-0.022944851104863988,0.006306800969778424,-0.017691611529846992,0.004322301043430343,0.0015061676684778173,5905.340485083231
1680648772335890293,105,1680648772335890293,camera_1,212,0,0.26273333559944023,0.32434693240122603,3.796163801959341,0.9996011259078578,-0.023171326291991815,0.005189833222024009,-0.01528870016517753,0.0036037422323715873,0.0012561334690243864,5904.7821083539175
1680648772365545272,106,1680648772365545272,camera_1,214,0,0.2628095464586301,0.32440968191463726,3.797030988595058,0.9995546266220461,-0.02294487125331605,0.006838764327597636,-0.01781326988799202,0.005501398591150064,0.0019185534108938878,5900.97013368632
1680648772395672082,107,1680648772395672082,camera_1,216,0,0.2626969975380414,0.3243295270496626,3.7957326124315443,0.9995607966358598,-0.023050277723094464,0.004967813000310171,-0.017950469619691697,0.0032308384761563502,0.0011258960665300843,5903.307791379745
1680648772415553569,108,1680648772415553569,camera_1,218,0,0.2627554890878685,0.32433989983009137,3.796271945922713,0.9995808946299575,-0.023097566301162623,0.005196001053908468,-0.016659504638041975,0.004739993266412057,0.0016523014384791444,5903.119310507086
1680648772445004701,109,1680648772445004701,camera_1,220,0,0.2627261965079139,0.3243111447356242,3.795942557685406,0.9995958527661732,-0.023173473441403192,0.004696747724875719,-0.015781692625844865,0.0055250488221645355,0.0019256256870509656,5904.579170856452
1680648772475582838,110,1680648772475582838,camera_1,222,0,0.26275960444338214,0.3243768891528191,3.796465594604378,0.9995376187956047,-0.023006441712311292,0.006954712012064934,-0.018624828401355858,0.006437723019189434,0.0022445979963733806,5901.986822473469
1680648772505429983,111,1680648772505429983,camera_1,224,0,0.2626842376901718,0.3242696432866564,3.7953320699701836,0.9995331249255267,-0.023029182873989192,0.00593716964395924,-0.01918173426430954,0.004841345351451309,0.0016868775654640719,5904.105144362664
1680648772535666227,112,1680648772535666227,camera_1,226,0,0.26271772378512753,0.32433504860647777,3.7960419480195404,0.9995804343569376,-0.02297520248362623,0.004663394221328912,-0.017010234447797815,0.002243990689748898,0.0007821276856672187,5903.03791050642
1680648772565410852,113,1680648772565410852,camera_1,228,0,0.26270639005943625,0.32430477882205877,3.795797905689238,0.9995362632694313,-0.02285486903836609,0.0071103702116392595,-0.018824346099521636,0.005331556316377828,0.0018581869262994084,5904.002039369661
1680648772605608701,114,1680648772605608701,camera_1,230,0,0.2626889548069542,0.3242566929817412,3.7952058309332815,0.9995204612514332,-0.022811738188872617,0.006687020223939042,-0.019843283524895214,0.0051333521187189035,0.0017885705154537797,5904.3997772194
1680648772635682344,115,1680648772635682344,camera_1,232,0,0.2627048804192518,0.3243047117297112,3.7956962217463657,0.9995802521426025,-0.023266597014470824,0.003303423607485013,-0.01694321050943273,0.004178415056230733,0.0014561246644986747,5902.974316604199
1680648772665330886,116,1680648772665330886,camera_1,234,0,0.262740173210947,0.3243399437643529,3.7960739188633394,0.9995757377888379,-0.02316221705121483,0.004710279784584415,-0.017019676539930476,0.005510813487489941,0.0019208074839935545,5902.953438431083
1680648772695704936,117,1680648772695704936,camera_1,236,0,0.26271543930219315,0.32432627506662026,3.7957845490043076,0.9995806084702493,-0.02303519136655114,0.004662357129275773,-0.016918911163296232,0.002391804173385026,0.0008335146466668926,5903.904278224571
1680648772726322174,118,1680648772726322174,camera_1,238,0,0.2627284608457164,0.32433179680903684,3.795969095426423,-0.9995621083339213,0.023041058626058698,-0.005715087259246454,0.017664625047141117,0.005015591479605064,0.001748224552782239,5903.48325507762
1680648772756220340,119,1680648772756220340,camera_1,240,0,0.2626909471290245,0.32430027299320363,3.7954880161616877,0.9995248018795212,-0.022956925473552697,0.0072532997033758675,-0.01924940632639326,0.0046733483504795,0.0016285822038476965,5904.6114502611445
1680648772786074638,120,1680648772786074638,camera_1,242,0,0.2626680448259456,0.32425929733092235,3.7951321870930705,0.9995773230004071,-0.02298175579182953,0.003864126196440581,-0.017380528553600658,0.0029743164996034466,0.0010361822601675484,5904.782005578045
1680648772816122055,121,1680648772816122055,camera_1,244,0,0.2627593630292299,0.32436988976434544,3.7964496445221205,0.9996084911777435,-0.023136803928712993,0.0044206697029808084,-0.015100011546236544,0.0034906433866126463,0.0012169047764787628,5903.401590766967
1680648772846154212,122,1680648772846154212,camera_1,246,0,0.26275322978566396,0.3243786671186526,3.796428785203384,0.9995479107917605,-0.023008197288038698,0.007183956877631762,-0.0179718572485368,0.004378997204184998,0.0015267089901769971,5902.956010578489
1680648772876137018,123,1680648772876137018,camera_1,248,0,0.26279784591116034,0.3243880650539751,3.796779385627303,0.9995958230462272,-0.023064104731804588,0.00631910097553912,-0.015372266726704584,0.005888184947252739,0.0020531463872601246,5903.717807251029
1680648772906392097,124,1680648772906392097,camera_1,250,0,0.26272527275811497,0.32432366556256387,3.7957516158832103,0.9995622924921874,-0.023115692957023634,0.0055387820997327844,-0.017612781146973046,0.0035733179465751164,0.0012453094305408376,5904.046698508553
1680648772934183359,125,1680648772934183359,camera_1,252,0,0.26274733433136543,0.32437382204364384,3.7962075675358817,0.9995192029200144,-0.022838975682328875,0.00833899961473022,-0.019240719044426653,0.005648587357427459,0.0019692253835418834,5903.225193762567
1680648772963536500,126,1680648772963536500,camera_1,254,0,0.2627229195302212,0.3243066725043241,3.7956726031718317,0.9995532456912963,-0.022783902170078727,0.006006611530281918,-0.01838813334256209,0.005538910878385649,0.0019302729731732547,5903.896463128447
1680648772995192766,127,1680648772995192766,camera_1,256,0,0.2628159539434329,0.32444207507130046,3.79711442619466,0.9995771793360989,-0.0230899137274783,0.005846310456301711,-0.01667750246873225,0.004986239018762717,0.0017389705499993356,5901.005636696938
1680648773026305437,128,1680648773026305437,camera_1,258,0,0.26270827215542236,0.32432224805488463,3.7955890910797936,-0.999561028412538,0.023028045636403656,-0.005349340365506366,0.017856207623430483,0.004154697424382903,0.0014478345535401153,5904.138730593491
1680648773056360244,129,1680648773056360244,camera_1,260,0,0.26272382348010065,0.3243525072036453,3.795893442903887,0.9996042443984858,-0.023094402163338395,0.003540204731644054,-0.01566748606855121,0.003754983019462088,0.001308669131402807,5903.787916507569
1680648773086218357,130,1680648773086218357,camera_1,262,0,0.2627148425790444,0.3243173817786503,3.7958691593598144,0.999553762584794,-0.022882601959913332,0.006126447356216055,-0.018196946802062477,0.00442806809587637,0.0015432854413652826,5903.613186856734
1680648773116462230,131,1680648773116462230,camera_1,264,0,0.26277921445976127,0.324415712261759,3.796582623099147,0.9995960453680683,-0.023193831366772406,0.0036926466102549472,-0.0160048940034089,0.0036612310395867094,0.0012764761457901373,5901.444559053752
1680648773156211376,132,1680648773156211376,camera_1,266,0,0.26274538757012555,0.32436521249859507,3.796267010210679,0.9995775782497486,-0.023050269388822403,0.004888934580153208,-0.01701318489118411,0.00431267342355568,0.0015033790076444424,5902.509761458436
1680648773196161508,133,1680648773196161508,camera_1,268,0,0.26265169846945485,0.3242790737926415,3.795013488276673,-0.9995724246951037,0.023112885036160817,-0.0040347938288356235,0.017449434753453872,0.0023161184399214108,0.0008068616618662462,5905.215908064743
1680648773226141929,134,1680648773226141929,camera_1,270,0,0.2627471805072119,0.3243768641355239,3.79638139041522,0.9996179307567971,-0.023089534894915907,0.004285110070979751,-0.014577507314885914,0.004215997614664957,0.0014697312700396035,5903.986294592032
1680648773256066799,135,1680648773256066799,camera_1,272,0,0.26269033101844863,0.32429569295076227,3.795414233673181,-0.9995941871557792,0.023031837533932484,-0.003304170627150462,0.01643404760411269,0.0033503256636322476,0.001167374253418318,5904.329338472337
1680648773286378860,136,1680648773286378860,camera_1,274,0,0.26274632150215926,0.3243618057794178,3.796179915506504,0.9995764647382076,-0.022988562207325283,0.0060212342812213295,-0.016797675042618223,0.0047363319354190025,0.0016510293570810872,5903.9379446819075
1680648773325022220,137,1680648773325022220,camera_1,276,0,0.2627153162951333,0.3243239418853058,3.795812043609266,0.9996185610406678,-0.02314815194568405,0.0037887302034052585,-0.014578786229657059,0.004539246736385394,0.0015819607986050103,5905.312594580465
1680648773355801820,138,1680648773355801820,camera_1,278,0,0.2627556041438907,0.324355289147416,3.7962158025916715,0.9995784529960094,-0.02300881977436732,0.007633967067680928,-0.015976015320000553,0.0042585630326357204,0.0014844568179880153,5905.946844213175
1680648773385961294,139,1680648773385961294,camera_1,280,0,0.26274867226961196,0.3243770822355898,3.7962706125970347,0.9995801081747292,-0.022954226402579672,0.005866885589643804,-0.016682040796433206,0.0048927040115813725,0.0017055940262540995,5903.641760900382
1680648773426291227,140,1680648773426291227,camera_1,282,0,0.26269438235298576,0.3243067597899293,3.7954588500706192,-0.9996039902328183,0.023010552210686055,-0.0022334772951061645,0.01604334057356687,0.004377750941785052,0.0015254063697008602,5903.591376740662
1680648773456277847,141,1680648773456277847,camera_1,284,0,0.26267723445028757,0.3242781423856043,3.795294582628368,0.999595260446054,-0.02307324801565727,0.0034054488594976785,-0.016289365790572587,0.005230702954577282,0.00182244479009063,5904.949023856782
1680648773486381769,142,1680648773486381769,camera_1,286,0,0.26265661422560344,0.3242318453541182,3.79483373846509,0.9995806741131945,-0.02288507104425753,0.003814851543389818,-0.017326175873896784,0.004432100948179141,0.0015438098118035154,5905.710819977918
1680648773516478061,143,1680648773516478061,camera_1,288,0,0.2626876029397416,0.32430092318793413,3.7955370650799973,-0.9995539805901548,0.022858928781429293,-0.005178371840735693,0.0185065860282522,0.00297916235649609,0.001038144212358962,5903.5189938867115
1680648773545960903,144,1680648773545960903,camera_1,290,0,0.26274036571254084,0.32432874530787237,3.795609476899385,0.9995910614503339,-0.02307686653842744,0.0031216086515037174,-0.016595892828924454,0.0054989717064017896,0.0019162834042788946,5903.345412724539
1680648773575638771,145,1680648773575638771,camera_1,292,0,0.26272174666932396,0.32432959911502546,3.7957094439915675,-0.9996156593506115,0.023246627108090962,-0.003899980920634329,0.014591711961196277,0.0030030713824089617,0.0010465312661248002,5905.691327731649
1680648773606136083,146,1680648773606136083,camera_1,294,0,0.26266472651053047,0.3242290986611138,3.7948112795144198,0.9995822395032161,-0.022913196789779454,0.0037727995224725768,-0.017207494482672368,0.005697123167919926,0.0019844643838786147,5905.850869968939
1680648773636182546,147,1680648773636182546,camera_1,296,0,0.2627498863277128,0.3243953605727822,3.79640969174276,0.9995898894913522,-0.022957725905814772,0.006491000280979052,-0.01583864145854208,0.00330019423563499,0.0011504953274876781,5904.55490420159
1680648773666191816,148,1680648773666191816,camera_1,298,0,0.2627329910816245,0.3243426269596186,3.79591112031333,0.9995925746750233,-0.02316187003995607,0.0038019259429645227,-0.016240621599382804,0.0046244957848102786,0.0016117377671186438,5903.411716847216
1680648773706484794,149,1680648773706484794,camera_1,300,0,0.26276547636578745,0.3243745484623241,3.7965028828108625,0.9995564595057156,-0.022814489845487857,0.006533076482688385,-0.017991726575298787,0.005564172206504736,0.0019399099819654704,5902.177993639953
1680648773736061334,150,1680648773736061334,camera_1,302,0,0.26267600384413403,0.3242578057395901,3.795084838903635,0.9995780436531968,-0.023015209981162594,0.003710819239621027,-0.017328144059354057,0.004671213264373364,0.0016272939764294936,5904.83487692359
1680648773756025314,151,1680648773756025314,camera_1,304,0,0.2628018881905729,0.3244032538560545,3.7968297376622306,0.9996203161602496,-0.02304373516840881,0.0039003188412943413,-0.014594427090756458,0.005885422862775158,0.002052179309068698,5902.2222842024075
1680648773796042203,152,1680648773796042203,camera_1,306,0,0.2627148302091948,0.3243110116743365,3.7956524748415545,0.999570707836139,-0.022834415787988033,0.0062630440652280805,-0.017255832944791594,0.006510756320494693,0.002268892957830768,5905.325072177393
1680648773826279401,153,1680648773826279401,camera_1,308,0,0.26274045778366345,0.32432886158671276,3.7958714516215863,0.9995994543770013,-0.023155331629819996,0.004412660569437495,-0.015661732120476016,0.003841353656753199,0.001338743719788921,5904.627779367788
1680648773856136083,154,1680648773856136083,camera_1,310,0,0.2627849173474276,0.32436796135980894,3.796469511845209,0.9995806951836032,-0.02300730627542217,0.006797030251646637,-0.016214131304875444,0.005122901831782656,0.0017860274380652062,5904.244590270275
1680648773895978212,155,1680648773895978212,camera_1,312,0,0.2626992573418832,0.32429997751762346,3.7953704939296378,0.9995444477722677,-0.022985476844923233,0.005589289298333958,-0.018743655646207277,0.003575548300432274,0.001245842119658476,5904.111369474733
1680648773924029588,156,1680648773924029588,camera_1,314,0,0.26271711945192966,0.3243146300611496,3.7956046867182556,0.9995525635725382,-0.022969422451412855,0.005421710301783137,-0.018376162418166708,0.007988851582922507,0.0027840713299049085,5903.620914306957
1680648773953616380,157,1680648773953616380,camera_1,316,0,0.2627739317390832,0.3243762005236085,3.7964189771172805,0.9995505555470537,-0.022930939269210533,0.007398224565745078,-0.01783606467477659,0.005418683376774425,0.0018891479206537205,5903.275226470198
1680648773985797405,158,1680648773985797405,camera_1,318,0,0.26269204222070247,0.3242719482073431,3.7952510034916407,0.9996076873529731,-0.023171335099764937,0.0036049546103714717,-0.01531551229285129,0.004564566726912744,0.0015902500475328918,5906.188580833553
1680648774026186943,159,1680648774026186943,camera_1,320,0,0.2626470211058472,0.3242433603010438,3.794845517265004,0.9995919422396752,-0.02315271363063564,0.003390214282100615,-0.016383140973977018,0.004565271126921289,0.0015901927291045233,5906.239893545861
1680648774085714578,160,1680648774085714578,camera_1,324,0,0.26275809929570976,0.32436528940343123,3.7961535806710485,0.999594165669517,-0.023036392759530743,0.004926777874497427,-0.016017347716346518,0.004902188928099349,0.0017087725625885462,5903.84072066989
1680648774115194797,161,1680648774115194797,camera_1,326,0,0.2626885391247374,0.32429839741778255,3.7953440357320787,0.9995912894622129,-0.023111668247720638,0.0032326807276425,-0.016512255975213795,0.005224898810411105,0.0018204936691682987,5904.4001928769885
1680648774145232915,162,1680648774145232915,camera_1,328,0,0.26271646517039354,0.32430534644443154,3.7955668970004632,0.9995780033759678,-0.022925222369160718,0.005649525096586652,-0.01692135374080226,0.006152343052235665,0.002143898907011721,5905.40166873869
1680648774175293922,163,1680648774175293922,camera_1,330,0,0.26266137901125974,0.3242603383092409,3.7949223850084572,0.9995788850238879,-0.022930421863329095,0.004634668945676281,-0.01716881508243313,0.0033247990140807815,0.0011581749431265464,5906.294770278503
1680648774205468177,164,1680648774205468177,camera_1,332,0,0.2627268043996918,0.32431630271449663,3.7956971622924067,0.9996042024262753,-0.023122707504281845,0.00471011251977267,-0.015316452900475183,0.0044194246584083885,0.0015401003234552942,5905.755659288785
1680648774235073328,165,1680648774235073328,camera_1,334,0,0.2627213985291288,0.32428750328732614,3.7954817018083915,0.9995963811254156,-0.02293361214482535,0.004920982872567591,-0.016028356201791324,0.00468057140824385,0.0016308793523701045,5905.919599846587
1680648774266058921,166,1680648774266058921,camera_1,336,0,0.2627101546460115,0.3242948158188885,3.795452033836728,0.9995600251743276,-0.022891388943117628,0.006245829152704312,-0.017796909955032914,0.004845762574404944,0.001688499896372865,5905.377312643339
1680648774295345544,167,1680648774295345544,camera_1,338,0,0.2626853016029421,0.324290276841692,3.7950104379584535,0.9995350035876758,-0.022867125893409345,0.005554795884375385,-0.019391116498097282,0.004700468201917829,0.0016375668700529238,5904.492385103134
1680648774336035490,168,1680648774336035490,camera_1,340,0,0.2626913602597538,0.324282950419555,3.79526615066822,-0.9995728266706846,0.02301407247945057,-0.0049386843753773425,0.01732414633188253,0.005016467945097247,0.0017478644938776994,5905.3284352602195
1680648774356021642,169,1680648774356021642,camera_1,342,0,0.26267352644316694,0.32427084130523154,3.795038596646989,0.9995776632497342,-0.022892940025648678,0.005563573472348574,-0.01701337942329273,0.006517038902529748,0.002270328656933355,5906.881762290721
1680648774385768890,170,1680648774385768890,camera_1,344,0,0.2626823250583832,0.32429197629210327,3.7952630105271528,0.9995811191370785,-0.022915809099383105,0.005463624557119305,-0.01681073361532531,0.004476068686926737,0.0015595003175671379,5906.303662825259
1680648774415731191,171,1680648774415731191,camera_1,346,0,0.2627475087680888,0.32434743643748404,3.796069806468854,0.9996081276626422,-0.023206710689890397,0.004668831014924805,-0.014941275270093025,0.0045900839468231425,0.0015998448271647482,5904.928501114426
1680648774445555686,172,1680648774445555686,camera_1,348,0,0.26272769510772015,0.32431668285003024,3.7956122563216192,0.999602803141518,-0.02303691598436632,0.004627079204591639,-0.015560417461731611,0.0053211562808428425,0.0018542181101500572,5905.703483634512
1680648774475715160,173,1680648774475715160,camera_1,350,0,0.2627511963521011,0.3243738815075782,3.796300775186077,0.9995744466598065,-0.023079468548836267,0.005479888044239937,-0.016977471639424202,0.004381380236736732,0.0015273458709323187,5902.938244725117
1680648774505547046,174,1680648774505547046,camera_1,352,0,0.26270373287567755,0.32429472248193947,3.7955573680878247,0.9995909810227129,-0.02305266037196773,0.005186217410353194,-0.016110513858899896,0.005295073504385073,0.001845158820445627,5905.855552042777
1680648774535454988,175,1680648774535454988,camera_1,354,0,0.2627356488926988,0.32434925068774295,3.7958251535956498,0.9995634504352029,-0.022801549951599265,0.006210456954677962,-0.01773212052436515,0.003686212199681904,0.001284695648497572,5904.234161026135
1680648774566010951,176,1680648774566010951,camera_1,356,0,0.2627388717757907,0.32434541772076897,3.7959536270943866,0.9995525537925077,-0.023041166225787515,0.00645034326729391,-0.017949650068061252,0.005095580989291192,0.0017760285583872434,5903.837218559465
1680648774605686902,177,1680648774605686902,camera_1,358,0,0.2627363393467515,0.3243515591129216,3.7959247087421426,0.9996141937161527,-0.02318776427379778,0.0030373330110568114,-0.014985523593420952,0.003176229998643975,0.001106974985816487,5903.881228597604
1680648774635687589,178,1680648774635687589,camera_1,360,0,0.26270712575352007,0.32431490328972823,3.7956033408182823,0.9995679164572046,-0.022970303347087676,0.005775280280762124,-0.017406656520556126,0.006179014151712181,0.0021532173698427083,5904.922545179143
1680648774655493974,179,1680648774655493974,camera_1,362,0,0.26276774586886814,0.3243763660349632,3.79624424157024,0.9995858844669726,-0.02302943754833532,0.004434484592429198,-0.01667452928832074,0.005301355431583943,0.001847970648330669,5902.487662815373
1680648774685476779,180,1680648774685476779,camera_1,364,0,0.26274864593402303,0.32433673280534026,3.795832469768204,0.9996098864096181,-0.02312423704781841,0.003618438142214914,-0.015239801787343922,0.008778010178502882,0.0030591695439785515,5904.436273095607
1680648774725640535,181,1680648774725640535,camera_1,366,0,0.26266364700197187,0.32425184517679295,3.794900534197629,0.9995567304355362,-0.022914490641146618,0.005520436507266249,-0.018187730491926856,0.00565485589686432,0.001969869435665483,5906.095447748086
1680648774755554199,182,1680648774755554199,camera_1,368,0,0.262752996485284,0.3243374913438848,3.796161097209456,0.99958816141887,-0.023050224980846856,0.005058053521089753,-0.016328220177150046,0.006493878659966867,0.002263516444122575,5903.6625120587405
1680648774785440921,183,1680648774785440921,camera_1,370,0,0.26276085810174815,0.32436401299594314,3.7961927543419685,0.9995604751968811,-0.02301567751711973,0.004218667676352355,-0.01820268814351175,0.004398930239403853,0.0015333666330628452,5900.935622784073
1680648774816070795,184,1680648774816070795,camera_1,372,0,0.2627378830138872,0.32436951334021397,3.7960354171010913,0.9995248341117325,-0.022857574977088343,0.006937488978644379,-0.019480978074824087,0.004816788044990972,0.0016789806720144804,5902.389311578767
1680648774843871831,185,1680648774843871831,camera_1,374,0,0.2627625432976068,0.32434351265312344,3.7959621387538425,0.9995991358085108,-0.023133634662583696,0.00431934905645679,-0.015739944787228247,0.005567207266722107,0.001940345646762761,5904.165721179917
1680648774879122495,186,1680648774879122495,camera_1,376,0,0.2627631869843479,0.3243597638551905,3.796054857984803,0.9995890689345004,-0.022918057318940924,0.004338969556556629,-0.0166622104947667,0.006168385938508436,0.002150047014775948,5902.990498510597
1680648774917248725,187,1680648774917248725,camera_1,378,0,0.2626653886792045,0.3242585514060472,3.7950853931254644,0.999587097719862,-0.023084644632384944,0.0031817644599097528,-0.016810997266711036,0.004283111749828095,0.001492119479923093,5904.8841372942525
1680648774943791627,188,1680648774943791627,camera_1,380,0,0.26272707159132913,0.3243391761051987,3.7957558169718197,0.9995611241709601,-0.022905358471477823,0.006045551090581401,-0.017786368696018896,0.004737538551125908,0.0016510788385569147,5904.266270007063
1680648774964526891,189,1680648774964526891,camera_1,382,0,0.26267838621902484,0.3242563052256812,3.7949166131848178,0.9995451922243564,-0.022878011386709803,0.004667775235658003,-0.019084474593590726,0.006249414862395497,0.002177009999937084,5904.37227955472
1680648774996181964,190,1680648774996181964,camera_1,384,0,0.26266695698523773,0.32424907866742864,3.7948192509266843,0.9995941182083463,-0.02311309650257474,0.004109701838167671,-0.016139825406204053,0.0044225480560271535,0.001540477021865011,5907.163322778124
1680648775026568651,191,1680648775026568651,camera_1,386,0,0.26269537403604154,0.32428915145135295,3.795340741222604,0.9995669064775731,-0.0229521986461429,0.003904451400075753,-0.017998647488830396,0.006458999479946215,0.0022504151891972013,5903.527030833178
1680648775056315422,192,1680648775056315422,camera_1,388,0,0.26260818557508225,0.32419359649656276,3.794145921161858,0.9996145879859248,-0.02312072536764737,0.0003198422261643126,-0.015362462210010823,0.006512028019642457,0.002267387209074904,5906.527480799704
1680648775086135149,193,1680648775086135149,camera_1,390,0,0.2627470524785419,0.3243444709683383,3.7959571788873054,0.9995944992878805,-0.02292380604621573,0.0039926703785080255,-0.016413247485361677,0.003938610971090384,0.0013727235718183793,5903.25143645459
1680648775116342067,194,1680648775116342067,camera_1,392,0,0.26264177759468715,0.32424045738024204,3.7945128707071456,0.9995811848414732,-0.023089516945712818,0.001879079218177133,-0.01734353422524713,0.00522947241915972,0.001821241058250574,5904.902414669112
1680648775146410226,195,1680648775146410226,camera_1,394,0,0.2626553046938255,0.32426644680180017,3.794783551451258,0.9995575852848396,-0.02289247646899734,0.005443520355695715,-0.018191654866831414,0.005296517338138074,0.0018449504892150389,5906.369472150398
1680648775166209220,196,1680648775166209220,camera_1,396,0,0.2627253819914984,0.3243495582869194,3.7957197593076435,0.9995468667557433,-0.022960162643436442,0.006532732099306324,-0.018336180122432603,0.00362735375892953,0.0012641238076338216,5904.213833369902
1680648775196343898,197,1680648775196343898,camera_1,398,0,0.2627392840249902,0.32431895804853444,3.7956622863717335,0.9995867806704261,-0.022972191712037977,0.0052634824389818655,-0.016457280136569524,0.00399445361472317,0.001391982739359309,5905.211687055653
1680648775226339578,198,1680648775226339578,camera_1,400,0,0.2627528668417838,0.3243454199221754,3.7957502864483734,0.9995648025040886,-0.022894958771725107,0.004540113955774037,-0.01803923011305971,0.0055744904893799685,0.0019426562159567816,5902.717919202112
1680648775246277570,199,1680648775246277570,camera_1,402,0,0.26267289480355493,0.32427705441179305,3.794974400830103,0.9995795393069125,-0.02288586694489341,0.004546268443936471,-0.017213748470248764,0.0046069603304204065,0.0016048528703608664,5905.9946287421635
1680648775276017189,200,1680648775276017189,camera_1,404,0,0.26270711628771587,0.3243081085422589,3.7955109045991495,0.999575131878126,-0.023045055867251484,0.0048276077265823015,-0.017180667464931045,0.004708634882263141,0.0016407589042901698,5904.618868359016
1680648775306204557,201,1680648775306204557,camera_1,406,0,0.2627033818112089,0.3242702126728674,3.795101975196307,0.9995951392603007,-0.023110315415779004,0.003040810609953176,-0.016316383159197093,0.0049004191168933176,0.0017071417607994123,5905.145059228756
1680648775336199998,202,1680648775336199998,camera_1,408,0,0.26275619514477633,0.32436642676315697,3.7960131688312573,0.999608214985214,-0.02300169536107603,0.004576752852278015,-0.015277168517741108,0.004393851140775951,0.0015314443104408808,5904.666952960659
1680648775366213321,203,1680648775366213321,camera_1,410,0,0.26273619410247373,0.32429593249009286,3.795503681472447,0.9996127960177633,-0.023314149198907445,0.004164241831079738,-0.014607106991226509,0.006037956165528158,0.0021039082431961423,5906.534012646825
1680648775396383523,204,1680648775396383523,camera_1,412,0,0.2626992936085574,0.3242897504378258,3.7951704349136905,0.9995490923771956,-0.022927023603459187,0.0042143536162370775,-0.018926244746600582,0.006315647337032715,0.00220025012680738,5903.348589699247
1680648775425941705,205,1680648775425941705,camera_1,414,0,0.26270571867573606,0.3243053466798804,3.795452792418841,0.9995620054114601,-0.02281074477664841,0.005859575160674837,-0.017920174092099846,0.005458333223941736,0.0019019287686191956,5904.926444276238
1680648775455411195,206,1680648775455411195,camera_1,416,0,0.2627113555551112,0.3242912155979008,3.7953843199246515,0.9995693205543447,-0.023078807768524293,0.005152540383981072,-0.017377956326934334,0.0064825851331988815,0.002258728077973152,5905.088895031191
1680648775485785245,207,1680648775485785245,camera_1,418,0,0.2628328801063951,0.3244216798861628,3.796881469653308,0.9996241770260624,-0.02309076403310313,0.005162121164803593,-0.013844631682159103,0.0060445250892371405,0.002107724113072593,5903.809555353364
1680648775526250600,208,1680648775526250600,camera_1,420,0,0.26280407967249125,0.32441187803105054,3.7968235541568593,0.9995790803865233,-0.023097312111322904,0.006497507463824422,-0.016308237906717763,0.00646943495667074,0.0022558708574065543,5902.809521814226
1680648775556232690,209,1680648775556232690,camera_1,422,0,0.2627167572765963,0.32431435923394986,3.7953722008525483,0.9996190043586615,-0.02298219456720344,0.002550712586320569,-0.015071785666460094,0.005031150114518823,0.0017529011710558085,5905.046791088302
1680648775585801839,210,1680648775585801839,camera_1,424,0,0.2627371507675728,0.3243213867085225,3.7955224136921855,0.9995694485156729,-0.02297007071760837,0.004108774197010733,-0.017787957159257413,0.005960270471405238,0.002076975024772708,5903.300363638323
1680648775615816354,211,1680648775615816354,camera_1,426,0,0.2627392913009673,0.324302476791878,3.7956619499142534,0.9995951874852744,-0.02306266827002326,0.0037599153523214857,-0.01623075861102232,0.006912129454576643,0.0024086155263696846,5904.150335643439
1680648775646372556,212,1680648775646372556,camera_1,428,0,0.26271565124232793,0.324297260086499,3.7952388362093346,0.9995190782231359,-0.02290921189373016,0.005471879106277773,-0.020170245844496323,0.0071962304136832245,0.0025074362057410475,5902.88122394349
1680648775676267147,213,1680648775676267147,camera_1,430,0,0.2627143052809988,0.32429297047653194,3.795261664986311,0.9995925442909955,-0.023207670983459498,0.0016676155943485952,-0.016533858098074942,0.0061613196339749265,0.002146680167174557,5903.162574196412
1680648775705687761,214,1680648775705687761,camera_1,432,0,0.2626560227509249,0.32422972568967157,3.7944125599184235,0.9995963661397596,-0.022964335112012346,0.0031989080302167036,-0.016416793245489423,0.00540607254151837,0.0018825998936247176,5907.318514982937
1680648775735632419,215,1680648775735632419,camera_1,434,0,0.26273390142899067,0.32430463018194244,3.7954333525898765,0.9996039917936216,-0.02310321605328619,0.0035006737056471576,-0.015679486020247754,0.007426910815411247,0.0025877562011574397,5905.133611006137
1680648775756386280,216,1680648775756386280,camera_1,436,0,0.2626701632280048,0.32425899235048994,3.7947665918180387,0.9995960751085278,-0.023148710059940826,0.0018198552045741371,-0.01638633507597014,0.004819413854420418,0.0016786531915794485,5904.995802024148
1680648775785412788,217,1680648775785412788,camera_1,438,0,0.26275494746613226,0.32432957991615163,3.7955125031069383,0.9995986177078833,-0.022986070266806293,0.003399697428983348,-0.01620759413269273,0.008299918266857276,0.0028921839709202053,5904.247960133018
1680648775816135644,218,1680648775816135644,camera_1,440,0,0.262743305680254,0.3243410387170018,3.7958171394553033,0.9995882463146597,-0.023105880102963626,0.004780437397690899,-0.016327999036549197,0.006640927244006889,0.0023144767853395458,5904.447207658319
1680648775845268487,219,1680648775845268487,camera_1,442,0,0.26274413504182603,0.32434073969204263,3.7958518962725023,0.9996408870727804,-0.023260851627439287,0.0017359035564241145,-0.013191524277118614,0.006466438604547875,0.002253623130113628,5904.561000060289
1680648775875128269,220,1680648775875128269,camera_1,444,0,0.26266819671541913,0.3242173746570786,3.7943576931380973,0.9995770612243204,-0.02301694890935379,0.003502828674277883,-0.017425525195355524,0.007577924421639182,0.0026388707789537745,5906.751993030832
1680648775905965089,221,1680648775905965089,camera_1,446,0,0.2626740428224727,0.3242542518536684,3.7947183477854316,0.9995976801583957,-0.02301294018709158,0.003618883797453673,-0.01617980488014351,0.005962572951830225,0.0020767646199021817,5906.979241804337
1680648775935861587,222,1680648775935861587,camera_1,448,0,0.2627637742617736,0.324335984072047,3.7958154336505663,0.9995366936046097,-0.02286258398176889,0.007119407264829717,-0.018788678288765546,0.00689920266813715,0.0024045444478968873,5903.909058758991
1680648775964806556,223,1680648775964806556,camera_1,450,0,0.2627371138583036,0.32431945494395004,3.795743331641173,0.9995629403868881,-0.022861573732742776,0.006548405363365918,-0.01756117988000441,0.007269547018950107,0.0025334929795016664,5904.952522476555
1680648775995505809,224,1680648775995505809,camera_1,452,0,0.2626977683384108,0.32427283428514175,3.7949693597585847,0.9996136267087656,-0.023351832972118857,0.0018815255812545853,-0.014958243763154995,0.004675324544223258,0.0016286199945585134,5905.787358718808
1680648776026366949,225,1680648776026366949,camera_1,454,0,0.262704848085888,0.32430181930338103,3.795422365458592,0.9996021964338039,-0.023276913689080574,0.003647951602392155,-0.015502471510463542,0.00529994347380125,0.001846646228757955,5905.504443441752
1680648776056380748,226,1680648776056380748,camera_1,456,0,0.2627152104794024,0.3242871766242164,3.7953855763277247,0.9995938190065835,-0.02300963936531818,0.0034303150016265055,-0.016461665745040405,0.0038224277523113415,0.0013317883807786284,5904.483939204191
1680648776086126565,227,1680648776086126565,camera_1,458,0,0.2627313517715514,0.32433580528898887,3.7958014701797644,0.9995594108883934,-0.0230393662867121,0.006479930090083229,-0.01755511924147295,0.005200670337217161,0.0018124879452038527,5904.7283062789365
1680648776116087436,228,1680648776116087436,camera_1,460,0,0.2627866509972549,0.32437042571366725,3.7962406391443966,0.9996164043090142,-0.023025950444499167,0.003176567575140091,-0.015058527845892686,0.006831031212641393,0.0023811556035141994,5902.9291309635155
