%time,field.header.seq,field.header.stamp,field.header.frame_id,field.image_seq,field.transforms0.fiducial_id,field.transforms0.transform.translation.x,field.transforms0.transform.translation.y,field.transforms0.transform.translation.z,field.transforms0.transform.rotation.x,field.transforms0.transform.rotation.y,field.transforms0.transform.rotation.z,field.transforms0.transform.rotation.w,field.transforms0.image_error,field.transforms0.object_error,field.transforms0.fiducial_area
1680645398336324691,226,1680645398336324691,camera_1,448,0,0.29620016761812,0.2996043935229671,3.7954380727656365,0.9996181237957964,-0.023465296488842453,0.004785138861313972,-0.013787272599772143,0.00712186179953278,0.0024820794194235674,5906.819423688461
1680645398368841648,227,1680645398368841648,camera_1,450,0,0.2962031841381415,0.29959792240160055,3.7950850665003264,0.9996163959973146,-0.023357842426081594,0.004590179759492573,-0.014156351942291787,0.009001062593597453,0.003136409826739431,5907.358284316375
1680645398399152278,228,1680645398399152278,camera_1,452,0,0.2962288000941008,0.29963751827103385,3.7957139728873868,0.9995941042875549,-0.023261865922345006,0.00693489492958732,-0.014913735269453195,0.006421667556423927,0.002238420843827416,5906.694499288218
1680645398418981552,229,1680645398418981552,camera_1,454,0,0.2961333726534266,0.2995519130743891,3.794554985854369,0.9996193790275196,-0.023639876585218603,0.002202811327797239,-0.014049944125367394,0.007778315033647232,0.0027094678250023066,5907.011662349631
1680645398449171781,230,1680645398449171781,camera_1,456,0,0.29617565121905953,0.29960964659380407,3.7951225116060283,0.9996105172723578,-0.023481089048469853,0.005463541530559709,-0.014057095344730923,0.007290414334420348,0.0025403395430856836,5908.115377259322
1680645398478967189,231,1680645398478967189,camera_1,458,0,0.29616420908672914,0.29960759568209594,3.7950506092842446,0.9996415711345104,-0.023628436676783427,0.0021756493533044907,-0.012397289616303302,0.007081319476128556,0.002467422800492919,5906.92854848795
1680645398509164333,232,1680645398509164333,camera_1,460,0,0.29615016407103456,0.29965981683585996,3.79498386227798,0.9996224110110201,-0.023454807779243615,0.004611107516428611,-0.01355157127517111,0.008055617348873056,0.002806817388347975,5908.252120441874
1680645398539034843,233,1680645398539034843,camera_1,462,0,0.2962259250920135,0.2996910996432217,3.7957697148620375,0.9996468855053426,-0.023625896015997468,0.004538641317050593,-0.011283708251493291,0.00896779483082355,0.003125895186474136,5907.755401234315
1680645398569337129,234,1680645398569337129,camera_1,464,0,0.29622912419064745,0.2997025858511521,3.795781614068244,0.9996244228498188,-0.023355658394713086,0.00443156429575167,-0.013634063994599701,0.004645853015972534,0.0016194350940773262,5905.527665467933
1680645398589388847,235,1680645398589388847,camera_1,466,0,0.2962880057100474,0.29974204906765245,3.7963893261002184,0.9996325740221218,-0.023491426974346283,0.005030328059660491,-0.012552514179575685,0.006759143452654825,0.0023568307051366954,5905.124667302183
1680645398619256734,236,1680645398619256734,camera_1,468,0,0.29616920408704794,0.2996698262133165,3.7952353825825815,0.9996034863015278,-0.02324650378765373,0.003254541438510491,-0.015552433748678006,0.006418081062292913,0.0022365424065932905,5904.406527467945
1680645398649733066,237,1680645398649733066,camera_1,470,0,0.29621066832598864,0.299659910045477,3.7955532032409,0.9996206247260421,-0.02359978882339164,0.004501044946194973,-0.013468377192563311,0.007943520966364304,0.0027684669508010206,5906.479749477119
1680645398669386386,238,1680645398669386386,camera_1,472,0,0.29625539058626327,0.29971143406793244,3.7962461082975025,0.9996392680635655,-0.02369996116080503,0.0038375238467420565,-0.012038230644118913,0.00849689201641013,0.0029625352966820076,5905.027930092244
1680645398699327945,239,1680645398699327945,camera_1,474,0,0.2962362413275815,0.2997405067406096,3.795952804951006,0.9996082622982143,-0.02354628218153992,0.005571528878163829,-0.01406600890556302,0.005766592457803199,0.0020102833167304763,5905.572937964516
1680645398729234695,240,1680645398729234695,camera_1,476,0,0.2961998441897096,0.2997043214080698,3.7953688234694796,0.9995930192664303,-0.023411610895053576,0.006070473080088976,-0.015127513533449797,0.009873708106169943,0.0034410642350735277,5906.799240590422
1680645398759251594,241,1680645398759251594,camera_1,478,0,0.29620561819137387,0.29973200811957024,3.7955782459296326,0.9996083601633216,-0.023569187859686796,0.0018990022593802437,-0.014967079396094173,0.0096857229291345,0.003375932862111144,5902.626009012454
1680645398779111385,242,1680645398779111385,camera_1,480,0,0.29626095111282,0.29978914246604454,3.7963552290197264,0.9996115399341517,-0.023497989612522818,0.00650123674907845,-0.013503615640860287,0.008574256473366404,0.0029897878251987993,5905.606839352639
1680645398809081077,243,1680645398809081077,camera_1,482,0,0.2962425731151584,0.2998362946705079,3.7961158556163204,0.9995741745837128,-0.023213948931239115,0.005584827807237321,-0.016774736321944504,0.005220063067099545,0.0018198887254305231,5902.439855021424
1680645398839258670,244,1680645398839258670,camera_1,484,0,0.2962699959447358,0.29990513330038365,3.7966906132960414,0.999596569074417,-0.023483709355682454,0.008018397699641647,-0.013817372683796597,0.0078825413256709,0.0027490092687960915,5905.458769449031
1680645398869254350,245,1680645398869254350,camera_1,486,0,0.29625234172593445,0.299926544308875,3.796280041021425,0.9995885112230304,-0.023368889068312367,0.006002770588392704,-0.015513542467847719,0.005403937859227881,0.0018842289878060901,5903.452146482654
1680645398889316082,246,1680645398889316082,camera_1,488,0,0.29633594479563846,0.30004495301217343,3.7973843836974077,0.9996116331965098,-0.02346045003031534,0.006524631118771816,-0.013550618116738272,0.0062254203694465104,0.002171959114600641,5902.265202196546
1680645398919185876,247,1680645398919185876,camera_1,490,0,0.29625691776546276,0.3000512614258629,3.796443144666685,0.9996081827395346,-0.02327059808720359,0.005898274717054512,-0.014393422810139181,0.004960573238349753,0.0017297460371628183,5903.8446212396975
1680645398949221372,248,1680645398949221372,camera_1,492,0,0.2961485345854599,0.3000625605563493,3.7949905606608043,0.9995985462181681,-0.023153121134180107,0.0031029843415268724,-0.01603280600665741,0.005371785959141562,0.0018717255986859507,5904.274855954571
1680645398979271411,249,1680645398979271411,camera_1,494,0,0.2962220510160966,0.30021710055904904,3.796043826000731,0.99960109112322,-0.023077071739471856,0.004733038246167787,-0.015579015827693693,0.006915583220688859,0.002411068914312795,5902.834560694058
1680645399008671522,250,1680645399008671522,camera_1,496,0,0.2961866889096239,0.30024395996901815,3.7955936309253517,0.9996202776352555,-0.023245056725491677,0.0032532445800422228,-0.014435521395018103,0.00826057331141783,0.0028792155421619842,5903.975039987883
1680645399027016639,251,1680645399027016639,camera_1,498,0,0.29615701441580017,0.3002611494428668,3.7952206404555717,0.999567366134433,-0.02314437566553434,0.004088636247060079,-0.017683367545932586,0.010323290425731102,0.0035976976321823637,5902.686418939149
1680645399058404684,252,1680645399058404684,camera_1,500,0,0.29606634502678947,0.30019288815689443,3.7940314999297393,0.9995890677630563,-0.023227861067469564,0.0022186075147451394,-0.01665052129844555,0.006976351622142829,0.002429698606898219,5905.706194834316
1680645399088603734,253,1680645399088603734,camera_1,502,0,0.29613297535727034,0.3002879711865555,3.794799410589096,0.9996079159630116,-0.023098849873153547,0.0023320991699884003,-0.01565307612208208,0.009366450569359586,0.0032633844283081526,5904.363213623697
1680645399118976354,254,1680645399118976354,camera_1,504,0,0.29595360173245494,0.3001541676463511,3.7924739138287866,0.9995971619740077,-0.023412222037883672,-0.0025166679954324624,-0.015844494783961525,0.011517632901814068,0.004008203784157267,5906.629468677741
1680645399148462295,255,1680645399148462295,camera_1,506,0,0.29603917559156145,0.30021147354647854,3.7934440286602573,0.9996027173112446,-0.023079249776392807,0.00035280121776855376,-0.016175021021183015,0.010043827063782373,0.0034969495900725334,5906.1654340606165
1680645399168736934,256,1680645399168736934,camera_1,508,0,0.2960882747889939,0.30025031768714827,3.794063683139066,0.9996109553993792,-0.02306792662594469,9.004338144310194e-06,-0.015678281973563597,0.012499920183472568,0.004353503090559037,5904.392971382476
1680645399198501586,257,1680645399198501586,camera_1,510,0,0.29600743821494,0.30014835938433,3.7930001254451526,0.9996096797490377,-0.02306822530431932,0.0002360801892972886,-0.01575720151167652,0.012326753821980674,0.004290840144376989,5907.855195847576
1680645399227875471,258,1680645399227875471,camera_1,512,0,0.29601010990549653,0.3001851509485612,3.7930607796287337,0.999599681697111,-0.023051487821633545,-0.00041432502574101696,-0.016399194950257507,0.012936090457515093,0.004503050937797351,5906.386057613185
1680645399256193876,259,1680645399256193876,camera_1,514,0,0.2960848653754636,0.3001580288846038,3.7941609591563474,0.9996258263364747,-0.02329298571433435,-0.0007455874936006869,-0.014320902098732735,0.009833693300606683,0.0034249415420146154,5904.723875787458
1680645399278319835,260,1680645399278319835,camera_1,516,0,0.2961826831151667,0.3000550098686165,3.795672133445575,0.9995571410300663,-0.023122114787729853,0.005690563941289336,-0.017846767370406733,0.006612948582187528,0.0023051218903357763,5902.680223224221
1680645399309003353,261,1680645399309003353,camera_1,518,0,0.29609883061417236,0.299505377417829,3.7944918998180537,0.9995939120419415,-0.02330801841363182,0.003965723534366745,-0.015906612561018958,0.006333702825941145,0.002206221542041686,5907.105432403913
1680645399339068174,262,1680645399339068174,camera_1,520,0,0.2962557473200838,0.2999168279516154,3.796361974083234,0.9996182546041016,-0.02340691218826503,0.005340877129019866,-0.013672474375666545,0.004139590197155485,0.001443398173415114,5904.376291341148
1680645399369198322,263,1680645399369198322,camera_1,522,0,0.29619260872358777,0.2995104230162523,3.7953450486285654,0.9996220361323431,-0.023615790367414416,0.00413853296407161,-0.013451835148269142,0.006357095313433092,0.0022154572506280384,5906.912755695519
1680645399399344682,264,1680645399399344682,camera_1,524,0,0.29604393781832306,0.29897292647052787,3.793634859197169,0.9995987402058759,-0.023715019714338738,0.0012249210905187291,-0.015442020175369867,0.006580503835721174,0.002291098897332017,5908.03194570495
1680645399419214487,265,1680645399419214487,camera_1,526,0,0.2961238973013098,0.2990119022087845,3.79490157085894,0.9995874859495023,-0.023550884073777506,0.0029268691702082497,-0.01617551326411312,0.005637677480990533,0.0019641763075660154,5905.024792039593
1680645399449118614,266,1680645399449118614,camera_1,528,0,0.2961460688610986,0.29881129477646223,3.7945137332178986,0.9995829707422719,-0.0237426008667886,0.00169131797559717,-0.016349707937464507,0.01023791444094968,0.0035660692453030472,5904.989989346939
1680645399479146480,267,1680645399479146480,camera_1,530,0,0.2961270969975756,0.2984359155392001,3.794573804612515,0.9996520921440865,-0.024128335986762933,-0.00012982054820451404,-0.010653695184589494,0.009664495308243204,0.003366811225968204,5908.504344010202
1680645399509120941,268,1680645399509120941,camera_1,532,0,0.29620926975276435,0.2984296302531465,3.7955892740840245,0.999630720616074,-0.023916706837862563,0.002685474631243295,-0.012617518005750618,0.010151990169106284,0.003538395435089199,5906.373921865189
1680645399539102792,269,1680645399539102792,camera_1,534,0,0.29610136359462735,0.2981041251751901,3.7941451823991716,0.9996085053152725,-0.023812650160150644,0.0031409203775494914,-0.014350206022887143,0.014841164673271125,0.005169052961169804,5909.85196144128
1680645399569285869,270,1680645399569285869,camera_1,536,0,0.2961037675067662,0.2979290506301815,3.7941232293582745,0.999620570653556,-0.02391438419149458,-0.002039202466302481,-0.01351512516783669,0.01570310215902282,0.005469327831512724,5905.80468899908
1680645399599108934,271,1680645399599108934,camera_1,538,0,0.29613754092511,0.29780690371814333,3.7945466952243905,0.9996078581594425,-0.023852864165852184,-0.0008248475498399099,-0.01464549089298798,0.011743088896764675,0.0040906712185551745,5904.78977215453
1680645399629223108,272,1680645399629223108,camera_1,540,0,0.29626866395856666,0.2978433378201433,3.796509589127056,0.999532553414889,-0.02365389230556926,0.006699201682660942,-0.018173847680767064,0.010045046659797663,0.0035028285221123776,5902.195207881914
1680645399659119606,273,1680645399659119606,camera_1,542,0,0.29626979378318685,0.29774623593648203,3.7961949823643417,0.9995783257711515,-0.023819384231003986,0.0031330822497019103,-0.016309242134882877,0.008272990326076979,0.0028843856098049584,5901.967990354172
1680645399679038286,274,1680645399679038286,camera_1,544,0,0.2963344490526546,0.29774140133744403,3.796977223041372,0.9995907337432463,-0.023769655610845635,0.004262159414829606,-0.015336312591455629,0.00916768364913878,0.003197529562002485,5901.517669670865
1680645399709135055,275,1680645399709135055,camera_1,546,0,0.296289437530882,0.29766940385228513,3.7967304711835594,0.9995706645199856,-0.02380295842570122,0.004208119017001975,-0.01655891106316315,0.006989210887695663,0.002437353026448862,5901.13333441742
1680645399738545417,276,1680645399738545417,camera_1,548,0,0.29635743848748125,0.29767817664996443,3.797563310958973,0.9996264681820207,-0.02397102362577493,0.004764933041588113,-0.012231498247622158,0.0067530887317843735,0.0023559776955756864,5903.059186772325
1680645399768166542,277,1680645399768166542,camera_1,550,0,0.2962987665382443,0.29756696385269,3.7966682935521634,0.9995588870265211,-0.023674704725138756,0.007561379112943634,-0.01625931328163556,0.008913825691706734,0.0031084658012576183,5904.475729286672
1680645399798025131,278,1680645399798025131,camera_1,552,0,0.2963426596557802,0.297508557622901,3.7968873361983486,0.9995908954329399,-0.0240910061315583,0.0034759603505824716,-0.01501941712530754,0.01119872618073714,0.0039056734474766674,5901.546763870515
1680645399818110942,279,1680645399818110942,camera_1,554,0,0.29628078303816735,0.29742200936001784,3.7962532260097053,0.9995725602396943,-0.023836117289808337,0.004564450002727337,-0.016300371915444513,0.006605688744457439,0.0023029731453950014,5903.292409624674
1680645399848104953,280,1680645399848104953,camera_1,556,0,0.2962759833800914,0.29736154616558075,3.796327516114749,0.999615458173235,-0.024136565608407753,0.0036597230299727497,-0.013151745476875594,0.00824329956958536,0.0028740575114965263,5905.255110359578
1680645399868277549,281,1680645399868277549,camera_1,558,0,0.29632078220773334,0.29735851250113976,3.7967966174377823,0.9995988401685998,-0.024301099288702215,0.0035748874202748376,-0.014100903761221754,0.007800504230544902,0.0027202412907824445,5902.8885821866
1680645399908094406,282,1680645399908094406,camera_1,560,0,0.2963028521050345,0.2973829597571678,3.7966469176822453,0.9996370734781219,-0.024367115067200885,0.0016586241108480285,-0.011367233500570492,0.009361401407659287,0.003264411126670161,5903.994473587369
1680645399928184270,283,1680645399928184270,camera_1,562,0,0.2963279329669185,0.2974433502103357,3.797027974494417,0.9996008130998276,-0.024066555907689864,0.0048629345907172435,-0.013977381874731791,0.009703099312901031,0.00338428559127981,5903.372217266415
1680645399967947959,284,1680645399967947959,camera_1,564,0,0.29626827393988303,0.29734346695582625,3.7960265102899315,0.9996085523211937,-0.0241255185482682,0.004027640100560324,-0.013582326616777466,0.010180997447605478,0.0035490596915425847,5906.109877250916
1680645399997915029,285,1680645399997915029,camera_1,566,0,0.2962577333842815,0.29733677652366775,3.7961950231258665,0.9996150795983726,-0.024376556552608793,0.0013759644831438742,-0.013175084512740128,0.0060790988100052346,0.0021193435597930796,5903.574941174709
1680645400028050899,286,1680645400028050899,camera_1,568,0,0.296289214540143,0.2972802404604009,3.7965343785492474,0.9996087942980858,-0.024117531557858438,0.004291521913357893,-0.013497624722528016,0.00878779780032346,0.0030642383917081737,5904.930336660067
1680645400058087348,287,1680645400058087348,camera_1,570,0,0.29627649937212713,0.2972086303878533,3.796233500819106,0.9996235774195502,-0.02420258196034204,0.0035289624792225276,-0.01242919616120242,0.011224422782106558,0.003913417404977926,5906.158468560431
1680645400077999830,288,1680645400077999830,camera_1,572,0,0.2962705031059648,0.2972063692407925,3.7961122778821066,0.9996329297562033,-0.024422257560311515,0.002581570597295529,-0.01144091674380006,0.010072180757561,0.0035113345032939023,5906.528452100989
1680645400118158817,289,1680645400118158817,camera_1,574,0,0.2963295527103676,0.2971999405306047,3.796803102709806,0.999643962342104,-0.024435968234033184,0.003215421303997273,-0.010222185445462344,0.011258907557930797,0.003926493739597562,5906.01114186196
1680645400138075351,290,1680645400138075351,camera_1,576,0,0.29631313703786755,0.2971786491598803,3.7964165232025744,0.9996471868869523,-0.024381387436171048,0.0027587562453242585,-0.010170494563638182,0.010556880974036176,0.003680918191390964,5906.817929735524
1680645400167951345,291,1680645400167951345,camera_1,578,0,0.29630138576005777,0.29728181281391824,3.7966498496293157,0.9996186249895479,-0.024258933987003906,0.005822908906399586,-0.011840710607373486,0.007509364211728098,0.0026186266215431253,5907.343715328545
1680645400198019981,292,1680645400198019981,camera_1,580,0,0.29630620288462345,0.29727353790159894,3.7965133479306092,0.9996286107040291,-0.024454364963341538,0.002100183667299831,-0.01184119608553679,0.007710986858000979,0.0026888510514259866,5904.461181552497
1680645400227963209,293,1680645400227963209,camera_1,582,0,0.2962637598120358,0.29722065657553287,3.796084025201493,0.9996244865361424,-0.024142768752708682,0.003634570308055759,-0.012441966604311972,0.00914865955201094,0.0031892590853074302,5906.694353978382
1680645400256721735,294,1680645400256721735,camera_1,584,0,0.29626620243975643,0.2971942760383007,3.7959513546141666,0.9996534358326881,-0.024473699755271933,0.001892993419271916,-0.009511194672865127,0.009275296546547906,0.003233379946437595,5907.978789766901
1680645400277899265,295,1680645400277899265,camera_1,586,0,0.29626489133807465,0.29717832695576785,3.7961116180470453,0.9996251148588705,-0.02423873772950306,0.002686101859023037,-0.012445810277886516,0.011363832112692764,0.003961562540064226,5905.784189213475
1680645400317933320,296,1680645400317933320,camera_1,588,0,0.2963017252562157,0.29715920509710997,3.7965988998637545,0.9996339216219581,-0.02451801089933999,0.0037482051070169145,-0.010809294274864064,0.008574269046221161,0.0029899384322024597,5906.665252437349
1680645400338006258,297,1680645400338006258,camera_1,590,0,0.2961928627162136,0.29702410593036266,3.795417399549944,0.9996602146622464,-0.024532765108028397,0.0016771305470728698,-0.008647883597390708,0.009611490244424203,0.0033496808321455012,5910.250431104039
1680645400368179559,298,1680645400368179559,camera_1,592,0,0.29621004663201617,0.29697173207885447,3.7953723493434652,0.9996391976374539,-0.02454184072923726,0.0016657087090600792,-0.01078879116790131,0.0111154100013664,0.003873701785418744,5908.652999573328
1680645400398022413,299,1680645400398022413,camera_1,594,0,0.2962324115951932,0.297007970900778,3.7956227158917075,0.9996410221086408,-0.024487816700034498,0.0017499663201992522,-0.010728996632287087,0.011518499410158256,0.004014499263174478,5907.99235036009
1680645400427812576,300,1680645400427812576,camera_1,596,0,0.2962906403966295,0.2970877174179688,3.7962158774477075,0.9996323087080898,-0.024397378876708106,0.0020317155609766964,-0.01165707608107307,0.01123002020540298,0.003915251365999624,5905.585664733429
1680645400457898855,301,1680645400457898855,camera_1,598,0,0.29624393436697316,0.29720075662727424,3.7959629550794376,0.999607504923102,-0.024159884257486136,0.005559296446176941,-0.013047234078489605,0.00810706942138495,0.0028259141113590853,5908.22869783756
1680645400477895975,302,1680645400477895975,camera_1,600,0,0.2963143139436293,0.2973000657455435,3.796848090656125,0.999650418245691,-0.02446061586751691,0.002681154513302195,-0.009671141766754158,0.009030619989061961,0.003149451320834004,5905.7931413172055
1680645400508043289,303,1680645400508043289,camera_1,602,0,0.29626428167275715,0.2973206745615697,3.796273061708614,0.9996253522751685,-0.024186384828600704,0.0029323347456504853,-0.01247298242633582,0.00830092592877918,0.0028940281469913187,5905.40717023256
1680645400538080215,304,1680645400538080215,camera_1,604,0,0.2962360292269023,0.2973471965819009,3.7959715852435125,0.9995920743333622,-0.02401049621377132,0.004435229091362408,-0.014815861244022382,0.005756158108852105,0.0020064961155915302,5905.52997118287
1680645400568231821,305,1680645400568231821,camera_1,606,0,0.2962830173947873,0.2973947660693646,3.796334184501663,0.9995954170999942,-0.024107785391841777,0.004294451109497371,-0.014469778362426612,0.007069335522828624,0.002464754798987039,5904.566686617619
1680645400598135709,306,1680645400598135709,camera_1,608,0,0.29627936972580465,0.2973987589429849,3.7966045223599796,0.9996315609607453,-0.024176278874390042,0.0036499663658356852,-0.011786755978627512,0.009894172926578904,0.003450067619118184,5905.596245568944
1680645400627991437,307,1680645400627991437,camera_1,610,0,0.2963271514711265,0.2974319467865655,3.7971262720997347,0.9996232056283224,-0.024234816057381182,0.0030483242131157215,-0.012523105825368681,0.008002815829968313,0.002791356282753847,5902.791122779134
1680645400657777070,308,1680645400657777070,camera_1,612,0,0.29623729131799625,0.29726563452228005,3.795835964291198,0.9996289829890821,-0.024302056322290277,0.0019031056243064399,-0.012152555932989213,0.008874945182469673,0.003093415672899201,5906.108381541448
1680645400688021183,309,1680645400688021183,camera_1,614,0,0.2962688161622406,0.2972409204438379,3.7964409977154547,0.9996367061734446,-0.024413985447824256,0.0031696645275027177,-0.010971153633189365,0.007988661374838557,0.002785432474451686,5906.464237934912
1680645400717884302,310,1680645400717884302,camera_1,616,0,0.29628210444699643,0.29724383045056246,3.7966238641613548,0.999618952025598,-0.024225057466530926,0.004969228366717415,-0.012263935397241566,0.010695372799091274,0.0037296748647695525,5906.379244012758
1680645400758066177,311,1680645400758066177,camera_1,618,0,0.296288321164059,0.2972303692360286,3.7965654504145943,0.999633171224436,-0.024362206583295676,0.003984674689371174,-0.011141285643515289,0.01014760716134333,0.003538504563876403,5906.661840883721
1680645400788004875,312,1680645400788004875,camera_1,620,0,0.29618568021102426,0.29712785779366274,3.7952911445175195,0.9996193527638175,-0.02413010180651043,0.0030820939141367526,-0.013014932345529712,0.009938432591297897,0.0034631047727638527,5908.201301104042
1680645400817917585,313,1680645400817917585,camera_1,622,0,0.29628009130747085,0.2972375028236691,3.7966600485009656,0.9996195246885977,-0.024189069002874312,0.002574515894839579,-0.013002563978824244,0.007535636661486933,0.0026276709086315913,5903.508991584881
1680645400848116159,314,1680645400848116159,camera_1,624,0,0.2962362972273179,0.2972349818428723,3.7961616342302795,0.9995938921555274,-0.024258453299029037,0.0042867832848477025,-0.014324862930288484,0.011326749579893658,0.0039488638410381145,5905.37519489933
1680645400878710031,315,1680645400878710031,camera_1,626,0,0.2962731149479211,0.297294740724502,3.796495119303565,0.9996175478021903,-0.024262665129386442,0.0036432340810775335,-0.012759625863869936,0.008002473874512361,0.002790266720398795,5905.145711413702
1680645400908609628,316,1680645400908609628,camera_1,628,0,0.29631395082545825,0.29735630729011847,3.7969314484295826,0.9996109557521571,-0.024057706016769174,0.004104471259879042,-0.013502490035052415,0.01113618198723998,0.0038837942356090872,5903.508597808252
1680645400938098192,317,1680645400938098192,camera_1,630,0,0.29626618139615,0.2972994076329222,3.7965383386389755,0.9996430118794373,-0.024256793674407414,0.0036029167657694026,-0.01060545859562113,0.010017168198828585,0.0034929505540987637,5906.831333297597
1680645400968630552,318,1680645400968630552,camera_1,632,0,0.2962629968059604,0.29725767634907013,3.7962121111757017,0.9996296686723691,-0.024413935760895032,0.0018069201986467274,-0.011883614350357438,0.010175003510084935,0.003547188586135872,5905.116232987262
1680645400998317241,319,1680645400998317241,camera_1,634,0,0.296241620793529,0.29719922426893874,3.7961313613789978,0.9996142007183941,-0.024306511608462332,0.0032124234901421823,-0.013050806521967445,0.008441560712526552,0.0029429199587288715,5905.679906936537
1680645401028678178,320,1680645401028678178,camera_1,636,0,0.2961841383796951,0.29703087801785155,3.795116964148038,0.9995892962616341,-0.024199758257160656,0.0039131147121217,-0.014842440254763325,0.01004098109115148,0.0034986180929551,5907.864754910404
1680645401058426380,321,1680645401058426380,camera_1,638,0,0.29626914901850265,0.2970343117551166,3.7963513737824943,0.9996337815319458,-0.024427323497963532,0.0035840681332007453,-0.01107985299923323,0.010957170634355862,0.003820301250405137,5907.152010960677
1680645401087917089,322,1680645401087917089,camera_1,640,0,0.2961783937675981,0.296879362506716,3.7951013155102595,0.999614662209511,-0.024458792777501227,0.002893249722300817,-0.01280326746096489,0.01137994759847061,0.003965211726730367,5908.960783434915
1680645401118763208,323,1680645401118763208,camera_1,642,0,0.2961080589828581,0.29674911832045936,3.7939328535823664,0.9995762098780142,-0.024269773377820384,0.0017530518486401907,-0.015978283866221434,0.017377855740051018,0.006051455051878392,5908.622464340939
1680645401148130655,324,1680645401148130655,camera_1,644,0,0.29613187851909367,0.29681911449146803,3.794450543980363,0.9996121799675645,-0.024381058636074412,0.001709697216592286,-0.013346556698469585,0.013499466076609679,0.0047020242103370516,5909.413760289433
1680645401168622493,325,1680645401168622493,camera_1,646,0,0.29620247258234345,0.2969428198929549,3.7957459589693814,0.9996205262094192,-0.0245340579044726,0.003756627010429537,-0.011948696039677098,0.009496596532699186,0.0033100648736493652,5908.500471888404
1680645401198505878,326,1680645401198505878,camera_1,648,0,0.2962175884696341,0.2969919248004891,3.795929126321175,0.9996286092606322,-0.02447469339380311,0.002784063444263378,-0.011656840123816617,0.00929590115629253,0.003240370062802649,5907.282703901874
1680645401228675365,327,1680645401228675365,camera_1,650,0,0.29620256737000983,0.2970096352603132,3.7953659242675806,0.9996093519291821,-0.024365027170912452,0.002924154196591812,-0.013376782457526295,0.01113013143549324,0.003878679933855462,5907.574879599966
1680645401258565902,328,1680645401258565902,camera_1,652,0,0.29625940195223743,0.2971218604134731,3.796414732758057,0.999610462542721,-0.024247189955468124,0.004714728687203507,-0.012991084935325496,0.008474991082039196,0.0029551139698910504,5906.247246654705
1680645401288332223,329,1680645401288332223,camera_1,654,0,0.2962259036861186,0.29709662818644467,3.796000286543681,0.9996143786379299,-0.02425848015023007,0.003335872292675557,-0.013095499881758005,0.009576432366884546,0.0033383000899352717,5906.229754008177
1680645401318198680,330,1680645401318198680,camera_1,656,0,0.2963205785030057,0.29718228949052383,3.7971054866407177,0.9996403812468753,-0.024370180255382238,0.004481373758683399,-0.010252793968339662,0.010209572552412283,0.00356112347472936,5906.231954796185
1680645401348453521,331,1680645401348453521,camera_1,658,0,0.29623525733646777,0.29708771937440787,3.795894868626956,0.9996257214759242,-0.024163414592326654,0.0030910083060795616,-0.012449579375588405,0.008713192048162455,0.003037285679372438,5906.881456917502
1680645401368677616,332,1680645401368677616,camera_1,660,0,0.2962356368677508,0.2971076952682834,3.7958497264986537,0.9996296870861732,-0.024299666991038592,0.003228465265633022,-0.011814901275634514,0.009818448717851425,0.0034223558767233625,5907.682144316496
1680645401408607482,333,1680645401408607482,camera_1,662,0,0.29623806320896773,0.29713872536671015,3.7956949603791807,0.9996257956354601,-0.02436245278168983,0.002069183238523605,-0.012266135306560517,0.01006106070781243,0.0035067894926854785,5906.663398067816
1680645401428059339,334,1680645401428059339,camera_1,664,0,0.2962693096511926,0.29719282903347777,3.796207279083168,0.999632307500764,-0.02424044801767742,0.0028160472480688735,-0.011820336649056665,0.00977411869826028,0.003407552326308673,5906.145309137004
1680645401457861423,335,1680645401457861423,camera_1,666,0,0.2963225401135116,0.29728511432323435,3.797049385344562,0.9996048837529043,-0.024267811748125045,0.005078408080870217,-0.013242335959501462,0.008141306949255522,0.0028395260970608288,5904.276291712595
1680645401488029479,336,1680645401488029479,camera_1,668,0,0.29631975828786106,0.2973014943973588,3.796886382485,0.9996115927363368,-0.024390751762468788,0.004207002470568251,-0.012808435727991115,0.01041256268217694,0.003631495012895473,5904.382266839267
1680645401518056392,337,1680645401518056392,camera_1,670,0,0.29626128430232607,0.2972621463533541,3.796265805949848,0.9996254542935767,-0.02428633322070509,0.0036871668288273375,-0.012063579395421962,0.007315727918467019,0.002550588032547955,5906.5055749870935
1680645401548002243,338,1680645401548002243,camera_1,672,0,0.29626308406541574,0.29728079462764934,3.7961175220956496,0.9996159429477471,-0.024242294998517454,0.004009022258440421,-0.012814268548088042,0.007244634838571074,0.0025255996674204734,5906.557325475616
1680645401577985525,339,1680645401577985525,camera_1,674,0,0.2963040371826644,0.2973141235521652,3.7968019186211306,0.9996285737429516,-0.02422370533403024,0.004914069048704431,-0.011479485263164039,0.006952222833206179,0.0024245285889020994,5906.404511796198
1680645401608709335,340,1680645401608709335,camera_1,676,0,0.2962202826695314,0.29719846275985135,3.795750765605018,0.9996195619872782,-0.024424933757643975,0.003922438968634381,-0.012197064230137823,0.010512145490793046,0.0036639710287560156,5908.22298772563
1680645401628639936,341,1680645401628639936,camera_1,678,0,0.2962857717441941,0.29722945910422,3.7966365324790026,0.9996313544001483,-0.024382222341705565,0.00273098200969163,-0.011627737143024638,0.010466757747053634,0.003649969723231339,5904.916932202176
1680645401658571958,342,1680645401658571958,camera_1,680,0,0.29626683781776963,0.29717657366380046,3.79648041584624,0.9996410567771132,-0.02438864310034713,0.004529526430445214,-0.01012102186423379,0.008516461617546156,0.0029695698990264093,5908.30148204346
1680645401688497304,343,1680645401688497304,camera_1,682,0,0.2963080676879723,0.29719445992370785,3.797063067307178,0.9995896713975164,-0.024110063488216118,0.005957478717624063,-0.014272425208370722,0.006545955202454934,0.002283226993417434,5904.117369640444
1680645401718499660,344,1680645401718499660,camera_1,684,0,0.2962256266845757,0.29710335116706077,3.796080259770989,0.9996183833146527,-0.024229548981313874,0.004223330140682827,-0.012576970147256327,0.008607738393038744,0.0030007905085333397,5907.231426278247
1680645401748668909,345,1680645401748668909,camera_1,686,0,0.29627597114429177,0.29714279731270277,3.7966002836865345,0.9996098374101854,-0.02427606591986803,0.0051844162420772374,-0.01280497576982987,0.008840420854539843,0.00308270022431289,5906.237302000924
1680645401778737306,346,1680645401778737306,camera_1,688,0,0.2962860565028246,0.29716406847025767,3.7967622685731235,0.9996291550085692,-0.024372830218117703,0.0035163217167206284,-0.011625535927324855,0.009192834189889254,0.0032058991152753,5905.299401705443
1680645401808404207,347,1680645401808404207,camera_1,690,0,0.2962470042886644,0.29715826782309507,3.7963505155608597,0.9995834290679998,-0.02425702874085082,0.005154907960753872,-0.01476454581897721,0.010231825672235573,0.0035673789053290556,5905.203589121695
1680645401838565111,348,1680645401838565111,camera_1,692,0,0.29624805179789165,0.29718115541838697,3.796439266098682,0.9996135243078536,-0.024374629537323566,0.004215438333054857,-0.012685012235344871,0.005807566270959796,0.002024940630776356,5905.9878756785765
1680645401868686914,349,1680645401868686914,camera_1,694,0,0.2962635169100612,0.29719930414683193,3.7965619588777852,0.9996224036526674,-0.024220506009922566,0.004572502227193354,-0.012145345926294284,0.008132318958814722,0.002835705585554179,5906.376345365539
1680645401888721942,350,1680645401888721942,camera_1,696,0,0.2962241854311065,0.29717989401755596,3.796108188586238,0.9995821739865474,-0.024221799973814878,0.004946636665757032,-0.014977070476342093,0.010176442363444949,0.0035476626365679447,5905.554918811829
1680645401918474674,351,1680645401918474674,camera_1,698,0,0.29624492573949857,0.2971916860939686,3.7962401162893054,0.9996251682614876,-0.02441504060819734,0.00342177539270086,-0.011904630336743197,0.008388198839384131,0.0029245103853425204,5906.551478661134
1680645401948534011,352,1680645401948534011,camera_1,700,0,0.296283118451664,0.2972399438993409,3.796907602355532,0.9996132357742213,-0.024392248953273195,0.005595419859913612,-0.012127997880271104,0.009407101242686622,0.0032808366829621643,5906.195855677946
1680645401978653907,353,1680645401978653907,camera_1,702,0,0.29631861731431186,0.2972544768948302,3.7971290360482617,0.9996233379131805,-0.024339003871685038,0.005105318294022035,-0.011607364686381133,0.008792197630100418,0.0030666792407407495,5905.519173170907
1680645402008656501,354,1680645402008656501,camera_1,704,0,0.29630327328226913,0.29723966397278034,3.797061976789495,0.9996204360830614,-0.02425393490922709,0.004361043778804363,-0.012317130497351853,0.00874122223467566,0.0030488207398287927,5904.488434463043
1680645402038913249,355,1680645402038913249,camera_1,706,0,0.2962642824560117,0.29719910013858536,3.796499006956611,0.999605114917147,-0.02443041215131461,0.00550473110469219,-0.012746259414413768,0.0067335068379179575,0.002347917249626049,5906.835826494209
1680645402058881044,356,1680645402058881044,camera_1,708,0,0.2961925491291063,0.2971265703158117,3.795635178613898,0.9995983028720604,-0.024303870182386136,0.004304918298002182,-0.01392919480450836,0.008802194308373146,0.0030678097686518357,5907.439987206013
1680645402088862895,357,1680645402088862895,camera_1,710,0,0.2962564278462202,0.2971681843425269,3.796476291343405,0.9996129525647566,-0.024369907547171592,0.0037834253157797426,-0.012873941268787237,0.009071537206182256,0.0031630645463882824,5905.332527715244
1680645402128098964,358,1680645402128098964,camera_1,712,0,0.2963155156216106,0.2972146016282511,3.7971080388650904,0.9996342983528947,-0.02464454960922827,0.004002734115465395,-0.010387196478119715,0.009208667692291783,0.0032119608007402955,5905.683038989722
1680645402157837867,359,1680645402157837867,camera_1,714,0,0.29633260157094865,0.29723257541413933,3.797472970305256,0.9996240952055414,-0.02441113903191249,0.0049888549227531855,-0.011440100621369362,0.009099535662244307,0.0031743974265139923,5904.544701346778
1680645402177829980,360,1680645402177829980,camera_1,716,0,0.2962775783538998,0.2971846689189344,3.7966756969385744,0.9996159362042175,-0.024304010027938593,0.0038496799469036717,-0.012746573948869086,0.009442571856197901,0.0032927905647342354,5904.87552568683
1680645402207872629,361,1680645402207872629,camera_1,718,0,0.2962138881483347,0.2971523066443607,3.795923455376118,0.9995669875620478,-0.02415298557730687,0.006519138888234295,-0.015491013265480786,0.007059938263410004,0.002460978864308509,5906.968470433205
1680645402247097253,362,1680645402247097253,camera_1,720,0,0.29627399875789545,0.2971874752976802,3.796797284495132,0.9996468943274389,-0.024595621783870134,0.0028009164721015355,-0.009659032947842374,0.007154937105951831,0.0024952066344427638,5906.1887214508
1680645402277279138,363,1680645402277279138,camera_1,722,0,0.29629281932596985,0.2971758353069471,3.7966970843978327,0.999597978111412,-0.02429065256401445,0.005413929769801416,-0.013584392442772975,0.009890236447972711,0.0034488269094060404,5905.41291440639
1680645402308813333,364,1680645402308813333,camera_1,724,0,0.2962944835786959,0.2971661315710876,3.7967675738468816,0.9996441162087497,-0.024493545136801888,0.0032558825067861633,-0.010055168072256548,0.01002233798863017,0.0034952023521318894,5906.354509391942
1680645402338826894,365,1680645402338826894,camera_1,726,0,0.29631052605223046,0.29719494796189566,3.7969598145486385,0.9996392633004438,-0.024567055900926466,0.004440037122371828,-0.00990399428809531,0.010233936744043604,0.003569368031888937,5906.918734961421
1680645402378168106,366,1680645402378168106,camera_1,728,0,0.2962456140355736,0.2970841266774304,3.796013930926769,0.9996298143630421,-0.02454470791152502,0.002687741503479147,-0.011426617857371873,0.010694567408791045,0.0037281273194995895,5907.044321969265
1680645402408804893,367,1680645402408804893,camera_1,730,0,0.2962293533503429,0.29710885020428446,3.7960368857846682,0.9996197130277241,-0.02438638000085062,0.004147558488535157,-0.01218735227228932,0.008565654410631396,0.0029860050624793133,5907.629371132294
1680645402468734025,368,1680645402468734025,camera_1,732,0,0.2962947482818019,0.29715756049239345,3.7967504954977658,0.9996248344467622,-0.02445604746014712,0.004071059411667542,-0.011641244571655,0.008689066373335663,0.003030168013847325,5905.808235824108
1680645402498727321,369,1680645402498727321,camera_1,734,0,0.2963097332431244,0.29718311560412236,3.7968967451823845,0.9996073349737642,-0.02423768564585271,0.005493168996937694,-0.012943552663496193,0.010972521024086745,0.0038268041714342674,5905.431955098059
1680645402528071403,370,1680645402528071403,camera_1,736,0,0.2962717688133507,0.29713723110433526,3.7964929820398794,0.9996204172453974,-0.024346585203842655,0.004240853444882587,-0.012177043036332857,0.008745093866309617,0.0030492790439025415,5906.298558937331
1680645402558048486,371,1680645402558048486,camera_1,738,0,0.29627467722902523,0.29709681291715007,3.796271690989013,0.999622426815061,-0.024319579606812324,0.004303443392025068,-0.012043348001599433,0.009834300457441714,0.003428694350369848,5907.148507337724
1680645402587835311,372,1680645402587835311,camera_1,740,0,0.296277923452095,0.29711664913135005,3.7966122742175923,0.9996256269058089,-0.02448276321679721,0.0036061815870840836,-0.011670295317591381,0.009415551059646532,0.0032832696591055567,5905.830481601126
1680645402619161605,373,1680645402619161605,camera_1,742,0,0.2962521183321753,0.2970673963563796,3.796104363893819,0.9996095346243689,-0.024470815481092593,0.003750944415050515,-0.01295715608218961,0.011898241446033353,0.004148133183021877,5906.403087573709
1680645402648705720,374,1680645402648705720,camera_1,744,0,0.29621801622984434,0.2970144972361265,3.795638857220019,0.99960594272394,-0.024243091096590903,0.004889650041385102,-0.013278671904160065,0.012009625919745304,0.004185701228054611,5908.571685022444
1680645402678638696,375,1680645402678638696,camera_1,746,0,0.2962007433182571,0.2970056089928057,3.795479736967879,0.9996144203816454,-0.024378217952790215,0.002916250185194568,-0.012969523482797462,0.010086532442073803,0.0035151627302708833,5907.599619244344
1680645402708543539,376,1680645402708543539,camera_1,748,0,0.29620853124319513,0.2970161497259408,3.7955347839799165,0.9996181043408877,-0.02450618184470232,0.0014881041271347126,-0.012683771971754933,0.011780324617575388,0.004105574637247959,5906.35491648753
1680645402738618850,377,1680645402738618850,camera_1,750,0,0.2962413896958099,0.29704402003515296,3.795912225014289,0.9996157045235664,-0.02450714393986856,0.0027693851425467913,-0.012655973755384438,0.010037787316832691,0.0034989451280258697,5906.389246612556
1680645402758719682,378,1680645402758719682,camera_1,752,0,0.2962650229968816,0.29705212412525256,3.7960748015320966,0.9996278988600452,-0.024428182856649425,0.0029929136687716885,-0.011763085086184549,0.010058729436423164,0.0035065777155122656,5906.850349172716
1680645402787896156,379,1680645402787896156,camera_1,754,0,0.29626185412188083,0.29707069922715,3.7961494570389416,0.9996158879608383,-0.024405205976618723,0.0038158382322657294,-0.012565899732560778,0.00964197181747295,0.003361446763212002,5906.659837384415
1680645402818983316,380,1680645402818983316,camera_1,756,0,0.29618742381783647,0.2969937919897051,3.795293556839732,0.9996394735259122,-0.024604727766975826,0.0027583992908639635,-0.010388530873146567,0.00821853166053188,0.0028639385107281177,5910.2433517780155
1680645402889183759,381,1680645402889183759,camera_1,760,0,0.2962366966054888,0.2970659123559077,3.7959170677612097,0.9996418435030674,-0.02451771531488979,0.001080708758373845,-0.010672320371245882,0.008692701449035667,0.0030300760055082918,5906.491924644097
1680645402919329881,382,1680645402919329881,camera_1,762,0,0.2961844996679537,0.2970101007310143,3.795116340514602,0.9996206389070029,-0.02433306743491743,0.0029766385243746476,-0.012554669388652158,0.011895824780367548,0.004144907811538832,5909.114346634014
1680645402939127922,383,1680645402939127922,camera_1,764,0,0.2961858663329599,0.2970625966677524,3.795307280141559,0.9996208788826481,-0.02448451310730312,0.0036111588460341604,-0.012065100561929805,0.008263810981588904,0.002879717816504009,5909.506555261209
1680645402969127655,384,1680645402969127655,camera_1,766,0,0.29619340665661875,0.2970381559455903,3.795568169555418,0.9996177519692728,-0.024236721444165863,0.002803187831068518,-0.013002823521022791,0.0069141300991759636,0.0024096823780354417,5907.187232798955
1680645402999108076,385,1680645402999108076,camera_1,768,0,0.29626773020074215,0.29709903583403663,3.7963291047027377,0.9996310577665247,-0.024519091369874832,0.0036114958603125596,-0.011113937404247785,0.009693300686194561,0.0033796709551912737,5907.170097869528
1680645403028719902,386,1680645403028719902,camera_1,770,0,0.2962512813686309,0.2970743887631748,3.796015272113071,0.9996219342292619,-0.024487675479395888,0.0021067323743394475,-0.012324935540106906,0.01058424996881513,0.003689829882597786,5905.726981531594
1680645403058163881,387,1680645403058163881,camera_1,772,0,0.29622312852950866,0.29702450605400216,3.7956743561474107,0.9996157938624898,-0.02454101077610973,0.0008157708012743968,-0.012858381264808703,0.010106737623573281,0.0035225842649026493,5905.125034975818
1680645403078403472,388,1680645403078403472,camera_1,774,0,0.2962385503036655,0.29704983637655186,3.7959385104175114,0.9996247345449928,-0.024394059820380676,0.004119746662238736,-0.011762126456188373,0.009720687990920851,0.0033885017098692917,5908.293135618094
1680645403117595911,389,1680645403117595911,camera_1,776,0,0.29628771681451416,0.29710814071372504,3.7966264540977117,0.9996328052342761,-0.024391662300024968,0.0022006431293786536,-0.011595631915087739,0.010617750784149393,0.0037025947248829102,5904.568247108133
1680645403147997140,390,1680645403147997140,camera_1,778,0,0.2962430314728251,0.2970508132402315,3.7958538876158303,0.9996254865561346,-0.02438955474600964,0.003602939382274601,-0.011876660915864867,0.00912885065554292,0.003182059420771166,5907.98093577573
1680645403177906036,391,1680645403177906036,camera_1,780,0,0.29622679382707795,0.29704018733280924,3.7956626384599965,0.9996230154025629,-0.02449096288649421,0.002835092780263479,-0.01208230372517458,0.011268979378655786,0.003927642132235013,5907.708733002481
1680645403207995414,392,1680645403207995414,camera_1,782,0,0.29619376616827287,0.29702401443196386,3.7953528370320258,0.9996082129627046,-0.024241567257024,0.0026420301796534493,-0.013739966192146472,0.008125569500407437,0.002831580286473821,5907.026906977699
1680645403237703084,393,1680645403237703084,camera_1,784,0,0.2962508673720794,0.2970582503642014,3.7959147149742063,0.9996465539865415,-0.024554718369621375,0.001998948444961169,-0.009991852367588261,0.011246476882661227,0.003920532712409932,5907.906945519209
1680645403267596483,394,1680645403267596483,camera_1,786,0,0.296240066117885,0.2970359791344471,3.7960196466144414,0.9996347926696563,-0.024522029711578873,0.002604312983607491,-0.011053003980873699,0.008898432926798705,0.0031019445244789535,5907.306823163819
1680645403297861576,395,1680645403297861576,camera_1,788,0,0.29623478596155245,0.2970107532354687,3.7958109699067997,0.999637939078341,-0.024529802100888592,0.0029127499445797175,-0.010667495107029423,0.009207981336658122,0.0032095030479238414,5908.552465414398
1680645403328001976,396,1680645403328001976,camera_1,790,0,0.2961474221922576,0.2969463498410102,3.7947048920124193,0.9996354580346892,-0.02476039214988989,-0.0013559908731795342,-0.010678731624704863,0.010006483371398645,0.003486127413235146,5907.876357743866
1680645403357982397,397,1680645403357982397,camera_1,792,0,0.2962600250932117,0.29708187110617224,3.7961661633354167,0.9996429631094428,-0.024467139208975138,0.001638122463243631,-0.010612349386317615,0.01349715378091787,0.0047055043480673225,5906.291368437815
1680645403378057003,398,1680645403378057003,camera_1,794,0,0.29621397499266033,0.29705058590523115,3.7954868774063666,0.9996190611559204,-0.024313738917378095,0.002906800674093566,-0.012732838782256992,0.012011392311251257,0.004186144911287668,5907.729064254439
1680645403418022394,399,1680645403418022394,camera_1,796,0,0.29621976278693757,0.2970304228651947,3.795801856692938,0.9996367116994226,-0.02462773066167039,0.0016665244565115499,-0.010823225095039926,0.008014959374122554,0.0027937265685754925,5907.303559166845
1680645403447998523,400,1680645403447998523,camera_1,798,0,0.29621954723952554,0.2970234379641694,3.795678095580421,0.9996251114059526,-0.02417207342094575,0.0028125887510818508,-0.012547384495851433,0.010942546654405305,0.003813843237099396,5907.253506588401
1680645403477805376,401,1680645403477805376,camera_1,800,0,0.2961866471348961,0.2969749916163118,3.7952798487443045,0.9996345222330358,-0.024389678181318163,0.0023183733975277337,-0.011427628928683745,0.012111926527722972,0.0042205544697377145,5909.024576756114
1680645403498046398,402,1680645403498046398,camera_1,802,0,0.2962209648391142,0.2970510517482116,3.795949604927531,0.999604959592246,-0.024263989321929552,0.005337435151966647,-0.013141360917658057,0.00975480131819495,0.0034005715249232097,5908.121017195284
1680645403528805732,403,1680645403528805732,camera_1,804,0,0.29624262578089966,0.29706947381372817,3.796028653419144,0.9996369751368638,-0.02447249405946477,0.0027872406487697648,-0.010919993740668703,0.009166504332824843,0.00319552954999583,5907.5290972610255
1680645403558819770,404,1680645403558819770,camera_1,806,0,0.29620080989313924,0.2970278683178114,3.795387512582247,0.9996464657288447,-0.024463999934534644,0.0011769863084477319,-0.010347510147975417,0.011630957164015854,0.004053427548491748,5908.485814480632
1680645403588696718,405,1680645403588696718,camera_1,808,0,0.2962652870683087,0.2970902399000129,3.796154632536521,0.999645151567592,-0.024395490896195082,0.002484850484340982,-0.010404637879808132,0.010399064056400675,0.003625375254746247,5907.268742235263
1680645403618635177,406,1680645403618635177,camera_1,810,0,0.2962085158739839,0.29705714725459753,3.7956673281855293,0.9996198040482852,-0.024169622224168286,0.003292933877459398,-0.012854310657808718,0.008313490383443423,0.0028976272935340047,5907.433573440298
1680645403647927284,407,1680645403647927284,camera_1,812,0,0.29624038852560713,0.2970958722522389,3.7962176710841162,0.9996228290130172,-0.02442852635845954,0.0032555880668193593,-0.012118084102093007,0.010170184490561951,0.003545752775723621,5906.356779976166
1680645403677963018,408,1680645403677963018,camera_1,814,0,0.2962088979872882,0.2970702184927482,3.795850105397369,0.9996186971835984,-0.02428500323055288,0.004315632348246383,-0.012412661942231508,0.006954742209927645,0.0024242233933064357,5908.180605742789
1680645403707769870,409,1680645403707769870,camera_1,816,0,0.29624897237631376,0.297057010517893,3.7961665271159557,0.9996218146277583,-0.02436313857591249,0.0033680281982167077,-0.012301283879927488,0.011282130399195012,0.003933259637314775,5906.467430185816
1680645403738145351,410,1680645403738145351,camera_1,818,0,0.2962676468441162,0.29704693179110186,3.7962654719174185,0.9996287458284887,-0.024264922678923627,0.004956056035971036,-0.01135876530776109,0.010882518126891227,0.003794168377663832,5908.361297098454
1680645403758206605,411,1680645403758206605,camera_1,820,0,0.29621381492004084,0.297001304679657,3.79559592954643,0.9996363220119406,-0.024352975839425244,0.002935712664612216,-0.01120436849425321,0.01357085864583496,0.0047298843329652345,5908.788425276347
1680645403788105487,412,1680645403788105487,camera_1,822,0,0.2962299289328299,0.2970041218475122,3.795797964635665,0.999621060944782,-0.0242887415868749,0.002860345928245903,-0.012633683901597888,0.011607197244302368,0.004045841659265115,5906.866926167511
1680645403818105459,413,1680645403818105459,camera_1,824,0,0.2962285277062397,0.29701964821891136,3.7958549768467806,0.9996167340701252,-0.024266233322345357,0.004473848694873288,-0.012550679869132933,0.012158144563727546,0.004238076778459118,5908.19689960225
1680645403848222017,414,1680645403848222017,camera_1,826,0,0.2961974886504216,0.2969856042159336,3.795218462862234,0.9996253490386198,-0.024466537646113676,0.0019979948071333796,-0.012106118774397228,0.012635274346393999,0.004402842090079091,5908.306839403059
1680645403878541469,415,1680645403878541469,camera_1,828,0,0.2961617826181732,0.29696705423635483,3.7950462305724884,0.9996306366914246,-0.024514591062305954,0.0014461712321867525,-0.011641889954486973,0.012315354499150999,0.004290929889586973,5908.758087319904
1680645403909187555,416,1680645403909187555,camera_1,830,0,0.29623336968662956,0.29704340640074495,3.795985534897727,0.9996341207065719,-0.0244893782981641,0.0020176754258381443,-0.011305930109650718,0.010428550336655462,0.0036353369991004598,5906.655619077264
1680645403938708782,417,1680645403938708782,camera_1,832,0,0.29623214312105894,0.29702818554195454,3.7957739233611867,0.999640813232816,-0.024592957799219026,0.0030089460575946046,-0.01021651552843531,0.012414541608450236,0.004327016379738352,5909.118103094515
1680645403968280315,418,1680645403968280315,camera_1,834,0,0.29619089811280297,0.2970019976905461,3.7954426350030603,0.9996500589961611,-0.024442200061609638,0.0017758973082595646,-0.009959146242052219,0.009384544555359753,0.003270615160638372,5909.233965334131
1680645403988238334,419,1680645403988238334,camera_1,836,0,0.2961790614780926,0.29696648318586155,3.795081076826201,0.9996276767250489,-0.02447614287598825,0.0005001659536153169,-0.012048908216686164,0.014490304231003392,0.005048980551744589,5907.379053195706
1680645404026880741,420,1680645404026880741,camera_1,838,0,0.2962084868079353,0.2970086694268341,3.795480403481656,0.9996397297372087,-0.024530305537446357,0.0022276113266296318,-0.010663610501955023,0.01180544759336044,0.004114404112525795,5908.937452050159
1680645404048725843,421,1680645404048725843,camera_1,840,0,0.29618808708420347,0.2969746919951015,3.7951484208449657,0.9996155232353985,-0.024299174185189672,0.003787315703015174,-0.012806720130622801,0.015543998073553666,0.005416247286832087,5909.544940116175
1680645404078114748,422,1680645404078114748,camera_1,842,0,0.29622752733499674,0.2970289365927091,3.795840546192736,0.9996197882995136,-0.024328610738698762,0.004319628391445219,-0.012236762240086326,0.01293775948943221,0.004509940642659161,5908.372521337176
1680645404108131408,423,1680645404108131408,camera_1,844,0,0.29619629830538036,0.29698372278142016,3.7952505528992697,0.9996554163715906,-0.02469480211819011,-0.0005914782149430948,-0.008880620519226556,0.00977042591330246,0.003404723724378421,5908.402301577271
1680645404138231754,424,1680645404138231754,camera_1,846,0,0.2962475045055281,0.2970544619117775,3.7960583259798772,0.999616198840152,-0.024424410896052937,0.0033405489609335455,-0.012638983400032321,0.009930049960530596,0.0034618064145718534,5906.4678105237
1680645404158020257,425,1680645404158020257,camera_1,848,0,0.2961836078657204,0.29697972361826885,3.7952133451869634,0.9996032804823233,-0.024360275960979304,0.002757138564425993,-0.013865669512108316,0.01227479669614695,0.004277170120976749,5907.47954722698
1680645404188015937,426,1680645404188015937,camera_1,850,0,0.2961793262931516,0.296981451993546,3.7951509609914726,0.9996193622179863,-0.024372477676024466,0.0027172496546093035,-0.012638416243840926,0.009544954493321711,0.0033258821313006913,5908.725921224335
1680645404217805624,427,1680645404217805624,camera_1,852,0,0.29618332980435796,0.29696213254122966,3.7950781028674565,0.9996302080528054,-0.024397710436933853,0.0036285811918543727,-0.01144693287630929,0.013566372919740388,0.004726975541372737,5910.806018760197
1680645404248058080,428,1680645404248058080,camera_1,854,0,0.2961843534429077,0.29702258265521325,3.795380218548073,0.9996209497570404,-0.024304926085938375,0.0035401463055640603,-0.012437633976158081,0.006279494016780518,0.002188325059146295,5908.926889452554
1680645404277482032,429,1680645404277482032,camera_1,856,0,0.296201176504215,0.29699655336222325,3.795346111195014,0.9996290793809762,-0.024414191802949757,0.0020026356992374926,-0.011901274923600111,0.015198839057120495,0.005296583663244188,5908.097033658062
1680645404307650089,430,1680645404307650089,camera_1,858,0,0.2962095665259878,0.2970322931895304,3.7954812223565377,0.9996294390857428,-0.024458173543393875,0.0023367250738848444,-0.011718445970935965,0.011893654129380593,0.004145243627884692,5908.123159794775
1680645404327883958,431,1680645404327883958,camera_1,860,0,0.2962269609321404,0.2970420331193235,3.7954906160456954,0.9996132084847267,-0.024206043041465494,0.0037369982840362837,-0.013173296738872776,0.014024658026755787,0.004887591689701892,5908.067643742662
1680645404358632087,432,1680645404358632087,camera_1,862,0,0.2961769936358559,0.2969619009577664,3.7949249624452213,0.9996338946993496,-0.0242958490868454,0.003294430873575502,-0.0114426837139813,0.009645670568716014,0.003360517344773058,5910.970209282824
1680645404388550281,433,1680645404388550281,camera_1,864,0,0.2962360700813704,0.2970790369588156,3.796084828195305,0.9996351453643504,-0.024665743687648473,0.0037463453353530967,-0.010350948621153778,0.009203920140862465,0.0032087378250131113,5908.700770404539
1680645404418689966,434,1680645404418689966,camera_1,866,0,0.29620344811657745,0.29699850015858653,3.7954375817193893,0.9996366664324846,-0.02436630268003429,0.0028314477671617377,-0.011171451158931915,0.011463247330539161,0.003994948183424967,5909.204806379683
1680645404448695659,435,1680645404448695659,camera_1,868,0,0.29620256668152123,0.29696591256002136,3.7953614828491204,0.9996102245625413,-0.024157721501395394,0.003550091473852369,-0.01353515025457514,0.01348351763226674,0.004698720514120091,5908.039217011714
1680645404478707790,436,1680645404478707790,camera_1,870,0,0.29621464290283067,0.2970237848148215,3.7955828246720174,0.9996367645315143,-0.024405515065761,0.0020460566462474276,-0.01124826580149531,0.008414069998252671,0.0029325217741545746,5907.955840161012
1680645404508628129,437,1680645404508628129,camera_1,872,0,0.29615684670183556,0.2969387437549725,3.7948849033063334,0.9996414015501891,-0.024548028523298935,0.001813647425995739,-0.010543874307253322,0.01403441016736906,0.004889425268372117,5910.534038718499
1680645404528635740,438,1680645404528635740,camera_1,874,0,0.29619142975403606,0.29698205348960466,3.795120112725468,0.9996367333299735,-0.024353155788103226,0.0029408463051196665,-0.011165867792059251,0.012401120668073418,0.00432115663280785,5910.274303357464
1680645404558693885,439,1680645404558693885,camera_1,876,0,0.2961595534286853,0.29697748403948765,3.7948667694438627,0.9996359354197607,-0.024527840021479046,0.0012029220765637613,-0.011177417403796255,0.010082584703923203,0.003512648334316563,5909.449739814621
1680645404588709354,440,1680645404588709354,camera_1,878,0,0.296182615242297,0.2969921855787561,3.795185609215886,0.9996475191529308,-0.024588377403993056,0.000516726800740964,-0.009999107032282328,0.009811662166612223,0.003418888430434771,5908.789700943394
1680645404618703603,441,1680645404618703603,camera_1,880,0,0.2962719252632681,0.29704672349585054,3.7960568589938175,0.9996494945031056,-0.024360744057092577,0.0022413172610104915,-0.01012021667779126,0.013616938569612103,0.004747300513164296,5907.584996957039
1680645404648675441,442,1680645404648675441,camera_1,882,0,0.2962797095858195,0.29708047250481057,3.796317660599729,0.9996235772452757,-0.024263990958849582,0.003788771460598559,-0.012231425465846466,0.01288359277532436,0.004492069576054622,5906.3994026072905
1680645404678598880,443,1680645404678598880,camera_1,884,0,0.2962208390045472,0.29700296742321325,3.7955096431771365,0.9996342012407227,-0.02437606531824116,0.003779403854907473,-0.01108996194425209,0.012383171928377124,0.004315750223648703,5909.887723645017
1680645404708801984,444,1680645404708801984,camera_1,886,0,0.2962358158010703,0.2970179371755801,3.7957026609622964,0.9996462995603715,-0.024431271796193307,0.002578446714676778,-0.01018530049709012,0.012527486338512972,0.004366550963855744,5908.957030141376
1680645404728219509,445,1680645404728219509,camera_1,888,0,0.2962578886706468,0.297062474061713,3.795975054262448,0.9996437719155948,-0.02456155965828273,0.00212440432532826,-0.010224772064809328,0.010742635615315521,0.003744846889588072,5907.645851797309
1680645404758574008,446,1680645404758574008,camera_1,890,0,0.29626549903338034,0.29707759319554417,3.7961452728404566,0.9996482373120307,-0.024560438697629885,0.001181616975287836,-0.00993932951731653,0.008753257807256887,0.0030516479024290614,5906.471001768019
1680645404788583993,447,1680645404788583993,camera_1,892,0,0.29625296551494623,0.2970494527059742,3.7957483858392367,0.9996189903252861,-0.024511406060102228,0.0023259445662394402,-0.012476182745017139,0.01358928985791863,0.0047366016936368095,5906.608548423159
1680645404818151950,448,1680645404818151950,camera_1,894,0,0.2961889557817535,0.29698716348595894,3.7950417877068787,0.9995882585636109,-0.02411625048889522,0.004619778950025379,-0.014845115242989338,0.015131783689867007,0.005272386948113424,5908.728394526061
1680645404847857713,449,1680645404847857713,camera_1,896,0,0.29622638638672544,0.2970405261214359,3.795468650263608,0.9996543042512942,-0.024626659058019577,0.002428054851953057,-0.008882803900625545,0.011452965431089979,0.00399150884120762,5910.561243992472
1680645404868303775,450,1680645404868303775,camera_1,898,0,0.29623070236854965,0.2970280045278524,3.795566118751006,0.9996318968472615,-0.024587320219535948,0.0016261662987991808,-0.01135297639989981,0.013171480724849971,0.004590643745994036,5907.50619252777
1680645404898613691,451,1680645404898613691,camera_1,900,0,0.29624203620117906,0.29702144257204627,3.7959181768514005,0.9996168410121106,-0.024415227528474442,0.0037734086558911958,-0.01248315732567094,0.01427827644511126,0.004976995419388963,5907.444482314516
1680645404928603649,452,1680645404928603649,camera_1,902,0,0.2962376189913464,0.29702992333093936,3.795705501660768,0.999638604345492,-0.024312597054038394,0.0020151345664590073,-0.011291481716945053,0.010057260682515336,0.0035054623182698918,5907.494287108651
1680645404957080364,453,1680645404957080364,camera_1,904,0,0.29627777575762565,0.29705775186306255,3.7960914936240973,0.9996413104010239,-0.02444062025680229,0.0024623220488957545,-0.010669751230195496,0.013223505175119499,0.0046098022409125534,5907.225951009019
