%time,field.header.seq,field.header.stamp,field.header.frame_id,field.image_seq,field.transforms0.fiducial_id,field.transforms0.transform.translation.x,field.transforms0.transform.translation.y,field.transforms0.transform.translation.z,field.transforms0.transform.rotation.x,field.transforms0.transform.rotation.y,field.transforms0.transform.rotation.z,field.transforms0.transform.rotation.w,field.transforms0.image_error,field.transforms0.object_error,field.transforms0.fiducial_area
1680662061511570215,0,1680662061511570215,camera_1,1,0,0.32015690270021824,0.2980116428966768,3.7894207396113067,0.9995996026963149,-0.02358025203820415,0.00011301326787008256,-0.015639476691551055,0.009569170888426015,0.0033281059339525247,5915.157623561158
1680662061531583070,1,1680662061531583070,camera_1,3,0,0.32024111868502264,0.298046812128572,3.790610139299463,0.999616543542837,-0.023598651811191435,0.002060453441327469,-0.014339596918387992,0.0092633254462271,0.0032237338233702295,5914.580979580058
1680662061551037073,2,1680662061551037073,camera_1,5,0,0.32022179544545193,0.29807663614713076,3.7901616582910664,0.9996455258218738,-0.023528579517780077,0.0008397185748093913,-0.012430749088447766,0.015772683753311867,0.005488055574584957,5916.472760849048
1680662061571157217,3,1680662061571157217,camera_1,7,0,0.3203079121751088,0.29822376622122343,3.791204420045143,0.999640684454259,-0.023899140904938804,0.0004972252956412866,-0.012127894080657606,0.010154289851925569,0.0035350205770323753,5913.119062189597
1680662061591512203,4,1680662061591512203,camera_1,9,0,0.3202261820909573,0.2980917329329099,3.7901342079993334,0.9996125816701044,-0.023620043043674023,0.0025676208199178793,-0.014497843176446205,0.01697613756186911,0.005906772840112934,5916.297545111098
1680662061601586103,5,1680662061601586103,camera_1,10,0,0.3202446662967089,0.2981391764789552,3.790834396101818,0.9996396242872974,-0.02377871119780115,0.00316941445488183,-0.012047790691069595,0.011586175191041548,0.0040327705568719615,5916.912501956045
1680662061611445903,6,1680662061611445903,camera_1,11,0,0.3202070082806531,0.29809021230109867,3.7900559892193812,0.9995922296841937,-0.023341388490517388,0.003926559924485342,-0.015972979229818832,0.015478281482501188,0.005385374462057903,5916.3833150352
1680662061621660947,7,1680662061621660947,camera_1,12,0,0.32019478238224097,0.29809486080317193,3.7898868465266027,0.9996427515333369,-0.023784765367105467,-0.0010582234204603175,-0.012146374211403868,0.013227426301455125,0.004601843905388688,5915.696772308493
1680662061631439685,8,1680662061631439685,camera_1,13,0,0.3202839263835843,0.2982376634791401,3.7910683949603077,-0.9996488275791189,0.023812030920492222,-0.0014464477757514921,0.011537612056514815,0.008988510646304348,0.0031290247514072726,5914.951188823326
1680662061641595125,9,1680662061641595125,camera_1,14,0,0.32027639731017066,0.29824686909417997,3.7907592860761223,0.9996545614316706,-0.023739150438120225,0.0019345849188931261,-0.01111161223774483,0.010570345784799429,0.0036790867216655527,5916.689020177118
1680662061651150226,10,1680662061651150226,camera_1,15,0,0.3203058668278982,0.2983118234512905,3.790952738398912,-0.9996346213947249,0.023603197586623412,-0.002648866137735887,0.012903343787410974,0.01342682166796294,0.004673913588827923,5915.138621575898
1680662061661040306,11,1680662061661040306,camera_1,16,0,0.3203224646790568,0.29836204751637063,3.791385025560581,0.9996327416148684,-0.023736868114041933,0.002792617884911408,-0.012772794096336058,0.012972003940376453,0.004516526654362747,5914.055755499863
1680662061671526908,12,1680662061671526908,camera_1,17,0,0.3202550841856795,0.29826864723922064,3.7906082297926953,-0.9996332255408547,0.02358423122918998,-0.0014500200397391764,0.013232379755708243,0.010096022670040838,0.003513750314654398,5914.842849253559
1680662061681329488,13,1680662061681329488,camera_1,18,0,0.3202658698765151,0.29826524081146716,3.7909095621507487,-0.9996767689906735,0.02403362850349051,-0.00013571006089057452,0.008289983359651481,0.010485397695447318,0.003650145613204982,5916.818290042573
1680662061691610097,14,1680662061691610097,camera_1,19,0,0.3202701396715647,0.29826040355304884,3.791011929741425,-0.9996395908794075,0.02360236349195132,-0.002186583016795487,0.012603001180490792,0.009708200690511148,0.003379445649930048,5914.883954758461
1680662061701465845,15,1680662061701465845,camera_1,20,0,0.3203224179712999,0.2983565470790049,3.7917504664409827,-0.9996283209265597,0.023585513327767663,-0.004502173052388459,0.01291022851923177,0.00923222769779386,0.0032150086283111706,5914.375055936163
1680662061711463212,16,1680662061711463212,camera_1,21,0,0.3202268139128008,0.2982947250978275,3.7904090262960906,0.9996260919725851,-0.02369594633748542,0.004049966926416914,-0.013029817446252666,0.011659070998575771,0.00405722862650174,5918.009490405619
1680662061721429824,17,1680662061721429824,camera_1,22,0,0.3203214986005557,0.2984047640858185,3.79161896010043,0.9996197116119542,-0.023685975239799668,0.0035871621068925617,-0.013657928166168273,0.010610873127006926,0.003694823292063468,5913.259746459953
1680662061731546878,18,1680662061731546878,camera_1,23,0,0.32038697986635994,0.2984623697968858,3.792230991703095,-0.9996439778250535,0.023724143016514154,-0.0035691344509636964,0.011676639735251428,0.01188710438873386,0.004140695044093632,5913.057316616001
1680662061740637540,19,1680662061740637540,camera_1,24,0,0.3203832986463692,0.29848053953146925,3.79213623362076,0.9996335475985878,-0.023621090720393992,0.004658288137695971,-0.012373962189489614,0.01460379826312419,0.005086799573008141,5913.683784013904
1680662061750932693,20,1680662061750932693,camera_1,25,0,0.3204193017810701,0.29856922586301143,3.792523545167391,0.999671110111204,-0.02404042100462185,0.0023271893587464027,-0.008620554311764422,0.008244437827670481,0.002872285852995704,5913.467745824833
1680662061760868787,21,1680662061760868787,camera_1,26,0,0.32031011902083323,0.29848435955014574,3.7913739316789137,0.9996570610611356,-0.024030647341671006,0.0021171667005412008,-0.01018851628625462,0.010870174333831528,0.0037846526097098676,5915.610825830839
1680662061771445751,22,1680662061771445751,camera_1,27,0,0.320381383226451,0.2985826610578005,3.7921196600595937,0.999645361271687,-0.023754203130055208,0.0036517013965451546,-0.01146972530467538,0.009193782392685534,0.0032022091591445024,5913.56461002014
1680662061781581640,23,1680662061781581640,camera_1,28,0,0.32036373063983953,0.29851923024072236,3.791926791742542,0.999685609448553,-0.023866392687636948,0.0029355492320023943,-0.007103528155869889,0.007568055243609706,0.002635733747874058,5917.058336805436
1680662061790739536,24,1680662061790739536,camera_1,29,0,0.3202783613344451,0.29844924678810664,3.791071883167288,0.9996652163469415,-0.02379907983752233,0.0009858002420486363,-0.01010382218729971,0.00979194628962432,0.0034087154591999473,5915.570335299707
1680662061802313804,25,1680662061802313804,camera_1,30,0,0.3203877047414381,0.29860296034266987,3.7923544565060787,0.9996587030663493,-0.023757671304423748,0.005174012750967996,-0.009554058297298348,0.009350085776532069,0.003257101706878983,5915.7666556790955
1680662061811190366,26,1680662061811190366,camera_1,31,0,0.32028947662848456,0.29857728456442567,3.791471062023252,0.999666138076803,-0.023961860958645192,0.0019290442116802434,-0.009472084798935703,0.005123918210301782,0.0017840373973177675,5915.692194558445
1680662061821873426,27,1680662061821873426,camera_1,32,0,0.3203799119773951,0.2986610849248694,3.792455786083791,0.9996632081398714,-0.023584405945933945,0.0031461665654983575,-0.010360874655148913,0.008216812977480004,0.0028623597529350616,5912.997226227248
1680662061830974578,28,1680662061830974578,camera_1,33,0,0.3204111387139242,0.2987013172778656,3.79253269224662,0.9996517279640914,-0.023774499567046605,0.00479163763509131,-0.010403660774780301,0.010370741445512976,0.0036129910553364397,5914.121022276342
1680662061840904474,29,1680662061840904474,camera_1,34,0,0.32035746388181935,0.2986986337043981,3.7921682103569143,0.999657081844944,-0.02390540949303365,0.003716503376791255,-0.010021861946353702,0.00868715573233203,0.003025808164560934,5914.64290130278
1680662061850954294,30,1680662061850954294,camera_1,35,0,0.3204166542598538,0.29875088571265274,3.79260626950319,-0.9996657636760589,0.023838784680091568,-0.004527699836346012,0.008920381893755751,0.009505116951913806,0.0033116770406179338,5914.8335795289
1680662061860908031,31,1680662061860908031,camera_1,36,0,0.3204313347263635,0.29875267659525495,3.792842694343461,-0.9996637917819124,0.02390217243033819,-0.005525201805656862,0.008394146670530693,0.007646806454431498,0.0026644979275814848,5915.385352958228
1680662061871531248,32,1680662061871531248,camera_1,37,0,0.3203897588295805,0.29871309659021383,3.7923972585745758,0.9996822086908465,-0.023921440411137383,0.0015551276074234662,-0.0077992239211282675,0.008635782218334498,0.003008433565865698,5913.700087398469
1680662061881438732,33,1680662061881438732,camera_1,38,0,0.32038912097293437,0.2986927970176315,3.792300928150878,0.999645571974901,-0.02356136585172418,0.003990646316416584,-0.011733167183318434,0.007204840723716188,0.002509620503675068,5913.016548289626
1680662061891582012,34,1680662061891582012,camera_1,39,0,0.3204262369982578,0.2987665596143629,3.7929876148435127,0.9996393617490745,-0.023670663756473954,0.006816388174701982,-0.010694997498030913,0.008009201224922435,0.0027908973509202825,5914.166601522009
1680662061901519775,35,1680662061901519775,camera_1,40,0,0.32048531746005343,0.2988375288457903,3.793461190775888,0.9996647796936721,-0.023675444548980903,0.005142125533757425,-0.009130175814587365,0.008387995349039556,0.0029236478921210937,5912.524884572428
1680662061911632537,36,1680662061911632537,camera_1,41,0,0.32048925128544176,0.29885322647255663,3.7933943257970135,0.9996808733712778,-0.023804030057144866,0.003858516593537645,-0.007525384932040487,0.006979915346164489,0.0024327620231834064,5912.843284452039
1680662061921433448,37,1680662061921433448,camera_1,42,0,0.3205180175038084,0.29893357857792885,3.7940172615012133,0.9996456882979119,-0.02377453369177788,0.0067490437541404,-0.009885333759524322,0.007543441464804346,0.002629958409912647,5911.512167071924
1680662061931623220,38,1680662061931623220,camera_1,43,0,0.32035332700032704,0.2987870811861598,3.7919664394433297,0.999645922011517,-0.023747593084108887,0.0036988981734255733,-0.011419307367711297,0.006696844418911495,0.002332275552238529,5913.997940944506
1680662061941447257,39,1680662061941447257,camera_1,44,0,0.32043284732461547,0.2988556023899688,3.7928442257251143,0.9996620121695946,-0.02378641755250835,0.003172296519709944,-0.01000021498999908,0.006478320057794917,0.0022572152411448687,5911.9725577860945
1680662061951567411,40,1680662061951567411,camera_1,45,0,0.32045155702957706,0.29886735151688804,3.792966763141171,-0.9996508942201817,0.023661180940018924,-0.004305432718892235,0.010940815802204025,0.005398307494033361,0.0018810298222044616,5911.800629326608
1680662061961201906,41,1680662061961201906,camera_1,46,0,0.3203708006329509,0.2987731271167256,3.792030394459852,0.9996454293200254,-0.023757018839759836,0.004666045243376283,-0.011083668942017606,0.008438603319518734,0.0029390144036298693,5914.930968384315
1680662061971343040,42,1680662061971343040,camera_1,47,0,0.32049443105294445,0.29885751152303625,3.7932741482092505,0.9996524239707888,-0.023688608829805897,0.004531089999234424,-0.010646609058925914,0.007479063966457034,0.0026065449723693297,5911.289519780199
1680662061979885101,43,1680662061979885101,camera_1,48,0,0.3204677438995187,0.29886505541790803,3.7930982624608913,0.9996419344075371,-0.023840889017677506,0.005893558224699076,-0.01062454499054513,0.008493878198351013,0.0029599507630325957,5913.021443064557
1680662061988751888,44,1680662061988751888,camera_1,49,0,0.32043485253160636,0.2988137238235229,3.792777159449443,0.9996634275106917,-0.023830647793151062,0.004922183481356262,-0.008994666926053663,0.0059535995715123136,0.00207430621482903,5914.549372105279
1680662061998682022,45,1680662061998682022,camera_1,50,0,0.3204095988502667,0.29884164829461574,3.7925752766495435,0.9996447058492435,-0.023556604033801474,0.004798278637307347,-0.011511950142915792,0.005462511388031999,0.0019029932107874124,5912.970453340678
1680662062008652210,46,1680662062008652210,camera_1,51,0,0.3204339800672337,0.2988722505512593,3.7929330416610028,-0.9996589213411574,0.023842187543051986,-0.0031932042756649508,0.010168309724306693,0.006747254959918791,0.0023511560749831808,5911.573152264
1680662062018596887,47,1680662062018596887,camera_1,52,0,0.32039288706898855,0.2988091049230929,3.7922355445118354,0.9996581766524668,-0.023590207847336342,0.003920088017160149,-0.01056715929295431,0.00512809379506507,0.0017861654020672189,5914.049538447348
1680662062028604507,48,1680662062028604507,camera_1,53,0,0.3204516287369097,0.2988439428611896,3.7927811322587353,0.9996774713689502,-0.023922968210467802,0.0030121809034298164,-0.007973179766418566,0.006991419460973702,0.002435982058970942,5913.611372998681
1680662062038575172,49,1680662062038575172,camera_1,54,0,0.320423577659604,0.2988102188349415,3.7925918755803543,0.9996620210646274,-0.02381303002366026,0.0027202399239970427,-0.010068939210888308,0.008055055488512153,0.0028062746781251716,5912.294896272071
1680662062049077749,50,1680662062049077749,camera_1,55,0,0.3204166839715777,0.29880722452599323,3.7924671422049894,-0.9996324720325301,0.023566810617554883,-0.006364303401147455,0.011790756450169098,0.00492738650427782,0.0017165070508833803,5914.3852771705115
1680662062060042142,51,1680662062060042142,camera_1,56,0,0.32051395411297584,0.29887265165779864,3.7935974876374647,0.9996624347323908,-0.023849683759774164,0.006337920876138562,-0.00812649545838209,0.007872616424720036,0.0027440970930528376,5913.8625778011055
1680662062071262359,52,1680662062071262359,camera_1,57,0,0.32040847098676467,0.2987939029070647,3.7924697400799543,0.9996700887965323,-0.023877162901604174,0.0028055399535275795,-0.009040110777682877,0.008142377198964823,0.00283651272671354,5913.596743400326
1680662062081407308,53,1680662062081407308,camera_1,58,0,0.3204234053519564,0.2988349169455998,3.7926098683283436,0.9996444872995804,-0.023653939602402047,0.0040996569097194535,-0.011600989874473366,0.0077869870874565095,0.0027128882457535014,5912.172986872027
1680662062091622352,54,1680662062091622352,camera_1,59,0,0.32036355625483237,0.29880506769065335,3.792090771602011,-0.9996608659767723,0.02364314343671929,-0.003509777427480368,0.010336162992623178,0.0049086747494584415,0.0017096583621432709,5914.341473208802
1680662062101460695,55,1680662062101460695,camera_1,60,0,0.3204211542243373,0.29883082719584725,3.792679323735721,-0.9996567354190344,0.0236963943960684,-0.00318927634020407,0.010710776835066644,0.006089242324378574,0.0021215137408976074,5911.914374184329
1680662062111612319,56,1680662062111612319,camera_1,61,0,0.32042137391285663,0.29883716971494934,3.792767130301647,-0.9996504174546686,0.023686816178743644,-0.003559555810733357,0.011194069164133744,0.00680372088754666,0.002370607467142614,5911.572625578381
1680662062121461868,57,1680662062121461868,camera_1,62,0,0.32042725099033104,0.2988808661574359,3.79278763453026,-0.9996313642085956,0.02351258110974197,-0.00549644109208134,0.012413031674067009,0.0052762154809897766,0.001838333258383591,5912.107086650096
1680662062131660699,58,1680662062131660699,camera_1,63,0,0.3204124590987801,0.29886652245773215,3.7925412102004343,-0.9996419005830606,0.023576127656244863,-0.003768913608802927,0.012084373944572919,0.003936874978535343,0.001371467821008304,5911.655699191208
1680662062141528129,59,1680662062141528129,camera_1,64,0,0.3204949274691211,0.29894075894082683,3.7936540787540944,0.9996432822675245,-0.023714110749343417,0.0057789883100184515,-0.010842161356984445,0.007350293137278641,0.0025621192583287944,5911.01402391202
1680662062151655197,60,1680662062151655197,camera_1,65,0,0.32039464051384575,0.2988545817708381,3.7923524782460896,-0.9996595278791998,0.023454960227186485,-0.0045588382646748705,0.010483804402651922,0.006871928857435705,0.0023938615139196336,5914.2919613973345
1680662062161519765,61,1680662062161519765,camera_1,66,0,0.3205048352717027,0.2989238386851841,3.7933680580827795,0.999649303953926,-0.023744810819917903,0.004802917968739628,-0.010695094321377384,0.006322083390841726,0.002203365203647001,5911.151526277243
1680662062171605825,62,1680662062171605825,camera_1,67,0,0.3204644320784207,0.29891326843555416,3.7932078657968615,-0.9996561918808882,0.02373595944726045,-0.0033080755747995345,0.010637617181987214,0.005426510575489374,0.0018911963331080842,5910.406276764699
1680662062181536197,63,1680662062181536197,camera_1,68,0,0.320501649829703,0.29895796097496286,3.793745017162964,0.9996540836023623,-0.02367873069044988,0.0050502981161422164,-0.010272552698742601,0.003992240846855566,0.001391611406612066,5910.579417207045
1680662062191674470,64,1680662062191674470,camera_1,69,0,0.3203478804885431,0.2988109855739065,3.791821646168413,-0.9996443662142108,0.023591157096144257,-0.002481018629176385,0.012183716576466509,0.0067107484937878326,0.002336988372126221,5912.652384240297
1680662062201426744,65,1680662062201426744,camera_1,70,0,0.32048563188325885,0.29891861851622004,3.7932568261919264,0.9996702549009722,-0.023924326678568773,0.0028953232173677206,-0.008867083098148841,0.006098768037190894,0.002125513307648897,5911.305431695131
1680662062211578369,66,1680662062211578369,camera_1,71,0,0.32039709789201076,0.29884588286484814,3.7923230599766744,0.9996385890802245,-0.023491860512991486,0.005781411953994782,-0.011721731406001957,0.005096325785416411,0.0017751582058544264,5914.386490382429
1680662062221433401,67,1680662062221433401,camera_1,72,0,0.3205226288701734,0.2989331151698054,3.793716678461429,0.9996728964464108,-0.02383539987990917,0.003698022830421672,-0.00850284953143701,0.007039794527372578,0.0024540458007265326,5910.898634761803
1680662062231544017,68,1680662062231544017,camera_1,73,0,0.32047309060697626,0.2988499575115453,3.7929774569488326,0.9996753716406399,-0.023781741288279628,0.002904093969032275,-0.008668699710156616,0.006151913468784187,0.0021436789076508186,5912.3582909846455
1680662062241477966,69,1680662062241477966,camera_1,74,0,0.32045480912779667,0.2988590376155537,3.7930786284193156,0.9996234933456931,-0.02341873809258609,0.00787841324584552,-0.011931674745468687,0.00568773050326854,0.001982014462937099,5913.595465885475
1680662062251578330,70,1680662062251578330,camera_1,75,0,0.32044454966854385,0.298834352303145,3.7926085900434505,0.999658176417066,-0.02374781846181305,0.0031697434193771515,-0.010465379470722949,0.0061682470914092855,0.00214895171852467,5912.280617309381
1680662062261477947,71,1680662062261477947,camera_1,76,0,0.3204400444576379,0.29885132040849144,3.7928534390470032,-0.9996577234368713,0.023584511602448056,-0.004742408819788435,0.010281845363159764,0.0057846998097375035,0.0020155888450705773,5913.086999828924
1680662062271639585,72,1680662062271639585,camera_1,77,0,0.32047867047848466,0.2988542865822181,3.7931685685780225,0.9996668275916495,-0.0237498303632681,0.0032282615914404713,-0.009579023836518817,0.005746261558670085,0.0020025252772892573,5911.348206998957
1680662062281377553,73,1680662062281377553,camera_1,78,0,0.3205048309574411,0.2988498405276776,3.793149689018524,0.9996454063800408,-0.023849859655864083,0.005773248296114284,-0.0103399855797722,0.008034916936594527,0.0028000464829002736,5912.970755577437
1680662062291499853,74,1680662062291499853,camera_1,79,0,0.3204075984562858,0.29876019769001705,3.7922359934982985,0.9996519350757291,-0.023733610252632723,0.004171146818716218,-0.010738993339381582,0.00934586435687379,0.003255448862930972,5914.141534501218
1680662062299952745,75,1680662062299952745,camera_1,80,0,0.3204525370415552,0.29878830180897,3.7926696820832753,0.9996579478327888,-0.023896825718686843,0.004241032631753943,-0.009743854346419173,0.007432032434735447,0.0025893803321165284,5913.667383178896
1680662062310136079,76,1680662062310136079,camera_1,81,0,0.3204252080435188,0.29878228247788596,3.792397395584752,0.9996511466837537,-0.02377211116506959,0.003410185882638398,-0.010992829338146786,0.009690003615105525,0.003375564442185213,5912.741587056256
1680662062323235988,77,1680662062323235988,camera_1,82,0,0.320534140644664,0.2988916278095424,3.7936682777739086,0.9996663992539796,-0.02364998252214568,0.0035780999249131014,-0.009745036183238727,0.0061088921065675095,0.0021294387867594683,5909.95574966405
1680662062331038713,78,1680662062331038713,camera_1,83,0,0.3205468932423094,0.298918981398831,3.7936334888546024,0.9996494852602812,-0.023660046454253906,0.00543113547843723,-0.010564638567039108,0.006202903477969812,0.00216213617383036,5910.962699367431
1680662062341289520,79,1680662062341289520,camera_1,84,0,0.3204513689246451,0.29886802627350206,3.7928275485360397,0.9996007028954591,-0.023474753532590084,0.0066697944825236275,-0.0142437550894787,0.005114525909448275,0.0017820121220629428,5911.304041435304
1680662062351625919,80,1680662062351625919,camera_1,85,0,0.3204661051193944,0.29886810110899015,3.792869995107929,0.999659532936705,-0.02360079498909782,0.004020209899878502,-0.010375866084930994,0.008216073074436281,0.0028627237033532226,5912.292291587278
1680662062361656427,81,1680662062361656427,camera_1,86,0,0.3204879840930623,0.29891029480631237,3.7932437017875675,-0.9996571095272047,0.023819252152402364,-0.0036694846802414536,0.01023921289925416,0.008287130360258743,0.00288820186013444,5910.931872616522
1680662062371546506,82,1680662062371546506,camera_1,87,0,0.32048094244146885,0.2989044456013897,3.7929634230184317,0.9996258278381778,-0.02331712883804862,0.0056871555201030355,-0.01312143603717774,0.007219506154797273,0.0025156603611655023,5911.0387941689105
1680662062381542205,83,1680662062381542205,camera_1,88,0,0.3205632792282291,0.2989929848666112,3.7940132604353787,0.9996347151062877,-0.0236009986882683,0.0064732612697124365,-0.011468483065414307,0.004801351409696508,0.0016738850577891606,5909.878511045708
1680662062391394853,84,1680662062391394853,camera_1,89,0,0.320462240965226,0.2988673862704534,3.792880830471292,0.9996750418139319,-0.023881631696512466,0.0027864928649979173,-0.00846840595031126,0.008857248049025655,0.003086291866300696,5912.697417521558
1680662062401454448,85,1680662062401454448,camera_1,90,0,0.32045903013471483,0.2989101208582098,3.7929499150844066,-0.9996207496281455,0.023607602203646542,-0.005431240692406973,0.013097314824042106,0.006989048270042986,0.002435406563407601,5910.908029861921
1680662062411382436,86,1680662062411382436,camera_1,91,0,0.32048685405787214,0.2988953807184639,3.793186542795969,-0.9996656655773443,0.02384871809348455,-0.003014123230652375,0.009524220296338672,0.0062883267273718966,0.002191520929739092,5911.1069806865435
1680662062421386003,87,1680662062421386003,camera_1,92,0,0.3204946795780632,0.29891442280177677,3.7932614892691583,-0.9996459655596759,0.02345588377213542,-0.006544242625146644,0.010720911584126915,0.009582912440237124,0.003339965986311323,5912.918579636026
1680662062431336164,88,1680662062431336164,camera_1,93,0,0.3203915956935917,0.2987924985505244,3.792169275817586,0.9996353164690168,-0.023640469028453206,0.005235264803169854,-0.011956349545078852,0.0057989876841020305,0.0020197738436375785,5914.222310536423
1680662062441645860,89,1680662062441645860,camera_1,94,0,0.3204685884512699,0.29884210715693377,3.792893180443886,0.9996712719894483,-0.023949503122922662,0.0022204115891330855,-0.00887913461654047,0.008472498106129933,0.002952229059556652,5911.82860205742
1680662062451572656,90,1680662062451572656,camera_1,95,0,0.3204653662137568,0.29882910496891485,3.792960629570776,0.9996558685510892,-0.023910782335675437,0.0034677719901503815,-0.010217314563423082,0.007139301022107247,0.0024876856710230474,5911.694843990086
1680662062461455583,91,1680662062461455583,camera_1,96,0,0.3205626794105243,0.2989136017834814,3.7939828753938665,-0.9996564762969663,0.023700898357102183,-0.006035133787057923,0.009421994203554036,0.006806724155467236,0.0023731590373021532,5911.3531804173235
1680662062481481313,92,1680662062481481313,camera_1,98,0,0.3204372568997718,0.29884424454658215,3.7927331852134905,0.9996137097732227,-0.023595917716691783,0.005738880290633501,-0.01351773477814191,0.007154400351282673,0.002492652061557721,5911.508629493473
1680662062491334199,93,1680662062491334199,camera_1,99,0,0.32046824149171543,0.2988703613595655,3.7930308371561803,0.999651903735015,-0.023903037031037105,0.003058557043642155,-0.010740642832901907,0.0074662544939201325,0.0026017504127394306,5910.6518092612405
1680662062501386642,94,1680662062501386642,camera_1,100,0,0.3204929877962202,0.2989039987310734,3.7934268168977137,-0.9996467412464505,0.023722009758334505,-0.005657556487498635,0.010566504765931491,0.00876981391775189,0.0030567260153359145,5911.8375312397275
1680662062511570215,95,1680662062511570215,camera_1,101,0,0.3204285814316413,0.29884339155087936,3.7926546162405725,-0.9996442211871787,0.02358401147215843,-0.004680971019384518,0.011546166475313119,0.006448645755881444,0.002246691521256686,5912.579242474805
1680662062521563529,96,1680662062521563529,camera_1,102,0,0.3204733968572064,0.2989033001068682,3.7932415150436545,0.9996521984953453,-0.023704857148862425,0.005653427542395685,-0.010079709717920321,0.007153114118409576,0.0024928991896440342,5912.810325760046
1680662062531095027,97,1680662062531095027,camera_1,103,0,0.3205448245657412,0.2989223655516078,3.7938530183211046,0.9996908620086266,-0.024090994058420884,0.0018445179472524555,-0.005865336756628587,0.008344783567736158,0.0029093579696533606,5910.772720761304
1680662062540900945,98,1680662062540900945,camera_1,104,0,0.3203953516262884,0.2988080220305431,3.7922253736254943,0.9996409421991177,-0.023569973635113706,0.005299794118218509,-0.011591169242349196,0.007881864032242447,0.0027453511350669516,5914.410625280115
1680662062550788879,99,1680662062550788879,camera_1,105,0,0.32040659265126953,0.29883428291345393,3.7922381494305624,-0.99968162438448,0.02383568320120895,0.00020741132871106876,0.00827448215175929,0.004660722668631934,0.001623574896415052,5912.002657991074
1680662062560904264,100,1680662062560904264,camera_1,106,0,0.3204902085908187,0.29888154078146967,3.793367203973374,0.9996535736749621,-0.02362088555174881,0.006053995580589901,-0.009906338482942558,0.008462598860205617,0.0029493982229442076,5912.912654586951
1680662062571371555,101,1680662062571371555,camera_1,107,0,0.3205036579763817,0.29894068889341097,3.793521539470203,0.9996781988179301,-0.023849843581556902,0.0024890066711500108,-0.008275784860985446,0.006025637252605521,0.0021003396605953446,5910.578044949795
1680662062581474065,102,1680662062581474065,camera_1,108,0,0.3205242102967214,0.29890306992053095,3.7934112810217036,0.9996707231028127,-0.02388131347100556,0.004192597378045577,-0.00839942648188913,0.009446900599868968,0.003292693883490316,5912.338242821044
1680662062591457843,103,1680662062591457843,camera_1,109,0,0.32053292457044813,0.2989737277371338,3.793842403656513,-0.9996507889849946,0.023691419672492133,-0.005562345862610938,0.010299370081923994,0.006931390016688965,0.002416426612039998,5910.652821515745
1680662062601459741,104,1680662062601459741,camera_1,110,0,0.32049418845817734,0.2989080206685006,3.793239847324603,0.9996340997430578,-0.02365449836812971,0.005965739740220661,-0.011685088240595456,0.007817810812412063,0.0027245216463833185,5911.70174870966
1680662062611647129,105,1680662062611647129,camera_1,111,0,0.32057301167172886,0.29897300302054347,3.7943011625538574,0.9996491745127748,-0.023803549603998612,0.0071352466119865635,-0.009165542971585101,0.007946961020934395,0.002771105221160528,5911.472660485422
1680662062621516227,106,1680662062621516227,camera_1,112,0,0.320495058394876,0.29890680982924417,3.793357914920361,-0.9996538280443715,0.023700306097367795,-0.004133604227429401,0.01065048746378902,0.007623246303410269,0.002657023361792408,5910.652450006403
1680662062631631135,107,1680662062631631135,camera_1,113,0,0.32057288459197075,0.2989911566623147,3.7943542460251214,-0.9996670918097055,0.02381844405373883,-0.005842954083614526,0.008015432811867245,0.005797082794742892,0.0020215376282259946,5911.139504038554
1680662062641471147,108,1680662062641471147,camera_1,114,0,0.3205226442606495,0.2989227665462967,3.7937124029225164,0.9996755840640024,-0.023828595127390363,0.005149770059856428,-0.007375943931544335,0.007059677518554963,0.0024609945584887633,5913.049867991009
1680662062651328325,109,1680662062651328325,camera_1,115,0,0.32049823222097695,0.29888227064010164,3.793305997188557,0.9996831154888579,-0.023979061288285083,0.0026439475232938074,-0.007189072799577825,0.007595748145831749,0.0026473681856889436,5912.23679644044
1680662062661459207,110,1680662062661459207,camera_1,116,0,0.32048918165851503,0.2988822427976687,3.7933797889649004,0.9996519352279704,-0.023737836356827476,0.004497068972959351,-0.010597164277434028,0.007183183541201288,0.0025035665609286816,5910.978793754706
1680662062671526432,111,1680662062671526432,camera_1,117,0,0.3205557249617621,0.2989646944406063,3.7942419841467863,0.9996641892499459,-0.023880922474002027,0.005513967925239158,-0.008414655712404892,0.005852660942764487,0.0020407682858271286,5910.925834590282
1680662062681506156,112,1680662062681506156,camera_1,118,0,0.320401113678472,0.2988131779358365,3.792386623889511,-0.9996350612752195,0.023504145553265344,-0.005849562518726507,0.011961690074510168,0.005759826050052653,0.002006417195693901,5914.062457880413
1680662062691615581,113,1680662062691615581,camera_1,119,0,0.32045065423337527,0.2988440511530503,3.792740151647969,0.9996823209598897,-0.023783366908571916,0.0030550529181671503,-0.007763714987538244,0.00496405069497996,0.0017295675420330254,5913.929760364352
1680662062701464653,114,1680662062701464653,camera_1,120,0,0.3204478401108486,0.29881485412837233,3.7927314162235017,0.9996741050566484,-0.023802445643862743,0.003666018444929626,-0.008466851204635292,0.006881001118017593,0.002397423727026082,5913.9846607891395
1680662062711217164,115,1680662062711217164,camera_1,121,0,0.32033028433545185,0.2987576669750436,3.791678751440028,-0.9996561263039946,0.02379337352073843,-0.0041026095539317235,0.010230987940697697,0.005771518837718759,0.0020097429413135737,5916.24992091389
1680662062721066713,116,1680662062721066713,camera_1,122,0,0.32039550286475527,0.2988052288443994,3.7923818643110367,-0.9996523262586811,0.023484439985262822,-0.004714718867152955,0.011021756220763396,0.004575902785290964,0.0015939526193168908,5913.92702407192
1680662062730632781,117,1680662062730632781,camera_1,123,0,0.3204315065807596,0.29879580573522074,3.792379190012777,0.9996823093365425,-0.024107289744909804,0.001742473646704948,-0.007147220879676424,0.007573080612928607,0.0026381453897215646,5914.320145790056
1680662062741374969,118,1680662062741374969,camera_1,124,0,0.3205160615751728,0.2988658494278482,3.7935086639474638,0.9996661487027372,-0.02367646426166438,0.005661482452597887,-0.00865816345088922,0.01092983344278764,0.00380948514486954,5913.150043696282
1680662062750785827,119,1680662062750785827,camera_1,125,0,0.32048815109468387,0.2988442023108767,3.793255001393832,0.9996860148084687,-0.023955820278040045,0.003611623543760011,-0.006398956676401918,0.009292538423324004,0.003238672546048034,5913.886437285164
1680662062760913372,120,1680662062760913372,camera_1,126,0,0.3203516655983971,0.29874343345429416,3.791855779974955,-0.999664084237812,0.023821178517099532,-0.0007304150915302554,0.010185118203902964,0.004742496650578687,0.0016515889358804604,5912.647328801221
1680662062771206617,121,1680662062771206617,camera_1,127,0,0.3204774631671446,0.2988329498037278,3.7930231120660247,-0.9996661772292742,0.023904985804334773,-0.004054900666066911,0.00892432283661803,0.0067762908329314095,0.0023613904688307786,5913.053845381189
1680662062781536102,122,1680662062781536102,camera_1,128,0,0.3204616534835446,0.2988030475570583,3.79274618624699,0.9996856769185558,-0.024035060663745698,0.0009903943272445543,-0.007062743224498698,0.009392192383529618,0.0032726495672438564,5912.542310132236
1680662062790411710,123,1680662062790411710,camera_1,129,0,0.3205344761619662,0.2988876490289525,3.79377234477926,0.9996594569846716,-0.023793134441027083,0.006307717431041289,-0.008664266581363794,0.007429988898365991,0.00259010455158979,5912.862217966235
1680662062799741268,124,1680662062799741268,camera_1,130,0,0.32048737629875773,0.29882678432969534,3.793034100247905,0.9996718883066421,-0.023656335551768506,0.0052979926319507336,-0.008271927935283441,0.006575890089152381,0.0022914913438202827,5914.601772761901
1680662062811088562,125,1680662062811088562,camera_1,131,0,0.32044213529087534,0.298807373457818,3.7927521951113228,-0.9996617630182939,0.023691230737896918,-0.004625612650398594,0.009679300227225717,0.0051893947274948005,0.001808082350632325,5913.806102308561
1680662062821447134,126,1680662062821447134,camera_1,132,0,0.32031943711203986,0.29872442781038,3.791368884803463,-0.9996645768776167,0.02365770227714555,-0.001866014467184129,0.010371347505021741,0.005020033539040014,0.0017478139159082847,5915.056538870093
1680662062831815481,127,1680662062831815481,camera_1,133,0,0.3204550122360641,0.29883601531108256,3.7927575879095285,-0.9996610357399092,0.023790111804292382,-0.005369052821236366,0.009111392624294784,0.00659230394376209,0.002296925280115002,5914.85172440013
1680662062841415405,128,1680662062841415405,camera_1,134,0,0.3204358017767875,0.29879515690042346,3.792485636764014,-0.9996731618072539,0.023660625051049867,-0.0036230831421890084,0.008978733375401957,0.006141991776530631,0.0021397021086615293,5914.293584625876
1680662062851350069,129,1680662062851350069,camera_1,135,0,0.3204030582284391,0.29878537540762085,3.7921478350282953,0.9996470973270231,-0.02366286732027774,0.004349527505838478,-0.011261932619063051,0.008904230875486974,0.0031013175178384697,5914.110070393712
1680662062861204624,130,1680662062861204624,camera_1,136,0,0.32036024119318096,0.2987605660301266,3.79176011373373,-0.999665109357587,0.02375885789130213,-0.001706717436676418,0.01011300748421511,0.004459371179109439,0.0015528943116114983,5913.89182800619
1680662062871279478,131,1680662062871279478,camera_1,137,0,0.3204283205892999,0.2988621905266521,3.792797607118332,-0.9996494617840437,0.02354188410746466,-0.006388492674277437,0.010291764129305369,0.005123305458255345,0.001785060797632574,5914.640783379261
1680662062881413459,132,1680662062881413459,camera_1,138,0,0.3203831507802625,0.29879074964831,3.792054900935695,-0.9996612032499875,0.02370485217772763,-0.0015757481200385762,0.01063370668588837,0.004914210268907482,0.00171153985935304,5912.416927243578
1680662062891562938,133,1680662062891562938,camera_1,139,0,0.3203791860384248,0.2988134396171733,3.7921780242102727,0.999645880839849,-0.023582201303929285,0.0048823073345213505,-0.011320590827105943,0.006507648889964912,0.0022666521832394597,5914.438099656431
1680662062901477098,134,1680662062901477098,camera_1,140,0,0.32037100441889715,0.29882203123628504,3.7921525671271334,0.9996309270490891,-0.02361317121554878,0.006605262573898057,-0.011696082183955127,0.005726373856305145,0.0019944740566328225,5915.646506834077
1680662062911635160,135,1680662062911635160,camera_1,141,0,0.3204603607847755,0.2989166927521123,3.7932159022497354,-0.9996427419170991,0.023617330025152327,-0.005910853468139721,0.011030506163605552,0.005968789431790356,0.0020801142818563574,5912.315387081644
1680662062921340942,136,1680662062921340942,camera_1,142,0,0.32048885950411193,0.2989494799281218,3.7936161554323187,-0.9996423250831549,0.023801965846935752,-0.005147711163825965,0.011053931153182353,0.004240160302288132,0.0014779810057338587,5910.411601980101
1680662062931366443,137,1680662062931366443,camera_1,143,0,0.3203458969061449,0.29880381713717263,3.791756572472289,-0.9996439715344918,0.023633462508306953,-0.004259352222070728,0.01162959772584523,0.005710819277737755,0.0019886884202507827,5914.926350596998
1680662062941531419,138,1680662062941531419,camera_1,144,0,0.32048260137267437,0.29891058133775605,3.7932462244670178,-0.9996652720157917,0.02383154865760965,-0.0021287066112646268,0.009842246813430263,0.006141273392131552,0.002140328770875293,5909.857609292726
1680662062951619863,139,1680662062951619863,camera_1,145,0,0.320391084242177,0.2988350055812202,3.792157309190471,-0.9996579509275162,0.02377253045333858,-0.0028569326005210634,0.010520735685349314,0.006490066840342479,0.0022605948377885593,5913.349480586126
1680662062960065603,140,1680662062960065603,camera_1,146,0,0.3204691546509273,0.2989355449768685,3.7932481519502326,-0.9996580845204596,0.0237640136550994,-0.004636147123519677,0.009873796014468698,0.005015109058149392,0.0017477867938581924,5912.072245603137
1680662062970929622,141,1680662062970929622,camera_1,147,0,0.32041694814192107,0.2988761375850674,3.7927464555571566,-0.999609150669778,0.02352058969548057,-0.007497973941131686,0.013118999367351124,0.005680813723301981,0.001979280050768578,5913.267897929937
1680662062981210470,142,1680662062981210470,camera_1,148,0,0.32034875286957637,0.2988128844694661,3.791889010036043,-0.9996466019349588,0.02372772373653141,-0.005285196736797803,0.010757930173893175,0.004927728383336216,0.0017161639928471551,5916.145882906278
1680662062991356134,143,1680662062991356134,camera_1,149,0,0.32043852618893387,0.2989174192176558,3.7931140913112933,0.999618794368873,-0.023383038516963824,0.006748092227800998,-0.013036974553938768,0.00585177244283841,0.002039201799450671,5911.592557389754
1680662063001995801,144,1680662063001995801,camera_1,150,0,0.32040948857988183,0.2988458452638204,3.7926072079363555,-0.9996449831553784,0.023727752052588178,-0.004371125861446332,0.011304631507382906,0.005835739058966283,0.002033081066887663,5912.680861730826
1680662063011385679,145,1680662063011385679,camera_1,151,0,0.32045097164303443,0.2988644262153547,3.7927228605639005,-0.9996579807398028,0.02367665225166829,-0.004359878540299631,0.010214163719446336,0.00755724164264393,0.002633094446367667,5913.175255445591
1680662063021184682,146,1680662063021184682,camera_1,152,0,0.3203472805491346,0.29878542424165255,3.791704231782063,-0.9996635798901179,0.02388306525128163,-0.0009841130998767722,0.010067658957453623,0.008984570325992536,0.003128919510169896,5913.406466543383
1680662063031320095,147,1680662063031320095,camera_1,153,0,0.3203725388615081,0.2988473423599363,3.7923195718658578,-0.999630666832279,0.023543118517254373,-0.005766947949665235,0.012287953868800053,0.005693497387255775,0.001983306917202563,5913.915074760445
1680662063041474819,148,1680662063041474819,camera_1,154,0,0.32050111210739013,0.2989473709049167,3.793618261189411,-0.9996356304390944,0.0234974861485702,-0.006865371564278244,0.01137282614905154,0.00678523710303125,0.0023651913117251054,5911.549376749317
1680662063051600456,149,1680662063051600456,camera_1,155,0,0.320431040334423,0.2988651953998292,3.7926644314516835,-0.9996682585643678,0.023906224643585734,-0.0034484173120509997,0.008942799350133668,0.0055855241662357,0.0019460209362825455,5913.598708075413
1680662063061618089,150,1680662063061618089,camera_1,156,0,0.3204326768880956,0.2988682920960577,3.7929102018750562,-0.9996544734833182,0.023640255774281724,-0.004991591378340259,0.01035161664806429,0.004788865207956405,0.0016686207222413386,5913.075104214483
1680662063071664333,151,1680662063071664333,camera_1,157,0,0.32031806087378095,0.2987815268011053,3.7917527109471174,-0.9996553416287008,0.023864353238564198,-0.0013479878900809962,0.010856957509288289,0.005813465457322309,0.002024520014810377,5912.993079306328
1680662063081501960,152,1680662063081501960,camera_1,158,0,0.3204670987437077,0.2988737479606973,3.7931209943684157,-0.9996720310502446,0.023870311387426516,-0.0034853497031052966,0.008595982061009852,0.00709409795308602,0.00247227243483349,5912.503698246436
1680662063091625452,153,1680662063091625452,camera_1,159,0,0.3203649619392984,0.2988043671292787,3.7920017047115673,0.999616804868171,-0.023567514011297072,0.004973678356399495,-0.013641049522800004,0.006559653909789632,0.00228445214085156,5913.03019730159
1680662063101512908,154,1680662063101512908,camera_1,160,0,0.32045397853713176,0.29890827647051804,3.7931728938411986,0.9996244083776675,-0.023378822906157774,0.007615483671518979,-0.012102777514660962,0.005882692250452237,0.0020500439351506076,5912.927243264565
1680662063111560344,155,1680662063111560344,camera_1,161,0,0.32046651791301656,0.29889979782309306,3.793271137403881,0.9996692294602243,-0.023875933575122903,0.004140582244339592,-0.008615511882402236,0.007471786098903976,0.0026039865611213004,5912.612217418096
1680662063121536016,156,1680662063121536016,camera_1,162,0,0.320410836690887,0.2988648968893383,3.7926344082005468,-0.9996464359764025,0.023658750646207444,-0.005438705957409921,0.010848365547200879,0.006364750333887059,0.002217459947523795,5913.886689089937
1680662063131460428,157,1680662063131460428,camera_1,163,0,0.32041018391479004,0.2988530224858664,3.792551084433631,-0.999636223559572,0.02362311882902478,-0.00624714545401376,0.01141674112973934,0.0068447124685917515,0.002384576700030709,5914.339040867459
1680662063141528844,158,1680662063141528844,camera_1,164,0,0.3204055758015328,0.2988422035179649,3.792415309263777,0.9996492786939168,-0.023705212492540536,0.005066768171525411,-0.010663506351626781,0.006518306930956896,0.0022706442124590847,5914.398399411411
1680662063150257110,159,1680662063150257110,camera_1,165,0,0.32042510973355887,0.2988911295009324,3.7927975422075484,-0.9996488794270886,0.023762921033409972,-0.004984717555813762,0.010611033644983095,0.005500324248714605,0.001916437055834445,5913.181874299484
1680662063159043312,160,1680662063159043312,camera_1,166,0,0.3204092930212477,0.2989068591262078,3.7927208982852707,-0.9996182706484242,0.02349791438085082,-0.007724466926145457,0.012308274302715224,0.004025698366604047,0.0014025992947763186,5914.223008337432
1680662063171034574,161,1680662063171034574,camera_1,167,0,0.32044985236986423,0.29892931947071705,3.7930317438985144,-0.99967753762761,0.023709228361486912,-0.004146612939329598,0.00809313625442309,0.006924340941623086,0.0024129876707853514,5913.727732621133
1680662063181376457,162,1680662063181376457,camera_1,168,0,0.3204723623099416,0.2989940347329009,3.7935666507513575,-0.9996116852613831,0.023282995537068932,-0.008547676101668735,0.012701103927592688,0.004152332054218277,0.0014473494087053848,5911.883137755563
1680662063191409111,163,1680662063191409111,camera_1,169,0,0.3204381720350527,0.2989513032559589,3.792953166967029,0.9996545721088891,-0.023752284177960697,0.005829295191414511,-0.009622098299992327,0.005661178995069349,0.0019726083224730906,5914.19598487986
1680662063201290607,164,1680662063201290607,camera_1,170,0,0.320472150559683,0.2989703963580874,3.793297650768735,0.9996667369288892,-0.023811019146915236,0.004300096133826172,-0.008997756296566172,0.0054888625963940285,0.001912892592801017,5912.31613449997
1680662063211350440,165,1680662063211350440,camera_1,171,0,0.3204103098027451,0.2989438117128502,3.792654483210852,-0.999598420235599,0.023459210579497007,-0.004986785148723731,0.015092901489186608,0.0048087222276080865,0.0016753297458183788,5909.6094477041615
1680662063221269130,166,1680662063221269130,camera_1,172,0,0.320427666614408,0.2989481091584715,3.7927649907240837,0.9996317231266449,-0.02350472466573451,0.006146470662222476,-0.012089951846111375,0.007989325229573296,0.0027835810127010293,5912.959452829728
1680662063231353998,167,1680662063231353998,camera_1,173,0,0.32045960633219117,0.29899821675633786,3.7932519069459807,-0.9996500079517445,0.023743642877629863,-0.006179501634401438,0.009895189969233541,0.005160940756468335,0.001798602784419583,5913.3220242903935
1680662063241373538,168,1680662063241373538,camera_1,174,0,0.32040177151578925,0.2989651148573711,3.792665881220948,0.9996525379402285,-0.0234741148919077,0.005707791451520571,-0.010544687593647155,0.00585653438247391,0.0020403331742068695,5914.2192474845215
1680662063251196622,169,1680662063251196622,camera_1,175,0,0.32047735245982395,0.2990075137836131,3.7933414295822954,-0.9996388223951118,0.023707199566440233,-0.006288356298729808,0.010984080493672159,0.004691247046139324,0.001634975185586152,5912.215813462388
1680662063261218070,170,1680662063261218070,camera_1,176,0,0.32030581199678404,0.29886035703984254,3.7914892160411724,0.9995999090839207,-0.023422954212448357,0.00721535714878178,-0.014118271728318149,0.005005114278901601,0.0017426410723277981,5916.005760177504
1680662063271715641,171,1680662063271715641,camera_1,177,0,0.32041933000606226,0.2989874050985265,3.7928208134692176,-0.9996220034104979,0.02334581595465731,-0.0056936125346007185,0.013356869068001495,0.0018779502133838832,0.0006542787827056444,5911.273138121931
1680662063281482696,172,1680662063281482696,camera_1,178,0,0.3204315691003473,0.298981142510246,3.792875987337622,0.99964364983816,-0.023602078656548387,0.0052589583911090395,-0.011307456742026241,0.0046486504943459295,0.0016196766138587733,5912.530607515368
1680662063291542053,173,1680662063291542053,camera_1,179,0,0.3203916648099852,0.29896856424004653,3.792568967291531,-0.9996271684829336,0.02345430688117724,-0.006242451000300057,0.012508050408629465,0.0051368842578085605,0.0017895544745252022,5913.279500861651
1680662063301527261,174,1680662063301527261,camera_1,180,0,0.320459333588784,0.2990320613766253,3.7932483402735766,-0.9996067210088689,0.023209909374408637,-0.00709135299395163,0.014050485167576078,0.004125040639337385,0.0014375573383902948,5910.451056136515
1680662063311596632,175,1680662063311596632,camera_1,181,0,0.32041510715084787,0.2989862824970645,3.792840571467412,-0.9996205678671473,0.023417852834019322,-0.007105138880299921,0.012642842524446484,0.003112325404799776,0.0010844008025803458,5913.0185069119325
1680662063321391344,176,1680662063321391344,camera_1,182,0,0.3204240581627059,0.2990005536454753,3.7928454701599557,-0.9996524780744659,0.023600139690961742,-0.0038564950450323252,0.011094319813055453,0.002880787433241494,0.0010037333148789792,5911.5737542053685
1680662063331397056,177,1680662063331397056,camera_1,183,0,0.32032756087276987,0.2988766939601338,3.791770939561797,-0.9996123755700355,0.023287535865360462,-0.005471262074367998,0.014242702407325416,0.004896792339422973,0.0017052023523206564,5913.571800194215
1680662063341230630,178,1680662063341230630,camera_1,184,0,0.3204339707020842,0.2989922769255701,3.7931006551818482,-0.9996211786099654,0.023497840016720443,-0.005544699557524985,0.013213897827267403,0.0033377705840393905,0.0011631074184528028,5910.427255434566
1680662063351676702,179,1680662063351676702,camera_1,185,0,0.32042896714172653,0.2989949977127584,3.7928832789814626,-0.9996220106290549,0.02345774982414602,-0.0056526974657938565,0.01317637470906868,0.005011475357605377,0.0017461953897041447,5911.197280852532
1680662063361470937,180,1680662063361470937,camera_1,186,0,0.3202996653135895,0.2988745590088615,3.7914182861571017,-0.9996571053930479,0.023644102286980207,-0.0030167312210879088,0.010841005348933952,0.0045361217416939326,0.0015793134583383173,5915.500341679317
1680662063371624469,181,1680662063371624469,camera_1,187,0,0.3203712448064213,0.2989474769406403,3.792226827947184,-0.9996266667049458,0.02360996933183138,-0.001499996494433703,0.013669183261117039,0.004851898200286087,0.00168996937777102,5909.100894893056
1680662063381418466,182,1680662063381418466,camera_1,188,0,0.32040425153456104,0.298965673681058,3.7926065286311625,-0.9996265838723202,0.02338939943428721,-0.005045373254208452,0.013197462581289673,0.005896576829400146,0.0020542735359804468,5911.533032555944
1680662063391620635,183,1680662063391620635,camera_1,189,0,0.32048954564765725,0.29908122442748614,3.7937080822421443,-0.9995768438091014,0.023350540347112356,-0.008309485982910252,0.015226228319359505,0.0050852391650551,0.0017727524304511104,5908.892292611006
1680662063401413440,184,1680662063401413440,camera_1,190,0,0.3203788830567031,0.29894795883249614,3.792543962780192,-0.9996553954286411,0.023684847437905058,-0.004337070818237376,0.010455056621936503,0.007851996961107943,0.0027355096533272344,5913.518324416191
1680662063411557197,185,1680662063411557197,camera_1,191,0,0.3204091209429372,0.29901867717402697,3.7930996575480216,-0.9996357915001309,0.02364668019074335,-0.004503728424871348,0.012199807299242896,0.0030392237240448594,0.0010590709686045044,5910.448093570301
1680662063421475410,186,1680662063421475410,camera_1,192,0,0.3204744153351337,0.29901747662657346,3.7932528007112367,0.999646723148994,-0.023621315842306888,0.005746628332915703,-0.010744235578205313,0.007557897439255612,0.0026340049409502293,5912.22391876043
1680662063431583166,187,1680662063431583166,camera_1,193,0,0.32045332726696846,0.2990251469561767,3.793338091070648,0.999637154539137,-0.0235515200337761,0.003808046940436665,-0.012505356752038736,0.004217518595396541,0.0014698159898717798,5908.8108716114675
1680662063441475152,188,1680662063441475152,camera_1,194,0,0.320465086304825,0.29901238861165413,3.7932136333973023,-0.9996329817787145,0.02345645082196165,-0.00593206219247123,0.012186356845984389,0.0044088745780754834,0.001536446534244586,5911.275539234806
1680662063451649427,189,1680662063451649427,camera_1,195,0,0.32039465918339144,0.29896017736159974,3.7925175445219463,-0.9996303899484142,0.02353696781532907,-0.004508350611437037,0.012836253830685923,0.004130649358558003,0.001438972682138041,5911.670576155535
1680662063461468696,190,1680662063461468696,camera_1,196,0,0.32050047606762877,0.29905816150926157,3.7936257890108305,0.9996463618083046,-0.02356321086671239,0.005051165761114697,-0.011243315415160604,0.004044267891003983,0.001409670224148207,5910.050781903441
1680662063471597909,191,1680662063471597909,camera_1,197,0,0.3204661690552213,0.2990338258315246,3.7936088063925757,-0.9996455900036659,0.02360942436514933,-0.005978178862094607,0.01074945788688169,0.00422386438731337,0.0014723339705789678,5911.35366695322
1680662063481496810,192,1680662063481496810,camera_1,198,0,0.32041703909060987,0.2989816262573679,3.7928313334375185,-0.9996557644214447,0.023489594587619674,-0.004538207356042975,0.010770156873511951,0.0036353319919726346,0.0012666203576462028,5912.507469005938
1680662063491648912,193,1680662063491648912,camera_1,199,0,0.32047086915484296,0.29903561121261124,3.7935976122345,-0.9996057645318148,0.023361336835103733,-0.006951613329231533,0.013936948308859554,0.004065701759827789,0.0014171717921915479,5909.391913706727
1680662063501514911,194,1680662063501514911,camera_1,200,0,0.32036039614962825,0.2989449636968172,3.7921997656690385,-0.9996405726516484,0.023618996126623024,-0.0033010018970065615,0.012246302181928856,0.002547062853409443,0.0008871170306661118,5912.119582763877
1680662063511431694,195,1680662063511431694,camera_1,201,0,0.32050265524466365,0.29905920118357354,3.793768478781433,0.9996395853147576,-0.023599918762692258,0.006527384091077166,-0.01100620566141881,0.006122834827692714,0.002134398502375158,5911.065200224233
1680662063521512031,196,1680662063521512031,camera_1,202,0,0.32039526269379764,0.29895737739669254,3.7927054711004256,-0.9996222268998476,0.02351997365621919,-0.005920215616536293,0.012929244914309175,0.003712989684572676,0.001293602524164395,5912.236566542416
1680662063531452655,197,1680662063531452655,camera_1,203,0,0.3203748081889485,0.2989166263816587,3.792258667924031,-0.9996329188508214,0.023629282018321845,-0.00302260551865528,0.012905364658326972,0.004436913444806123,0.0015454243748278713,5911.115765441327
1680662063541481733,198,1680662063541481733,camera_1,204,0,0.3204963823514634,0.29904203078382363,3.7939176955123086,-0.9996384332556876,0.023501562949326482,-0.005516712645362,0.011842515722672219,0.0050128689072153065,0.0017475883976912619,5909.085730195626
1680662063551302671,199,1680662063551302671,camera_1,205,0,0.3204048022417953,0.2989618923378924,3.7928152679800733,-0.9996290117851977,0.02349300699142596,-0.004002090017494559,0.013187141287705642,0.0044287776145210955,0.0015431022561346566,5910.017700986121
1680662063561301231,200,1680662063561301231,camera_1,206,0,0.32043134228662035,0.2989658378363709,3.7931014623153576,-0.9996683331839397,0.023639448910717595,-0.003001245129926994,0.009766914155027532,0.0029824568409821954,0.0010392959173972862,5911.169875936119
1680662063571547508,201,1680662063571547508,camera_1,207,0,0.32040742105561487,0.2989367344731714,3.792675033609945,-0.9996441872959454,0.023458454402587033,-0.004341660682919062,0.011931039560118676,0.004985090643458534,0.0017367740667327688,5911.85307217401
1680662063581424951,202,1680662063581424951,camera_1,208,0,0.3203662269479007,0.29891909245048043,3.792319692090758,-0.9996451892321706,0.02359775011900825,-0.0030352517140195866,0.011976188096860036,0.005086059019959066,0.0017716585505663665,5911.766131895539
1680662063591591835,203,1680662063591591835,camera_1,209,0,0.320424466227777,0.2989283304119387,3.7929483165506577,0.9996003098184624,-0.023138160786421655,0.007281433913658614,-0.014519877630917529,0.00694522828416666,0.002420075723988169,5911.1736109142075
1680662063601355791,204,1680662063601355791,camera_1,210,0,0.32040865641516253,0.2989072222203153,3.7928889553163043,-0.9996358053850571,0.023706649160043718,-0.003397211542714455,0.012438260790999564,0.006190531657921383,0.002157079477319791,5909.9621461197985
1680662063611320018,205,1680662063611320018,camera_1,211,0,0.3204137756444519,0.29888235031428484,3.7928185316973586,0.9996379703958664,-0.02365305593681779,0.004575153886347522,-0.011980361204862977,0.004533767300017644,0.0015795904330004292,5911.6261354432245
1680662063621467113,206,1680662063621467113,camera_1,212,0,0.32046338095428584,0.29888330103075667,3.793351204697611,0.99964024864215,-0.023629097168658426,0.004911938822979722,-0.011700936657133848,0.006400496251444565,0.0022306824278586087,5910.519402838312
1680662063631506681,207,1680662063631506681,camera_1,213,0,0.32031445171734974,0.29871187900488366,3.7916454034103326,0.999643797997555,-0.023837122991631488,0.0031362930506257805,-0.011585868910273554,0.007491011961974436,0.0026084228601661566,5914.402718194933
1680662063641324520,208,1680662063641324520,camera_1,214,0,0.3203899445033003,0.29871596375818876,3.79236840543278,-0.9996542441244065,0.023687019680501298,-0.0036225281831521513,0.010825645120684565,0.007720817029621685,0.0026895650143333154,5913.242096284987
1680662063651436567,209,1680662063651436567,camera_1,215,0,0.3203665650337161,0.29866267622452086,3.792133061751552,0.9996729053306999,-0.024080569770093437,0.0015562046367359578,-0.008472705255924166,0.006451050041505368,0.002246971257705798,5914.025747371492
1680662063661253452,210,1680662063661253452,camera_1,216,0,0.32036202783341394,0.2985969460756354,3.792109381518511,-0.9996766019542062,0.024016249608143,-0.0005947851000246813,0.008340113352708754,0.006406151180271991,0.00223136663317325,5913.332645897055
1680662063671553611,211,1680662063671553611,camera_1,217,0,0.32025931924731366,0.29843817634649056,3.7907259102025703,-0.9996697866755455,0.023936832357446345,0.0006694761203813897,0.009321881059381462,0.00812829354981659,0.002829220139572773,5915.646766209568
1680662063691567659,212,1680662063691567659,camera_1,219,0,0.32030538078058346,0.2983299723514844,3.79108298346268,0.9996372966380934,-0.023747134043340477,0.002527143146753386,-0.012448387137616436,0.013111493535689078,0.004564371480821675,5915.035729721945
1680662063701330423,213,1680662063701330423,camera_1,220,0,0.32028815425327345,0.29826882301287505,3.7908621812266725,0.9996453528948479,-0.023751844106041482,0.0010346967316888958,-0.011997822301186907,0.010807933158503147,0.003761999205858304,5914.74860467494
1680662063711635351,214,1680662063711635351,camera_1,221,0,0.32024477270372625,0.2981762923685691,3.7903565778530135,0.9996175441318814,-0.023420880799681375,0.0029424448280156884,-0.014407283739389765,0.012727173663733991,0.004428867193954757,5915.977258053372
1680662063721401929,215,1680662063721401929,camera_1,222,0,0.32030611743890824,0.2981910094407105,3.7912954338373446,0.9996316988138952,-0.02365969714780969,0.002978127077340419,-0.012954389851748594,0.00891002123535145,0.003101882576355563,5914.469773605175
1680662063731359243,216,1680662063731359243,camera_1,223,0,0.3202605921262395,0.2981405284851768,3.7908061295784328,0.999644183045784,-0.023808494396644612,0.000425932415775203,-0.012020044878015808,0.010560162412730278,0.0036756091897705285,5914.434746207321
1680662063742064476,217,1680662063742064476,camera_1,224,0,0.32032155108834753,0.2981730313037889,3.7913736923012116,0.9996219308079077,-0.023542424164619723,0.0016742762416678387,-0.014104839998745011,0.013863943313481286,0.004826969799839768,5911.987135949602
1680662063750672101,218,1680662063750672101,camera_1,225,0,0.32017273108074784,0.2980547129409557,3.789834828085102,0.9996262425819071,-0.02363196959608888,-0.000346035078445622,-0.0137399204623687,0.008026187031646259,0.002792045313926952,5915.200294320241
1680662063760147571,219,1680662063760147571,camera_1,226,0,0.3203038772739777,0.2981816295409458,3.7912980461409465,0.999603726790178,-0.0234106084526603,0.005609470476158635,-0.01458994996704556,0.010437736887979554,0.0036338300232401912,5915.2873286540835
1680662063769971370,220,1680662063769971370,camera_1,227,0,0.320248795790165,0.29814271697974265,3.790410768849982,-0.9996402996097739,0.02381311639814431,-2.1841233324669484e-05,0.012337196053013906,0.013544270557758866,0.004713609972661978,5914.942656304223
1680662063781015396,221,1680662063781015396,camera_1,228,0,0.3201570184308428,0.29804691950517664,3.7892101895847015,0.9996269723121307,-0.023568471431026243,-0.0013219381724677338,-0.013736661164773234,0.01146347471876652,0.003986690059692729,5916.097876214251
1680662063791231393,222,1680662063791231393,camera_1,229,0,0.32024129589619127,0.29816608874958983,3.7902853420345535,-0.99961759522482,0.023389985841785012,-0.0030121627687367493,0.014439485957744101,0.010787543542392086,0.003753731246816184,5916.231830577191
1680662063799084901,223,1680662063799084901,camera_1,230,0,0.3202809836776581,0.29822912672932184,3.790677571375177,0.9996076034684508,-0.023431176526086235,0.003752304999687601,-0.01488419503544526,0.012156187342043268,0.004230800259508134,5915.2338723767325
1680662063808472156,224,1680662063808472156,camera_1,231,0,0.3201897389577099,0.2981338004317551,3.7894643920835414,-0.9996483263970869,0.023866616280571604,-0.0005204070845963531,0.011547178672105765,0.008246538891398814,0.002868310533552942,5918.997515340743
1680662063818829774,225,1680662063818829774,camera_1,232,0,0.3202469116124705,0.29817619349832186,3.789958825199196,0.9996411396378995,-0.024015083677651462,-0.0014310707565362262,-0.011782178741083674,0.014008097670739517,0.004873570256520648,5915.3079655779275
1680662063828735589,226,1680662063828735589,camera_1,233,0,0.3202940665608197,0.2982459363966086,3.7908306307945785,0.9996466493512617,-0.0236505878903282,0.0015346348654421654,-0.012036238160954726,0.013583839059720049,0.004728149664402105,5915.290640393156
1680662063839382886,227,1680662063839382886,camera_1,234,0,0.32036740993874097,0.29832280868302186,3.7915049098983475,0.9996491800893079,-0.023574683337584373,0.00436842529235071,-0.011254684036977445,0.012310824302403489,0.004286509077609902,5916.393504556154
1680662063850978851,228,1680662063850978851,camera_1,235,0,0.3202611543871661,0.2982712043357654,3.790496485041516,0.999616605160204,-0.023696915658959424,0.0033212869989307247,-0.013930826569583183,0.011633351357886568,0.004048390658714343,5916.265712117368
